uniorb/output/strategy_1/Camera/Camera_KinoSat_111502.txt

KinoSat_111502
-------------------------
    Access    *     Start Time (UTCG)     *     Stop Time (UTCG)  *   Duration (s) *   Data (Mbytes)
         1   01 Jun 2027 03:48:22.715   01 Jun 2027 03:50:30.260           127.545         63772.500
         2   01 Jun 2027 03:51:28.686   01 Jun 2027 03:51:51.442            22.756         11378.000
         3   01 Jun 2027 03:51:55.760   01 Jun 2027 03:51:59.529             3.769          1884.500
         4   01 Jun 2027 03:52:32.163   01 Jun 2027 03:52:37.137             4.974          2487.000
         5   01 Jun 2027 03:53:21.835   01 Jun 2027 03:53:25.628             3.793          1896.500
         6   01 Jun 2027 03:55:12.502   01 Jun 2027 03:55:47.197            34.695         17347.500
         7   01 Jun 2027 05:13:35.046   01 Jun 2027 05:13:59.083            24.037         12018.500
         8   01 Jun 2027 05:14:31.492   01 Jun 2027 05:14:52.956            21.464         10732.000
         9   01 Jun 2027 05:25:06.474   01 Jun 2027 05:26:05.204            58.730         29365.000
        10   01 Jun 2027 06:47:45.216   01 Jun 2027 06:48:43.713            58.497         29248.500
        11   01 Jun 2027 06:49:20.841   01 Jun 2027 06:49:36.121            15.280          7640.000
        12   01 Jun 2027 06:49:38.368   01 Jun 2027 06:49:38.368             0.000             0.000
        13   01 Jun 2027 06:51:38.676   01 Jun 2027 06:51:49.504            10.828          5414.000
        14   01 Jun 2027 08:22:53.278   01 Jun 2027 08:24:05.481            72.203         36101.500
        15   01 Jun 2027 08:24:36.152   01 Jun 2027 08:24:52.797            16.645          8322.500
        16   01 Jun 2027 08:26:06.026   01 Jun 2027 08:26:40.023            33.997         16998.500
        17   01 Jun 2027 10:01:41.989   01 Jun 2027 10:02:54.588            72.599         36299.500
        18   01 Jun 2027 10:06:16.694   01 Jun 2027 10:06:32.615            15.921          7960.500
        19   01 Jun 2027 10:07:05.267   01 Jun 2027 10:07:05.423             0.156            78.000
        20   01 Jun 2027 11:36:40.315   01 Jun 2027 11:37:23.598            43.283         21641.500
        21   01 Jun 2027 11:39:19.059   01 Jun 2027 11:40:21.252            62.193         31096.500
        22   01 Jun 2027 11:40:52.355   01 Jun 2027 11:41:12.378            20.023         10011.500
        23   01 Jun 2027 11:41:25.533   01 Jun 2027 11:41:52.941            27.408         13704.000
        24   01 Jun 2027 11:42:36.073   01 Jun 2027 11:42:52.549            16.476          8238.000
        25   02 Jun 2027 04:00:38.470   02 Jun 2027 04:02:21.028           102.558         51279.000
        26   02 Jun 2027 04:02:57.929   02 Jun 2027 04:03:03.310             5.381          2690.500
        27   02 Jun 2027 04:04:28.491   02 Jun 2027 04:04:39.937            11.446          5723.000
        28   02 Jun 2027 04:05:14.552   02 Jun 2027 04:05:36.843            22.291         11145.500
        29   02 Jun 2027 04:07:26.600   02 Jun 2027 04:07:30.284             3.684          1842.000
        30   02 Jun 2027 05:24:52.419   02 Jun 2027 05:25:41.464            49.045         24522.500
        31   02 Jun 2027 05:26:18.295   02 Jun 2027 05:26:39.730            21.435         10717.500
        32   02 Jun 2027 05:37:05.628   02 Jun 2027 05:37:30.655            25.027         12513.500
        33   02 Jun 2027 06:59:20.910   02 Jun 2027 07:00:27.282            66.372         33186.000
        34   02 Jun 2027 07:01:16.409   02 Jun 2027 07:01:49.531            33.122         16561.000
        35   02 Jun 2027 07:04:39.118   02 Jun 2027 07:04:39.262             0.144            72.000
        36   02 Jun 2027 08:34:13.516   02 Jun 2027 08:35:54.267           100.751         50375.500
        37   02 Jun 2027 08:36:35.888   02 Jun 2027 08:36:37.621             1.733           866.500
        38   02 Jun 2027 08:40:56.204   02 Jun 2027 08:40:56.204             0.000             0.000
        39   02 Jun 2027 10:11:48.015   02 Jun 2027 10:13:20.229            92.214         46107.000
        40   02 Jun 2027 10:14:33.438   02 Jun 2027 10:14:53.003            19.565          9782.500
        41   02 Jun 2027 10:16:19.560   02 Jun 2027 10:17:05.065            45.505         22752.500
        42   02 Jun 2027 10:17:45.820   02 Jun 2027 10:18:17.564            31.744         15872.000
        43   02 Jun 2027 11:48:30.790   02 Jun 2027 11:48:48.543            17.753          8876.500
        44   02 Jun 2027 11:49:28.377   02 Jun 2027 11:50:07.234            38.857         19428.500
        45   02 Jun 2027 11:52:02.954   02 Jun 2027 11:52:55.979            53.025         26512.500
        46   02 Jun 2027 11:54:51.851   02 Jun 2027 11:55:09.395            17.544          8772.000
        47   03 Jun 2027 04:12:43.394   03 Jun 2027 04:14:00.314            76.920         38460.000
        48   03 Jun 2027 04:14:54.668   03 Jun 2027 04:14:57.704             3.036          1518.000
        49   03 Jun 2027 04:15:58.940   03 Jun 2027 04:16:15.416            16.476          8238.000
        50   03 Jun 2027 04:17:11.827   03 Jun 2027 04:17:23.284            11.457          5728.500
        51   03 Jun 2027 05:36:58.393   03 Jun 2027 05:38:41.452           103.059         51529.500
        52   03 Jun 2027 05:49:26.836   03 Jun 2027 05:49:32.894             6.058          3029.000
        53   03 Jun 2027 07:10:49.399   03 Jun 2027 07:12:12.540            83.141         41570.500
        54   03 Jun 2027 07:12:51.980   03 Jun 2027 07:13:28.053            36.073         18036.500
        55   03 Jun 2027 07:13:48.225   03 Jun 2027 07:14:14.633            26.408         13204.000
        56   03 Jun 2027 08:45:43.637   03 Jun 2027 08:47:46.777           123.140         61570.000
        57   03 Jun 2027 08:47:59.423   03 Jun 2027 08:48:10.705            11.282          5641.000
        58   03 Jun 2027 08:51:38.139   03 Jun 2027 08:51:38.139             0.000             0.000
        59   03 Jun 2027 08:53:09.463   03 Jun 2027 08:53:10.357             0.894           447.000
        60   03 Jun 2027 08:54:42.034   03 Jun 2027 08:54:48.739             6.705          3352.500
        61   03 Jun 2027 10:23:42.812   03 Jun 2027 10:24:01.414            18.602          9301.000
        62   03 Jun 2027 10:26:40.886   03 Jun 2027 10:26:40.886             0.000             0.000
        63   03 Jun 2027 10:27:59.689   03 Jun 2027 10:28:31.124            31.435         15717.500
        64   03 Jun 2027 10:29:28.961   03 Jun 2027 10:30:02.785            33.824         16320.687
        65   03 Jun 2027 10:30:11.490   03 Jun 2027 10:30:15.930             4.440            46.844
        66   03 Jun 2027 10:30:25.318   03 Jun 2027 10:30:28.989             3.671           293.375
        67   03 Jun 2027 10:30:43.405   03 Jun 2027 10:30:44.299             0.894           439.781
        68   04 Jun 2027 04:25:06.002   04 Jun 2027 04:26:18.332            72.330         36165.000
        69   04 Jun 2027 04:28:34.653   04 Jun 2027 04:28:51.858            17.205          8602.500
        70   04 Jun 2027 04:29:17.557   04 Jun 2027 04:29:52.996            35.439         17719.500
        71   04 Jun 2027 05:48:54.422   04 Jun 2027 05:50:03.488            69.066         34533.000
        72   04 Jun 2027 05:51:08.618   04 Jun 2027 05:51:08.618             0.000             0.000
        73   04 Jun 2027 07:25:06.921   04 Jun 2027 07:27:17.995           131.074         65537.000
        74   04 Jun 2027 07:27:41.450   04 Jun 2027 07:27:46.585             5.135          2567.500
        75   04 Jun 2027 08:58:38.674   04 Jun 2027 08:59:09.382            30.708         15115.562
        76   04 Jun 2027 08:59:24.977   04 Jun 2027 08:59:25.352             0.375           100.406
        77   04 Jun 2027 08:59:44.366   04 Jun 2027 08:59:46.657             2.291           430.625
        78   04 Jun 2027 09:00:21.991   04 Jun 2027 09:00:21.991             0.000             0.000
        79   04 Jun 2027 09:00:31.146   04 Jun 2027 09:00:35.059             3.913          1095.125
        80   04 Jun 2027 09:01:53.619   04 Jun 2027 09:01:58.979             5.360          1570.656
        81   04 Jun 2027 09:05:12.808   04 Jun 2027 09:05:25.476            12.668          5808.562
        82   04 Jun 2027 09:05:46.555   04 Jun 2027 09:05:46.555             0.000             0.000
        83   04 Jun 2027 09:06:19.999   04 Jun 2027 09:06:23.858             3.859          1655.812
        84   04 Jun 2027 09:06:31.507   04 Jun 2027 09:06:32.367             0.860            14.156
        85   04 Jun 2027 09:07:13.221   04 Jun 2027 09:07:13.987             0.766           383.000
        86   04 Jun 2027 10:36:04.681   04 Jun 2027 10:36:24.754            20.073          7144.938
        87   04 Jun 2027 10:36:42.973   04 Jun 2027 10:36:43.797             0.824            89.219
        88   04 Jun 2027 10:37:05.703   04 Jun 2027 10:37:07.331             1.628           146.406
        89   04 Jun 2027 10:38:24.051   04 Jun 2027 10:38:28.912             4.861          1567.094
        90   04 Jun 2027 10:38:36.220   04 Jun 2027 10:38:38.079             1.859           174.469
        91   04 Jun 2027 10:39:26.385   04 Jun 2027 10:39:30.770             4.385          1509.562
        92   04 Jun 2027 10:39:43.196   04 Jun 2027 10:39:53.069             9.873           214.125
        93   04 Jun 2027 10:39:56.889   04 Jun 2027 10:40:02.616             5.727           119.375
        94   04 Jun 2027 10:40:22.466   04 Jun 2027 10:40:23.996             1.530           109.500
        95   04 Jun 2027 10:40:35.028   04 Jun 2027 10:40:35.595             0.567           170.625
        96   04 Jun 2027 10:40:48.447   04 Jun 2027 10:40:52.133             3.686           401.625
        97   04 Jun 2027 10:41:13.310   04 Jun 2027 10:41:14.752             1.442           312.656
        98   04 Jun 2027 10:41:16.820   04 Jun 2027 10:41:17.703             0.883            64.625
        99   04 Jun 2027 10:41:31.096   04 Jun 2027 10:41:31.728             0.632            57.156
       100   04 Jun 2027 10:41:37.910   04 Jun 2027 10:41:38.689             0.779            94.000
       101   04 Jun 2027 10:41:42.452   04 Jun 2027 10:41:43.994             1.542           117.594
       102   04 Jun 2027 10:42:26.713   04 Jun 2027 10:42:31.074             4.361          1065.094
       103   04 Jun 2027 10:42:36.903   04 Jun 2027 10:42:38.648             1.745           182.156
       104   04 Jun 2027 10:42:45.553   04 Jun 2027 10:42:47.109             1.556           196.969
       105   05 Jun 2027 03:00:41.915   05 Jun 2027 03:00:54.009            12.094          6047.000
       106   05 Jun 2027 03:01:25.806   05 Jun 2027 03:01:31.147             5.341          2670.500
       107   05 Jun 2027 03:01:56.221   05 Jun 2027 03:02:23.584            27.363         13681.500
       108   05 Jun 2027 03:03:22.700   05 Jun 2027 03:03:30.677             7.977          3988.500
       109   05 Jun 2027 03:04:15.482   05 Jun 2027 03:04:35.379            19.897          9948.500
       110   05 Jun 2027 04:37:06.355   05 Jun 2027 04:38:19.123            72.768         36384.000
       111   05 Jun 2027 04:38:26.350   05 Jun 2027 04:38:31.459             5.109          2554.500
       112   05 Jun 2027 04:38:52.855   05 Jun 2027 04:38:54.717             1.862           931.000
       113   05 Jun 2027 04:39:51.761   05 Jun 2027 04:39:52.883             1.122           561.000
       114   05 Jun 2027 04:40:45.225   05 Jun 2027 04:41:00.202            14.977          7488.500
       115   05 Jun 2027 06:00:46.167   05 Jun 2027 06:02:04.664            78.497         39248.500
       116   05 Jun 2027 07:37:10.094   05 Jun 2027 07:38:59.834           109.740         54870.000
       117   05 Jun 2027 07:40:38.039   05 Jun 2027 07:40:42.998             4.959          2479.500
       118   05 Jun 2027 09:11:16.208   05 Jun 2027 09:11:35.513            19.305          6282.938
       119   05 Jun 2027 09:13:06.185   05 Jun 2027 09:13:14.067             7.882          2184.469
       120   05 Jun 2027 09:14:16.661   05 Jun 2027 09:14:20.230             3.569          1714.000
       121   05 Jun 2027 09:14:20.750   05 Jun 2027 09:14:25.709             4.959            16.250
       122   05 Jun 2027 09:15:35.911   05 Jun 2027 09:15:40.361             4.450          1904.406
       123   05 Jun 2027 09:15:55.857   05 Jun 2027 09:15:56.384             0.527           263.500
       124   05 Jun 2027 09:16:23.057   05 Jun 2027 09:16:25.392             2.335          1036.531
       125   05 Jun 2027 09:17:39.052   05 Jun 2027 09:17:45.300             6.248          2293.844
       126   05 Jun 2027 09:17:59.450   05 Jun 2027 09:18:04.767             5.317           421.563
       127   05 Jun 2027 09:18:58.822   05 Jun 2027 09:19:02.039             3.217          1608.500
       128   05 Jun 2027 09:19:09.190   05 Jun 2027 09:19:11.766             2.576           302.437
       129   05 Jun 2027 10:48:16.497   05 Jun 2027 10:48:32.288            15.791          7831.719
       130   05 Jun 2027 10:49:01.612   05 Jun 2027 10:49:05.506             3.894            33.813
       131   05 Jun 2027 10:49:23.125   05 Jun 2027 10:49:32.333             9.208           276.875
       132   05 Jun 2027 10:50:33.481   05 Jun 2027 10:50:37.537             4.056           766.812
       133   05 Jun 2027 10:51:00.577   05 Jun 2027 10:51:02.842             2.265           720.000
       134   05 Jun 2027 10:51:30.395   05 Jun 2027 10:51:33.809             3.414           692.062
       135   05 Jun 2027 10:53:00.660   05 Jun 2027 10:53:05.744             5.084          1946.781
       136   05 Jun 2027 10:53:13.637   05 Jun 2027 10:53:20.090             6.453           127.719
       137   05 Jun 2027 10:53:28.579   05 Jun 2027 10:53:29.830             1.251           265.281
       138   05 Jun 2027 10:54:28.473   05 Jun 2027 10:54:32.667             4.194          1832.594
       139   05 Jun 2027 10:54:48.639   05 Jun 2027 10:54:50.921             2.282           499.125
       140   06 Jun 2027 03:11:13.593   06 Jun 2027 03:12:15.358            61.765         30882.500
       141   06 Jun 2027 03:12:21.833   06 Jun 2027 03:12:25.600             3.767          1883.500
       142   06 Jun 2027 03:13:22.055   06 Jun 2027 03:13:43.830            21.775         10887.500
       143   06 Jun 2027 03:13:47.994   06 Jun 2027 03:13:48.313             0.319           159.500
       144   06 Jun 2027 03:15:19.081   06 Jun 2027 03:15:28.133             9.052          4526.000
       145   06 Jun 2027 03:16:46.351   06 Jun 2027 03:16:49.749             3.398          1699.000
       146   06 Jun 2027 04:50:19.533   06 Jun 2027 04:51:26.913            67.380         33690.000
       147   06 Jun 2027 04:51:43.808   06 Jun 2027 04:51:47.970             4.162          2081.000
       148   06 Jun 2027 04:51:51.069   06 Jun 2027 04:52:05.127            14.058          7029.000
       149   06 Jun 2027 04:52:47.958   06 Jun 2027 04:52:52.344             4.386          2193.000
       150   06 Jun 2027 04:53:40.053   06 Jun 2027 04:53:52.569            12.516          6258.000
       151   06 Jun 2027 06:12:51.442   06 Jun 2027 06:13:44.445            53.003         26501.500
       152   06 Jun 2027 06:14:45.608   06 Jun 2027 06:14:59.605            13.997          6998.500
       153   06 Jun 2027 07:49:20.671   06 Jun 2027 07:50:19.950            59.279         29639.500
       154   06 Jun 2027 07:51:22.123   06 Jun 2027 07:51:33.220            11.097          4981.500
       155   06 Jun 2027 07:52:27.261   06 Jun 2027 07:52:28.589             1.328           664.000
       156   06 Jun 2027 09:24:57.348   06 Jun 2027 09:25:11.636            14.288          6962.187
       157   06 Jun 2027 09:26:08.574   06 Jun 2027 09:26:18.119             9.545          1469.500
       158   06 Jun 2027 09:29:35.847   06 Jun 2027 09:29:46.514            10.667          5333.500
       159   06 Jun 2027 09:30:30.756   06 Jun 2027 09:30:34.764             4.008          1402.281
       160   06 Jun 2027 09:31:01.456   06 Jun 2027 09:31:03.477             2.021           834.125
       161   06 Jun 2027 09:31:03.646   06 Jun 2027 09:31:03.996             0.350             5.281
       162   06 Jun 2027 09:31:05.807   06 Jun 2027 09:31:06.129             0.322            56.594
       163   06 Jun 2027 11:00:49.380   06 Jun 2027 11:01:02.011            12.631          5928.344
       164   06 Jun 2027 11:01:41.315   06 Jun 2027 11:01:45.880             4.565           768.406
       165   06 Jun 2027 11:02:44.094   06 Jun 2027 11:02:47.608             3.514           984.969
       166   06 Jun 2027 11:03:33.054   06 Jun 2027 11:03:36.162             3.108          1220.563
       167   06 Jun 2027 11:04:52.765   06 Jun 2027 11:04:56.581             3.816          1550.687
       168   06 Jun 2027 11:06:50.153   06 Jun 2027 11:06:59.130             8.977          3549.125
       169   07 Jun 2027 03:23:14.232   07 Jun 2027 03:23:56.709            42.477         21238.500
       170   07 Jun 2027 03:24:19.428   07 Jun 2027 03:25:12.647            53.219         26609.500
       171   07 Jun 2027 03:25:26.033   07 Jun 2027 03:25:28.864             2.831          1415.500
       172   07 Jun 2027 03:26:24.935   07 Jun 2027 03:26:33.613             8.678          4339.000
       173   07 Jun 2027 03:27:07.573   07 Jun 2027 03:27:14.298             6.725          3362.500
       174   07 Jun 2027 05:01:26.518   07 Jun 2027 05:02:04.677            38.159         19079.500
       175   07 Jun 2027 05:02:17.421   07 Jun 2027 05:03:01.036            43.615         21807.500
       176   07 Jun 2027 05:03:20.546   07 Jun 2027 05:03:23.508             2.962          1481.000
       177   07 Jun 2027 05:03:45.301   07 Jun 2027 05:03:48.213             2.912          1456.000
       178   07 Jun 2027 06:24:55.106   07 Jun 2027 06:25:40.532            45.426         22713.000
       179   07 Jun 2027 06:25:48.028   07 Jun 2027 06:26:06.258            18.230          9115.000
       180   07 Jun 2027 06:26:57.754   07 Jun 2027 06:26:57.754             0.000             0.000
       181   07 Jun 2027 06:27:48.057   07 Jun 2027 06:27:49.801             1.744           872.000
       182   07 Jun 2027 08:01:24.083   07 Jun 2027 08:02:34.900            70.817         34767.656
       183   07 Jun 2027 08:03:20.618   07 Jun 2027 08:03:24.105             3.487          1220.906
       184   07 Jun 2027 08:03:33.051   07 Jun 2027 08:03:34.171             1.120           279.563
       185   07 Jun 2027 08:04:00.971   07 Jun 2027 08:04:00.971             0.000             0.000
       186   07 Jun 2027 08:04:46.182   07 Jun 2027 08:04:46.710             0.528           264.000
       187   07 Jun 2027 09:36:35.158   07 Jun 2027 09:36:45.399            10.241          5120.500
       188   07 Jun 2027 09:37:58.522   07 Jun 2027 09:38:07.364             8.842          3138.844
       189   07 Jun 2027 09:38:21.436   07 Jun 2027 09:38:23.038             1.602           375.688
       190   07 Jun 2027 09:39:15.033   07 Jun 2027 09:39:22.463             7.430          1030.750
       191   07 Jun 2027 09:42:56.151   07 Jun 2027 09:43:11.020            14.869          6444.000
       192   07 Jun 2027 11:12:31.669   07 Jun 2027 11:12:53.672            22.003          9028.937
       193   07 Jun 2027 11:13:02.749   07 Jun 2027 11:13:04.761             2.012            63.969
       194   07 Jun 2027 11:13:29.881   07 Jun 2027 11:13:30.703             0.822           308.156
       195   07 Jun 2027 11:14:36.164   07 Jun 2027 11:14:40.749             4.585          1944.562
       196   07 Jun 2027 11:15:07.882   07 Jun 2027 11:15:14.323             6.441           826.437
       197   07 Jun 2027 11:15:42.763   07 Jun 2027 11:15:45.908             3.145           484.156
       198   07 Jun 2027 11:15:47.440   07 Jun 2027 11:15:47.745             0.305            47.875
       199   07 Jun 2027 11:16:25.133   07 Jun 2027 11:16:28.072             2.939           875.125
       200   07 Jun 2027 11:17:10.384   07 Jun 2027 11:17:12.797             2.413          1074.156
       201   07 Jun 2027 11:17:19.726   07 Jun 2027 11:17:31.064            11.338           117.375
       202   07 Jun 2027 11:17:49.661   07 Jun 2027 11:17:53.370             3.709           581.156
       203   07 Jun 2027 11:18:15.488   07 Jun 2027 11:18:16.812             1.324           627.156
       204   07 Jun 2027 11:18:55.306   07 Jun 2027 11:18:56.960             1.654           827.000
       205   08 Jun 2027 03:36:18.996   08 Jun 2027 03:38:10.720           111.724         55862.000
       206   08 Jun 2027 03:38:50.356   08 Jun 2027 03:38:56.246             5.890          2945.000
       207   08 Jun 2027 03:39:23.051   08 Jun 2027 03:39:48.821            25.770         12885.000
       208   08 Jun 2027 03:41:13.923   08 Jun 2027 03:41:19.791             5.868          2934.000
       209   08 Jun 2027 03:43:13.995   08 Jun 2027 03:43:24.562            10.567          5283.500
       210   08 Jun 2027 05:02:33.128   08 Jun 2027 05:02:53.473            20.345         10172.500
       211   08 Jun 2027 05:13:24.210   08 Jun 2027 05:14:14.032            49.822         24911.000
       212   08 Jun 2027 05:15:20.673   08 Jun 2027 05:15:34.710            14.037          7018.500
       213   08 Jun 2027 06:37:21.966   08 Jun 2027 06:38:57.753            95.787         47893.500
       214   08 Jun 2027 08:13:08.481   08 Jun 2027 08:13:41.193            32.712         15443.813
       215   08 Jun 2027 08:15:35.350   08 Jun 2027 08:15:43.486             8.136          3567.406
       216   08 Jun 2027 08:15:53.760   08 Jun 2027 08:15:53.760             0.000             0.000
       217   08 Jun 2027 08:16:37.906   08 Jun 2027 08:16:41.519             3.613          1502.719
       218   08 Jun 2027 09:47:51.206   08 Jun 2027 09:48:01.986            10.780          4873.625
       219   08 Jun 2027 09:48:40.712   08 Jun 2027 09:48:50.978            10.266          1192.094
       220   08 Jun 2027 09:50:01.413   08 Jun 2027 09:50:09.525             8.112           834.219
       221   08 Jun 2027 09:53:45.861   08 Jun 2027 09:53:57.747            11.886          5829.812
       222   08 Jun 2027 09:54:17.341   08 Jun 2027 09:54:26.241             8.900           308.219
       223   08 Jun 2027 09:54:33.380   08 Jun 2027 09:54:34.167             0.787           223.094
       224   08 Jun 2027 09:54:54.897   08 Jun 2027 09:54:56.755             1.858           647.813
       225   08 Jun 2027 09:55:17.220   08 Jun 2027 09:55:19.636             2.416           639.531
       226   08 Jun 2027 11:24:37.123   08 Jun 2027 11:24:53.239            16.116          6803.687
       227   08 Jun 2027 11:25:05.517   08 Jun 2027 11:25:07.972             2.455            92.000
       228   08 Jun 2027 11:25:24.652   08 Jun 2027 11:25:25.348             0.696           253.938
       229   08 Jun 2027 11:26:37.739   08 Jun 2027 11:26:42.180             4.441          2107.344
       230   08 Jun 2027 11:27:01.910   08 Jun 2027 11:27:10.323             8.413           616.563
       231   08 Jun 2027 11:28:10.553   08 Jun 2027 11:28:16.852             6.299          1742.000
       232   08 Jun 2027 11:28:43.140   08 Jun 2027 11:28:47.819             4.679           694.594
       233   08 Jun 2027 11:29:27.507   08 Jun 2027 11:29:31.615             4.108           928.375
       234   08 Jun 2027 11:29:47.271   08 Jun 2027 11:29:50.402             3.131           489.250
       235   08 Jun 2027 11:30:47.405   08 Jun 2027 11:30:52.181             4.776          1781.344
       236   09 Jun 2027 03:48:39.741   09 Jun 2027 03:50:50.383           130.642         65321.000
       237   09 Jun 2027 03:51:52.499   09 Jun 2027 03:51:52.499             0.000             0.000
       238   09 Jun 2027 03:52:15.005   09 Jun 2027 03:52:19.768             4.763          2381.500
       239   09 Jun 2027 03:53:05.090   09 Jun 2027 03:53:08.670             3.580          1790.000
       240   09 Jun 2027 03:54:35.878   09 Jun 2027 03:54:38.506             2.628          1314.000
       241   09 Jun 2027 03:55:29.974   09 Jun 2027 03:56:02.725            32.751         16375.500
       242   09 Jun 2027 05:13:48.480   09 Jun 2027 05:14:15.440            26.960         13480.000
       243   09 Jun 2027 05:25:23.737   09 Jun 2027 05:26:21.431            57.694         28847.000
       244   09 Jun 2027 06:47:59.709   09 Jun 2027 06:48:58.428            58.719         29359.500
       245   09 Jun 2027 06:49:37.513   09 Jun 2027 06:49:52.510            14.997          7498.500
       246   09 Jun 2027 06:50:19.056   09 Jun 2027 06:50:19.056             0.000             0.000
       247   09 Jun 2027 06:52:22.192   09 Jun 2027 06:52:32.758            10.566          5283.000
       248   09 Jun 2027 08:23:09.046   09 Jun 2027 08:23:38.484            29.438         13017.344
       249   09 Jun 2027 08:25:01.944   09 Jun 2027 08:25:10.813             8.869          2474.719
       250   09 Jun 2027 08:26:02.232   09 Jun 2027 08:26:02.232             0.000             0.000
       251   09 Jun 2027 08:26:23.782   09 Jun 2027 08:26:29.006             5.224          2274.375
       252   09 Jun 2027 08:26:40.341   09 Jun 2027 08:26:41.188             0.847           290.062
       253   09 Jun 2027 08:28:04.639   09 Jun 2027 08:28:12.527             7.888          1544.062
       254   09 Jun 2027 08:29:03.360   09 Jun 2027 08:29:03.360             0.000             0.000
       255   09 Jun 2027 09:59:56.795   09 Jun 2027 10:00:04.864             8.069          3655.938
       256   09 Jun 2027 10:03:14.003   09 Jun 2027 10:03:29.251            15.248          5910.594
       257   09 Jun 2027 10:03:40.785   09 Jun 2027 10:03:44.312             3.527           360.437
       258   09 Jun 2027 10:04:21.570   09 Jun 2027 10:04:25.275             3.705           513.000
       259   09 Jun 2027 10:04:34.239   09 Jun 2027 10:04:38.288             4.049           280.125
       260   09 Jun 2027 10:05:09.042   09 Jun 2027 10:05:10.158             1.116           460.750
       261   09 Jun 2027 10:05:29.202   09 Jun 2027 10:05:30.347             1.145           272.656
       262   09 Jun 2027 10:06:08.728   09 Jun 2027 10:06:14.991             6.263           833.125
       263   09 Jun 2027 10:06:43.923   09 Jun 2027 10:06:46.845             2.922           904.125
       264   09 Jun 2027 10:07:22.112   09 Jun 2027 10:07:22.667             0.555           277.500
       265   09 Jun 2027 11:36:57.794   09 Jun 2027 11:37:13.350            15.556          7418.156
       266   09 Jun 2027 11:38:09.392   09 Jun 2027 11:38:17.823             8.431          1751.313
       267   09 Jun 2027 11:38:28.967   09 Jun 2027 11:38:31.643             2.676           348.250
       268   09 Jun 2027 11:38:44.574   09 Jun 2027 11:38:46.974             2.400           171.000
       269   09 Jun 2027 11:39:03.951   09 Jun 2027 11:39:07.486             3.535           420.344
       270   09 Jun 2027 11:39:35.648   09 Jun 2027 11:39:39.689             4.041           880.063
       271   09 Jun 2027 11:39:50.565   09 Jun 2027 11:39:51.770             1.205           339.875
       272   09 Jun 2027 11:40:32.316   09 Jun 2027 11:40:36.620             4.304           639.750
       273   09 Jun 2027 11:40:54.493   09 Jun 2027 11:40:59.245             4.752           558.531
       274   09 Jun 2027 11:41:13.726   09 Jun 2027 11:41:15.555             1.829           452.531
       275   09 Jun 2027 11:42:30.089   09 Jun 2027 11:42:36.423             6.334          2329.187
       276   09 Jun 2027 11:42:37.638   09 Jun 2027 11:42:40.879             3.241            37.969
       277   09 Jun 2027 11:42:54.633   09 Jun 2027 11:42:57.271             2.638           210.000
       278   09 Jun 2027 11:42:58.304   09 Jun 2027 11:42:58.304             0.000             0.000
       279   10 Jun 2027 04:00:55.587   10 Jun 2027 04:02:40.985           105.398         52699.000
       280   10 Jun 2027 04:02:49.291   10 Jun 2027 04:02:52.272             2.981          1490.500
       281   10 Jun 2027 04:03:14.265   10 Jun 2027 04:03:15.273             1.008           504.000
       282   10 Jun 2027 04:04:18.750   10 Jun 2027 04:04:28.412             9.662          4831.000
       283   10 Jun 2027 04:04:56.644   10 Jun 2027 04:04:59.812             3.168          1584.000
       284   10 Jun 2027 04:06:03.459   10 Jun 2027 04:06:17.907            14.448          7224.000
       285   10 Jun 2027 04:06:58.054   10 Jun 2027 04:07:01.214             3.160          1580.000
       286   10 Jun 2027 04:07:43.958   10 Jun 2027 04:07:45.864             1.906           953.000
       287   10 Jun 2027 05:25:08.472   10 Jun 2027 05:26:17.013            68.541         34270.500
       288   10 Jun 2027 05:37:22.358   10 Jun 2027 05:37:57.082            34.724         17362.000
       289   10 Jun 2027 06:59:35.427   10 Jun 2027 07:00:43.974            68.547         34273.500
       290   10 Jun 2027 07:01:32.215   10 Jun 2027 07:01:59.728            27.513         12567.781
       291   10 Jun 2027 07:04:31.277   10 Jun 2027 07:04:33.050             1.773           886.500
       292   10 Jun 2027 07:04:36.354   10 Jun 2027 07:04:45.349             8.995          3952.656
       293   10 Jun 2027 08:34:28.812   10 Jun 2027 08:34:50.998            22.186          8059.156
       294   10 Jun 2027 08:35:42.225   10 Jun 2027 08:35:44.287             2.062          1031.000
       295   10 Jun 2027 08:36:52.630   10 Jun 2027 08:36:58.825             6.195          2468.969
       296   10 Jun 2027 08:38:06.767   10 Jun 2027 08:38:08.916             2.149           924.062
       297   10 Jun 2027 08:39:55.097   10 Jun 2027 08:40:03.872             8.775          3242.938
       298   10 Jun 2027 08:40:34.225   10 Jun 2027 08:40:37.477             3.252           948.531
       299   10 Jun 2027 08:42:33.550   10 Jun 2027 08:42:42.763             9.213          2922.250
       300   10 Jun 2027 08:42:49.799   10 Jun 2027 08:42:51.350             1.551           219.875
       301   10 Jun 2027 10:12:03.841   10 Jun 2027 10:12:20.774            16.933          6671.937
       302   10 Jun 2027 10:13:36.623   10 Jun 2027 10:13:39.082             2.459          1197.094
       303   10 Jun 2027 10:14:07.027   10 Jun 2027 10:14:16.221             9.194           324.313
       304   10 Jun 2027 10:15:07.561   10 Jun 2027 10:15:09.132             1.571           646.125
       305   10 Jun 2027 10:16:38.432   10 Jun 2027 10:16:47.458             9.026          2790.625
       306   10 Jun 2027 10:16:56.465   10 Jun 2027 10:16:57.871             1.406           161.281
       307   10 Jun 2027 10:17:35.662   10 Jun 2027 10:17:40.774             5.112          1015.062
       308   10 Jun 2027 10:18:12.814   10 Jun 2027 10:18:15.540             2.726           961.031
       309   10 Jun 2027 10:18:37.794   10 Jun 2027 10:18:41.168             3.374           695.438
       310   10 Jun 2027 10:18:57.209   10 Jun 2027 10:18:59.350             2.141           459.156
       311   10 Jun 2027 10:19:09.758   10 Jun 2027 10:19:10.813             1.055           219.344
       312   10 Jun 2027 11:48:47.070   10 Jun 2027 11:49:02.103            15.033          7288.375
       313   10 Jun 2027 11:49:46.462   10 Jun 2027 11:49:50.735             4.273          1315.438
       314   10 Jun 2027 11:50:14.837   10 Jun 2027 11:50:16.974             2.137           739.375
       315   10 Jun 2027 11:50:40.188   10 Jun 2027 11:50:46.650             6.462           689.969
       316   10 Jun 2027 11:51:32.261   10 Jun 2027 11:51:33.785             1.524           762.000
       317   10 Jun 2027 11:52:31.784   10 Jun 2027 11:52:38.513             6.729          2475.812
       318   10 Jun 2027 11:53:38.085   10 Jun 2027 11:53:40.531             2.446          1223.000
       319   10 Jun 2027 11:54:18.663   10 Jun 2027 11:54:22.638             3.975          1597.844
       320   10 Jun 2027 11:54:54.373   10 Jun 2027 11:54:57.770             3.397           691.031
       321   11 Jun 2027 04:13:01.610   11 Jun 2027 04:14:45.325           103.715         51857.500
       322   11 Jun 2027 04:15:05.567   11 Jun 2027 04:15:12.083             6.516          3258.000
       323   11 Jun 2027 04:16:18.671   11 Jun 2027 04:16:25.869             7.198          3599.000
       324   11 Jun 2027 05:37:14.242   11 Jun 2027 05:38:18.484            64.242         32121.000
       325   11 Jun 2027 05:38:32.838   11 Jun 2027 05:38:36.979             4.141          2070.500
       326   11 Jun 2027 05:39:06.698   11 Jun 2027 05:39:08.661             1.963           981.500
       327   11 Jun 2027 05:49:44.933   11 Jun 2027 05:49:49.560             4.627          2313.500
       328   11 Jun 2027 07:11:04.597   11 Jun 2027 07:13:17.319           132.722         66325.625
       329   11 Jun 2027 08:45:59.288   11 Jun 2027 08:46:11.635            12.347          6173.500
       330   11 Jun 2027 08:46:51.808   11 Jun 2027 08:47:07.204            15.396          3860.188
       331   11 Jun 2027 08:47:33.576   11 Jun 2027 08:47:35.328             1.752           824.125
       332   11 Jun 2027 08:48:01.808   11 Jun 2027 08:48:03.229             1.421           430.031
       333   11 Jun 2027 08:48:12.633   11 Jun 2027 08:48:14.750             2.117            64.187
       334   11 Jun 2027 08:49:05.932   11 Jun 2027 08:49:12.431             6.499          1173.813
       335   11 Jun 2027 08:49:41.367   11 Jun 2027 08:49:41.367             0.000             0.000
       336   11 Jun 2027 08:50:09.255   11 Jun 2027 08:50:12.776             3.521          1112.938
       337   11 Jun 2027 08:50:48.441   11 Jun 2027 08:50:51.787             3.346          1099.781
       338   11 Jun 2027 08:51:24.249   11 Jun 2027 08:51:27.963             3.714           439.750
       339   11 Jun 2027 08:52:07.302   11 Jun 2027 08:52:10.854             3.552          1087.969
       340   11 Jun 2027 08:52:35.629   11 Jun 2027 08:52:36.225             0.596           192.625
       341   11 Jun 2027 08:52:46.436   11 Jun 2027 08:52:46.697             0.261           130.500
       342   11 Jun 2027 08:53:00.559   11 Jun 2027 08:53:03.476             2.917           580.625
       343   11 Jun 2027 08:53:29.723   11 Jun 2027 08:53:29.723             0.000             0.000
       344   11 Jun 2027 08:54:57.476   11 Jun 2027 08:55:05.244             7.768          3562.500
       345   11 Jun 2027 08:55:25.709   11 Jun 2027 08:55:25.709             0.000             0.000
       346   11 Jun 2027 10:23:59.763   11 Jun 2027 10:24:14.841            15.078          7095.125
       347   11 Jun 2027 10:28:41.981   11 Jun 2027 10:28:50.270             8.289          4144.500
       348   11 Jun 2027 10:29:38.556   11 Jun 2027 10:29:54.791            16.235          5472.219
       349   11 Jun 2027 10:30:11.614   11 Jun 2027 10:30:18.392             6.778           525.719
       350   11 Jun 2027 10:30:52.046   11 Jun 2027 10:30:57.317             5.271           959.969
       351   11 Jun 2027 10:31:10.280   11 Jun 2027 10:31:13.833             3.553           405.094
       352   12 Jun 2027 04:25:27.152   12 Jun 2027 04:26:54.908            87.756         43878.000
       353   12 Jun 2027 04:27:18.291   12 Jun 2027 04:27:27.372             9.081          4540.500
       354   12 Jun 2027 04:28:48.824   12 Jun 2027 04:28:58.372             9.548          4774.000
       355   12 Jun 2027 04:29:32.217   12 Jun 2027 04:29:32.217             0.000             0.000
       356   12 Jun 2027 04:29:38.710   12 Jun 2027 04:30:07.826            29.116         14558.000
       357   12 Jun 2027 05:49:10.892   12 Jun 2027 05:50:19.827            68.935         34467.500
       358   12 Jun 2027 05:50:34.127   12 Jun 2027 05:50:47.616            13.489          6744.500
       359   12 Jun 2027 07:25:22.907   12 Jun 2027 07:27:17.677           114.770         57385.000
       360   12 Jun 2027 08:58:56.238   12 Jun 2027 08:59:21.315            25.077         12183.625
       361   12 Jun 2027 08:59:40.181   12 Jun 2027 08:59:42.225             2.044           150.781
       362   12 Jun 2027 08:59:55.466   12 Jun 2027 08:59:56.070             0.604           298.031
       363   12 Jun 2027 09:01:24.645   12 Jun 2027 09:01:31.024             6.379          2238.531
       364   12 Jun 2027 09:05:32.788   12 Jun 2027 09:05:46.621            13.833          6916.500
       365   12 Jun 2027 09:06:34.757   12 Jun 2027 09:06:39.831             5.074          1927.781
       366   12 Jun 2027 09:06:47.762   12 Jun 2027 09:06:48.073             0.311            52.313
       367   12 Jun 2027 09:07:29.568   12 Jun 2027 09:07:30.545             0.977           488.500
       368   12 Jun 2027 10:36:22.069   12 Jun 2027 10:36:41.132            19.063          7007.937
       369   12 Jun 2027 10:37:23.307   12 Jun 2027 10:37:26.389             3.082           933.625
       370   12 Jun 2027 10:38:53.188   12 Jun 2027 10:38:57.936             4.748          2306.906
       371   12 Jun 2027 10:39:05.182   12 Jun 2027 10:39:10.209             5.027             3.125
       372   12 Jun 2027 10:39:44.097   12 Jun 2027 10:39:44.562             0.465            58.938
       373   12 Jun 2027 10:39:58.448   12 Jun 2027 10:40:08.953            10.505           201.719
       374   12 Jun 2027 10:40:34.730   12 Jun 2027 10:40:38.354             3.624           805.531
       375   12 Jun 2027 10:41:01.813   12 Jun 2027 10:41:03.602             1.789           389.813
       376   12 Jun 2027 10:41:31.356   12 Jun 2027 10:41:32.883             1.527           380.437
       377   12 Jun 2027 10:42:13.192   12 Jun 2027 10:42:16.197             3.005           904.687
       378   12 Jun 2027 10:42:47.686   12 Jun 2027 10:42:49.665             1.979           984.031
       379   12 Jun 2027 10:42:51.545   12 Jun 2027 10:42:53.266             1.721            47.125
       380   13 Jun 2027 03:00:00.000   13 Jun 2027 03:00:08.723             8.723          4361.500
       381   13 Jun 2027 03:00:12.437   13 Jun 2027 03:00:25.676            13.239          6619.500
       382   13 Jun 2027 03:02:17.943   13 Jun 2027 03:02:37.855            19.912          9956.000
       383   13 Jun 2027 03:03:38.661   13 Jun 2027 03:03:45.587             6.926          3463.000
       384   13 Jun 2027 03:04:33.084   13 Jun 2027 03:04:49.908            16.824          8412.000
       385   13 Jun 2027 03:05:05.184   13 Jun 2027 03:05:08.981             3.797          1898.500
       386   13 Jun 2027 03:05:30.671   13 Jun 2027 03:05:32.664             1.993           996.500
       387   13 Jun 2027 04:37:22.200   13 Jun 2027 04:38:37.101            74.901         37450.500
       388   13 Jun 2027 04:40:05.673   13 Jun 2027 04:40:08.188             2.515          1257.500
       389   13 Jun 2027 04:40:11.847   13 Jun 2027 04:40:11.847             0.000             0.000
       390   13 Jun 2027 04:40:49.421   13 Jun 2027 04:41:09.776            20.355         10177.500
       391   13 Jun 2027 06:01:02.038   13 Jun 2027 06:02:01.123            59.085         29542.500
       392   13 Jun 2027 06:03:29.591   13 Jun 2027 06:03:34.889             5.298          2649.000
       393   13 Jun 2027 07:37:29.484   13 Jun 2027 07:39:41.473           131.989         65665.188
       394   13 Jun 2027 09:09:40.587   13 Jun 2027 09:09:47.134             6.547          3273.500
       395   13 Jun 2027 09:11:34.936   13 Jun 2027 09:11:52.702            17.766          5063.500
       396   13 Jun 2027 09:13:22.022   13 Jun 2027 09:13:31.629             9.607          2143.750
       397   13 Jun 2027 09:14:13.446   13 Jun 2027 09:14:23.727            10.281          1043.094
       398   13 Jun 2027 09:15:22.176   13 Jun 2027 09:15:22.600             0.424           212.000
       399   13 Jun 2027 09:16:39.713   13 Jun 2027 09:16:48.849             9.136          3592.344
       400   13 Jun 2027 09:17:27.694   13 Jun 2027 09:17:28.829             1.135           223.562
       401   13 Jun 2027 09:19:15.671   13 Jun 2027 09:19:21.350             5.679          2312.906
       402   13 Jun 2027 09:19:24.833   13 Jun 2027 09:19:25.450             0.617            88.625
       403   13 Jun 2027 10:48:32.843   13 Jun 2027 10:48:44.364            11.521          5524.562
       404   13 Jun 2027 10:49:05.990   13 Jun 2027 10:49:10.754             4.764           468.875
       405   13 Jun 2027 10:49:29.474   13 Jun 2027 10:49:31.391             1.917           359.938
       406   13 Jun 2027 10:50:27.648   13 Jun 2027 10:50:34.111             6.463          1715.375
       407   13 Jun 2027 10:51:24.337   13 Jun 2027 10:51:28.862             4.525          1318.156
       408   13 Jun 2027 10:51:46.312   13 Jun 2027 10:51:47.478             1.166           316.938
       409   13 Jun 2027 10:52:36.748   13 Jun 2027 10:52:39.417             2.669          1167.281
       410   13 Jun 2027 10:53:15.007   13 Jun 2027 10:53:20.320             5.313          1112.188
       411   13 Jun 2027 10:53:30.336   13 Jun 2027 10:53:35.538             5.202           190.531
       412   13 Jun 2027 10:53:50.912   13 Jun 2027 10:53:55.171             4.259           404.594
       413   13 Jun 2027 10:54:33.260   13 Jun 2027 10:54:34.955             1.695           772.719
       414   13 Jun 2027 10:54:40.377   13 Jun 2027 10:54:41.439             1.062           152.750
       415   13 Jun 2027 10:54:58.208   13 Jun 2027 10:54:58.386             0.178            89.000
       416   13 Jun 2027 10:54:59.365   13 Jun 2027 10:55:01.134             1.769           421.563
       417   13 Jun 2027 10:55:08.595   13 Jun 2027 10:55:10.142             1.547            73.063
