uniorb/output/strategy_1/Camera/Camera_KinoSat_110705.txt

KinoSat_110705
-------------------------
    Access    *     Start Time (UTCG)     *     Stop Time (UTCG)  *   Duration (s) *   Data (Mbytes)
         1   01 Jun 2027 03:37:20.091   01 Jun 2027 03:38:29.226            69.135         34567.500
         2   01 Jun 2027 03:38:49.485   01 Jun 2027 03:38:52.668             3.183          1591.500
         3   01 Jun 2027 03:39:33.572   01 Jun 2027 03:39:51.131            17.559          8779.500
         4   01 Jun 2027 05:12:12.488   01 Jun 2027 05:14:31.723           139.235         69617.500
         5   01 Jun 2027 05:15:27.486   01 Jun 2027 05:15:31.004             3.518          1759.000
         6   01 Jun 2027 05:15:45.480   01 Jun 2027 05:15:56.305            10.825          5412.500
         7   01 Jun 2027 05:16:18.481   01 Jun 2027 05:16:19.398             0.917           458.500
         8   01 Jun 2027 05:19:19.434   01 Jun 2027 05:19:19.434             0.000             0.000
         9   01 Jun 2027 05:21:00.502   01 Jun 2027 05:21:18.347            17.845          8922.500
        10   01 Jun 2027 06:50:48.021   01 Jun 2027 06:51:23.605            35.584         17792.000
        11   01 Jun 2027 06:52:31.023   01 Jun 2027 06:53:52.999            81.976         40988.000
        12   01 Jun 2027 06:54:27.682   01 Jun 2027 06:54:37.938            10.256          5128.000
        13   01 Jun 2027 06:54:49.992   01 Jun 2027 06:55:04.328            14.336          7168.000
        14   01 Jun 2027 08:27:17.056   01 Jun 2027 08:29:23.843           126.787         63393.500
        15   01 Jun 2027 08:30:33.921   01 Jun 2027 08:30:40.655             6.734          3367.000
        16   01 Jun 2027 08:31:56.805   01 Jun 2027 08:31:59.870             3.065          1532.500
        17   01 Jun 2027 08:32:14.467   01 Jun 2027 08:32:14.467             0.000             0.000
        18   01 Jun 2027 08:33:08.726   01 Jun 2027 08:33:12.390             3.664          1832.000
        19   01 Jun 2027 10:04:23.597   01 Jun 2027 10:06:06.559           102.962         51481.000
        20   01 Jun 2027 10:07:11.700   01 Jun 2027 10:07:25.046            13.346          6673.000
        21   01 Jun 2027 11:39:21.800   01 Jun 2027 11:40:09.288            47.488         23744.000
        22   01 Jun 2027 11:41:05.952   01 Jun 2027 11:42:28.776            82.824         41412.000
        23   01 Jun 2027 11:44:20.726   01 Jun 2027 11:44:25.881             5.155          2577.500
        24   02 Jun 2027 03:51:46.851   02 Jun 2027 03:52:14.606            27.755         13877.500
        25   02 Jun 2027 03:52:32.434   02 Jun 2027 03:52:47.871            15.437          7718.500
        26   02 Jun 2027 03:54:19.757   02 Jun 2027 03:54:19.757             0.000             0.000
        27   02 Jun 2027 05:25:16.150   02 Jun 2027 05:27:34.037           137.887         68943.500
        28   02 Jun 2027 05:28:05.021   02 Jun 2027 05:28:24.671            19.650          9825.000
        29   02 Jun 2027 05:29:54.504   02 Jun 2027 05:30:08.184            13.680          6840.000
        30   02 Jun 2027 05:32:42.685   02 Jun 2027 05:32:51.371             8.686          4343.000
        31   02 Jun 2027 05:33:00.637   02 Jun 2027 05:33:00.637             0.000             0.000
        32   02 Jun 2027 07:02:48.568   02 Jun 2027 07:05:01.582           133.014         66507.000
        33   02 Jun 2027 07:06:28.366   02 Jun 2027 07:06:32.776             4.410          2205.000
        34   02 Jun 2027 08:39:43.805   02 Jun 2027 08:41:56.736           132.931         66465.500
        35   02 Jun 2027 08:43:06.255   02 Jun 2027 08:43:17.462            11.207          5603.500
        36   02 Jun 2027 08:44:02.902   02 Jun 2027 08:44:03.130             0.228           114.000
        37   02 Jun 2027 08:44:41.856   02 Jun 2027 08:44:50.057             8.201          4100.500
        38   02 Jun 2027 08:45:24.478   02 Jun 2027 08:45:29.663             5.185          2592.500
        39   02 Jun 2027 10:16:35.327   02 Jun 2027 10:18:32.043           116.716         58358.000
        40   02 Jun 2027 10:20:23.270   02 Jun 2027 10:20:25.037             1.767           883.500
        41   02 Jun 2027 10:20:43.442   02 Jun 2027 10:20:50.014             6.572          3286.000
        42   02 Jun 2027 11:54:07.797   02 Jun 2027 11:56:04.270           116.473         58236.500
        43   03 Jun 2027 04:03:47.972   03 Jun 2027 04:04:14.839            26.867         13433.500
        44   03 Jun 2027 04:04:39.899   03 Jun 2027 04:04:44.234             4.335          2167.500
        45   03 Jun 2027 04:05:51.437   03 Jun 2027 04:05:58.356             6.919          3459.500
        46   03 Jun 2027 04:07:20.053   03 Jun 2027 04:07:23.276             3.223          1611.500
        47   03 Jun 2027 05:36:03.437   03 Jun 2027 05:36:03.781             0.344           172.000
        48   03 Jun 2027 05:37:55.595   03 Jun 2027 05:40:15.929           140.334         70167.000
        49   03 Jun 2027 05:41:25.704   03 Jun 2027 05:41:25.704             0.000             0.000
        50   03 Jun 2027 05:43:25.613   03 Jun 2027 05:43:25.662             0.049            24.500
        51   03 Jun 2027 05:44:27.417   03 Jun 2027 05:44:42.712            15.295          7647.500
        52   03 Jun 2027 05:44:52.882   03 Jun 2027 05:44:52.882             0.000             0.000
        53   03 Jun 2027 05:45:15.551   03 Jun 2027 05:45:21.458             5.907          2953.500
        54   03 Jun 2027 05:45:42.680   03 Jun 2027 05:45:43.325             0.645           322.500
        55   03 Jun 2027 07:14:54.185   03 Jun 2027 07:17:34.351           160.166         80083.000
        56   03 Jun 2027 07:21:15.026   03 Jun 2027 07:21:24.607             9.581          4790.500
        57   03 Jun 2027 08:52:30.407   03 Jun 2027 08:54:40.844           130.437         65218.500
        58   03 Jun 2027 08:55:07.787   03 Jun 2027 08:55:28.966            21.179         10589.500
        59   03 Jun 2027 08:56:09.475   03 Jun 2027 08:56:24.916            15.441          7720.500
        60   03 Jun 2027 10:28:39.188   03 Jun 2027 10:29:46.746            67.558         33413.000
        61   03 Jun 2027 10:29:56.979   03 Jun 2027 10:29:57.204             0.225           112.500
        62   03 Jun 2027 10:30:52.206   03 Jun 2027 10:30:57.879             5.673          1926.094
        63   03 Jun 2027 10:32:25.368   03 Jun 2027 10:32:30.546             5.178          2266.344
        64   04 Jun 2027 04:17:08.655   04 Jun 2027 04:17:52.977            44.322         22161.000
        65   04 Jun 2027 04:18:19.804   04 Jun 2027 04:18:27.158             7.354          3677.000
        66   04 Jun 2027 04:19:20.000   04 Jun 2027 04:19:27.938             7.938          3969.000
        67   04 Jun 2027 05:51:08.486   04 Jun 2027 05:53:14.194           125.708         62854.000
        68   04 Jun 2027 05:54:15.826   04 Jun 2027 05:54:17.517             1.691           845.500
        69   04 Jun 2027 05:54:32.619   04 Jun 2027 05:54:53.847            21.228         10614.000
        70   04 Jun 2027 05:57:18.870   04 Jun 2027 05:57:27.414             8.544          4272.000
        71   04 Jun 2027 05:57:35.835   04 Jun 2027 05:57:38.511             2.676          1338.000
        72   04 Jun 2027 07:27:29.936   04 Jun 2027 07:29:42.139           132.203         66101.500
        73   04 Jun 2027 07:30:40.303   04 Jun 2027 07:31:01.157            20.854         10427.000
        74   04 Jun 2027 09:04:48.694   04 Jun 2027 09:05:25.476            36.782         15356.312
        75   04 Jun 2027 09:05:31.790   04 Jun 2027 09:05:32.394             0.604           197.313
        76   04 Jun 2027 09:05:39.985   04 Jun 2027 09:05:40.871             0.886            98.156
        77   04 Jun 2027 09:06:14.165   04 Jun 2027 09:06:18.005             3.840           729.531
        78   04 Jun 2027 09:06:49.983   04 Jun 2027 09:06:57.849             7.866           816.406
        79   04 Jun 2027 09:07:17.788   04 Jun 2027 09:07:17.788             0.000             0.000
        80   04 Jun 2027 09:07:42.255   04 Jun 2027 09:07:45.230             2.975          1124.188
        81   04 Jun 2027 09:08:19.202   04 Jun 2027 09:08:24.609             5.407          1061.625
        82   04 Jun 2027 10:41:00.443   04 Jun 2027 10:41:14.752            14.309          6934.750
        83   04 Jun 2027 10:41:31.096   04 Jun 2027 10:41:31.728             0.632            57.156
        84   04 Jun 2027 10:41:58.557   04 Jun 2027 10:42:00.519             1.962           739.219
        85   04 Jun 2027 10:42:26.107   04 Jun 2027 10:42:31.074             4.967           799.625
        86   04 Jun 2027 10:42:51.820   04 Jun 2027 10:42:53.664             1.844           615.625
        87   04 Jun 2027 10:43:07.568   04 Jun 2027 10:43:08.925             1.357           434.500
        88   04 Jun 2027 10:43:47.499   04 Jun 2027 10:43:48.120             0.621           288.875
        89   04 Jun 2027 10:44:33.681   04 Jun 2027 10:44:38.213             4.532          1423.656
        90   05 Jun 2027 04:27:53.683   05 Jun 2027 04:27:57.229             3.546          1773.000
        91   05 Jun 2027 04:28:32.737   05 Jun 2027 04:28:44.759            12.022          6011.000
        92   05 Jun 2027 04:29:29.215   05 Jun 2027 04:30:42.372            73.157         36578.500
        93   05 Jun 2027 04:31:03.734   05 Jun 2027 04:31:05.098             1.364           682.000
        94   05 Jun 2027 04:31:24.578   05 Jun 2027 04:31:24.578             0.000             0.000
        95   05 Jun 2027 06:02:51.521   05 Jun 2027 06:05:16.607           145.086         72543.000
        96   05 Jun 2027 06:09:27.326   05 Jun 2027 06:09:27.959             0.633           316.500
        97   05 Jun 2027 07:39:03.505   05 Jun 2027 07:40:38.039            94.534         47267.000
        98   05 Jun 2027 07:41:02.856   05 Jun 2027 07:41:30.221            27.365         13682.500
        99   05 Jun 2027 07:41:43.301   05 Jun 2027 07:41:43.876             0.575           287.500
       100   05 Jun 2027 07:42:49.159   05 Jun 2027 07:42:49.288             0.129            64.500
       101   05 Jun 2027 07:43:09.561   05 Jun 2027 07:43:19.421             9.860          3771.844
       102   05 Jun 2027 07:45:24.982   05 Jun 2027 07:45:29.532             4.550          2275.000
       103   05 Jun 2027 09:17:03.696   05 Jun 2027 09:17:29.639            25.943         11257.719
       104   05 Jun 2027 09:17:46.052   05 Jun 2027 09:17:47.079             1.027           512.906
       105   05 Jun 2027 09:19:11.766   05 Jun 2027 09:19:18.660             6.894          2646.469
       106   05 Jun 2027 09:19:32.837   05 Jun 2027 09:19:35.144             2.307           161.312
       107   05 Jun 2027 09:20:32.267   05 Jun 2027 09:20:32.290             0.023            11.500
       108   05 Jun 2027 10:52:44.992   05 Jun 2027 10:52:58.504            13.512          6756.000
       109   05 Jun 2027 10:53:23.132   05 Jun 2027 10:53:26.492             3.360          1298.031
       110   05 Jun 2027 10:53:29.830   05 Jun 2027 10:53:29.830             0.000             0.000
       111   05 Jun 2027 10:53:36.182   05 Jun 2027 10:53:38.795             2.613           275.375
       112   05 Jun 2027 10:54:17.508   05 Jun 2027 10:54:21.496             3.988          1191.594
       113   05 Jun 2027 10:54:32.667   05 Jun 2027 10:54:35.143             2.476           329.719
       114   05 Jun 2027 10:54:52.812   05 Jun 2027 10:54:59.372             6.560           519.406
       115   05 Jun 2027 10:55:41.537   05 Jun 2027 10:55:44.640             3.103          1204.656
       116   05 Jun 2027 10:55:50.739   05 Jun 2027 10:55:50.739             0.000             0.000
       117   05 Jun 2027 10:55:53.520   05 Jun 2027 10:55:55.568             2.048           202.750
       118   05 Jun 2027 10:56:39.970   05 Jun 2027 10:56:44.824             4.854          1052.125
       119   05 Jun 2027 10:57:07.491   05 Jun 2027 10:57:07.491             0.000             0.000
       120   05 Jun 2027 10:57:43.833   05 Jun 2027 10:57:49.202             5.369          1524.844
       121   05 Jun 2027 10:57:52.611   05 Jun 2027 10:57:53.381             0.770            27.937
       122   05 Jun 2027 10:58:04.249   05 Jun 2027 10:58:05.090             0.841           245.156
       123   06 Jun 2027 03:03:15.830   06 Jun 2027 03:03:26.877            11.047          5523.500
       124   06 Jun 2027 03:03:36.906   06 Jun 2027 03:03:40.605             3.699          1849.500
       125   06 Jun 2027 03:04:59.785   06 Jun 2027 03:05:08.048             8.263          4131.500
       126   06 Jun 2027 03:06:45.615   06 Jun 2027 03:06:56.191            10.576          5288.000
       127   06 Jun 2027 04:38:29.771   06 Jun 2027 04:38:35.559             5.788          2894.000
       128   06 Jun 2027 04:39:39.227   06 Jun 2027 04:41:15.781            96.554         48277.000
       129   06 Jun 2027 04:42:22.443   06 Jun 2027 04:42:27.616             5.173          2586.500
       130   06 Jun 2027 04:43:35.584   06 Jun 2027 04:43:45.360             9.776          4888.000
       131   06 Jun 2027 06:14:25.243   06 Jun 2027 06:15:51.435            86.192         43096.000
       132   06 Jun 2027 06:15:54.563   06 Jun 2027 06:16:18.047            23.484         11742.000
       133   06 Jun 2027 06:17:17.564   06 Jun 2027 06:17:30.289            12.725          6362.500
       134   06 Jun 2027 06:18:20.037   06 Jun 2027 06:18:24.550             4.513          2256.500
       135   06 Jun 2027 06:18:57.415   06 Jun 2027 06:19:04.657             7.242          3621.000
       136   06 Jun 2027 06:20:52.342   06 Jun 2027 06:21:00.497             8.155          4077.500
       137   06 Jun 2027 07:51:24.483   06 Jun 2027 07:52:48.568            84.085         40873.563
       138   06 Jun 2027 07:53:44.786   06 Jun 2027 07:53:48.631             3.845          1481.187
       139   06 Jun 2027 07:54:30.153   06 Jun 2027 07:54:32.103             1.950           806.094
       140   06 Jun 2027 07:55:04.618   06 Jun 2027 07:55:07.289             2.671           830.937
       141   06 Jun 2027 07:55:44.989   06 Jun 2027 07:55:50.948             5.959          1142.937
       142   06 Jun 2027 07:56:25.476   06 Jun 2027 07:56:28.150             2.674           892.437
       143   06 Jun 2027 07:56:41.992   06 Jun 2027 07:56:43.161             1.169           142.062
       144   06 Jun 2027 07:56:44.488   06 Jun 2027 07:56:45.210             0.722            41.469
       145   06 Jun 2027 09:29:25.470   06 Jun 2027 09:29:45.258            19.788          9894.000
       146   06 Jun 2027 09:30:43.724   06 Jun 2027 09:30:46.463             2.739          1369.500
       147   06 Jun 2027 09:31:07.077   06 Jun 2027 09:31:11.172             4.095          1248.750
       148   06 Jun 2027 09:31:13.622   06 Jun 2027 09:31:14.295             0.673            57.375
       149   06 Jun 2027 09:31:39.389   06 Jun 2027 09:31:44.672             5.283           476.281
       150   06 Jun 2027 09:32:15.114   06 Jun 2027 09:32:17.223             2.109           515.531
       151   06 Jun 2027 11:02:41.027   06 Jun 2027 11:02:56.237            15.210          7013.219
       152   06 Jun 2027 11:04:11.284   06 Jun 2027 11:04:15.140             3.856          1493.719
       153   06 Jun 2027 11:04:46.987   06 Jun 2027 11:04:49.933             2.946           791.844
       154   06 Jun 2027 11:05:22.521   06 Jun 2027 11:05:22.521             0.000             0.000
       155   06 Jun 2027 11:05:24.330   06 Jun 2027 11:05:25.986             1.656           253.875
       156   06 Jun 2027 11:06:25.440   06 Jun 2027 11:06:29.720             4.280          1505.594
       157   06 Jun 2027 11:06:46.936   06 Jun 2027 11:06:50.153             3.217           538.000
       158   06 Jun 2027 11:07:34.307   06 Jun 2027 11:07:39.729             5.422          1260.063
       159   06 Jun 2027 11:08:05.150   06 Jun 2027 11:08:06.918             1.768           701.625
       160   06 Jun 2027 11:08:49.442   06 Jun 2027 11:08:52.983             3.541          1028.688
       161   06 Jun 2027 11:10:07.224   06 Jun 2027 11:10:13.220             5.996          1980.469
       162   06 Jun 2027 11:10:18.601   06 Jun 2027 11:10:18.601             0.000             0.000
       163   06 Jun 2027 11:10:23.586   06 Jun 2027 11:10:26.821             3.235           323.938
       164   07 Jun 2027 03:14:13.891   07 Jun 2027 03:15:18.915            65.024         32512.000
       165   07 Jun 2027 04:49:23.682   07 Jun 2027 04:50:49.647            85.965         42982.500
       166   07 Jun 2027 04:51:38.174   07 Jun 2027 04:51:55.251            17.077          8538.500
       167   07 Jun 2027 04:52:23.627   07 Jun 2027 04:52:27.335             3.708          1854.000
       168   07 Jun 2027 04:53:05.347   07 Jun 2027 04:53:29.466            24.119         12059.500
       169   07 Jun 2027 04:56:03.813   07 Jun 2027 04:56:14.087            10.274          5137.000
       170   07 Jun 2027 06:26:32.538   07 Jun 2027 06:27:32.075            59.537         29768.500
       171   07 Jun 2027 06:27:50.792   07 Jun 2027 06:28:12.480            21.688         10844.000
       172   07 Jun 2027 06:28:36.319   07 Jun 2027 06:28:50.654            14.335          7167.500
       173   07 Jun 2027 06:30:04.365   07 Jun 2027 06:30:22.283            17.918          8959.000
       174   07 Jun 2027 08:03:30.054   07 Jun 2027 08:04:39.822            69.768         34884.000
       175   07 Jun 2027 08:05:08.257   07 Jun 2027 08:05:14.109             5.852           987.312
       176   07 Jun 2027 08:06:12.179   07 Jun 2027 08:06:21.877             9.698          1781.969
       177   07 Jun 2027 08:07:08.586   07 Jun 2027 08:07:08.586             0.000             0.000
       178   07 Jun 2027 08:07:39.841   07 Jun 2027 08:07:44.102             4.261          2130.500
       179   07 Jun 2027 08:08:11.102   07 Jun 2027 08:08:15.572             4.470          1149.625
       180   07 Jun 2027 08:08:28.961   07 Jun 2027 08:08:32.570             3.609           418.406
       181   07 Jun 2027 09:41:23.110   07 Jun 2027 09:41:29.290             6.180          3090.000
       182   07 Jun 2027 09:42:26.865   07 Jun 2027 09:42:43.063            16.198          7728.219
       183   07 Jun 2027 09:43:08.920   07 Jun 2027 09:43:11.020             2.100           808.031
       184   07 Jun 2027 09:44:03.195   07 Jun 2027 09:44:09.508             6.313          1630.469
       185   07 Jun 2027 09:44:39.854   07 Jun 2027 09:44:41.407             1.553           776.500
       186   07 Jun 2027 09:44:57.985   07 Jun 2027 09:44:59.327             1.342           624.031
       187   07 Jun 2027 11:14:50.191   07 Jun 2027 11:14:57.237             7.046          3388.156
       188   07 Jun 2027 11:16:28.072   07 Jun 2027 11:16:32.584             4.512          1715.500
       189   07 Jun 2027 11:17:12.797   07 Jun 2027 11:17:15.970             3.173          1172.688
       190   07 Jun 2027 11:17:19.726   07 Jun 2027 11:17:31.064            11.338           117.375
       191   07 Jun 2027 11:18:22.983   07 Jun 2027 11:18:25.914             2.931          1403.406
       192   07 Jun 2027 11:19:17.433   07 Jun 2027 11:19:20.081             2.648          1124.219
       193   07 Jun 2027 11:19:32.599   07 Jun 2027 11:19:32.599             0.000             0.000
       194   07 Jun 2027 11:19:56.568   07 Jun 2027 11:19:58.767             2.199          1089.656
       195   07 Jun 2027 11:19:59.335   07 Jun 2027 11:19:59.335             0.000             0.000
       196   07 Jun 2027 11:20:21.564   07 Jun 2027 11:20:24.647             3.083           712.406
       197   07 Jun 2027 11:21:23.348   07 Jun 2027 11:21:26.496             3.148          1313.562
       198   08 Jun 2027 03:25:58.857   08 Jun 2027 03:26:23.035            24.178         12089.000
       199   08 Jun 2027 03:27:08.448   08 Jun 2027 03:27:12.685             4.237          2118.500
       200   08 Jun 2027 03:29:09.929   08 Jun 2027 03:29:09.929             0.000             0.000
       201   08 Jun 2027 03:30:03.469   08 Jun 2027 03:30:25.398            21.929         10964.500
       202   08 Jun 2027 03:31:02.167   08 Jun 2027 03:31:09.861             7.694          3847.000
       203   08 Jun 2027 05:00:51.519   08 Jun 2027 05:02:58.367           126.848         63424.000
       204   08 Jun 2027 05:03:37.642   08 Jun 2027 05:03:37.642             0.000             0.000
       205   08 Jun 2027 05:03:40.636   08 Jun 2027 05:03:45.218             4.582          2291.000
       206   08 Jun 2027 05:04:20.143   08 Jun 2027 05:04:20.246             0.103            51.500
       207   08 Jun 2027 05:05:52.011   08 Jun 2027 05:05:52.011             0.000             0.000
       208   08 Jun 2027 05:06:23.503   08 Jun 2027 05:06:26.990             3.487          1743.500
       209   08 Jun 2027 05:06:43.782   08 Jun 2027 05:06:47.304             3.522          1761.000
       210   08 Jun 2027 05:07:03.168   08 Jun 2027 05:07:03.168             0.000             0.000
       211   08 Jun 2027 05:07:46.631   08 Jun 2027 05:07:49.981             3.350          1675.000
       212   08 Jun 2027 05:09:40.773   08 Jun 2027 05:09:56.464            15.691          7845.500
       213   08 Jun 2027 06:38:33.918   08 Jun 2027 06:39:45.435            71.517         35758.500
       214   08 Jun 2027 06:40:18.146   08 Jun 2027 06:40:42.087            23.941         11970.500
       215   08 Jun 2027 06:41:08.629   08 Jun 2027 06:41:19.990            11.361          5680.500
       216   08 Jun 2027 06:41:36.652   08 Jun 2027 06:41:38.452             1.800           900.000
       217   08 Jun 2027 06:42:07.973   08 Jun 2027 06:42:10.345             2.372          1186.000
       218   08 Jun 2027 06:42:44.937   08 Jun 2027 06:42:50.413             5.476          2738.000
       219   08 Jun 2027 06:44:13.080   08 Jun 2027 06:44:21.279             8.199          4099.500
       220   08 Jun 2027 06:45:04.203   08 Jun 2027 06:45:08.703             4.500          2250.000
       221   08 Jun 2027 06:45:25.375   08 Jun 2027 06:45:25.944             0.569           284.500
       222   08 Jun 2027 08:15:22.058   08 Jun 2027 08:16:00.220            38.162         19081.000
       223   08 Jun 2027 08:16:54.659   08 Jun 2027 08:17:06.554            11.895          2883.562
       224   08 Jun 2027 08:18:40.005   08 Jun 2027 08:18:45.822             5.817          2461.406
       225   08 Jun 2027 08:19:16.695   08 Jun 2027 08:19:18.334             1.639           787.531
       226   08 Jun 2027 08:19:38.655   08 Jun 2027 08:19:43.460             4.805           635.031
       227   08 Jun 2027 08:20:03.152   08 Jun 2027 08:20:04.702             1.550           560.594
       228   08 Jun 2027 08:20:20.682   08 Jun 2027 08:20:24.273             3.591           442.281
       229   08 Jun 2027 08:20:25.068   08 Jun 2027 08:20:25.625             0.557            24.844
       230   08 Jun 2027 08:21:02.388   08 Jun 2027 08:21:02.388             0.000             0.000
       231   08 Jun 2027 08:21:26.642   08 Jun 2027 08:21:30.893             4.251          1823.406
       232   08 Jun 2027 09:53:23.683   08 Jun 2027 09:53:42.160            18.477          9002.188
       233   08 Jun 2027 09:54:07.478   08 Jun 2027 09:54:16.584             9.106           754.313
       234   08 Jun 2027 09:54:26.241   08 Jun 2027 09:54:27.365             1.124           278.125
       235   08 Jun 2027 09:55:09.031   08 Jun 2027 09:55:10.202             1.171           585.500
       236   08 Jun 2027 09:55:18.353   08 Jun 2027 09:55:20.976             2.623           783.313
       237   08 Jun 2027 09:56:07.080   08 Jun 2027 09:56:08.594             1.514           757.000
       238   08 Jun 2027 09:56:37.264   08 Jun 2027 09:56:41.421             4.157          1579.688
       239   08 Jun 2027 09:57:07.125   08 Jun 2027 09:57:09.770             2.645           725.937
       240   08 Jun 2027 09:57:21.942   08 Jun 2027 09:57:24.201             2.259           262.750
       241   08 Jun 2027 11:27:16.477   08 Jun 2027 11:27:24.024             7.547          1897.469
       242   08 Jun 2027 11:28:35.028   08 Jun 2027 11:28:39.675             4.647          2101.125
       243   08 Jun 2027 11:29:31.922   08 Jun 2027 11:29:35.362             3.440          1632.719
       244   08 Jun 2027 11:30:05.141   08 Jun 2027 11:30:08.265             3.124           831.219
       245   08 Jun 2027 11:30:45.917   08 Jun 2027 11:30:47.660             1.743           776.594
       246   08 Jun 2027 11:31:09.318   08 Jun 2027 11:31:09.318             0.000             0.000
       247   08 Jun 2027 11:31:23.319   08 Jun 2027 11:31:27.318             3.999           830.000
       248   08 Jun 2027 11:31:43.306   08 Jun 2027 11:31:45.390             2.084           390.844
       249   08 Jun 2027 11:32:06.558   08 Jun 2027 11:32:06.558             0.000             0.000
       250   08 Jun 2027 11:32:40.053   08 Jun 2027 11:32:45.416             5.363          1630.156
       251   08 Jun 2027 11:33:00.553   08 Jun 2027 11:33:04.772             4.219           411.719
       252   08 Jun 2027 11:33:44.497   08 Jun 2027 11:33:46.341             1.844            94.000
       253   09 Jun 2027 03:37:34.402   09 Jun 2027 03:38:19.111            44.709         22354.500
       254   09 Jun 2027 03:38:43.660   09 Jun 2027 03:38:52.346             8.686          4343.000
       255   09 Jun 2027 03:41:59.759   09 Jun 2027 03:41:59.759             0.000             0.000
       256   09 Jun 2027 05:12:27.002   09 Jun 2027 05:15:07.606           160.604         80302.000
       257   09 Jun 2027 05:17:35.228   09 Jun 2027 05:17:35.228             0.000             0.000
       258   09 Jun 2027 05:19:36.230   09 Jun 2027 05:19:38.448             2.218          1109.000
       259   09 Jun 2027 05:21:35.770   09 Jun 2027 05:21:39.837             4.067          2033.500
       260   09 Jun 2027 05:22:03.800   09 Jun 2027 05:22:03.800             0.000             0.000
       261   09 Jun 2027 06:50:37.155   09 Jun 2027 06:52:22.192           105.037         52518.500
       262   09 Jun 2027 06:53:51.711   09 Jun 2027 06:53:51.711             0.000             0.000
       263   09 Jun 2027 06:54:18.466   09 Jun 2027 06:54:31.743            13.277          6638.500
       264   09 Jun 2027 06:56:03.954   09 Jun 2027 06:56:31.140            27.186          9892.813
       265   09 Jun 2027 06:57:58.188   09 Jun 2027 06:57:58.188             0.000             0.000
       266   09 Jun 2027 08:27:31.900   09 Jun 2027 08:27:43.189            11.289          5644.500
       267   09 Jun 2027 08:28:04.836   09 Jun 2027 08:28:32.374            27.538         13674.906
       268   09 Jun 2027 08:28:33.563   09 Jun 2027 08:28:34.457             0.894            28.750
       269   09 Jun 2027 08:30:02.607   09 Jun 2027 08:30:11.518             8.911          2754.688
       270   09 Jun 2027 08:30:44.392   09 Jun 2027 08:30:48.641             4.249           999.344
       271   09 Jun 2027 08:32:14.100   09 Jun 2027 08:32:15.704             1.604           802.000
       272   09 Jun 2027 08:32:29.744   09 Jun 2027 08:32:35.500             5.756          2271.750
       273   09 Jun 2027 08:32:59.446   09 Jun 2027 08:33:00.874             1.428           710.188
       274   09 Jun 2027 08:33:15.508   09 Jun 2027 08:33:15.508             0.000             0.000
       275   09 Jun 2027 08:33:23.597   09 Jun 2027 08:33:29.517             5.920           710.094
       276   09 Jun 2027 10:04:38.288   09 Jun 2027 10:04:58.302            20.014          9054.875
       277   09 Jun 2027 10:05:22.246   09 Jun 2027 10:05:23.480             1.234           542.313
       278   09 Jun 2027 10:06:31.825   09 Jun 2027 10:06:40.143             8.318          2130.500
       279   09 Jun 2027 10:07:10.855   09 Jun 2027 10:07:13.917             3.062           959.750
       280   09 Jun 2027 10:08:03.805   09 Jun 2027 10:08:09.731             5.926          1168.344
       281   09 Jun 2027 10:08:26.227   09 Jun 2027 10:08:26.227             0.000             0.000
       282   09 Jun 2027 10:08:39.855   09 Jun 2027 10:08:42.566             2.711           938.188
       283   09 Jun 2027 10:08:46.766   09 Jun 2027 10:08:46.993             0.227            97.719
       284   09 Jun 2027 10:08:58.120   09 Jun 2027 10:08:59.086             0.966           274.281
       285   09 Jun 2027 10:09:30.303   09 Jun 2027 10:09:31.986             1.683           841.500
       286   09 Jun 2027 11:39:37.244   09 Jun 2027 11:39:42.161             4.917          2200.938
       287   09 Jun 2027 11:41:20.516   09 Jun 2027 11:41:28.083             7.567          1898.500
       288   09 Jun 2027 11:42:06.696   09 Jun 2027 11:42:10.203             3.507           878.406
       289   09 Jun 2027 11:42:18.024   09 Jun 2027 11:42:19.638             1.614           244.406
       290   09 Jun 2027 11:42:57.271   09 Jun 2027 11:43:00.541             3.270          1176.031
       291   09 Jun 2027 11:43:41.841   09 Jun 2027 11:43:46.008             4.167          1290.625
       292   10 Jun 2027 03:52:01.780   10 Jun 2027 03:52:31.506            29.726         14863.000
       293   10 Jun 2027 03:52:47.809   10 Jun 2027 03:53:04.035            16.226          8113.000
       294   10 Jun 2027 03:53:19.855   10 Jun 2027 03:53:28.971             9.116          4558.000
       295   10 Jun 2027 03:53:42.067   10 Jun 2027 03:53:47.411             5.344          2672.000
       296   10 Jun 2027 03:54:27.171   10 Jun 2027 03:54:27.171             0.000             0.000
       297   10 Jun 2027 03:54:35.388   10 Jun 2027 03:54:43.020             7.632          3816.000
       298   10 Jun 2027 05:25:30.997   10 Jun 2027 05:28:16.368           165.371         82685.500
       299   10 Jun 2027 05:29:33.470   10 Jun 2027 05:29:39.106             5.636          2818.000
       300   10 Jun 2027 05:34:01.672   10 Jun 2027 05:34:03.476             1.804           902.000
       301   10 Jun 2027 07:03:03.270   10 Jun 2027 07:05:07.188           123.918         61959.000
       302   10 Jun 2027 07:05:27.273   10 Jun 2027 07:05:33.058             5.785          2171.468
       303   10 Jun 2027 07:05:54.997   10 Jun 2027 07:05:55.144             0.147            73.500
       304   10 Jun 2027 07:06:39.836   10 Jun 2027 07:06:44.090             4.254          1819.875
       305   10 Jun 2027 07:08:01.255   10 Jun 2027 07:08:02.105             0.850           425.000
       306   10 Jun 2027 08:39:59.085   10 Jun 2027 08:40:29.871            30.786         12364.281
       307   10 Jun 2027 08:41:12.795   10 Jun 2027 08:41:14.299             1.504           752.000
       308   10 Jun 2027 08:41:29.279   10 Jun 2027 08:41:31.707             2.428           796.031
       309   10 Jun 2027 08:42:22.339   10 Jun 2027 08:42:30.611             8.272          1377.687
       310   10 Jun 2027 08:43:34.811   10 Jun 2027 08:43:38.771             3.960          1932.625
       311   10 Jun 2027 08:45:03.371   10 Jun 2027 08:45:05.057             1.686           843.000
       312   10 Jun 2027 08:45:17.048   10 Jun 2027 08:45:24.728             7.680          2149.281
       313   10 Jun 2027 10:16:50.096   10 Jun 2027 10:17:07.323            17.227          7663.563
       314   10 Jun 2027 10:17:45.651   10 Jun 2027 10:17:46.641             0.990           495.000
       315   10 Jun 2027 10:17:51.851   10 Jun 2027 10:17:55.710             3.859           661.719
       316   10 Jun 2027 10:18:50.880   10 Jun 2027 10:18:55.624             4.744          1448.031
       317   10 Jun 2027 10:19:33.535   10 Jun 2027 10:19:36.204             2.669          1144.062
       318   10 Jun 2027 10:20:41.470   10 Jun 2027 10:20:44.305             2.835          1238.062
       319   10 Jun 2027 10:21:06.305   10 Jun 2027 10:21:06.305             0.000             0.000
       320   10 Jun 2027 11:54:23.196   10 Jun 2027 11:54:28.850             5.654          2686.531
       321   10 Jun 2027 11:54:59.924   10 Jun 2027 11:54:59.924             0.000             0.000
       322   10 Jun 2027 11:55:07.573   10 Jun 2027 11:55:09.602             2.029           684.437
       323   10 Jun 2027 11:56:19.298   10 Jun 2027 11:56:26.289             6.991          1451.969
       324   11 Jun 2027 04:04:03.150   11 Jun 2027 04:04:48.445            45.295         22647.500
       325   11 Jun 2027 04:05:14.679   11 Jun 2027 04:05:33.152            18.473          9236.500
       326   11 Jun 2027 05:38:10.583   11 Jun 2027 05:40:17.516           126.933         63466.500
       327   11 Jun 2027 05:40:24.065   11 Jun 2027 05:40:30.786             6.721          3360.500
       328   11 Jun 2027 05:42:00.596   11 Jun 2027 05:42:00.596             0.000             0.000
       329   11 Jun 2027 05:45:00.173   11 Jun 2027 05:45:17.004            16.831          8415.500
       330   11 Jun 2027 05:45:52.026   11 Jun 2027 05:45:53.769             1.743           871.500
       331   11 Jun 2027 07:15:09.108   11 Jun 2027 07:17:28.322           139.214         69469.719
       332   11 Jun 2027 07:18:09.817   11 Jun 2027 07:18:13.738             3.921          1296.719
       333   11 Jun 2027 07:19:29.459   11 Jun 2027 07:19:34.057             4.598          2274.719
       334   11 Jun 2027 07:20:59.289   11 Jun 2027 07:21:01.786             2.497          1248.500
       335   11 Jun 2027 08:52:47.375   11 Jun 2027 08:53:17.738            30.363         15181.500
       336   11 Jun 2027 08:53:32.924   11 Jun 2027 08:53:34.899             1.975           646.375
       337   11 Jun 2027 08:54:09.378   11 Jun 2027 08:54:12.366             2.988           936.531
       338   11 Jun 2027 08:54:34.985   11 Jun 2027 08:54:39.864             4.879           706.844
       339   11 Jun 2027 08:54:58.935   11 Jun 2027 08:55:00.146             1.211            47.563
       340   11 Jun 2027 08:55:24.623   11 Jun 2027 08:55:25.709             1.086           507.094
       341   11 Jun 2027 08:56:07.692   11 Jun 2027 08:56:12.031             4.339          1311.969
       342   11 Jun 2027 08:56:28.430   11 Jun 2027 08:56:32.693             4.263           512.469
       343   11 Jun 2027 08:57:05.551   11 Jun 2027 08:57:08.586             3.035           509.813
       344   11 Jun 2027 10:28:53.399   11 Jun 2027 10:29:12.251            18.852          8859.781
       345   11 Jun 2027 10:29:39.274   11 Jun 2027 10:29:40.947             1.673           715.937
       346   11 Jun 2027 10:29:54.791   11 Jun 2027 10:29:54.791             0.000             0.000
       347   11 Jun 2027 10:30:02.798   11 Jun 2027 10:30:08.831             6.033           600.156
       348   11 Jun 2027 10:30:51.963   11 Jun 2027 10:30:57.317             5.354          1260.906
       349   11 Jun 2027 10:31:42.390   11 Jun 2027 10:31:45.810             3.420          1144.313
       350   11 Jun 2027 10:32:33.449   11 Jun 2027 10:32:39.584             6.135          1293.406
       351   11 Jun 2027 10:32:46.201   11 Jun 2027 10:32:49.785             3.584           206.781
       352   12 Jun 2027 04:16:42.435   12 Jun 2027 04:17:22.805            40.370         20185.000
       353   12 Jun 2027 04:18:15.585   12 Jun 2027 04:18:35.574            19.989          9994.500
       354   12 Jun 2027 05:51:23.253   12 Jun 2027 05:53:29.210           125.957         62978.500
       355   12 Jun 2027 05:53:57.171   12 Jun 2027 05:54:17.889            20.718         10359.000
       356   12 Jun 2027 05:56:56.570   12 Jun 2027 05:57:12.054            15.484          7742.000
       357   12 Jun 2027 05:57:53.799   12 Jun 2027 05:58:00.023             6.224          3112.000
       358   12 Jun 2027 07:27:45.247   12 Jun 2027 07:29:47.383           122.136         60149.657
       359   12 Jun 2027 07:30:25.420   12 Jun 2027 07:30:27.785             2.365           887.656
       360   12 Jun 2027 07:31:24.289   12 Jun 2027 07:31:25.741             1.452           726.000
       361   12 Jun 2027 07:32:33.176   12 Jun 2027 07:32:39.078             5.902          2951.000
       362   12 Jun 2027 09:05:03.481   12 Jun 2027 09:05:38.919            35.438         15269.344
       363   12 Jun 2027 09:05:50.501   12 Jun 2027 09:05:51.579             1.078           361.938
       364   12 Jun 2027 09:06:19.029   12 Jun 2027 09:06:19.029             0.000             0.000
       365   12 Jun 2027 09:07:22.801   12 Jun 2027 09:07:29.416             6.615          2850.688
       366   12 Jun 2027 09:07:57.602   12 Jun 2027 09:08:02.546             4.944           880.812
       367   12 Jun 2027 09:08:34.085   12 Jun 2027 09:08:37.359             3.274           979.750
       368   12 Jun 2027 09:08:44.934   12 Jun 2027 09:08:45.413             0.479           236.719
       369   12 Jun 2027 09:09:06.136   12 Jun 2027 09:09:06.136             0.000             0.000
       370   12 Jun 2027 10:41:15.223   12 Jun 2027 10:41:33.438            18.215          9078.156
       371   12 Jun 2027 10:42:13.192   12 Jun 2027 10:42:16.197             3.005           904.687
       372   12 Jun 2027 10:42:47.686   12 Jun 2027 10:42:48.066             0.380           190.000
       373   12 Jun 2027 10:43:08.276   12 Jun 2027 10:43:18.224             9.948          1425.594
       374   12 Jun 2027 10:43:53.603   12 Jun 2027 10:43:58.709             5.106           947.875
       375   12 Jun 2027 10:44:31.833   12 Jun 2027 10:44:33.738             1.905           927.219
       376   12 Jun 2027 10:45:17.327   12 Jun 2027 10:45:27.105             9.778          1066.062
       377   12 Jun 2027 10:45:32.325   12 Jun 2027 10:45:32.325             0.000             0.000
       378   13 Jun 2027 04:28:08.214   13 Jun 2027 04:28:12.039             3.825          1912.500
       379   13 Jun 2027 04:28:46.942   13 Jun 2027 04:29:04.611            17.669          8834.500
       380   13 Jun 2027 04:29:43.882   13 Jun 2027 04:30:38.554            54.672         27336.000
       381   13 Jun 2027 04:31:42.263   13 Jun 2027 04:31:44.839             2.576          1288.000
       382   13 Jun 2027 06:03:05.795   13 Jun 2027 06:04:53.014           107.219         53609.500
       383   13 Jun 2027 06:06:02.344   13 Jun 2027 06:06:07.924             5.580          2790.000
       384   13 Jun 2027 06:06:43.582   13 Jun 2027 06:06:43.582             0.000             0.000
       385   13 Jun 2027 06:08:45.299   13 Jun 2027 06:09:13.569            28.270         14135.000
       386   13 Jun 2027 06:09:35.230   13 Jun 2027 06:09:46.733            11.503          5751.500
       387   13 Jun 2027 07:39:18.092   13 Jun 2027 07:41:26.985           128.893         64178.688
       388   13 Jun 2027 07:42:28.852   13 Jun 2027 07:42:33.202             4.350          1808.438
       389   13 Jun 2027 07:43:19.775   13 Jun 2027 07:43:20.640             0.865           432.500
       390   13 Jun 2027 07:43:35.283   13 Jun 2027 07:43:38.001             2.718          1357.125
       391   13 Jun 2027 07:44:40.846   13 Jun 2027 07:44:42.689             1.843           921.500
       392   13 Jun 2027 07:44:54.706   13 Jun 2027 07:44:59.375             4.669           558.719
       393   13 Jun 2027 07:45:30.299   13 Jun 2027 07:45:34.340             4.041           950.500
       394   13 Jun 2027 09:17:18.844   13 Jun 2027 09:17:44.889            26.045         10845.219
       395   13 Jun 2027 09:18:19.447   13 Jun 2027 09:18:22.052             2.605           716.437
       396   13 Jun 2027 09:19:03.508   13 Jun 2027 09:19:11.076             7.568          1295.500
       397   13 Jun 2027 09:19:21.997   13 Jun 2027 09:19:24.833             2.836           341.281
       398   13 Jun 2027 09:19:42.682   13 Jun 2027 09:19:45.237             2.555           557.781
       399   13 Jun 2027 09:20:38.707   13 Jun 2027 09:20:41.951             3.244          1578.031
       400   13 Jun 2027 09:20:51.571   13 Jun 2027 09:20:53.396             1.825           136.562
       401   13 Jun 2027 09:21:01.296   13 Jun 2027 09:21:01.721             0.425           153.500
       402   13 Jun 2027 10:52:59.279   13 Jun 2027 10:53:15.007            15.728          7101.094
       403   13 Jun 2027 10:54:32.082   13 Jun 2027 10:54:38.113             6.031          1767.000
       404   13 Jun 2027 10:54:42.849   13 Jun 2027 10:54:44.061             1.212            77.250
       405   13 Jun 2027 10:55:07.545   13 Jun 2027 10:55:07.545             0.000             0.000
       406   13 Jun 2027 10:56:03.769   13 Jun 2027 10:56:08.586             4.817          2408.500
       407   13 Jun 2027 10:56:32.501   13 Jun 2027 10:56:39.455             6.954           829.719
       408   13 Jun 2027 10:56:56.447   13 Jun 2027 10:56:57.391             0.944           296.625
       409   13 Jun 2027 10:57:59.129   13 Jun 2027 10:58:04.456             5.327          1503.281
