uniorb/output/strategy_1/Camera/Camera_KinoSat_111306.txt

KinoSat_111306
-------------------------
    Access    *     Start Time (UTCG)     *     Stop Time (UTCG)  *   Duration (s) *   Data (Mbytes)
         1   01 Jun 2027 03:17:48.996   01 Jun 2027 03:19:37.018           108.022         54011.000
         2   01 Jun 2027 03:20:15.707   01 Jun 2027 03:20:22.396             6.689          3344.500
         3   01 Jun 2027 03:21:13.979   01 Jun 2027 03:21:20.508             6.529          3264.500
         4   01 Jun 2027 03:21:46.557   01 Jun 2027 03:22:12.552            25.995         12997.500
         5   01 Jun 2027 03:24:38.181   01 Jun 2027 03:24:47.883             9.702          4851.000
         6   01 Jun 2027 04:42:01.762   01 Jun 2027 04:42:44.381            42.619         21309.500
         7   01 Jun 2027 04:54:15.692   01 Jun 2027 04:54:47.747            32.055         16027.500
         8   01 Jun 2027 06:16:12.296   01 Jun 2027 06:17:23.410            71.114         35557.000
         9   01 Jun 2027 06:18:14.848   01 Jun 2027 06:18:20.760             5.912          2956.000
        10   01 Jun 2027 06:21:06.628   01 Jun 2027 06:21:18.826            12.198          6099.000
        11   01 Jun 2027 07:51:00.681   01 Jun 2027 07:52:55.273           114.592         57296.000
        12   01 Jun 2027 07:54:12.671   01 Jun 2027 07:54:27.233            14.562          7281.000
        13   01 Jun 2027 07:55:05.014   01 Jun 2027 07:55:16.510            11.496          5748.000
        14   01 Jun 2027 07:56:42.065   01 Jun 2027 07:56:42.725             0.660           330.000
        15   01 Jun 2027 07:57:51.624   01 Jun 2027 07:57:52.808             1.184           592.000
        16   01 Jun 2027 07:58:00.238   01 Jun 2027 07:58:04.778             4.540          2270.000
        17   01 Jun 2027 09:28:49.114   01 Jun 2027 09:30:55.302           126.188         63094.000
        18   01 Jun 2027 09:34:31.888   01 Jun 2027 09:34:31.888             0.000             0.000
        19   01 Jun 2027 09:34:49.445   01 Jun 2027 09:34:52.826             3.381          1690.500
        20   01 Jun 2027 09:35:57.397   01 Jun 2027 09:35:59.853             2.456          1228.000
        21   01 Jun 2027 11:05:33.733   01 Jun 2027 11:05:59.153            25.420         12710.000
        22   01 Jun 2027 11:06:02.525   01 Jun 2027 11:07:57.876           115.351         57675.500
        23   01 Jun 2027 11:09:37.812   01 Jun 2027 11:09:46.007             8.195          4097.500
        24   01 Jun 2027 11:10:34.992   01 Jun 2027 11:10:50.050            15.058          7529.000
        25   01 Jun 2027 11:12:03.800   01 Jun 2027 11:12:09.479             5.679          2839.500
        26   02 Jun 2027 03:29:59.384   02 Jun 2027 03:31:30.550            91.166         45583.000
        27   02 Jun 2027 03:31:52.452   02 Jun 2027 03:32:07.301            14.849          7424.500
        28   02 Jun 2027 03:32:19.409   02 Jun 2027 03:32:20.969             1.560           780.000
        29   02 Jun 2027 03:32:43.849   02 Jun 2027 03:32:51.507             7.658          3829.000
        30   02 Jun 2027 03:33:29.978   02 Jun 2027 03:33:36.708             6.730          3365.000
        31   02 Jun 2027 03:35:06.593   02 Jun 2027 03:35:10.550             3.957          1978.500
        32   02 Jun 2027 04:54:01.274   02 Jun 2027 04:54:47.218            45.944         22972.000
        33   02 Jun 2027 04:54:55.971   02 Jun 2027 04:55:11.070            15.099          7549.500
        34   02 Jun 2027 06:29:58.544   02 Jun 2027 06:31:30.176            91.632         45816.000
        35   02 Jun 2027 06:32:04.974   02 Jun 2027 06:32:10.959             5.985          2992.500
        36   02 Jun 2027 06:32:13.276   02 Jun 2027 06:32:20.606             7.330          3665.000
        37   02 Jun 2027 08:03:48.979   02 Jun 2027 08:05:50.807           121.828         60914.000
        38   02 Jun 2027 08:10:09.340   02 Jun 2027 08:10:20.251            10.911          5455.500
        39   02 Jun 2027 08:11:00.112   02 Jun 2027 08:11:06.361             6.249          3124.500
        40   02 Jun 2027 08:11:51.545   02 Jun 2027 08:12:13.673            22.128         11064.000
        41   02 Jun 2027 09:40:55.649   02 Jun 2027 09:42:53.695           118.046         59023.000
        42   02 Jun 2027 09:45:51.977   02 Jun 2027 09:45:51.977             0.000             0.000
        43   02 Jun 2027 09:46:04.807   02 Jun 2027 09:46:16.863            12.056          6028.000
        44   02 Jun 2027 09:47:31.241   02 Jun 2027 09:47:44.515            13.274          6637.000
        45   02 Jun 2027 11:17:57.649   02 Jun 2027 11:18:17.288            19.639          9819.500
        46   02 Jun 2027 11:18:22.791   02 Jun 2027 11:19:58.208            95.417         47708.500
        47   02 Jun 2027 11:20:05.325   02 Jun 2027 11:20:06.289             0.964           482.000
        48   02 Jun 2027 11:21:27.994   02 Jun 2027 11:21:36.098             8.104          4052.000
        49   02 Jun 2027 11:22:24.453   02 Jun 2027 11:22:29.247             4.794          2397.000
        50   03 Jun 2027 03:42:33.983   03 Jun 2027 03:44:46.844           132.861         66430.500
        51   03 Jun 2027 03:45:19.168   03 Jun 2027 03:45:19.278             0.110            55.000
        52   03 Jun 2027 05:05:55.831   03 Jun 2027 05:06:49.971            54.140         27070.000
        53   03 Jun 2027 06:42:19.745   03 Jun 2027 06:44:03.097           103.352         51676.000
        54   03 Jun 2027 06:44:36.628   03 Jun 2027 06:44:36.871             0.243           121.500
        55   03 Jun 2027 06:44:52.211   03 Jun 2027 06:45:07.154            14.943          7471.500
        56   03 Jun 2027 08:15:47.570   03 Jun 2027 08:17:48.957           121.387         60693.500
        57   03 Jun 2027 08:21:02.376   03 Jun 2027 08:21:02.376             0.000             0.000
        58   03 Jun 2027 08:21:41.208   03 Jun 2027 08:22:18.400            37.192         18596.000
        59   03 Jun 2027 08:22:20.944   03 Jun 2027 08:22:21.735             0.791           395.500
        60   03 Jun 2027 08:24:00.236   03 Jun 2027 08:24:06.745             6.509          3254.500
        61   03 Jun 2027 09:53:21.502   03 Jun 2027 09:54:32.179            70.677         35338.500
        62   03 Jun 2027 09:54:49.346   03 Jun 2027 09:54:55.750             6.404          3202.000
        63   03 Jun 2027 09:56:32.959   03 Jun 2027 09:56:33.237             0.278           139.000
        64   03 Jun 2027 09:57:02.489   03 Jun 2027 09:57:20.843            18.354          6969.561
        65   03 Jun 2027 09:59:49.118   03 Jun 2027 09:59:49.118             0.000             0.000
        66   03 Jun 2027 11:30:15.319   03 Jun 2027 11:30:46.068            30.749         13001.563
        67   03 Jun 2027 11:31:27.952   03 Jun 2027 11:31:31.303             3.351          1308.875
        68   03 Jun 2027 11:33:03.356   03 Jun 2027 11:33:16.956            13.600          2743.188
        69   03 Jun 2027 11:35:31.852   03 Jun 2027 11:35:42.369            10.517          3837.594
        70   04 Jun 2027 03:54:11.848   04 Jun 2027 03:55:49.098            97.250         48625.000
        71   04 Jun 2027 03:56:35.378   04 Jun 2027 03:56:39.462             4.084          2042.000
        72   04 Jun 2027 03:57:08.017   04 Jun 2027 03:57:16.127             8.110          4055.000
        73   04 Jun 2027 05:17:43.284   04 Jun 2027 05:18:52.606            69.322         34661.000
        74   04 Jun 2027 06:54:21.210   04 Jun 2027 06:56:18.904           117.694         58847.000
        75   04 Jun 2027 06:56:51.940   04 Jun 2027 06:56:54.205             2.265          1132.500
        76   04 Jun 2027 08:29:16.387   04 Jun 2027 08:29:56.226            39.839         19233.281
        77   04 Jun 2027 08:30:09.067   04 Jun 2027 08:30:09.067             0.000             0.000
        78   04 Jun 2027 08:30:25.710   04 Jun 2027 08:30:26.697             0.987           493.500
        79   04 Jun 2027 08:30:42.315   04 Jun 2027 08:30:44.983             2.668           771.656
        80   04 Jun 2027 08:31:49.069   04 Jun 2027 08:31:53.536             4.467          1193.344
        81   04 Jun 2027 08:32:55.780   04 Jun 2027 08:32:59.656             3.876          1627.281
        82   04 Jun 2027 08:34:13.569   04 Jun 2027 08:34:21.930             8.361          2304.563
        83   04 Jun 2027 08:35:35.367   04 Jun 2027 08:35:40.710             5.343          2294.906
        84   04 Jun 2027 10:05:29.061   04 Jun 2027 10:05:46.302            17.241          7043.031
        85   04 Jun 2027 10:06:41.267   04 Jun 2027 10:06:44.055             2.788           979.813
        86   04 Jun 2027 10:07:03.998   04 Jun 2027 10:07:06.586             2.588           623.219
        87   04 Jun 2027 10:07:24.233   04 Jun 2027 10:07:33.107             8.874           430.094
        88   04 Jun 2027 10:08:02.968   04 Jun 2027 10:08:07.322             4.354           933.156
        89   04 Jun 2027 10:08:36.189   04 Jun 2027 10:08:41.113             4.924           875.094
        90   04 Jun 2027 10:09:43.363   04 Jun 2027 10:09:49.792             6.429          1945.312
        91   04 Jun 2027 10:10:13.477   04 Jun 2027 10:10:15.196             1.719           700.594
        92   04 Jun 2027 10:10:32.708   04 Jun 2027 10:10:34.709             2.001           547.250
        93   04 Jun 2027 10:11:45.924   04 Jun 2027 10:11:49.104             3.180          1352.000
        94   04 Jun 2027 10:11:56.808   04 Jun 2027 10:11:56.957             0.149            32.031
        95   04 Jun 2027 10:12:04.884   04 Jun 2027 10:12:05.672             0.788           142.469
        96   04 Jun 2027 11:43:12.078   04 Jun 2027 11:43:25.929            13.851          6369.750
        97   04 Jun 2027 11:43:31.523   04 Jun 2027 11:43:33.203             1.680           130.969
        98   04 Jun 2027 11:44:08.342   04 Jun 2027 11:44:16.046             7.704          1098.094
        99   04 Jun 2027 11:44:33.732   04 Jun 2027 11:44:43.843            10.111           528.125
       100   04 Jun 2027 11:45:39.556   04 Jun 2027 11:45:43.323             3.767          1741.031
       101   04 Jun 2027 11:45:54.207   04 Jun 2027 11:45:56.153             1.946           340.125
       102   04 Jun 2027 11:46:28.479   04 Jun 2027 11:46:31.312             2.833          1010.188
       103   04 Jun 2027 11:47:25.623   04 Jun 2027 11:47:31.411             5.788          1561.188
       104   05 Jun 2027 04:06:34.817   05 Jun 2027 04:07:05.544            30.727         15363.500
       105   05 Jun 2027 04:07:24.067   05 Jun 2027 04:08:31.238            67.171         33585.500
       106   05 Jun 2027 04:08:56.629   05 Jun 2027 04:09:09.938            13.309          6654.500
       107   05 Jun 2027 05:29:57.332   05 Jun 2027 05:31:13.833            76.501         38250.500
       108   05 Jun 2027 05:33:01.722   05 Jun 2027 05:33:01.722             0.000             0.000
       109   05 Jun 2027 07:06:29.217   05 Jun 2027 07:08:22.886           113.669         56834.500
       110   05 Jun 2027 07:08:38.693   05 Jun 2027 07:08:39.253             0.560           280.000
       111   05 Jun 2027 07:09:31.232   05 Jun 2027 07:09:43.772            12.540          6246.593
       112   05 Jun 2027 07:09:55.363   05 Jun 2027 07:09:56.637             1.274           213.344
       113   05 Jun 2027 08:41:39.207   05 Jun 2027 08:41:54.118            14.911          7073.562
       114   05 Jun 2027 08:42:54.008   05 Jun 2027 08:42:58.446             4.438          1842.781
       115   05 Jun 2027 08:43:12.171   05 Jun 2027 08:43:12.171             0.000             0.000
       116   05 Jun 2027 08:44:00.190   05 Jun 2027 08:44:07.978             7.788          1609.500
       117   05 Jun 2027 08:44:44.695   05 Jun 2027 08:44:47.494             2.799           919.500
       118   05 Jun 2027 08:45:07.754   05 Jun 2027 08:45:08.769             1.015           335.094
       119   05 Jun 2027 08:46:55.301   05 Jun 2027 08:47:04.725             9.424          2345.625
       120   05 Jun 2027 08:47:28.486   05 Jun 2027 08:47:30.565             2.079           674.562
       121   05 Jun 2027 08:47:56.385   05 Jun 2027 08:47:57.789             1.404           367.938
       122   05 Jun 2027 10:18:04.628   05 Jun 2027 10:18:19.196            14.568          7073.594
       123   05 Jun 2027 10:18:39.858   05 Jun 2027 10:18:42.066             2.208           324.937
       124   05 Jun 2027 10:19:18.004   05 Jun 2027 10:19:21.778             3.774          1123.063
       125   05 Jun 2027 10:19:44.320   05 Jun 2027 10:19:44.988             0.668           334.000
       126   05 Jun 2027 10:20:14.324   05 Jun 2027 10:20:17.126             2.802          1251.656
       127   05 Jun 2027 10:20:37.703   05 Jun 2027 10:20:38.345             0.642           201.281
       128   05 Jun 2027 10:21:19.999   05 Jun 2027 10:21:23.611             3.612          1301.688
       129   05 Jun 2027 10:22:12.045   05 Jun 2027 10:22:15.495             3.450          1348.219
       130   05 Jun 2027 10:22:25.831   05 Jun 2027 10:22:26.998             1.167           323.000
       131   05 Jun 2027 10:23:17.084   05 Jun 2027 10:23:18.719             1.635           817.500
       132   05 Jun 2027 10:23:32.991   05 Jun 2027 10:23:35.774             2.783           849.656
       133   05 Jun 2027 10:23:47.325   05 Jun 2027 10:23:48.571             1.246           360.969
       134   05 Jun 2027 11:55:19.197   05 Jun 2027 11:55:31.378            12.181          6090.500
       135   05 Jun 2027 11:56:03.937   05 Jun 2027 11:56:05.949             2.012          1006.000
       136   05 Jun 2027 11:56:28.158   05 Jun 2027 11:56:30.125             1.967           983.500
       137   05 Jun 2027 11:57:11.227   05 Jun 2027 11:57:15.146             3.919          1947.000
       138   05 Jun 2027 11:57:41.819   05 Jun 2027 11:57:45.849             4.030           727.281
       139   05 Jun 2027 11:58:00.152   05 Jun 2027 11:58:01.260             1.108           292.500
       140   05 Jun 2027 11:58:51.752   05 Jun 2027 11:58:55.772             4.020          1577.875
       141   05 Jun 2027 11:59:31.997   05 Jun 2027 11:59:31.997             0.000             0.000
       142   06 Jun 2027 04:18:31.602   06 Jun 2027 04:19:10.554            38.952         19476.000
       143   06 Jun 2027 04:19:34.567   06 Jun 2027 04:20:14.523            39.956         19978.000
       144   06 Jun 2027 05:42:00.152   06 Jun 2027 05:44:06.312           126.160         63080.000
       145   06 Jun 2027 05:44:56.024   06 Jun 2027 05:45:03.840             7.816          3908.000
       146   06 Jun 2027 07:18:22.328   06 Jun 2027 07:19:33.641            71.313         35656.500
       147   06 Jun 2027 07:20:46.674   06 Jun 2027 07:21:28.364            41.690         20801.625
       148   06 Jun 2027 07:21:30.001   06 Jun 2027 07:21:30.806             0.805            51.156
       149   06 Jun 2027 07:22:13.487   06 Jun 2027 07:22:13.487             0.000             0.000
       150   06 Jun 2027 08:53:18.376   06 Jun 2027 08:53:31.244            12.868          6129.500
       151   06 Jun 2027 08:55:27.172   06 Jun 2027 08:55:33.795             6.623          3223.906
       152   06 Jun 2027 08:55:49.259   06 Jun 2027 08:55:51.663             2.404           197.000
       153   06 Jun 2027 08:56:30.734   06 Jun 2027 08:56:31.678             0.944           472.000
       154   06 Jun 2027 08:58:54.829   06 Jun 2027 08:59:05.092            10.263          5105.406
       155   06 Jun 2027 08:59:38.128   06 Jun 2027 08:59:39.683             1.555           777.500
       156   06 Jun 2027 09:00:09.997   06 Jun 2027 09:00:15.990             5.993          1202.188
       157   06 Jun 2027 10:29:37.252   06 Jun 2027 10:29:50.569            13.317          6571.000
       158   06 Jun 2027 10:30:36.822   06 Jun 2027 10:30:39.897             3.075           840.750
       159   06 Jun 2027 10:32:06.286   06 Jun 2027 10:32:11.225             4.939          2428.500
       160   06 Jun 2027 10:32:19.846   06 Jun 2027 10:32:22.687             2.841           106.156
       161   06 Jun 2027 10:32:38.546   06 Jun 2027 10:32:39.676             1.130           148.219
       162   06 Jun 2027 10:32:40.057   06 Jun 2027 10:32:40.302             0.245            11.906
       163   06 Jun 2027 10:34:03.759   06 Jun 2027 10:34:15.367            11.608          2565.813
       164   06 Jun 2027 10:34:22.547   06 Jun 2027 10:34:24.400             1.853           224.375
       165   06 Jun 2027 10:34:53.555   06 Jun 2027 10:34:56.110             2.555           821.219
       166   06 Jun 2027 10:35:01.896   06 Jun 2027 10:35:03.833             1.937           180.813
       167   06 Jun 2027 10:35:54.537   06 Jun 2027 10:35:59.928             5.391          1407.344
       168   07 Jun 2027 03:00:00.000   07 Jun 2027 03:00:07.963             7.963          3981.500
       169   07 Jun 2027 03:00:21.492   07 Jun 2027 03:01:04.728            43.236         21618.000
       170   07 Jun 2027 04:19:16.658   07 Jun 2027 04:19:52.006            35.348         17674.000
       171   07 Jun 2027 04:30:28.004   07 Jun 2027 04:31:21.541            53.537         26768.500
       172   07 Jun 2027 04:32:35.057   07 Jun 2027 04:32:36.566             1.509           754.500
       173   07 Jun 2027 05:53:24.201   07 Jun 2027 05:54:52.987            88.786         44393.000
       174   07 Jun 2027 05:57:21.119   07 Jun 2027 05:57:21.119             0.000             0.000
       175   07 Jun 2027 07:28:41.047   07 Jun 2027 07:29:19.373            38.326         19163.000
       176   07 Jun 2027 07:30:06.323   07 Jun 2027 07:30:59.041            52.718         26359.000
       177   07 Jun 2027 07:31:33.832   07 Jun 2027 07:31:57.753            23.921         11960.500
       178   07 Jun 2027 07:32:58.329   07 Jun 2027 07:32:58.329             0.000             0.000
       179   07 Jun 2027 07:33:49.063   07 Jun 2027 07:33:58.231             9.168          4584.000
       180   07 Jun 2027 07:34:10.416   07 Jun 2027 07:34:12.044             1.628           814.000
       181   07 Jun 2027 07:34:21.446   07 Jun 2027 07:34:21.446             0.000             0.000
       182   07 Jun 2027 09:04:51.814   07 Jun 2027 09:05:06.428            14.614          7213.376
       183   07 Jun 2027 09:07:13.425   07 Jun 2027 09:07:21.938             8.513          3688.813
       184   07 Jun 2027 09:08:18.899   07 Jun 2027 09:08:20.923             2.024           735.469
       185   07 Jun 2027 09:09:03.283   07 Jun 2027 09:09:08.055             4.772          1170.781
       186   07 Jun 2027 09:09:49.319   07 Jun 2027 09:09:49.319             0.000             0.000
       187   07 Jun 2027 09:10:53.639   07 Jun 2027 09:10:56.346             2.707          1353.500
       188   07 Jun 2027 09:11:19.221   07 Jun 2027 09:11:29.794            10.573          2531.313
       189   07 Jun 2027 09:11:58.685   07 Jun 2027 09:11:58.685             0.000             0.000
       190   07 Jun 2027 09:12:23.489   07 Jun 2027 09:12:27.544             4.055          1563.000
       191   07 Jun 2027 10:41:56.812   07 Jun 2027 10:42:16.002            19.190          8624.906
       192   07 Jun 2027 10:43:37.828   07 Jun 2027 10:43:41.743             3.915          1362.719
       193   07 Jun 2027 10:44:17.661   07 Jun 2027 10:44:21.893             4.232           912.406
       194   07 Jun 2027 10:44:40.099   07 Jun 2027 10:44:42.532             2.433           373.031
       195   07 Jun 2027 10:45:29.271   07 Jun 2027 10:45:34.255             4.984          1207.781
       196   07 Jun 2027 10:45:53.985   07 Jun 2027 10:45:58.498             4.513           175.250
       197   07 Jun 2027 10:46:02.027   07 Jun 2027 10:46:04.430             2.403            73.063
       198   07 Jun 2027 10:46:08.022   07 Jun 2027 10:46:11.351             3.329           112.250
       199   07 Jun 2027 10:46:44.539   07 Jun 2027 10:46:46.746             2.207           985.406
       200   07 Jun 2027 10:48:00.546   07 Jun 2027 10:48:07.852             7.306          2228.062
       201   08 Jun 2027 03:05:56.311   08 Jun 2027 03:06:38.120            41.809         20904.500
       202   08 Jun 2027 03:07:04.924   08 Jun 2027 03:07:10.826             5.902          2951.000
       203   08 Jun 2027 03:07:58.425   08 Jun 2027 03:08:09.950            11.525          5762.500
       204   08 Jun 2027 03:09:04.477   08 Jun 2027 03:09:11.996             7.519          3759.500
       205   08 Jun 2027 03:09:50.310   08 Jun 2027 03:09:50.706             0.396           198.000
       206   08 Jun 2027 03:11:25.622   08 Jun 2027 03:11:46.042            20.420         10210.000
       207   08 Jun 2027 03:12:41.725   08 Jun 2027 03:13:02.612            20.887         10443.500
       208   08 Jun 2027 04:30:47.725   08 Jun 2027 04:31:10.479            22.754         11377.000
       209   08 Jun 2027 04:42:31.123   08 Jun 2027 04:43:43.884            72.761         36380.500
       210   08 Jun 2027 06:04:43.678   08 Jun 2027 06:05:27.234            43.556         21778.000
       211   08 Jun 2027 06:06:44.404   08 Jun 2027 06:06:44.656             0.252           126.000
       212   08 Jun 2027 06:07:13.588   08 Jun 2027 06:07:34.738            21.150         10575.000
       213   08 Jun 2027 07:39:47.486   08 Jun 2027 07:41:31.004           103.518         51386.593
       214   08 Jun 2027 07:44:57.208   08 Jun 2027 07:44:58.910             1.702           851.000
       215   08 Jun 2027 07:45:35.346   08 Jun 2027 07:45:36.648             1.302           651.000
       216   08 Jun 2027 07:46:34.393   08 Jun 2027 07:46:49.821            15.428          7566.719
       217   08 Jun 2027 09:17:10.210   08 Jun 2027 09:17:21.573            11.363          5681.500
       218   08 Jun 2027 09:18:07.256   08 Jun 2027 09:18:11.351             4.095          1815.375
       219   08 Jun 2027 09:18:31.707   08 Jun 2027 09:18:32.536             0.829            44.156
       220   08 Jun 2027 09:20:08.592   08 Jun 2027 09:20:15.614             7.022          2661.656
       221   08 Jun 2027 09:20:52.042   08 Jun 2027 09:20:55.166             3.124          1066.156
       222   08 Jun 2027 09:21:57.852   08 Jun 2027 09:21:57.852             0.000             0.000
       223   08 Jun 2027 09:23:27.796   08 Jun 2027 09:23:36.626             8.830          4181.625
       224   08 Jun 2027 10:53:58.475   08 Jun 2027 10:54:12.276            13.801          6630.656
       225   08 Jun 2027 10:54:59.057   08 Jun 2027 10:55:03.533             4.476          1369.281
       226   08 Jun 2027 10:56:09.994   08 Jun 2027 10:56:12.616             2.622          1311.000
       227   08 Jun 2027 10:56:22.560   08 Jun 2027 10:56:24.409             1.849           348.625
       228   08 Jun 2027 10:56:50.897   08 Jun 2027 10:56:52.055             1.158           579.000
       229   08 Jun 2027 10:57:19.953   08 Jun 2027 10:57:23.361             3.408           899.687
       230   08 Jun 2027 10:57:50.266   08 Jun 2027 10:57:52.329             2.063           674.437
       231   08 Jun 2027 10:58:15.764   08 Jun 2027 10:58:17.722             1.958           718.062
       232   08 Jun 2027 10:58:19.272   08 Jun 2027 10:58:20.766             1.494            48.437
       233   08 Jun 2027 10:58:28.901   08 Jun 2027 10:58:29.777             0.876           115.281
       234   08 Jun 2027 10:59:39.803   08 Jun 2027 10:59:43.777             3.974          1906.188
       235   08 Jun 2027 11:00:00.451   08 Jun 2027 11:00:02.513             2.062           337.812
       236   08 Jun 2027 11:00:24.105   08 Jun 2027 11:00:25.513             1.408           674.750
       237   09 Jun 2027 03:18:03.199   09 Jun 2027 03:20:08.666           125.467         62733.500
       238   09 Jun 2027 03:21:35.269   09 Jun 2027 03:21:37.455             2.186          1093.000
       239   09 Jun 2027 03:21:40.894   09 Jun 2027 03:21:46.909             6.015          3007.500
       240   09 Jun 2027 03:22:46.679   09 Jun 2027 03:22:54.532             7.853          3926.500
       241   09 Jun 2027 03:24:17.517   09 Jun 2027 03:24:23.284             5.767          2883.500
       242   09 Jun 2027 04:42:18.401   09 Jun 2027 04:42:35.553            17.152          8576.000
       243   09 Jun 2027 04:43:00.214   09 Jun 2027 04:43:11.585            11.371          5685.500
       244   09 Jun 2027 04:43:27.671   09 Jun 2027 04:43:40.176            12.505          6252.500
       245   09 Jun 2027 04:54:31.764   09 Jun 2027 04:55:03.509            31.745         15872.500
       246   09 Jun 2027 06:16:27.612   09 Jun 2027 06:17:16.844            49.232         24616.000
       247   09 Jun 2027 06:19:03.036   09 Jun 2027 06:19:09.307             6.271          3135.500
       248   09 Jun 2027 06:19:41.175   09 Jun 2027 06:19:45.700             4.525          2262.500
       249   09 Jun 2027 06:20:15.309   09 Jun 2027 06:20:15.309             0.000             0.000
       250   09 Jun 2027 06:21:22.923   09 Jun 2027 06:21:22.923             0.000             0.000
       251   09 Jun 2027 07:51:15.717   09 Jun 2027 07:52:40.814            85.097         41881.031
       252   09 Jun 2027 07:53:42.704   09 Jun 2027 07:53:44.133             1.429           714.500
       253   09 Jun 2027 07:54:31.185   09 Jun 2027 07:54:37.158             5.973          2689.938
       254   09 Jun 2027 07:54:46.229   09 Jun 2027 07:54:46.229             0.000             0.000
       255   09 Jun 2027 07:55:06.301   09 Jun 2027 07:55:08.290             1.989           735.375
       256   09 Jun 2027 07:56:17.612   09 Jun 2027 07:56:23.721             6.109          1977.000
       257   09 Jun 2027 07:57:35.644   09 Jun 2027 07:57:40.415             4.771          2082.719
       258   09 Jun 2027 07:57:57.317   09 Jun 2027 07:57:57.999             0.682           312.000
       259   09 Jun 2027 07:58:48.359   09 Jun 2027 07:58:48.359             0.000             0.000
       260   09 Jun 2027 07:59:54.820   09 Jun 2027 07:59:58.000             3.180          1590.000
       261   09 Jun 2027 09:29:05.028   09 Jun 2027 09:29:18.910            13.882          6920.813
       262   09 Jun 2027 09:29:59.281   09 Jun 2027 09:29:59.281             0.000             0.000
       263   09 Jun 2027 09:32:07.297   09 Jun 2027 09:32:07.297             0.000             0.000
       264   09 Jun 2027 09:33:15.400   09 Jun 2027 09:33:32.545            17.145          7349.781
       265   09 Jun 2027 09:34:26.296   09 Jun 2027 09:34:28.936             2.640          1102.812
       266   09 Jun 2027 09:34:33.454   09 Jun 2027 09:34:34.585             1.131           141.188
       267   09 Jun 2027 09:35:08.218   09 Jun 2027 09:35:12.929             4.711          1051.031
       268   09 Jun 2027 09:35:39.314   09 Jun 2027 09:35:40.025             0.711           355.500
       269   09 Jun 2027 09:35:42.395   09 Jun 2027 09:35:45.680             3.285           543.094
       270   09 Jun 2027 09:35:49.108   09 Jun 2027 09:35:49.998             0.890            96.938
       271   09 Jun 2027 09:35:58.018   09 Jun 2027 09:36:01.793             3.775           250.625
       272   09 Jun 2027 09:36:23.705   09 Jun 2027 09:36:25.701             1.996           388.031
       273   09 Jun 2027 11:05:49.435   09 Jun 2027 11:05:56.049             6.614          3307.000
       274   09 Jun 2027 11:06:14.833   09 Jun 2027 11:06:25.156            10.323          4734.375
       275   09 Jun 2027 11:07:09.600   09 Jun 2027 11:07:11.958             2.358           499.625
       276   09 Jun 2027 11:07:52.402   09 Jun 2027 11:07:58.183             5.781           880.937
       277   09 Jun 2027 11:08:17.793   09 Jun 2027 11:08:18.799             1.006           265.031
       278   09 Jun 2027 11:08:38.623   09 Jun 2027 11:08:41.476             2.853           619.500
       279   09 Jun 2027 11:10:02.747   09 Jun 2027 11:10:07.124             4.377          2188.500
       280   09 Jun 2027 11:10:15.088   09 Jun 2027 11:10:16.112             1.024           502.844
       281   09 Jun 2027 11:10:23.419   09 Jun 2027 11:10:29.964             6.545           228.344
       282   09 Jun 2027 11:11:17.194   09 Jun 2027 11:11:20.178             2.984          1475.937
       283   09 Jun 2027 11:11:35.734   09 Jun 2027 11:11:37.834             2.100           342.281
       284   09 Jun 2027 11:11:57.303   09 Jun 2027 11:11:57.303             0.000             0.000
       285   09 Jun 2027 11:12:29.037   09 Jun 2027 11:12:32.501             3.464          1600.094
       286   10 Jun 2027 03:30:15.590   10 Jun 2027 03:32:15.385           119.795         59897.500
       287   10 Jun 2027 03:32:46.555   10 Jun 2027 03:32:55.202             8.647          4323.500
       288   10 Jun 2027 03:33:19.572   10 Jun 2027 03:33:24.527             4.955          2477.500
       289   10 Jun 2027 04:54:17.139   10 Jun 2027 04:54:55.077            37.938         18969.000
       290   10 Jun 2027 06:30:13.829   10 Jun 2027 06:31:47.472            93.643         46821.500
       291   10 Jun 2027 06:32:22.403   10 Jun 2027 06:32:35.439            13.036          6518.000
       292   10 Jun 2027 08:04:04.528   10 Jun 2027 08:04:55.180            50.652         23348.375
       293   10 Jun 2027 08:05:38.838   10 Jun 2027 08:05:42.441             3.603          1325.781
       294   10 Jun 2027 08:06:07.319   10 Jun 2027 08:06:09.643             2.324           530.313
       295   10 Jun 2027 08:07:38.124   10 Jun 2027 08:07:38.124             0.000             0.000
       296   10 Jun 2027 08:08:43.967   10 Jun 2027 08:08:53.912             9.945          4822.625
       297   10 Jun 2027 08:10:27.632   10 Jun 2027 08:10:28.220             0.588           294.000
       298   10 Jun 2027 08:11:04.816   10 Jun 2027 08:11:10.371             5.555          2777.500
       299   10 Jun 2027 08:11:50.568   10 Jun 2027 08:11:53.207             2.639          1319.500
       300   10 Jun 2027 09:41:11.635   10 Jun 2027 09:41:25.844            14.209          6793.375
       301   10 Jun 2027 09:43:52.769   10 Jun 2027 09:43:52.769             0.000             0.000
       302   10 Jun 2027 09:45:16.403   10 Jun 2027 09:45:32.336            15.933          5886.625
       303   10 Jun 2027 09:46:11.284   10 Jun 2027 09:46:14.852             3.568           837.031
       304   10 Jun 2027 09:46:22.835   10 Jun 2027 09:46:23.538             0.703           177.625
       305   10 Jun 2027 09:46:25.047   10 Jun 2027 09:46:27.172             2.125            47.156
       306   10 Jun 2027 09:47:36.563   10 Jun 2027 09:47:41.299             4.736          2168.469
       307   10 Jun 2027 09:48:14.523   10 Jun 2027 09:48:20.378             5.855           962.000
       308   10 Jun 2027 11:18:14.631   10 Jun 2027 11:18:27.906            13.275          6247.781
       309   10 Jun 2027 11:18:50.248   10 Jun 2027 11:18:56.452             6.204           636.719
       310   10 Jun 2027 11:20:13.900   10 Jun 2027 11:20:17.468             3.568          1784.000
       311   10 Jun 2027 11:20:26.727   10 Jun 2027 11:20:28.798             2.071           672.281
       312   10 Jun 2027 11:20:51.279   10 Jun 2027 11:20:53.547             2.268           511.219
       313   10 Jun 2027 11:21:52.840   10 Jun 2027 11:21:57.721             4.881          1852.906
       314   10 Jun 2027 11:22:14.985   10 Jun 2027 11:22:17.506             2.521           504.312
       315   10 Jun 2027 11:22:39.494   10 Jun 2027 11:22:41.780             2.286           675.937
       316   10 Jun 2027 11:23:35.210   10 Jun 2027 11:23:37.511             2.301          1150.500
       317   11 Jun 2027 03:42:50.274   11 Jun 2027 03:45:03.259           132.985         66492.500
       318   11 Jun 2027 03:45:34.665   11 Jun 2027 03:45:36.061             1.396           698.000
       319   11 Jun 2027 05:06:11.497   11 Jun 2027 05:07:05.787            54.290         27145.000
       320   11 Jun 2027 06:42:35.710   11 Jun 2027 06:44:28.852           113.142         56571.000
       321   11 Jun 2027 08:16:23.618   11 Jun 2027 08:16:55.921            32.303         15413.656
       322   11 Jun 2027 08:17:04.645   11 Jun 2027 08:17:05.838             1.193           148.813
       323   11 Jun 2027 08:18:05.992   11 Jun 2027 08:18:07.224             1.232           616.000
       324   11 Jun 2027 08:18:08.827   11 Jun 2027 08:18:10.740             1.913           920.594
       325   11 Jun 2027 08:18:44.299   11 Jun 2027 08:18:46.403             2.104           660.094
       326   11 Jun 2027 08:19:41.649   11 Jun 2027 08:19:48.084             6.435          1726.437
       327   11 Jun 2027 08:20:57.216   11 Jun 2027 08:21:04.137             6.921          1847.000
       328   11 Jun 2027 08:22:06.131   11 Jun 2027 08:22:12.408             6.277          1581.719
       329   11 Jun 2027 08:22:39.462   11 Jun 2027 08:22:43.905             4.443           109.719
       330   11 Jun 2027 08:23:21.277   11 Jun 2027 08:23:22.887             1.610           681.906
       331   11 Jun 2027 08:24:25.050   11 Jun 2027 08:24:32.085             7.035          1942.594
       332   11 Jun 2027 09:53:38.081   11 Jun 2027 09:53:51.626            13.545          5854.500
       333   11 Jun 2027 09:54:22.827   11 Jun 2027 09:54:24.758             1.931           479.219
       334   11 Jun 2027 09:56:09.160   11 Jun 2027 09:56:15.146             5.986          2663.250
       335   11 Jun 2027 09:56:47.581   11 Jun 2027 09:56:49.694             2.113          1013.594
       336   11 Jun 2027 09:58:29.843   11 Jun 2027 09:58:37.390             7.547          3129.656
       337   11 Jun 2027 09:59:11.415   11 Jun 2027 09:59:15.563             4.148           859.594
       338   11 Jun 2027 09:59:53.259   11 Jun 2027 09:59:56.309             3.050           927.469
       339   11 Jun 2027 11:30:34.886   11 Jun 2027 11:30:54.440            19.554          7597.125
       340   11 Jun 2027 11:31:50.931   11 Jun 2027 11:31:52.407             1.476           466.438
       341   11 Jun 2027 11:32:37.784   11 Jun 2027 11:32:40.940             3.156          1357.531
       342   11 Jun 2027 11:32:56.834   11 Jun 2027 11:32:56.834             0.000             0.000
       343   11 Jun 2027 11:33:57.757   11 Jun 2027 11:34:02.930             5.173          1913.875
       344   11 Jun 2027 11:34:42.207   11 Jun 2027 11:34:45.081             2.874          1227.406
       345   11 Jun 2027 11:35:57.145   11 Jun 2027 11:36:04.200             7.055          2252.000
       346   11 Jun 2027 11:36:05.846   11 Jun 2027 11:36:07.366             1.520            51.437
       347   12 Jun 2027 03:54:28.174   12 Jun 2027 03:56:11.916           103.742         51871.000
       348   12 Jun 2027 03:56:49.255   12 Jun 2027 03:56:55.817             6.562          3281.000
       349   12 Jun 2027 03:57:23.497   12 Jun 2027 03:57:31.011             7.514          3757.000
       350   12 Jun 2027 05:17:58.758   12 Jun 2027 05:19:08.414            69.656         34828.000
       351   12 Jun 2027 05:19:18.186   12 Jun 2027 05:19:25.543             7.357          3678.500
       352   12 Jun 2027 06:54:38.700   12 Jun 2027 06:56:30.641           111.941         55970.500
       353   12 Jun 2027 06:56:45.706   12 Jun 2027 06:56:45.706             0.000             0.000
       354   12 Jun 2027 06:57:10.580   12 Jun 2027 06:57:15.791             5.211          2605.500
       355   12 Jun 2027 08:29:37.980   12 Jun 2027 08:30:00.168            22.188         11038.938
       356   12 Jun 2027 08:30:07.452   12 Jun 2027 08:30:11.746             4.294           227.625
       357   12 Jun 2027 08:30:42.964   12 Jun 2027 08:30:45.575             2.611           780.625
       358   12 Jun 2027 08:30:58.929   12 Jun 2027 08:31:00.250             1.321           402.781
       359   12 Jun 2027 08:32:06.610   12 Jun 2027 08:32:06.610             0.000             0.000
       360   12 Jun 2027 08:33:23.094   12 Jun 2027 08:33:31.459             8.365          3591.875
       361   12 Jun 2027 08:33:56.912   12 Jun 2027 08:33:59.900             2.988           637.562
       362   12 Jun 2027 08:34:14.494   12 Jun 2027 08:34:20.125             5.631           456.063
       363   12 Jun 2027 08:34:39.407   12 Jun 2027 08:34:41.240             1.833           572.062
       364   12 Jun 2027 08:34:53.478   12 Jun 2027 08:34:54.909             1.431           382.438
       365   12 Jun 2027 08:35:20.210   12 Jun 2027 08:35:20.681             0.471           235.500
       366   12 Jun 2027 08:35:49.999   12 Jun 2027 08:35:54.966             4.967          1471.343
       367   12 Jun 2027 08:35:59.178   12 Jun 2027 08:36:02.849             3.671           131.625
       368   12 Jun 2027 10:05:45.783   12 Jun 2027 10:06:02.150            16.367          6086.500
       369   12 Jun 2027 10:06:31.237   12 Jun 2027 10:06:32.449             1.212           504.750
       370   12 Jun 2027 10:07:19.035   12 Jun 2027 10:07:23.541             4.506           584.188
       371   12 Jun 2027 10:07:39.407   12 Jun 2027 10:07:51.237            11.830           428.250
       372   12 Jun 2027 10:08:18.806   12 Jun 2027 10:08:22.565             3.759           861.531
       373   12 Jun 2027 10:08:41.814   12 Jun 2027 10:08:46.457             4.643           554.750
       374   12 Jun 2027 10:09:21.708   12 Jun 2027 10:09:24.160             2.452           909.594
       375   12 Jun 2027 10:09:58.170   12 Jun 2027 10:10:00.044             1.874           635.750
       376   12 Jun 2027 10:10:28.789   12 Jun 2027 10:10:31.930             3.141           659.750
       377   12 Jun 2027 10:10:47.272   12 Jun 2027 10:10:47.456             0.184            92.000
       378   12 Jun 2027 10:11:17.290   12 Jun 2027 10:11:20.742             3.452          1283.563
       379   12 Jun 2027 10:11:36.161   12 Jun 2027 10:11:39.255             3.094           344.312
       380   12 Jun 2027 10:11:55.055   12 Jun 2027 10:11:56.769             1.714           493.750
       381   12 Jun 2027 10:12:10.992   12 Jun 2027 10:12:12.314             1.322           444.469
       382   12 Jun 2027 10:12:14.705   12 Jun 2027 10:12:19.329             4.624            74.719
       383   12 Jun 2027 11:43:29.962   12 Jun 2027 11:43:42.785            12.823          6411.500
       384   12 Jun 2027 11:43:46.959   12 Jun 2027 11:43:46.959             0.000             0.000
       385   12 Jun 2027 11:44:04.454   12 Jun 2027 11:44:08.303             3.849           835.593
       386   12 Jun 2027 11:44:33.584   12 Jun 2027 11:44:37.196             3.612           671.781
       387   12 Jun 2027 11:44:58.504   12 Jun 2027 11:45:00.387             1.883           258.500
       388   12 Jun 2027 11:45:42.379   12 Jun 2027 11:45:50.575             8.196          1258.781
       389   12 Jun 2027 11:45:56.350   12 Jun 2027 11:45:58.214             1.864           180.469
       390   12 Jun 2027 11:46:12.579   12 Jun 2027 11:46:14.065             1.486           407.406
       391   12 Jun 2027 11:46:45.273   12 Jun 2027 11:46:52.456             7.183           975.250
       392   12 Jun 2027 11:47:40.912   12 Jun 2027 11:47:47.168             6.256          1514.250
       393   13 Jun 2027 04:06:50.949   13 Jun 2027 04:07:22.088            31.139         15569.500
       394   13 Jun 2027 04:07:40.560   13 Jun 2027 04:08:47.540            66.980         33490.000
       395   13 Jun 2027 04:09:12.105   13 Jun 2027 04:09:24.798            12.693          6346.500
       396   13 Jun 2027 05:30:13.342   13 Jun 2027 05:31:29.537            76.195         38097.500
       397   13 Jun 2027 07:06:45.178   13 Jun 2027 07:08:54.554           129.376         64688.000
       398   13 Jun 2027 07:09:19.149   13 Jun 2027 07:09:19.149             0.000             0.000
       399   13 Jun 2027 08:41:55.521   13 Jun 2027 08:42:13.061            17.540          8317.281
       400   13 Jun 2027 08:43:17.310   13 Jun 2027 08:43:23.673             6.363          2007.781
       401   13 Jun 2027 08:43:49.827   13 Jun 2027 08:43:51.853             2.026           750.031
       402   13 Jun 2027 08:45:11.409   13 Jun 2027 08:45:15.380             3.971          1671.250
       403   13 Jun 2027 08:45:28.303   13 Jun 2027 08:45:30.324             2.021           403.844
       404   13 Jun 2027 08:46:01.020   13 Jun 2027 08:46:02.502             1.482           420.063
       405   13 Jun 2027 08:46:32.198   13 Jun 2027 08:46:34.871             2.673           418.938
       406   13 Jun 2027 08:46:44.393   13 Jun 2027 08:46:46.251             1.858           131.406
       407   13 Jun 2027 08:47:32.057   13 Jun 2027 08:47:37.087             5.030           760.031
       408   13 Jun 2027 10:18:18.877   13 Jun 2027 10:18:34.839            15.962          7072.000
       409   13 Jun 2027 10:18:56.212   13 Jun 2027 10:18:58.823             2.611           360.875
       410   13 Jun 2027 10:19:33.601   13 Jun 2027 10:19:38.222             4.621          1057.281
       411   13 Jun 2027 10:20:02.303   13 Jun 2027 10:20:09.189             6.886           752.531
       412   13 Jun 2027 10:20:13.385   13 Jun 2027 10:20:13.840             0.455            35.594
       413   13 Jun 2027 10:20:29.133   13 Jun 2027 10:20:29.854             0.721           125.375
       414   13 Jun 2027 10:20:30.207   13 Jun 2027 10:20:31.676             1.469            11.031
       415   13 Jun 2027 10:20:52.449   13 Jun 2027 10:20:54.711             2.262           396.875
       416   13 Jun 2027 10:21:36.340   13 Jun 2027 10:21:45.491             9.151          1300.906
       417   13 Jun 2027 10:21:48.269   13 Jun 2027 10:21:53.211             4.942            86.812
       418   13 Jun 2027 10:22:08.406   13 Jun 2027 10:22:10.174             1.768           272.656
       419   13 Jun 2027 10:22:25.381   13 Jun 2027 10:22:26.955             1.574           306.875
       420   13 Jun 2027 10:22:43.420   13 Jun 2027 10:22:45.300             1.880           365.500
       421   13 Jun 2027 11:55:35.888   13 Jun 2027 11:55:54.234            18.346          9173.000
       422   13 Jun 2027 11:56:20.452   13 Jun 2027 11:56:23.221             2.769          1011.563
       423   13 Jun 2027 11:56:44.707   13 Jun 2027 11:56:47.417             2.710           547.844
       424   13 Jun 2027 11:57:27.184   13 Jun 2027 11:57:29.678             2.494          1242.719
       425   13 Jun 2027 11:58:46.332   13 Jun 2027 11:58:52.120             5.788          2395.437
       426   13 Jun 2027 11:59:05.512   13 Jun 2027 11:59:08.300             2.788           418.500
       427   13 Jun 2027 11:59:44.629   13 Jun 2027 11:59:46.373             1.744           872.000
