uniorb/output/strategy_1/Camera/Camera_KinoSat_110301.txt

KinoSat_110301
-------------------------
    Access    *     Start Time (UTCG)     *     Stop Time (UTCG)  *   Duration (s) *   Data (Mbytes)
         1   01 Jun 2027 03:00:00.000   01 Jun 2027 03:00:13.544            13.544          6772.000
         2   01 Jun 2027 03:00:55.137   01 Jun 2027 03:00:58.708             3.571          1785.500
         3   01 Jun 2027 03:01:31.758   01 Jun 2027 03:01:41.989            10.231          5115.500
         4   01 Jun 2027 03:02:26.641   01 Jun 2027 03:02:40.007            13.366          6683.000
         5   01 Jun 2027 03:02:47.840   01 Jun 2027 03:03:11.353            23.513         11756.500
         6   01 Jun 2027 03:03:34.709   01 Jun 2027 03:03:34.709             0.000             0.000
         7   01 Jun 2027 03:04:17.469   01 Jun 2027 03:04:44.483            27.014         13507.000
         8   01 Jun 2027 03:05:05.109   01 Jun 2027 03:05:07.076             1.967           983.500
         9   01 Jun 2027 03:05:11.165   01 Jun 2027 03:05:37.230            26.065         13032.500
        10   01 Jun 2027 03:06:10.503   01 Jun 2027 03:06:11.487             0.984           492.000
        11   01 Jun 2027 04:35:02.477   01 Jun 2027 04:37:34.423           151.946         75973.000
        12   01 Jun 2027 04:37:58.037   01 Jun 2027 04:38:02.266             4.229          2114.500
        13   01 Jun 2027 04:38:13.295   01 Jun 2027 04:38:13.295             0.000             0.000
        14   01 Jun 2027 04:38:53.158   01 Jun 2027 04:38:58.187             5.029          2514.500
        15   01 Jun 2027 04:39:08.451   01 Jun 2027 04:39:15.880             7.429          3714.500
        16   01 Jun 2027 04:39:44.796   01 Jun 2027 04:40:00.016            15.220          7610.000
        17   01 Jun 2027 04:40:18.169   01 Jun 2027 04:40:32.174            14.005          7002.500
        18   01 Jun 2027 04:41:51.288   01 Jun 2027 04:42:05.636            14.348          7174.000
        19   01 Jun 2027 06:12:06.028   01 Jun 2027 06:14:52.758           166.730         83365.000
        20   01 Jun 2027 06:15:09.599   01 Jun 2027 06:15:17.918             8.319          4159.500
        21   01 Jun 2027 06:16:30.910   01 Jun 2027 06:16:35.063             4.153          2076.500
        22   01 Jun 2027 06:16:42.442   01 Jun 2027 06:17:07.646            25.204         12602.000
        23   01 Jun 2027 06:17:36.295   01 Jun 2027 06:17:37.511             1.216           608.000
        24   01 Jun 2027 07:48:51.352   01 Jun 2027 07:50:47.360           116.008         58004.000
        25   01 Jun 2027 07:50:59.408   01 Jun 2027 07:51:37.967            38.559         19279.500
        26   01 Jun 2027 07:52:02.438   01 Jun 2027 07:52:22.800            20.362         10181.000
        27   01 Jun 2027 07:52:38.067   01 Jun 2027 07:52:54.269            16.202          8101.000
        28   01 Jun 2027 09:24:07.532   01 Jun 2027 09:24:14.537             7.005          3502.500
        29   01 Jun 2027 09:25:49.098   01 Jun 2027 09:27:32.565           103.467         51733.500
        30   01 Jun 2027 09:27:48.756   01 Jun 2027 09:28:11.046            22.290         11145.000
        31   02 Jun 2027 03:10:12.076   02 Jun 2027 03:15:31.030           318.954        159477.000
        32   02 Jun 2027 03:15:41.195   02 Jun 2027 03:15:48.804             7.609          3804.500
        33   02 Jun 2027 03:16:45.143   02 Jun 2027 03:16:55.814            10.671          5335.500
        34   02 Jun 2027 03:18:06.177   02 Jun 2027 03:18:08.455             2.278          1139.000
        35   02 Jun 2027 04:47:15.148   02 Jun 2027 04:50:27.763           192.615         96307.500
        36   02 Jun 2027 04:52:29.625   02 Jun 2027 04:52:57.945            28.320         14160.000
        37   02 Jun 2027 06:24:12.048   02 Jun 2027 06:26:26.272           134.224         67112.000
        38   02 Jun 2027 06:27:02.233   02 Jun 2027 06:27:19.005            16.772          8386.000
        39   02 Jun 2027 06:27:34.012   02 Jun 2027 06:27:49.864            15.852          7926.000
        40   02 Jun 2027 06:28:22.278   02 Jun 2027 06:28:25.456             3.178          1589.000
        41   02 Jun 2027 06:28:29.128   02 Jun 2027 06:28:34.670             5.542          2771.000
        42   02 Jun 2027 08:00:57.781   02 Jun 2027 08:03:37.609           159.828         79914.000
        43   02 Jun 2027 08:04:35.534   02 Jun 2027 08:04:40.267             4.733          2366.500
        44   02 Jun 2027 08:05:04.525   02 Jun 2027 08:05:22.363            17.838          8919.000
        45   02 Jun 2027 08:05:43.543   02 Jun 2027 08:06:01.212            17.669          8834.500
        46   02 Jun 2027 09:39:11.639   02 Jun 2027 09:40:07.394            55.755         27877.500
        47   03 Jun 2027 03:23:23.597   03 Jun 2027 03:28:58.629           335.032        167516.000
        48   03 Jun 2027 03:29:26.501   03 Jun 2027 03:30:09.996            43.495         21747.500
        49   03 Jun 2027 04:59:45.749   03 Jun 2027 05:02:31.202           165.453         82726.500
        50   03 Jun 2027 05:03:24.909   03 Jun 2027 05:03:34.269             9.360          4680.000
        51   03 Jun 2027 05:04:35.791   03 Jun 2027 05:04:41.548             5.757          2878.500
        52   03 Jun 2027 05:05:26.459   03 Jun 2027 05:05:54.775            28.316         14158.000
        53   03 Jun 2027 06:37:13.540   03 Jun 2027 06:40:04.142           170.602         85301.000
        54   03 Jun 2027 06:40:41.797   03 Jun 2027 06:40:44.407             2.610          1305.000
        55   03 Jun 2027 08:13:20.355   03 Jun 2027 08:15:47.995           147.640         73820.000
        56   03 Jun 2027 08:16:36.867   03 Jun 2027 08:17:02.625            25.758         12879.000
        57   03 Jun 2027 08:17:09.889   03 Jun 2027 08:17:13.768             3.879          1939.500
        58   04 Jun 2027 03:35:32.205   04 Jun 2027 03:40:30.361           298.156        149078.000
        59   04 Jun 2027 03:41:52.366   04 Jun 2027 03:42:08.674            16.308          8154.000
        60   04 Jun 2027 05:11:30.694   04 Jun 2027 05:14:37.160           186.466         93233.000
        61   04 Jun 2027 05:16:09.168   04 Jun 2027 05:16:16.862             7.694          3847.000
        62   04 Jun 2027 05:16:41.912   04 Jun 2027 05:17:14.955            33.043         16521.500
        63   04 Jun 2027 06:49:20.009   04 Jun 2027 06:51:45.322           145.313         72656.500
        64   04 Jun 2027 06:52:18.162   04 Jun 2027 06:52:44.059            25.897         12948.500
        65   04 Jun 2027 06:53:10.805   04 Jun 2027 06:53:15.509             4.704          2352.000
        66   04 Jun 2027 08:25:21.889   04 Jun 2027 08:26:28.560            66.671         33335.500
        67   04 Jun 2027 08:28:11.578   04 Jun 2027 08:28:27.873            16.295          8147.500
        68   04 Jun 2027 08:28:51.166   04 Jun 2027 08:28:59.461             8.295          4147.500
        69   04 Jun 2027 08:29:22.075   04 Jun 2027 08:29:22.075             0.000             0.000
        70   04 Jun 2027 08:29:44.739   04 Jun 2027 08:29:53.401             8.662          4331.000
        71   04 Jun 2027 08:30:22.785   04 Jun 2027 08:30:23.292             0.507           253.500
        72   05 Jun 2027 03:46:55.217   05 Jun 2027 03:51:37.982           282.765        141382.500
        73   05 Jun 2027 03:51:47.475   05 Jun 2027 03:52:17.393            29.918         14959.000
        74   05 Jun 2027 03:53:42.315   05 Jun 2027 03:54:19.336            37.021         18510.500
        75   05 Jun 2027 05:23:32.886   05 Jun 2027 05:27:11.031           218.145        109072.500
        76   05 Jun 2027 05:28:30.567   05 Jun 2027 05:29:00.432            29.865         14932.500
        77   05 Jun 2027 07:01:50.772   05 Jun 2027 07:04:30.203           159.431         79715.500
        78   05 Jun 2027 07:04:55.535   05 Jun 2027 07:05:01.828             6.293          3146.500
        79   05 Jun 2027 07:05:16.390   05 Jun 2027 07:05:26.323             9.933          4966.500
        80   05 Jun 2027 08:35:09.937   05 Jun 2027 08:35:42.495            32.558         16279.000
        81   05 Jun 2027 08:35:44.746   05 Jun 2027 08:35:51.270             6.524          3262.000
        82   05 Jun 2027 08:36:03.418   05 Jun 2027 08:36:20.303            16.885          8442.500
        83   05 Jun 2027 08:38:20.133   05 Jun 2027 08:38:31.626            11.493          5746.500
        84   05 Jun 2027 08:39:09.362   05 Jun 2027 08:39:15.752             6.390          3195.000
        85   05 Jun 2027 08:39:46.380   05 Jun 2027 08:40:02.856            16.476          8238.000
        86   05 Jun 2027 08:40:43.729   05 Jun 2027 08:40:44.159             0.430           215.000
        87   05 Jun 2027 08:40:56.129   05 Jun 2027 08:41:00.205             4.076          2038.000
        88   05 Jun 2027 08:41:08.034   05 Jun 2027 08:41:12.523             4.489          2244.500
        89   05 Jun 2027 08:41:52.519   05 Jun 2027 08:41:59.211             6.692          3346.000
        90   05 Jun 2027 08:42:00.651   05 Jun 2027 08:42:10.839            10.188          5094.000
        91   06 Jun 2027 03:58:51.050   06 Jun 2027 04:03:39.945           288.895        144447.500
        92   06 Jun 2027 04:04:32.714   06 Jun 2027 04:04:47.641            14.927          7463.500
        93   06 Jun 2027 04:05:02.389   06 Jun 2027 04:05:56.169            53.780         26890.000
        94   06 Jun 2027 05:35:53.766   06 Jun 2027 05:39:09.840           196.074         98037.000
        95   06 Jun 2027 05:39:31.606   06 Jun 2027 05:39:36.078             4.472          2236.000
        96   06 Jun 2027 05:41:00.207   06 Jun 2027 05:41:29.943            29.736         14868.000
        97   06 Jun 2027 05:41:58.376   06 Jun 2027 05:42:03.309             4.933          2466.500
        98   06 Jun 2027 07:13:47.855   06 Jun 2027 07:16:06.874           139.019         69509.500
        99   06 Jun 2027 07:16:27.985   06 Jun 2027 07:16:36.299             8.314          4157.000
       100   06 Jun 2027 07:16:54.512   06 Jun 2027 07:17:05.980            11.468          5734.000
       101   06 Jun 2027 07:17:14.731   06 Jun 2027 07:17:37.702            22.971         11485.500
       102   06 Jun 2027 08:47:02.047   06 Jun 2027 08:47:40.373            38.326         19163.000
       103   06 Jun 2027 08:47:56.961   06 Jun 2027 08:48:15.279            18.318          9159.000
       104   06 Jun 2027 08:51:01.892   06 Jun 2027 08:51:17.028            15.136          7568.000
       105   06 Jun 2027 08:51:46.130   06 Jun 2027 08:51:55.082             8.952          4476.000
       106   06 Jun 2027 08:52:37.281   06 Jun 2027 08:52:50.241            12.960          6480.000
       107   06 Jun 2027 08:53:39.548   06 Jun 2027 08:53:45.887             6.339          3169.500
       108   07 Jun 2027 04:11:01.314   07 Jun 2027 04:16:15.411           314.097        157048.500
       109   07 Jun 2027 04:16:37.640   07 Jun 2027 04:16:57.201            19.561          9780.500
       110   07 Jun 2027 04:17:04.395   07 Jun 2027 04:17:32.442            28.047         14023.500
       111   07 Jun 2027 04:18:22.602   07 Jun 2027 04:18:23.114             0.512           256.000
       112   07 Jun 2027 05:47:44.083   07 Jun 2027 05:51:18.243           214.160        107080.000
       113   07 Jun 2027 05:51:53.477   07 Jun 2027 05:52:18.912            25.435         12717.500
       114   07 Jun 2027 05:52:51.074   07 Jun 2027 05:53:08.162            17.088          8544.000
       115   07 Jun 2027 05:53:46.970   07 Jun 2027 05:53:52.459             5.489          2744.500
       116   07 Jun 2027 07:25:47.877   07 Jun 2027 07:28:15.393           147.516         73758.000
       117   07 Jun 2027 07:28:32.147   07 Jun 2027 07:28:42.518            10.371          5185.500
       118   07 Jun 2027 08:59:29.928   07 Jun 2027 09:00:20.296            50.368         25184.000
       119   07 Jun 2027 09:02:44.207   07 Jun 2027 09:03:16.686            32.479         16239.500
       120   07 Jun 2027 09:04:28.697   07 Jun 2027 09:04:32.059             3.362          1681.000
       121   07 Jun 2027 09:05:02.541   07 Jun 2027 09:05:15.756            13.215          6607.500
       122   07 Jun 2027 09:05:54.340   07 Jun 2027 09:06:06.330            11.990          5995.000
       123   08 Jun 2027 04:22:55.818   08 Jun 2027 04:29:39.333           403.515        201757.500
       124   08 Jun 2027 05:59:52.242   08 Jun 2027 06:03:20.096           207.854        103927.000
       125   08 Jun 2027 06:03:56.211   08 Jun 2027 06:04:00.471             4.260          2130.000
       126   08 Jun 2027 06:04:35.733   08 Jun 2027 06:04:50.226            14.493          7246.500
       127   08 Jun 2027 06:05:08.255   08 Jun 2027 06:05:10.572             2.317          1158.500
       128   08 Jun 2027 06:05:29.378   08 Jun 2027 06:05:35.499             6.121          3060.500
       129   08 Jun 2027 06:05:58.657   08 Jun 2027 06:06:09.920            11.263          5631.500
       130   08 Jun 2027 07:37:25.669   08 Jun 2027 07:39:50.828           145.159         72579.500
       131   08 Jun 2027 09:11:49.551   08 Jun 2027 09:12:33.857            44.306         22153.000
       132   08 Jun 2027 09:13:42.266   08 Jun 2027 09:13:56.852            14.586          7293.000
       133   08 Jun 2027 09:14:47.766   08 Jun 2027 09:15:19.961            32.195         16097.500
       134   09 Jun 2027 03:00:00.000   09 Jun 2027 03:04:06.654           246.654        123327.000
       135   09 Jun 2027 03:04:40.055   09 Jun 2027 03:04:44.485             4.430          2215.000
       136   09 Jun 2027 03:05:21.533   09 Jun 2027 03:05:21.732             0.199            99.500
       137   09 Jun 2027 03:05:25.886   09 Jun 2027 03:05:27.805             1.919           959.500
       138   09 Jun 2027 03:06:25.162   09 Jun 2027 03:06:26.162             1.000           500.000
       139   09 Jun 2027 04:35:17.289   09 Jun 2027 04:37:48.213           150.924         75462.000
       140   09 Jun 2027 04:38:52.717   09 Jun 2027 04:39:09.671            16.954          8477.000
       141   09 Jun 2027 04:40:20.873   09 Jun 2027 04:40:52.515            31.642         15821.000
       142   09 Jun 2027 04:41:00.794   09 Jun 2027 04:41:09.726             8.932          4466.000
       143   09 Jun 2027 04:42:11.023   09 Jun 2027 04:42:11.700             0.677           338.500
       144   09 Jun 2027 06:12:20.855   09 Jun 2027 06:14:53.899           153.044         76522.000
       145   09 Jun 2027 06:16:13.924   09 Jun 2027 06:16:38.343            24.419         12209.500
       146   09 Jun 2027 06:17:41.436   09 Jun 2027 06:18:06.286            24.850         12425.000
       147   09 Jun 2027 07:49:06.550   09 Jun 2027 07:51:13.698           127.148         63574.000
       148   09 Jun 2027 07:51:52.633   09 Jun 2027 07:52:03.308            10.675          5337.500
       149   09 Jun 2027 07:52:50.474   09 Jun 2027 07:52:51.721             1.247           623.500
       150   09 Jun 2027 07:53:13.279   09 Jun 2027 07:53:27.962            14.683          7341.500
       151   09 Jun 2027 09:24:22.409   09 Jun 2027 09:24:28.879             6.470          3235.000
       152   09 Jun 2027 09:26:04.047   09 Jun 2027 09:26:12.123             8.076          4038.000
       153   09 Jun 2027 09:26:42.051   09 Jun 2027 09:27:21.560            39.509         19754.500
       154   10 Jun 2027 03:08:35.084   10 Jun 2027 03:08:46.884            11.800          5900.000
       155   10 Jun 2027 03:10:28.117   10 Jun 2027 03:13:52.923           204.806        102403.000
       156   10 Jun 2027 03:14:16.419   10 Jun 2027 03:14:24.461             8.042          4021.000
       157   10 Jun 2027 03:15:07.618   10 Jun 2027 03:15:31.544            23.926         11963.000
       158   10 Jun 2027 03:15:45.922   10 Jun 2027 03:15:55.907             9.985          4992.500
       159   10 Jun 2027 03:16:02.353   10 Jun 2027 03:16:07.641             5.288          2644.000
       160   10 Jun 2027 03:16:47.493   10 Jun 2027 03:16:52.142             4.649          2324.500
       161   10 Jun 2027 03:17:10.924   10 Jun 2027 03:17:11.115             0.191            95.500
       162   10 Jun 2027 03:18:20.822   10 Jun 2027 03:18:22.985             2.163          1081.500
       163   10 Jun 2027 04:47:29.391   10 Jun 2027 04:49:58.011           148.620         74310.000
       164   10 Jun 2027 04:52:28.386   10 Jun 2027 04:52:44.685            16.299          8149.500
       165   10 Jun 2027 04:52:55.200   10 Jun 2027 04:53:24.951            29.751         14875.500
       166   10 Jun 2027 04:53:57.920   10 Jun 2027 04:54:11.573            13.653          6826.500
       167   10 Jun 2027 06:24:27.382   10 Jun 2027 06:26:45.662           138.280         69140.000
       168   10 Jun 2027 06:27:18.505   10 Jun 2027 06:27:26.039             7.534          3767.000
       169   10 Jun 2027 06:27:51.769   10 Jun 2027 06:28:13.316            21.547         10773.500
       170   10 Jun 2027 06:29:21.006   10 Jun 2027 06:29:27.780             6.774          3387.000
       171   10 Jun 2027 08:01:12.233   10 Jun 2027 08:02:40.499            88.266         44133.000
       172   10 Jun 2027 08:05:19.067   10 Jun 2027 08:05:55.314            36.247         18123.500
       173   10 Jun 2027 09:39:27.153   10 Jun 2027 09:39:48.046            20.893         10446.500
       174   11 Jun 2027 03:23:39.090   11 Jun 2027 03:27:48.381           249.291        124645.500
       175   11 Jun 2027 03:28:03.846   11 Jun 2027 03:28:37.133            33.287         16643.500
       176   11 Jun 2027 03:30:14.981   11 Jun 2027 03:30:24.613             9.632          4816.000
       177   11 Jun 2027 05:00:00.865   11 Jun 2027 05:02:21.850           140.985         70492.500
       178   11 Jun 2027 05:03:05.263   11 Jun 2027 05:03:15.107             9.844          4922.000
       179   11 Jun 2027 05:05:47.781   11 Jun 2027 05:06:19.581            31.800         15900.000
       180   11 Jun 2027 06:37:28.169   11 Jun 2027 06:40:25.025           176.856         88428.000
       181   11 Jun 2027 06:41:24.816   11 Jun 2027 06:41:31.834             7.018          3509.000
       182   11 Jun 2027 08:13:35.790   11 Jun 2027 08:14:42.648            66.858         33429.000
       183   11 Jun 2027 08:15:02.775   11 Jun 2027 08:15:03.194             0.419           209.500
       184   11 Jun 2027 08:15:28.441   11 Jun 2027 08:15:33.251             4.810          2405.000
       185   11 Jun 2027 08:16:41.082   11 Jun 2027 08:17:05.838            24.756         12378.000
       186   11 Jun 2027 08:17:24.817   11 Jun 2027 08:17:34.598             9.781          4890.500
       187   12 Jun 2027 03:35:46.956   12 Jun 2027 03:40:20.641           273.685        136842.500
       188   12 Jun 2027 03:40:45.059   12 Jun 2027 03:41:16.725            31.666         15833.000
       189   12 Jun 2027 03:42:07.210   12 Jun 2027 03:42:23.881            16.671          8335.500
       190   12 Jun 2027 05:11:44.859   12 Jun 2027 05:14:32.134           167.275         83637.500
       191   12 Jun 2027 05:14:42.893   12 Jun 2027 05:14:47.698             4.805          2402.500
       192   12 Jun 2027 05:16:23.278   12 Jun 2027 05:16:31.635             8.357          4178.500
       193   12 Jun 2027 05:16:56.086   12 Jun 2027 05:17:07.987            11.901          5950.500
       194   12 Jun 2027 05:17:33.134   12 Jun 2027 05:17:52.550            19.416          9708.000
       195   12 Jun 2027 06:49:34.684   12 Jun 2027 06:52:16.302           161.618         80809.000
       196   12 Jun 2027 06:52:53.802   12 Jun 2027 06:53:02.183             8.381          4190.500
       197   12 Jun 2027 06:53:25.513   12 Jun 2027 06:53:28.878             3.365          1682.500
       198   12 Jun 2027 06:53:41.189   12 Jun 2027 06:54:00.247            19.058          9529.000
       199   12 Jun 2027 08:25:36.726   12 Jun 2027 08:26:11.611            34.885         17442.500
       200   12 Jun 2027 08:26:48.292   12 Jun 2027 08:26:59.483            11.191          5595.500
       201   12 Jun 2027 08:27:29.362   12 Jun 2027 08:27:42.880            13.518          6759.000
       202   12 Jun 2027 08:27:54.376   12 Jun 2027 08:28:01.600             7.224          3612.000
       203   12 Jun 2027 08:29:14.135   12 Jun 2027 08:29:22.316             8.181          4090.500
       204   12 Jun 2027 08:30:00.574   12 Jun 2027 08:30:07.452             6.878          3439.000
       205   12 Jun 2027 08:30:19.567   12 Jun 2027 08:30:38.029            18.462          9231.000
       206   13 Jun 2027 03:47:04.732   13 Jun 2027 03:51:52.598           287.866        143933.000
       207   13 Jun 2027 03:53:17.602   13 Jun 2027 03:53:34.715            17.113          8556.500
       208   13 Jun 2027 03:53:56.862   13 Jun 2027 03:54:34.153            37.291         18645.500
       209   13 Jun 2027 05:23:48.038   13 Jun 2027 05:26:46.882           178.844         89422.000
       210   13 Jun 2027 05:27:34.152   13 Jun 2027 05:27:56.838            22.686         11343.000
       211   13 Jun 2027 05:28:21.715   13 Jun 2027 05:28:50.044            28.329         14164.500
       212   13 Jun 2027 05:28:59.508   13 Jun 2027 05:29:08.347             8.839          4419.500
       213   13 Jun 2027 05:29:41.143   13 Jun 2027 05:30:03.107            21.964         10982.000
       214   13 Jun 2027 07:02:05.961   13 Jun 2027 07:04:42.554           156.593         78296.500
       215   13 Jun 2027 07:05:04.399   13 Jun 2027 07:05:16.930            12.531          6265.500
       216   13 Jun 2027 07:05:33.277   13 Jun 2027 07:05:41.903             8.626          4313.000
       217   13 Jun 2027 08:35:24.382   13 Jun 2027 08:36:18.356            53.974         26987.000
       218   13 Jun 2027 08:37:28.771   13 Jun 2027 08:37:51.052            22.281         11140.500
       219   13 Jun 2027 08:38:21.803   13 Jun 2027 08:38:27.053             5.250          2625.000
       220   13 Jun 2027 08:39:03.982   13 Jun 2027 08:39:23.159            19.177          9588.500
       221   13 Jun 2027 08:40:24.470   13 Jun 2027 08:40:32.587             8.117          4058.500
       222   13 Jun 2027 08:40:55.946   13 Jun 2027 08:40:57.005             1.059           529.500
       223   13 Jun 2027 08:41:15.151   13 Jun 2027 08:41:20.537             5.386          2693.000
       224   13 Jun 2027 08:41:58.342   13 Jun 2027 08:42:07.984             9.642          4821.000
       225   13 Jun 2027 08:42:40.648   13 Jun 2027 08:42:48.892             8.244          4122.000
       226   13 Jun 2027 08:43:00.251   13 Jun 2027 08:43:02.744             2.493          1246.500
