uniorb/output/strategy_1/Camera/Camera_KinoSat_111501.txt

KinoSat_111501
-------------------------
    Access    *     Start Time (UTCG)     *     Stop Time (UTCG)  *   Duration (s) *   Data (Mbytes)
         1   01 Jun 2027 03:58:10.180   01 Jun 2027 04:00:30.832           140.652         70326.000
         2   01 Jun 2027 04:01:18.655   01 Jun 2027 04:01:27.209             8.554          4277.000
         3   01 Jun 2027 04:02:15.920   01 Jun 2027 04:02:21.125             5.205          2602.500
         4   01 Jun 2027 04:03:11.332   01 Jun 2027 04:03:13.436             2.104          1052.000
         5   01 Jun 2027 04:04:58.196   01 Jun 2027 04:05:17.824            19.628          9814.000
         6   01 Jun 2027 05:22:59.479   01 Jun 2027 05:24:12.269            72.790         36395.000
         7   01 Jun 2027 05:34:40.001   01 Jun 2027 05:35:34.365            54.364         27182.000
         8   01 Jun 2027 06:56:58.104   01 Jun 2027 06:58:04.289            66.185         33092.500
         9   01 Jun 2027 06:58:52.290   01 Jun 2027 06:59:24.085            31.795         15897.500
        10   01 Jun 2027 08:31:54.344   01 Jun 2027 08:32:25.075            30.731         15365.500
        11   01 Jun 2027 08:32:50.845   01 Jun 2027 08:33:28.263            37.418         18709.000
        12   01 Jun 2027 08:34:08.038   01 Jun 2027 08:34:16.345             8.307          4153.500
        13   01 Jun 2027 08:37:47.320   01 Jun 2027 08:38:27.755            40.435         20217.500
        14   01 Jun 2027 10:09:24.436   01 Jun 2027 10:10:54.121            89.685         44842.500
        15   01 Jun 2027 10:13:39.214   01 Jun 2027 10:13:51.714            12.500          6250.000
        16   01 Jun 2027 10:14:59.693   01 Jun 2027 10:15:26.333            26.640         13320.000
        17   01 Jun 2027 10:15:29.735   01 Jun 2027 10:15:30.786             1.051           525.500
        18   01 Jun 2027 10:16:42.773   01 Jun 2027 10:16:43.251             0.478           239.000
        19   01 Jun 2027 11:46:09.194   01 Jun 2027 11:48:05.721           116.527         58263.500
        20   01 Jun 2027 11:48:23.177   01 Jun 2027 11:48:41.445            18.268          9134.000
        21   02 Jun 2027 04:10:12.705   02 Jun 2027 04:12:03.304           110.599         55299.500
        22   02 Jun 2027 04:14:14.428   02 Jun 2027 04:14:15.848             1.420           710.000
        23   02 Jun 2027 04:14:40.680   02 Jun 2027 04:15:04.227            23.547         11773.500
        24   02 Jun 2027 05:34:33.114   02 Jun 2027 05:35:36.215            63.101         31550.500
        25   02 Jun 2027 05:46:48.677   02 Jun 2027 05:47:09.627            20.950         10475.000
        26   02 Jun 2027 05:47:14.290   02 Jun 2027 05:47:15.488             1.198           599.000
        27   02 Jun 2027 07:08:30.097   02 Jun 2027 07:09:49.866            79.769         39884.500
        28   02 Jun 2027 07:10:38.426   02 Jun 2027 07:11:13.688            35.262         17631.000
        29   02 Jun 2027 07:11:47.454   02 Jun 2027 07:11:47.454             0.000             0.000
        30   02 Jun 2027 07:13:47.129   02 Jun 2027 07:13:56.001             8.872          4436.000
        31   02 Jun 2027 08:43:23.624   02 Jun 2027 08:45:21.772           118.148         59074.000
        32   02 Jun 2027 08:47:08.890   02 Jun 2027 08:47:08.890             0.000             0.000
        33   02 Jun 2027 08:49:12.515   02 Jun 2027 08:49:48.365            35.850         17925.000
        34   02 Jun 2027 08:50:46.278   02 Jun 2027 08:50:49.174             2.896          1448.000
        35   02 Jun 2027 10:21:18.652   02 Jun 2027 10:22:56.133            97.481         48740.500
        36   02 Jun 2027 10:25:26.883   02 Jun 2027 10:25:28.269             1.386           693.000
        37   02 Jun 2027 10:26:56.550   02 Jun 2027 10:26:56.550             0.000             0.000
        38   02 Jun 2027 10:27:10.420   02 Jun 2027 10:27:31.208            20.788         10394.000
        39   02 Jun 2027 10:28:04.966   02 Jun 2027 10:28:23.539            18.573          9286.500
        40   02 Jun 2027 11:58:03.235   02 Jun 2027 11:59:50.703           107.468         53734.000
        41   03 Jun 2027 04:22:38.590   03 Jun 2027 04:23:40.848            62.258         31129.000
        42   03 Jun 2027 04:25:12.779   03 Jun 2027 04:25:34.000            21.221         10610.500
        43   03 Jun 2027 05:46:28.949   03 Jun 2027 05:48:08.172            99.223         49611.500
        44   03 Jun 2027 05:48:13.393   03 Jun 2027 05:48:23.154             9.761          4880.500
        45   03 Jun 2027 07:22:28.970   03 Jun 2027 07:24:48.447           139.477         69738.500
        46   03 Jun 2027 07:24:55.011   03 Jun 2027 07:25:06.844            11.833          5916.500
        47   03 Jun 2027 07:25:15.911   03 Jun 2027 07:25:20.401             4.490          2245.000
        48   03 Jun 2027 08:56:16.988   03 Jun 2027 08:58:28.113           131.125         65562.500
        49   03 Jun 2027 08:58:34.262   03 Jun 2027 08:58:37.657             3.395          1697.500
        50   03 Jun 2027 09:03:59.822   03 Jun 2027 09:04:05.025             5.203          2601.500
        51   03 Jun 2027 10:33:28.568   03 Jun 2027 10:34:33.564            64.996         31441.218
        52   03 Jun 2027 10:36:04.719   03 Jun 2027 10:36:10.319             5.600          2800.000
        53   03 Jun 2027 10:36:38.898   03 Jun 2027 10:36:46.513             7.615           903.906
        54   03 Jun 2027 10:37:04.821   03 Jun 2027 10:37:06.857             2.036           136.281
        55   03 Jun 2027 10:38:38.087   03 Jun 2027 10:38:44.226             6.139          2839.750
        56   03 Jun 2027 10:38:47.004   03 Jun 2027 10:38:47.282             0.278            86.812
        57   03 Jun 2027 10:40:07.368   03 Jun 2027 10:40:11.511             4.143          2071.500
        58   04 Jun 2027 03:00:00.000   04 Jun 2027 03:00:03.429             3.429          1714.500
        59   04 Jun 2027 03:00:41.410   04 Jun 2027 03:01:07.505            26.095         13047.500
        60   04 Jun 2027 03:01:14.848   04 Jun 2027 03:01:30.914            16.066          8033.000
        61   04 Jun 2027 03:02:38.315   04 Jun 2027 03:02:46.071             7.756          3878.000
        62   04 Jun 2027 04:34:59.371   04 Jun 2027 04:35:56.453            57.082         28541.000
        63   04 Jun 2027 04:36:56.760   04 Jun 2027 04:37:10.385            13.625          6812.500
        64   04 Jun 2027 04:37:44.606   04 Jun 2027 04:38:08.716            24.110         12055.000
        65   04 Jun 2027 05:58:21.404   04 Jun 2027 05:59:20.912            59.508         29754.000
        66   04 Jun 2027 07:34:42.459   04 Jun 2027 07:37:09.724           147.265         72445.937
        67   04 Jun 2027 09:08:45.471   04 Jun 2027 09:08:58.885            13.414          6631.906
        68   04 Jun 2027 09:10:42.074   04 Jun 2027 09:10:48.541             6.467          2234.312
        69   04 Jun 2027 09:11:29.444   04 Jun 2027 09:11:32.639             3.195          1169.063
        70   04 Jun 2027 09:13:54.518   04 Jun 2027 09:14:03.254             8.736          4367.437
        71   04 Jun 2027 09:15:12.600   04 Jun 2027 09:15:16.814             4.214          1971.000
        72   04 Jun 2027 09:15:27.901   04 Jun 2027 09:15:32.022             4.121           245.656
        73   04 Jun 2027 09:16:44.477   04 Jun 2027 09:16:46.884             2.407          1203.500
        74   04 Jun 2027 10:45:52.202   04 Jun 2027 10:46:06.414            14.212          6164.312
        75   04 Jun 2027 10:46:34.853   04 Jun 2027 10:46:39.796             4.943           888.719
        76   04 Jun 2027 10:48:04.093   04 Jun 2027 10:48:11.591             7.498          2078.969
        77   04 Jun 2027 10:48:34.470   04 Jun 2027 10:48:36.297             1.827           714.969
        78   04 Jun 2027 10:49:21.760   04 Jun 2027 10:49:28.533             6.773          1420.719
        79   04 Jun 2027 10:51:08.651   04 Jun 2027 10:51:24.217            15.566          3016.156
        80   04 Jun 2027 10:51:44.634   04 Jun 2027 10:51:49.008             4.374           638.031
        81   04 Jun 2027 10:52:06.860   04 Jun 2027 10:52:11.099             4.239           335.406
        82   04 Jun 2027 10:52:25.154   04 Jun 2027 10:52:26.103             0.949           439.219
        83   05 Jun 2027 03:08:53.442   05 Jun 2027 03:09:47.603            54.161         27080.500
        84   05 Jun 2027 03:10:15.203   05 Jun 2027 03:10:26.016            10.813          5406.500
        85   05 Jun 2027 03:10:38.054   05 Jun 2027 03:10:40.424             2.370          1185.000
        86   05 Jun 2027 03:10:42.655   05 Jun 2027 03:10:46.158             3.503          1751.500
        87   05 Jun 2027 03:11:43.607   05 Jun 2027 03:11:56.490            12.883          6441.500
        88   05 Jun 2027 03:12:01.323   05 Jun 2027 03:12:01.478             0.155            77.500
        89   05 Jun 2027 03:14:02.270   05 Jun 2027 03:14:17.177            14.907          7453.500
        90   05 Jun 2027 04:47:25.441   05 Jun 2027 04:48:42.838            77.397         38698.500
        91   05 Jun 2027 04:49:20.620   05 Jun 2027 04:49:23.522             2.902          1451.000
        92   05 Jun 2027 04:49:37.325   05 Jun 2027 04:49:37.325             0.000             0.000
        93   05 Jun 2027 04:50:21.893   05 Jun 2027 04:50:32.017            10.124          5062.000
        94   05 Jun 2027 06:10:22.976   05 Jun 2027 06:11:19.314            56.338         28169.000
        95   05 Jun 2027 06:12:25.774   05 Jun 2027 06:12:25.774             0.000             0.000
        96   05 Jun 2027 06:12:48.687   05 Jun 2027 06:12:48.687             0.000             0.000
        97   05 Jun 2027 07:46:48.947   05 Jun 2027 07:48:38.998           110.051         54387.032
        98   05 Jun 2027 09:21:57.300   05 Jun 2027 09:22:09.225            11.925          5746.844
        99   05 Jun 2027 09:23:31.169   05 Jun 2027 09:23:34.863             3.694          1794.094
       100   05 Jun 2027 09:25:41.779   05 Jun 2027 09:25:47.475             5.696          2662.656
       101   05 Jun 2027 09:26:18.400   05 Jun 2027 09:26:21.141             2.741           858.281
       102   05 Jun 2027 09:26:47.375   05 Jun 2027 09:26:51.859             4.484           606.938
       103   05 Jun 2027 09:27:19.591   05 Jun 2027 09:27:25.625             6.034           687.437
       104   05 Jun 2027 09:27:58.259   05 Jun 2027 09:27:58.259             0.000             0.000
       105   05 Jun 2027 09:28:39.276   05 Jun 2027 09:28:45.367             6.091          1781.750
       106   05 Jun 2027 10:58:18.021   05 Jun 2027 10:58:30.566            12.545          5632.844
       107   05 Jun 2027 10:58:55.212   05 Jun 2027 10:58:56.818             1.606           575.969
       108   05 Jun 2027 10:59:50.351   05 Jun 2027 10:59:55.282             4.931          1672.906
       109   05 Jun 2027 11:00:13.064   05 Jun 2027 11:00:14.202             1.138           141.437
       110   05 Jun 2027 11:00:18.978   05 Jun 2027 11:00:19.749             0.771           149.250
       111   05 Jun 2027 11:00:39.146   05 Jun 2027 11:00:50.227            11.081           288.594
       112   05 Jun 2027 11:01:36.224   05 Jun 2027 11:01:40.727             4.503           916.844
       113   05 Jun 2027 11:01:57.052   05 Jun 2027 11:01:58.254             1.202           510.156
       114   05 Jun 2027 11:02:18.169   05 Jun 2027 11:02:19.772             1.603           558.750
       115   05 Jun 2027 11:02:43.455   05 Jun 2027 11:02:46.289             2.834           740.094
       116   05 Jun 2027 11:02:46.478   05 Jun 2027 11:02:46.616             0.138             5.906
       117   05 Jun 2027 11:02:58.302   05 Jun 2027 11:02:59.081             0.779           196.438
       118   05 Jun 2027 11:03:49.682   05 Jun 2027 11:03:54.394             4.712          1581.281
       119   05 Jun 2027 11:04:22.231   05 Jun 2027 11:04:24.381             2.150           843.969
       120   06 Jun 2027 03:20:46.490   06 Jun 2027 03:21:43.666            57.176         28588.000
       121   06 Jun 2027 03:21:53.555   06 Jun 2027 03:22:31.154            37.599         18799.500
       122   06 Jun 2027 03:23:23.599   06 Jun 2027 03:23:48.190            24.591         12295.500
       123   06 Jun 2027 03:24:17.324   06 Jun 2027 03:24:18.970             1.646           823.000
       124   06 Jun 2027 03:24:44.372   06 Jun 2027 03:24:48.790             4.418          2209.000
       125   06 Jun 2027 03:26:20.474   06 Jun 2027 03:26:20.474             0.000             0.000
       126   06 Jun 2027 04:59:02.787   06 Jun 2027 05:00:29.146            86.359         43179.500
       127   06 Jun 2027 05:01:17.015   06 Jun 2027 05:01:17.669             0.654           327.000
       128   06 Jun 2027 06:22:22.989   06 Jun 2027 06:23:40.524            77.535         38767.500
       129   06 Jun 2027 07:58:59.433   06 Jun 2027 07:59:55.393            55.960         27980.000
       130   06 Jun 2027 08:01:07.957   06 Jun 2027 08:01:13.781             5.824          2598.375
       131   06 Jun 2027 09:34:09.569   06 Jun 2027 09:34:22.536            12.967          5205.062
       132   06 Jun 2027 09:35:38.088   06 Jun 2027 09:35:44.740             6.652          2361.000
       133   06 Jun 2027 09:36:28.420   06 Jun 2027 09:36:32.876             4.456          1336.656
       134   06 Jun 2027 09:37:00.002   06 Jun 2027 09:37:00.943             0.941           214.156
       135   06 Jun 2027 09:39:20.823   06 Jun 2027 09:39:40.732            19.909          4241.438
       136   06 Jun 2027 09:40:06.880   06 Jun 2027 09:40:08.816             1.936           817.125
       137   06 Jun 2027 09:40:33.400   06 Jun 2027 09:40:35.611             2.211           706.031
       138   06 Jun 2027 09:40:44.771   06 Jun 2027 09:40:45.394             0.623           286.250
       139   06 Jun 2027 11:10:26.821   06 Jun 2027 11:10:41.156            14.335          6637.688
       140   06 Jun 2027 11:11:02.668   06 Jun 2027 11:11:05.958             3.290           241.625
       141   06 Jun 2027 11:12:10.305   06 Jun 2027 11:12:14.729             4.424          2010.844
       142   06 Jun 2027 11:12:32.727   06 Jun 2027 11:12:37.017             4.290           562.438
       143   06 Jun 2027 11:13:08.897   06 Jun 2027 11:13:13.552             4.655           996.250
       144   06 Jun 2027 11:14:17.092   06 Jun 2027 11:14:20.474             3.382          1655.063
       145   06 Jun 2027 11:14:41.890   06 Jun 2027 11:14:45.343             3.453           663.062
       146   06 Jun 2027 11:15:10.658   06 Jun 2027 11:15:12.464             1.806           791.094
       147   06 Jun 2027 11:15:37.722   06 Jun 2027 11:15:39.795             2.073           789.312
       148   06 Jun 2027 11:16:31.839   06 Jun 2027 11:16:36.093             4.254          1475.906
       149   07 Jun 2027 03:33:52.512   07 Jun 2027 03:35:24.761            92.249         46124.500
       150   07 Jun 2027 03:35:30.267   07 Jun 2027 03:35:40.157             9.890          4945.000
       151   07 Jun 2027 03:36:38.322   07 Jun 2027 03:36:47.973             9.651          4825.500
       152   07 Jun 2027 03:37:41.007   07 Jun 2027 03:37:41.351             0.344           172.000
       153   07 Jun 2027 03:40:12.881   07 Jun 2027 03:40:28.821            15.940          7970.000
       154   07 Jun 2027 03:41:02.169   07 Jun 2027 03:41:40.843            38.674         19337.000
       155   07 Jun 2027 05:00:15.243   07 Jun 2027 05:00:19.696             4.453          2226.500
       156   07 Jun 2027 05:10:59.048   07 Jun 2027 05:11:40.945            41.897         20948.500
       157   07 Jun 2027 05:11:47.840   07 Jun 2027 05:12:40.219            52.379         26189.500
       158   07 Jun 2027 06:34:58.581   07 Jun 2027 06:35:40.899            42.318         21159.000
       159   07 Jun 2027 08:10:43.850   07 Jun 2027 08:11:51.488            67.638         32607.062
       160   07 Jun 2027 08:13:24.843   07 Jun 2027 08:13:30.519             5.676          2753.437
       161   07 Jun 2027 08:13:39.221   07 Jun 2027 08:13:42.621             3.400           271.937
       162   07 Jun 2027 08:14:27.239   07 Jun 2027 08:14:34.166             6.927          1394.313
       163   07 Jun 2027 08:14:55.405   07 Jun 2027 08:14:56.334             0.929           464.500
       164   07 Jun 2027 09:45:38.322   07 Jun 2027 09:45:46.953             8.631          4283.844
       165   07 Jun 2027 09:47:33.453   07 Jun 2027 09:47:44.015            10.562          2697.562
       166   07 Jun 2027 09:48:32.169   07 Jun 2027 09:48:32.169             0.000             0.000
       167   07 Jun 2027 09:48:39.133   07 Jun 2027 09:48:43.262             4.129          1002.094
       168   07 Jun 2027 09:51:20.310   07 Jun 2027 09:51:31.808            11.498          4907.750
       169   07 Jun 2027 09:52:06.151   07 Jun 2027 09:52:10.027             3.876          1047.438
       170   07 Jun 2027 09:52:39.573   07 Jun 2027 09:52:44.295             4.722           923.312
       171   07 Jun 2027 11:22:09.635   07 Jun 2027 11:22:25.603            15.968          7227.219
       172   07 Jun 2027 11:22:41.069   07 Jun 2027 11:22:41.724             0.655           296.062
       173   07 Jun 2027 11:23:05.749   07 Jun 2027 11:23:09.074             3.325           437.812
       174   07 Jun 2027 11:24:11.917   07 Jun 2027 11:24:16.249             4.332          1670.187
       175   07 Jun 2027 11:24:31.678   07 Jun 2027 11:24:35.797             4.119           472.812
       176   07 Jun 2027 11:24:51.220   07 Jun 2027 11:24:53.088             1.868           481.969
       177   07 Jun 2027 11:26:15.057   07 Jun 2027 11:26:20.642             5.585          2234.000
       178   07 Jun 2027 11:27:11.762   07 Jun 2027 11:27:13.007             1.245           622.500
       179   07 Jun 2027 11:27:39.356   07 Jun 2027 11:27:42.686             3.330          1347.093
       180   08 Jun 2027 03:46:00.610   08 Jun 2027 03:48:06.483           125.873         62936.500
       181   08 Jun 2027 03:48:13.825   08 Jun 2027 03:48:21.885             8.060          4030.000
       182   08 Jun 2027 03:48:23.369   08 Jun 2027 03:48:24.394             1.025           512.500
       183   08 Jun 2027 03:51:34.184   08 Jun 2027 03:51:37.013             2.829          1414.500
       184   08 Jun 2027 03:52:14.567   08 Jun 2027 03:52:23.833             9.266          4633.000
       185   08 Jun 2027 05:11:33.093   08 Jun 2027 05:11:49.483            16.390          8195.000
       186   08 Jun 2027 05:12:09.620   08 Jun 2027 05:12:20.769            11.149          5574.500
       187   08 Jun 2027 05:22:56.907   08 Jun 2027 05:23:48.634            51.727         25863.500
       188   08 Jun 2027 06:45:33.739   08 Jun 2027 06:46:35.324            61.585         30792.500
       189   08 Jun 2027 06:47:07.382   08 Jun 2027 06:47:40.857            33.475         16737.500
       190   08 Jun 2027 08:20:58.780   08 Jun 2027 08:21:19.672            20.892         10054.312
       191   08 Jun 2027 08:22:29.776   08 Jun 2027 08:22:31.752             1.976           988.000
       192   08 Jun 2027 08:22:35.850   08 Jun 2027 08:22:36.400             0.550           161.094
       193   08 Jun 2027 08:23:18.299   08 Jun 2027 08:23:23.795             5.496          1297.094
       194   08 Jun 2027 08:24:15.025   08 Jun 2027 08:24:17.076             2.051          1025.500
       195   08 Jun 2027 08:24:51.570   08 Jun 2027 08:24:54.041             2.471          1218.313
       196   08 Jun 2027 08:26:35.349   08 Jun 2027 08:26:40.248             4.899          2277.125
       197   08 Jun 2027 08:26:48.916   08 Jun 2027 08:26:50.325             1.409           225.844
       198   08 Jun 2027 09:57:24.201   08 Jun 2027 09:57:36.015            11.814          5152.344
       199   08 Jun 2027 10:00:40.712   08 Jun 2027 10:00:52.372            11.660          5489.844
       200   08 Jun 2027 10:02:02.120   08 Jun 2027 10:02:06.627             4.507          2124.906
       201   08 Jun 2027 10:02:13.348   08 Jun 2027 10:02:15.744             2.396           210.031
       202   08 Jun 2027 10:02:46.731   08 Jun 2027 10:02:49.899             3.168           577.562
       203   08 Jun 2027 10:02:57.770   08 Jun 2027 10:03:00.799             3.029            97.469
       204   08 Jun 2027 10:03:41.490   08 Jun 2027 10:03:43.007             1.517           758.500
       205   08 Jun 2027 10:04:28.249   08 Jun 2027 10:04:38.284            10.035          1926.906
       206   08 Jun 2027 10:04:39.472   08 Jun 2027 10:04:41.827             2.355            37.125
       207   08 Jun 2027 11:34:30.330   08 Jun 2027 11:34:45.141            14.811          6356.625
       208   08 Jun 2027 11:35:46.934   08 Jun 2027 11:35:54.329             7.395          1886.687
       209   08 Jun 2027 11:35:59.122   08 Jun 2027 11:36:02.239             3.117           149.781
       210   08 Jun 2027 11:37:10.290   08 Jun 2027 11:37:15.980             5.690          2126.594
       211   08 Jun 2027 11:37:52.202   08 Jun 2027 11:37:55.487             3.285           785.562
       212   08 Jun 2027 11:38:37.431   08 Jun 2027 11:38:39.312             1.881           940.500
       213   08 Jun 2027 11:39:13.147   08 Jun 2027 11:39:15.313             2.166          1083.000
       214   08 Jun 2027 11:39:43.404   08 Jun 2027 11:39:43.972             0.568           284.000
       215   08 Jun 2027 11:39:57.163   08 Jun 2027 11:40:01.111             3.948          1350.656
       216   08 Jun 2027 11:40:10.884   08 Jun 2027 11:40:18.084             7.200           240.969
       217   09 Jun 2027 03:58:26.691   09 Jun 2027 04:00:25.366           118.675         59337.500
       218   09 Jun 2027 04:02:19.928   09 Jun 2027 04:02:22.606             2.678          1339.000
       219   09 Jun 2027 04:02:30.583   09 Jun 2027 04:02:33.011             2.428          1214.000
       220   09 Jun 2027 04:03:28.214   09 Jun 2027 04:04:14.267            46.053         23026.500
       221   09 Jun 2027 04:05:15.577   09 Jun 2027 04:05:33.779            18.202          9101.000
       222   09 Jun 2027 05:23:16.577   09 Jun 2027 05:24:10.145            53.568         26784.000
       223   09 Jun 2027 05:34:56.257   09 Jun 2027 05:35:22.645            26.388         13194.000
       224   09 Jun 2027 05:35:48.989   09 Jun 2027 05:35:56.677             7.688          3844.000
       225   09 Jun 2027 06:57:13.847   09 Jun 2027 06:58:20.167            66.320         33160.000
       226   09 Jun 2027 06:59:07.904   09 Jun 2027 06:59:40.295            32.391         16195.500
       227   09 Jun 2027 08:32:07.807   09 Jun 2027 08:32:25.358            17.551          8743.157
       228   09 Jun 2027 08:33:15.029   09 Jun 2027 08:33:15.029             0.000             0.000
       229   09 Jun 2027 08:33:45.533   09 Jun 2027 08:33:52.708             7.175          1168.312
       230   09 Jun 2027 08:37:17.516   09 Jun 2027 08:37:26.422             8.906          4453.000
       231   09 Jun 2027 08:37:58.365   09 Jun 2027 08:38:06.317             7.952          2943.813
       232   09 Jun 2027 08:40:10.582   09 Jun 2027 08:40:16.956             6.374          3084.219
       233   09 Jun 2027 08:40:24.484   09 Jun 2027 08:40:25.958             1.474           235.250
       234   09 Jun 2027 10:09:40.002   09 Jun 2027 10:09:48.375             8.373          4121.406
       235   09 Jun 2027 10:10:10.364   09 Jun 2027 10:10:13.167             2.803           209.406
       236   09 Jun 2027 10:10:44.504   09 Jun 2027 10:10:46.633             2.129           846.969
       237   09 Jun 2027 10:11:10.528   09 Jun 2027 10:11:12.657             2.129            39.000
       238   09 Jun 2027 10:12:45.564   09 Jun 2027 10:12:45.564             0.000             0.000
       239   09 Jun 2027 10:13:19.832   09 Jun 2027 10:13:34.314            14.482          3315.719
       240   09 Jun 2027 10:14:07.538   09 Jun 2027 10:14:10.532             2.994           380.250
       241   09 Jun 2027 10:15:51.787   09 Jun 2027 10:15:59.255             7.468          3164.219
       242   09 Jun 2027 10:16:16.637   09 Jun 2027 10:16:21.787             5.150           268.906
       243   09 Jun 2027 10:16:32.231   09 Jun 2027 10:16:33.246             1.015           326.375
       244   09 Jun 2027 11:46:23.672   09 Jun 2027 11:46:37.344            13.672          6696.250
       245   09 Jun 2027 11:47:59.100   09 Jun 2027 11:48:11.716            12.616          2460.219
       246   09 Jun 2027 11:48:20.557   09 Jun 2027 11:48:21.971             1.414           190.094
       247   09 Jun 2027 11:48:30.693   09 Jun 2027 11:48:30.895             0.202           101.000
       248   09 Jun 2027 11:49:04.533   09 Jun 2027 11:49:09.494             4.961          1222.750
       249   09 Jun 2027 11:50:19.347   09 Jun 2027 11:50:20.893             1.546           773.000
       250   09 Jun 2027 11:50:23.865   09 Jun 2027 11:50:24.541             0.676           338.000
       251   09 Jun 2027 11:50:35.087   09 Jun 2027 11:50:35.940             0.853           426.500
       252   09 Jun 2027 11:51:08.792   09 Jun 2027 11:51:12.143             3.351          1675.500
       253   09 Jun 2027 11:51:48.934   09 Jun 2027 11:51:53.256             4.322          1568.688
       254   09 Jun 2027 11:52:22.266   09 Jun 2027 11:52:22.266             0.000             0.000
       255   09 Jun 2027 11:52:34.123   09 Jun 2027 11:52:37.419             3.296          1277.094
       256   09 Jun 2027 11:52:43.449   09 Jun 2027 11:52:52.878             9.429            17.719
       257   10 Jun 2027 04:10:30.372   10 Jun 2027 04:11:45.766            75.394         37697.000
       258   10 Jun 2027 04:12:00.775   10 Jun 2027 04:12:08.492             7.717          3858.500
       259   10 Jun 2027 04:12:52.061   10 Jun 2027 04:12:55.757             3.696          1848.000
       260   10 Jun 2027 04:14:29.302   10 Jun 2027 04:14:44.955            15.653          7826.500
       261   10 Jun 2027 04:15:46.925   10 Jun 2027 04:15:46.925             0.000             0.000
       262   10 Jun 2027 04:16:15.847   10 Jun 2027 04:16:36.769            20.922         10461.000
       263   10 Jun 2027 05:34:49.879   10 Jun 2027 05:35:52.564            62.685         31342.500
       264   10 Jun 2027 05:47:09.836   10 Jun 2027 05:47:30.868            21.032         10516.000
       265   10 Jun 2027 07:08:45.460   10 Jun 2027 07:10:05.901            80.441         40220.500
       266   10 Jun 2027 07:10:54.195   10 Jun 2027 07:11:30.043            35.848         17924.000
       267   10 Jun 2027 07:11:36.624   10 Jun 2027 07:11:39.097             2.473          1236.500
       268   10 Jun 2027 07:13:53.649   10 Jun 2027 07:14:03.605             9.956          4978.000
       269   10 Jun 2027 07:14:10.370   10 Jun 2027 07:14:10.443             0.073            36.500
       270   10 Jun 2027 08:43:38.771   10 Jun 2027 08:43:56.012            17.241          7070.844
       271   10 Jun 2027 08:45:39.450   10 Jun 2027 08:45:44.325             4.875          2188.937
       272   10 Jun 2027 08:45:52.731   10 Jun 2027 08:45:52.731             0.000             0.000
       273   10 Jun 2027 08:47:08.850   10 Jun 2027 08:47:14.217             5.367          2566.500
       274   10 Jun 2027 08:47:42.984   10 Jun 2027 08:47:47.840             4.856           619.125
       275   10 Jun 2027 08:49:20.395   10 Jun 2027 08:49:26.112             5.717          2544.188
       276   10 Jun 2027 08:50:22.411   10 Jun 2027 08:50:22.411             0.000             0.000
       277   10 Jun 2027 08:50:35.236   10 Jun 2027 08:50:44.855             9.619          2058.438
       278   10 Jun 2027 08:51:01.019   10 Jun 2027 08:51:04.394             3.375           505.125
       279   10 Jun 2027 08:52:04.834   10 Jun 2027 08:52:08.716             3.882          1238.344
       280   10 Jun 2027 10:21:35.059   10 Jun 2027 10:21:41.912             6.853          3426.500
       281   10 Jun 2027 10:23:32.884   10 Jun 2027 10:23:46.275            13.391          6504.938
       282   10 Jun 2027 10:24:06.444   10 Jun 2027 10:24:11.397             4.953           595.062
       283   10 Jun 2027 10:24:49.113   10 Jun 2027 10:24:56.891             7.778           972.844
       284   10 Jun 2027 10:25:42.382   10 Jun 2027 10:25:47.930             5.548           908.969
       285   10 Jun 2027 10:26:05.754   10 Jun 2027 10:26:12.870             7.116           557.000
       286   10 Jun 2027 10:27:24.918   10 Jun 2027 10:27:31.196             6.278          1973.750
       287   10 Jun 2027 10:27:39.041   10 Jun 2027 10:27:42.642             3.601           245.156
       288   10 Jun 2027 10:28:27.346   10 Jun 2027 10:28:33.065             5.719          1296.969
       289   10 Jun 2027 10:28:48.821   10 Jun 2027 10:28:50.652             1.831           492.375
       290   10 Jun 2027 11:58:22.959   10 Jun 2027 11:58:38.150            15.191          7248.125
       291   10 Jun 2027 11:59:30.167   10 Jun 2027 11:59:36.322             6.155           758.469
       292   11 Jun 2027 04:22:56.691   11 Jun 2027 04:24:26.561            89.870         44935.000
       293   11 Jun 2027 04:26:25.389   11 Jun 2027 04:26:34.576             9.187          4593.500
       294   11 Jun 2027 04:26:44.063   11 Jun 2027 04:26:44.063             0.000             0.000
       295   11 Jun 2027 04:27:08.850   11 Jun 2027 04:27:44.419            35.569         17784.500
       296   11 Jun 2027 05:46:45.748   11 Jun 2027 05:47:53.935            68.187         34093.500
       297   11 Jun 2027 05:48:03.553   11 Jun 2027 05:48:12.124             8.571          4285.500
       298   11 Jun 2027 07:22:45.347   11 Jun 2027 07:24:50.063           124.716         62358.000
       299   11 Jun 2027 07:26:28.236   11 Jun 2027 07:26:28.236             0.000             0.000
       300   11 Jun 2027 08:56:32.693   11 Jun 2027 08:56:49.237            16.544          8024.125
       301   11 Jun 2027 08:57:12.742   11 Jun 2027 08:57:17.309             4.567            22.094
       302   11 Jun 2027 08:58:07.925   11 Jun 2027 08:58:11.216             3.291           638.938
       303   11 Jun 2027 08:58:50.299   11 Jun 2027 08:58:52.245             1.946           666.906
       304   11 Jun 2027 09:00:19.152   11 Jun 2027 09:00:28.415             9.263          2715.844
       305   11 Jun 2027 09:01:10.571   11 Jun 2027 09:01:11.963             1.392           175.344
       306   11 Jun 2027 09:03:17.075   11 Jun 2027 09:03:25.128             8.053          3909.750
       307   11 Jun 2027 09:04:14.773   11 Jun 2027 09:04:19.339             4.566          1498.813
       308   11 Jun 2027 09:04:22.268   11 Jun 2027 09:04:22.586             0.318            63.625
       309   11 Jun 2027 10:33:47.652   11 Jun 2027 10:34:06.106            18.454          7682.125
       310   11 Jun 2027 10:34:42.800   11 Jun 2027 10:34:48.171             5.371           845.344
       311   11 Jun 2027 10:35:38.955   11 Jun 2027 10:35:42.473             3.518          1541.781
       312   11 Jun 2027 10:36:29.524   11 Jun 2027 10:36:32.424             2.900           981.969
       313   11 Jun 2027 10:36:40.361   11 Jun 2027 10:36:46.030             5.669            56.156
       314   11 Jun 2027 10:37:24.305   11 Jun 2027 10:37:24.694             0.389           116.031
       315   11 Jun 2027 10:37:27.895   11 Jun 2027 10:37:37.711             9.816           100.031
       316   11 Jun 2027 10:38:30.298   11 Jun 2027 10:38:35.152             4.854          1643.344
       317   11 Jun 2027 10:38:37.188   11 Jun 2027 10:38:37.481             0.293            38.437
       318   11 Jun 2027 10:39:45.747   11 Jun 2027 10:39:49.583             3.836          1617.812
       319   11 Jun 2027 10:40:26.195   11 Jun 2027 10:40:29.135             2.940           665.094
       320   11 Jun 2027 10:40:29.529   11 Jun 2027 10:40:30.257             0.728            12.313
       321   12 Jun 2027 03:00:00.000   12 Jun 2027 03:00:12.385            12.385          6192.500
       322   12 Jun 2027 03:01:11.635   12 Jun 2027 03:01:22.416            10.781          5390.500
       323   12 Jun 2027 03:01:29.557   12 Jun 2027 03:01:46.598            17.041          8520.500
       324   12 Jun 2027 03:02:39.304   12 Jun 2027 03:02:51.683            12.379          6189.500
       325   12 Jun 2027 04:35:15.939   12 Jun 2027 04:36:30.204            74.265         37132.500
       326   12 Jun 2027 04:36:54.416   12 Jun 2027 04:37:11.892            17.476          8738.000
       327   12 Jun 2027 04:37:47.975   12 Jun 2027 04:38:02.428            14.453          7226.500
       328   12 Jun 2027 05:58:37.772   12 Jun 2027 05:59:55.138            77.366         38683.000
       329   12 Jun 2027 06:00:13.481   12 Jun 2027 06:00:13.481             0.000             0.000
       330   12 Jun 2027 07:34:59.610   12 Jun 2027 07:36:45.364           105.754         52715.718
       331   12 Jun 2027 07:38:13.725   12 Jun 2027 07:38:27.084            13.359          2664.500
       332   12 Jun 2027 09:07:17.624   12 Jun 2027 09:07:29.416            11.792          5566.188
       333   12 Jun 2027 09:09:47.729   12 Jun 2027 09:09:55.136             7.407          3172.313
       334   12 Jun 2027 09:11:10.236   12 Jun 2027 09:11:10.236             0.000             0.000
       335   12 Jun 2027 09:11:47.294   12 Jun 2027 09:11:53.516             6.222          2071.812
       336   12 Jun 2027 09:12:25.653   12 Jun 2027 09:12:28.727             3.074          1004.281
       337   12 Jun 2027 09:13:06.388   12 Jun 2027 09:13:07.912             1.524           638.406
       338   12 Jun 2027 09:13:29.356   12 Jun 2027 09:13:30.586             1.230           615.000
       339   12 Jun 2027 09:13:49.368   12 Jun 2027 09:13:51.772             2.404           642.063
       340   12 Jun 2027 09:14:53.965   12 Jun 2027 09:14:59.578             5.613          1806.156
       341   12 Jun 2027 09:15:23.772   12 Jun 2027 09:15:27.326             3.554           756.062
       342   12 Jun 2027 09:15:38.261   12 Jun 2027 09:15:39.562             1.301            68.937
       343   12 Jun 2027 09:16:03.525   12 Jun 2027 09:16:06.655             3.130           541.562
       344   12 Jun 2027 09:16:22.034   12 Jun 2027 09:16:23.248             1.214             7.688
       345   12 Jun 2027 09:16:59.237   12 Jun 2027 09:17:00.758             1.521           718.156
       346   12 Jun 2027 10:46:08.474   12 Jun 2027 10:46:26.555            18.081          7037.250
       347   12 Jun 2027 10:48:12.577   12 Jun 2027 10:48:17.615             5.038          1836.094
       348   12 Jun 2027 10:48:50.863   12 Jun 2027 10:48:53.888             3.025           706.563
       349   12 Jun 2027 10:49:36.231   12 Jun 2027 10:49:44.386             8.155          1319.375
       350   12 Jun 2027 10:50:51.541   12 Jun 2027 10:50:57.961             6.420          1958.688
       351   12 Jun 2027 10:51:05.192   12 Jun 2027 10:51:10.992             5.800           197.844
       352   12 Jun 2027 10:52:14.302   12 Jun 2027 10:52:18.949             4.647          1978.437
       353   13 Jun 2027 03:09:07.169   13 Jun 2027 03:10:00.475            53.306         26653.000
       354   13 Jun 2027 03:11:13.114   13 Jun 2027 03:11:17.250             4.136          2068.000
       355   13 Jun 2027 03:11:25.883   13 Jun 2027 03:11:37.640            11.757          5878.500
       356   13 Jun 2027 03:14:08.450   13 Jun 2027 03:14:16.791             8.341          4170.500
       357   13 Jun 2027 03:14:40.491   13 Jun 2027 03:14:40.698             0.207           103.500
       358   13 Jun 2027 04:48:08.342   13 Jun 2027 04:49:25.026            76.684         38342.000
       359   13 Jun 2027 04:50:06.717   13 Jun 2027 04:50:27.621            20.904         10452.000
       360   13 Jun 2027 06:10:41.174   13 Jun 2027 06:11:34.301            53.127         26563.500
       361   13 Jun 2027 07:47:07.190   13 Jun 2027 07:48:51.009           103.819         51909.500
       362   13 Jun 2027 07:49:13.050   13 Jun 2027 07:49:18.434             5.384          2490.095
       363   13 Jun 2027 07:49:38.527   13 Jun 2027 07:49:41.711             3.184           563.344
       364   13 Jun 2027 09:22:14.901   13 Jun 2027 09:22:29.359            14.458          5593.938
       365   13 Jun 2027 09:23:19.442   13 Jun 2027 09:23:23.541             4.099           936.219
       366   13 Jun 2027 09:23:48.988   13 Jun 2027 09:23:56.766             7.778           541.750
       367   13 Jun 2027 09:24:15.522   13 Jun 2027 09:24:18.173             2.651           483.500
       368   13 Jun 2027 09:25:25.057   13 Jun 2027 09:25:25.057             0.000             0.000
       369   13 Jun 2027 09:25:56.752   13 Jun 2027 09:26:02.543             5.791          2558.719
       370   13 Jun 2027 09:26:42.541   13 Jun 2027 09:26:44.706             2.165          1040.594
       371   13 Jun 2027 09:27:03.524   13 Jun 2027 09:27:03.994             0.470            15.344
       372   13 Jun 2027 09:28:21.680   13 Jun 2027 09:28:34.209            12.529          2346.500
       373   13 Jun 2027 09:28:49.403   13 Jun 2027 09:28:50.431             1.028           427.156
       374   13 Jun 2027 10:58:36.510   13 Jun 2027 10:58:47.610            11.100          5382.469
       375   13 Jun 2027 10:59:11.297   13 Jun 2027 10:59:13.013             1.716           599.000
       376   13 Jun 2027 11:00:35.903   13 Jun 2027 11:00:41.293             5.390          2590.313
       377   13 Jun 2027 11:01:18.164   13 Jun 2027 11:01:22.082             3.918           993.375
       378   13 Jun 2027 11:01:57.681   13 Jun 2027 11:02:01.773             4.092          1112.469
       379   13 Jun 2027 11:02:11.474   13 Jun 2027 11:02:12.824             1.350           235.062
       380   13 Jun 2027 11:02:37.001   13 Jun 2027 11:02:40.133             3.132           755.531
       381   13 Jun 2027 11:03:06.868   13 Jun 2027 11:03:14.018             7.150           835.469
       382   13 Jun 2027 11:03:26.320   13 Jun 2027 11:03:27.771             1.451           370.031
       383   13 Jun 2027 11:04:14.306   13 Jun 2027 11:04:16.043             1.737           868.500
       384   13 Jun 2027 11:04:42.998   13 Jun 2027 11:04:46.268             3.270          1428.062
