uniorb/output/strategy_1/Camera/Camera_KinoSat_110501.txt

KinoSat_110501
-------------------------
    Access    *     Start Time (UTCG)     *     Stop Time (UTCG)  *   Duration (s) *   Data (Mbytes)
         1   01 Jun 2027 04:23:08.289   01 Jun 2027 04:23:26.810            18.521          9260.500
         2   01 Jun 2027 04:24:55.469   01 Jun 2027 04:26:34.203            98.734         49367.000
         3   01 Jun 2027 04:27:21.644   01 Jun 2027 04:28:02.762            41.118         20559.000
         4   01 Jun 2027 04:29:35.410   01 Jun 2027 04:29:46.529            11.119          5559.500
         5   01 Jun 2027 04:30:02.398   01 Jun 2027 04:30:02.398             0.000             0.000
         6   01 Jun 2027 04:30:13.762   01 Jun 2027 04:30:14.773             1.011           505.500
         7   01 Jun 2027 04:30:43.718   01 Jun 2027 04:30:44.770             1.052           526.000
         8   01 Jun 2027 04:30:53.167   01 Jun 2027 04:30:57.673             4.506          2253.000
         9   01 Jun 2027 04:31:16.190   01 Jun 2027 04:31:38.672            22.482         11241.000
        10   01 Jun 2027 04:32:19.562   01 Jun 2027 04:32:34.500            14.938          7469.000
        11   01 Jun 2027 04:32:41.139   01 Jun 2027 04:32:43.507             2.368          1184.000
        12   01 Jun 2027 06:01:59.981   01 Jun 2027 06:05:11.626           191.645         95822.500
        13   01 Jun 2027 06:08:03.823   01 Jun 2027 06:08:42.704            38.881         19440.500
        14   01 Jun 2027 07:38:56.069   01 Jun 2027 07:42:15.012           198.943         99471.500
        15   01 Jun 2027 07:42:43.000   01 Jun 2027 07:42:47.130             4.130          2065.000
        16   01 Jun 2027 09:15:42.657   01 Jun 2027 09:17:57.514           134.857         67428.500
        17   01 Jun 2027 09:18:46.354   01 Jun 2027 09:18:57.702            11.348          5674.000
        18   01 Jun 2027 09:19:11.640   01 Jun 2027 09:19:20.172             8.532          4266.000
        19   01 Jun 2027 09:20:16.885   01 Jun 2027 09:20:24.466             7.581          3790.500
        20   01 Jun 2027 10:53:54.706   01 Jun 2027 10:54:52.789            58.083         29041.500
        21   02 Jun 2027 03:03:01.978   02 Jun 2027 03:06:31.689           209.711        104855.500
        22   02 Jun 2027 04:38:06.886   02 Jun 2027 04:41:34.052           207.166        103583.000
        23   02 Jun 2027 04:43:04.181   02 Jun 2027 04:43:33.346            29.165         14582.500
        24   02 Jun 2027 04:44:20.822   02 Jun 2027 04:44:41.888            21.066         10533.000
        25   02 Jun 2027 06:14:28.703   02 Jun 2027 06:16:34.006           125.303         62651.500
        26   02 Jun 2027 06:17:22.802   02 Jun 2027 06:17:36.088            13.286          6643.000
        27   02 Jun 2027 06:18:17.246   02 Jun 2027 06:18:34.464            17.218          8609.000
        28   02 Jun 2027 06:18:59.717   02 Jun 2027 06:19:02.863             3.146          1573.000
        29   02 Jun 2027 07:51:59.140   02 Jun 2027 07:54:41.628           162.488         81244.000
        30   02 Jun 2027 07:54:50.252   02 Jun 2027 07:54:51.726             1.474           737.000
        31   02 Jun 2027 07:54:57.177   02 Jun 2027 07:55:01.003             3.826          1913.000
        32   02 Jun 2027 07:55:52.776   02 Jun 2027 07:56:09.561            16.785          8392.500
        33   02 Jun 2027 09:28:03.770   02 Jun 2027 09:30:22.895           139.125         69562.500
        34   02 Jun 2027 09:30:53.547   02 Jun 2027 09:30:58.773             5.226          2613.000
        35   02 Jun 2027 09:31:31.869   02 Jun 2027 09:31:38.381             6.512          3256.000
        36   02 Jun 2027 09:32:07.370   02 Jun 2027 09:32:10.051             2.681          1340.500
        37   03 Jun 2027 03:15:06.592   03 Jun 2027 03:18:31.785           205.193        102596.500
        38   03 Jun 2027 04:50:16.901   03 Jun 2027 04:54:09.994           233.093        116546.500
        39   03 Jun 2027 04:54:36.143   03 Jun 2027 04:54:52.496            16.353          8176.500
        40   03 Jun 2027 04:55:41.020   03 Jun 2027 04:56:01.362            20.342         10171.000
        41   03 Jun 2027 04:56:21.146   03 Jun 2027 04:56:29.780             8.634          4317.000
        42   03 Jun 2027 04:56:47.552   03 Jun 2027 04:56:53.221             5.669          2834.500
        43   03 Jun 2027 06:26:31.947   03 Jun 2027 06:28:26.592           114.645         57322.500
        44   03 Jun 2027 06:29:07.707   03 Jun 2027 06:29:29.299            21.592         10796.000
        45   03 Jun 2027 06:30:25.819   03 Jun 2027 06:30:32.408             6.589          3294.500
        46   03 Jun 2027 06:31:00.085   03 Jun 2027 06:31:05.796             5.711          2855.500
        47   03 Jun 2027 06:31:22.343   03 Jun 2027 06:31:35.450            13.107          6553.500
        48   03 Jun 2027 08:04:04.653   03 Jun 2027 08:06:31.395           146.742         73371.000
        49   03 Jun 2027 08:06:48.395   03 Jun 2027 08:07:01.166            12.771          6385.500
        50   03 Jun 2027 08:07:44.834   03 Jun 2027 08:07:44.834             0.000             0.000
        51   03 Jun 2027 08:08:02.680   03 Jun 2027 08:08:17.373            14.693          7346.500
        52   03 Jun 2027 09:40:05.967   03 Jun 2027 09:41:56.705           110.738         55369.000
        53   03 Jun 2027 09:42:23.175   03 Jun 2027 09:42:29.182             6.007          3003.500
        54   03 Jun 2027 09:42:50.553   03 Jun 2027 09:42:58.016             7.463          3731.500
        55   03 Jun 2027 09:43:08.493   03 Jun 2027 09:43:12.473             3.980          1990.000
        56   03 Jun 2027 09:44:05.216   03 Jun 2027 09:44:17.967            12.751          6375.500
        57   03 Jun 2027 09:44:22.117   03 Jun 2027 09:44:32.377            10.260          5130.000
        58   04 Jun 2027 03:26:50.201   04 Jun 2027 03:30:34.693           224.492        112246.000
        59   04 Jun 2027 05:01:41.426   04 Jun 2027 05:04:01.323           139.897         69948.500
        60   04 Jun 2027 05:04:18.724   04 Jun 2027 05:04:19.831             1.107           553.500
        61   04 Jun 2027 05:05:25.314   04 Jun 2027 05:05:35.075             9.761          4880.500
        62   04 Jun 2027 05:06:39.684   04 Jun 2027 05:06:55.322            15.638          7819.000
        63   04 Jun 2027 05:07:24.757   04 Jun 2027 05:07:55.449            30.692         15346.000
        64   04 Jun 2027 05:08:27.346   04 Jun 2027 05:08:39.581            12.235          6117.500
        65   04 Jun 2027 05:08:57.681   04 Jun 2027 05:09:00.237             2.556          1278.000
        66   04 Jun 2027 06:38:17.094   04 Jun 2027 06:41:04.053           166.959         83479.500
        67   04 Jun 2027 06:41:31.128   04 Jun 2027 06:41:34.919             3.791          1895.500
        68   04 Jun 2027 06:42:45.358   04 Jun 2027 06:43:12.370            27.012         13506.000
        69   04 Jun 2027 06:43:39.865   04 Jun 2027 06:43:51.818            11.953          5976.500
        70   04 Jun 2027 08:16:34.701   04 Jun 2027 08:17:51.044            76.343         38171.500
        71   04 Jun 2027 08:18:13.224   04 Jun 2027 08:18:25.140            11.916          5958.000
        72   04 Jun 2027 08:19:09.584   04 Jun 2027 08:19:17.091             7.507          3753.500
        73   04 Jun 2027 08:19:40.053   04 Jun 2027 08:19:48.592             8.539          4269.500
        74   04 Jun 2027 08:20:06.068   04 Jun 2027 08:20:13.291             7.223          3611.500
        75   04 Jun 2027 09:49:55.540   04 Jun 2027 09:50:03.238             7.698          3849.000
        76   04 Jun 2027 09:51:54.585   04 Jun 2027 09:52:14.403            19.818          9909.000
        77   04 Jun 2027 09:52:42.349   04 Jun 2027 09:52:48.316             5.967          2983.500
        78   04 Jun 2027 09:53:06.803   04 Jun 2027 09:53:13.543             6.740          3370.000
        79   04 Jun 2027 09:54:23.762   04 Jun 2027 09:54:48.790            25.028         12514.000
        80   04 Jun 2027 09:56:26.195   04 Jun 2027 09:56:45.898            19.703          9851.500
        81   04 Jun 2027 09:57:08.519   04 Jun 2027 09:57:13.824             5.305          2652.500
        82   05 Jun 2027 03:37:03.259   05 Jun 2027 03:38:02.169            58.910         29455.000
        83   05 Jun 2027 03:38:35.186   05 Jun 2027 03:40:56.190           141.004         70502.000
        84   05 Jun 2027 03:41:37.439   05 Jun 2027 03:41:51.868            14.429          7214.500
        85   05 Jun 2027 03:42:19.640   05 Jun 2027 03:42:30.263            10.623          5311.500
        86   05 Jun 2027 03:42:36.697   05 Jun 2027 03:42:36.697             0.000             0.000
        87   05 Jun 2027 05:13:33.466   05 Jun 2027 05:16:03.635           150.169         75084.500
        88   05 Jun 2027 05:18:10.188   05 Jun 2027 05:18:26.586            16.398          8199.000
        89   05 Jun 2027 05:19:41.325   05 Jun 2027 05:20:23.881            42.556         21278.000
        90   05 Jun 2027 05:21:03.321   05 Jun 2027 05:21:03.891             0.570           285.000
        91   05 Jun 2027 06:50:38.137   05 Jun 2027 06:52:58.974           140.837         70418.500
        92   05 Jun 2027 06:54:04.797   05 Jun 2027 06:54:24.390            19.593          9796.500
        93   05 Jun 2027 06:55:10.320   05 Jun 2027 06:55:10.320             0.000             0.000
        94   05 Jun 2027 06:55:26.990   05 Jun 2027 06:55:34.892             7.902          3951.000
        95   05 Jun 2027 06:56:30.644   05 Jun 2027 06:56:42.304            11.660          5830.000
        96   05 Jun 2027 08:28:32.369   05 Jun 2027 08:29:30.567            58.198         29099.000
        97   05 Jun 2027 08:30:25.421   05 Jun 2027 08:30:27.810             2.389          1194.500
        98   05 Jun 2027 08:30:27.886   05 Jun 2027 08:30:29.362             1.476           738.000
        99   05 Jun 2027 08:31:05.972   05 Jun 2027 08:31:07.229             1.257           628.500
       100   05 Jun 2027 08:31:38.767   05 Jun 2027 08:32:00.807            22.040         11020.000
       101   05 Jun 2027 10:01:40.898   05 Jun 2027 10:02:00.666            19.768          9884.000
       102   05 Jun 2027 10:02:11.718   05 Jun 2027 10:02:31.664            19.946          9973.000
       103   05 Jun 2027 10:03:47.868   05 Jun 2027 10:03:57.237             9.369          4684.500
       104   05 Jun 2027 10:04:38.796   05 Jun 2027 10:04:44.226             5.430          2715.000
       105   05 Jun 2027 10:05:06.106   05 Jun 2027 10:05:14.689             8.583          4291.500
       106   05 Jun 2027 10:06:07.355   05 Jun 2027 10:06:14.545             7.190          3595.000
       107   05 Jun 2027 10:06:54.865   05 Jun 2027 10:07:05.196            10.331          5165.500
       108   05 Jun 2027 10:08:25.355   05 Jun 2027 10:08:45.073            19.718          9859.000
       109   05 Jun 2027 10:09:10.379   05 Jun 2027 10:09:22.514            12.135          6067.500
       110   06 Jun 2027 03:48:12.934   06 Jun 2027 03:50:15.799           122.865         61432.500
       111   06 Jun 2027 03:50:22.276   06 Jun 2027 03:52:56.713           154.437         77218.500
       112   06 Jun 2027 03:53:12.471   06 Jun 2027 03:53:21.577             9.106          4553.000
       113   06 Jun 2027 03:53:57.911   06 Jun 2027 03:54:19.759            21.848         10924.000
       114   06 Jun 2027 03:54:34.366   06 Jun 2027 03:54:34.366             0.000             0.000
       115   06 Jun 2027 03:56:14.391   06 Jun 2027 03:56:41.008            26.617         13308.500
       116   06 Jun 2027 05:25:46.589   06 Jun 2027 05:28:19.631           153.042         76521.000
       117   06 Jun 2027 05:28:55.340   06 Jun 2027 05:28:59.917             4.577          2288.500
       118   06 Jun 2027 05:31:21.361   06 Jun 2027 05:32:13.786            52.425         26212.500
       119   06 Jun 2027 05:32:58.684   06 Jun 2027 05:33:07.348             8.664          4332.000
       120   06 Jun 2027 07:02:29.097   06 Jun 2027 07:04:52.124           143.027         71513.500
       121   06 Jun 2027 07:06:08.501   06 Jun 2027 07:06:24.595            16.094          8047.000
       122   06 Jun 2027 07:07:02.849   06 Jun 2027 07:07:20.565            17.716          8858.000
       123   06 Jun 2027 07:07:54.325   06 Jun 2027 07:08:04.508            10.183          5091.500
       124   06 Jun 2027 07:08:42.329   06 Jun 2027 07:08:42.411             0.082            41.000
       125   06 Jun 2027 07:08:46.601   06 Jun 2027 07:08:47.598             0.997           498.500
       126   06 Jun 2027 08:40:32.218   06 Jun 2027 08:41:17.595            45.377         22688.500
       127   06 Jun 2027 08:42:35.247   06 Jun 2027 08:42:57.527            22.280         11140.000
       128   06 Jun 2027 08:44:35.350   06 Jun 2027 08:44:41.708             6.358          3179.000
       129   06 Jun 2027 10:14:09.555   06 Jun 2027 10:14:33.748            24.193         12096.500
       130   06 Jun 2027 10:15:54.611   06 Jun 2027 10:16:12.287            17.676          8838.000
       131   06 Jun 2027 10:17:07.432   06 Jun 2027 10:17:29.547            22.115         11057.500
       132   06 Jun 2027 10:19:03.496   06 Jun 2027 10:19:20.738            17.242          8621.000
       133   06 Jun 2027 10:20:32.516   06 Jun 2027 10:20:38.409             5.893          2946.500
       134   06 Jun 2027 10:20:58.161   06 Jun 2027 10:21:04.793             6.632          3316.000
       135   06 Jun 2027 10:21:19.971   06 Jun 2027 10:21:24.286             4.315          2157.500
       136   07 Jun 2027 03:59:43.636   07 Jun 2027 04:04:15.760           272.124        136062.000
       137   07 Jun 2027 04:04:47.615   07 Jun 2027 04:04:51.515             3.900          1950.000
       138   07 Jun 2027 04:05:25.151   07 Jun 2027 04:05:31.467             6.316          3158.000
       139   07 Jun 2027 04:05:59.466   07 Jun 2027 04:06:26.693            27.227         13613.500
       140   07 Jun 2027 04:08:11.364   07 Jun 2027 04:08:34.643            23.279         11639.500
       141   07 Jun 2027 04:09:06.270   07 Jun 2027 04:09:09.784             3.514          1757.000
       142   07 Jun 2027 05:37:40.489   07 Jun 2027 05:40:05.823           145.334         72667.000
       143   07 Jun 2027 05:41:11.701   07 Jun 2027 05:41:16.333             4.632          2316.000
       144   07 Jun 2027 05:42:53.042   07 Jun 2027 05:43:38.706            45.664         22832.000
       145   07 Jun 2027 05:44:06.052   07 Jun 2027 05:44:21.738            15.686          7843.000
       146   07 Jun 2027 05:44:54.101   07 Jun 2027 05:45:03.313             9.212          4606.000
       147   07 Jun 2027 07:14:34.761   07 Jun 2027 07:16:55.950           141.189         70594.500
       148   07 Jun 2027 07:17:48.017   07 Jun 2027 07:18:09.113            21.096         10548.000
       149   07 Jun 2027 07:18:19.041   07 Jun 2027 07:18:34.147            15.106          7553.000
       150   07 Jun 2027 07:19:33.475   07 Jun 2027 07:19:54.113            20.638         10319.000
       151   07 Jun 2027 08:52:18.559   07 Jun 2027 08:53:02.230            43.671         21835.500
       152   07 Jun 2027 08:54:36.848   07 Jun 2027 08:54:57.831            20.983         10491.500
       153   07 Jun 2027 08:55:41.910   07 Jun 2027 08:55:52.022            10.112          5056.000
       154   07 Jun 2027 08:56:13.749   07 Jun 2027 08:56:16.894             3.145          1572.500
       155   07 Jun 2027 10:26:32.558   07 Jun 2027 10:26:44.651            12.093          6046.500
       156   07 Jun 2027 10:27:13.326   07 Jun 2027 10:27:20.680             7.354          3677.000
       157   07 Jun 2027 10:28:18.092   07 Jun 2027 10:28:33.451            15.359          7679.500
       158   07 Jun 2027 10:29:31.049   07 Jun 2027 10:29:35.783             4.734          2367.000
       159   07 Jun 2027 10:29:54.773   07 Jun 2027 10:30:04.297             9.524          4762.000
       160   07 Jun 2027 10:30:44.193   07 Jun 2027 10:30:58.408            14.215          7107.500
       161   07 Jun 2027 10:31:45.790   07 Jun 2027 10:31:52.853             7.063          3531.500
       162   08 Jun 2027 04:12:37.170   08 Jun 2027 04:17:29.609           292.439        146219.500
       163   08 Jun 2027 04:17:55.893   08 Jun 2027 04:18:01.002             5.109          2554.500
       164   08 Jun 2027 04:18:27.688   08 Jun 2027 04:18:31.697             4.009          2004.500
       165   08 Jun 2027 04:19:56.711   08 Jun 2027 04:20:50.989            54.278         27139.000
       166   08 Jun 2027 04:20:59.832   08 Jun 2027 04:21:03.421             3.589          1794.500
       167   08 Jun 2027 04:21:09.761   08 Jun 2027 04:21:10.743             0.982           491.000
       168   08 Jun 2027 05:50:01.224   08 Jun 2027 05:52:38.983           157.759         78879.500
       169   08 Jun 2027 05:53:27.036   08 Jun 2027 05:53:39.597            12.561          6280.500
       170   08 Jun 2027 05:53:44.470   08 Jun 2027 05:53:50.723             6.253          3126.500
       171   08 Jun 2027 05:54:10.098   08 Jun 2027 05:54:25.915            15.817          7908.500
       172   08 Jun 2027 05:54:39.907   08 Jun 2027 05:54:51.324            11.417          5708.500
       173   08 Jun 2027 05:56:02.604   08 Jun 2027 05:56:10.310             7.706          3853.000
       174   08 Jun 2027 05:56:43.523   08 Jun 2027 05:56:56.026            12.503          6251.500
       175   08 Jun 2027 07:27:05.133   08 Jun 2027 07:29:26.917           141.784         70892.000
       176   08 Jun 2027 07:29:49.349   08 Jun 2027 07:29:57.516             8.167          4083.500
       177   08 Jun 2027 07:30:22.105   08 Jun 2027 07:30:26.153             4.048          2024.000
       178   08 Jun 2027 07:30:36.186   08 Jun 2027 07:30:36.186             0.000             0.000
       179   08 Jun 2027 07:30:49.556   08 Jun 2027 07:30:58.411             8.855          4427.500
       180   08 Jun 2027 07:32:38.204   08 Jun 2027 07:32:55.354            17.150          8575.000
       181   08 Jun 2027 09:03:49.783   08 Jun 2027 09:04:29.491            39.708         19854.000
       182   08 Jun 2027 09:05:00.557   08 Jun 2027 09:05:18.367            17.810          8905.000
       183   08 Jun 2027 09:06:11.718   08 Jun 2027 09:06:21.655             9.937          4968.500
       184   08 Jun 2027 09:07:18.484   08 Jun 2027 09:07:25.275             6.791          3395.500
       185   08 Jun 2027 09:07:29.472   08 Jun 2027 09:07:43.174            13.702          6851.000
       186   08 Jun 2027 10:39:05.902   08 Jun 2027 10:39:14.395             8.493          4246.500
       187   08 Jun 2027 10:40:46.937   08 Jun 2027 10:41:18.722            31.785         15892.500
       188   08 Jun 2027 10:42:34.852   08 Jun 2027 10:42:34.852             0.000             0.000
       189   08 Jun 2027 10:42:39.904   08 Jun 2027 10:42:59.186            19.282          9641.000
       190   09 Jun 2027 04:25:10.132   09 Jun 2027 04:31:28.787           378.655        189327.500
       191   09 Jun 2027 04:32:36.426   09 Jun 2027 04:32:42.142             5.716          2858.000
       192   09 Jun 2027 06:02:14.719   09 Jun 2027 06:05:02.247           167.528         83764.000
       193   09 Jun 2027 06:05:26.437   09 Jun 2027 06:05:30.306             3.869          1934.500
       194   09 Jun 2027 06:08:22.429   09 Jun 2027 06:08:57.317            34.888         17444.000
       195   09 Jun 2027 07:39:10.613   09 Jun 2027 07:41:35.747           145.134         72567.000
       196   09 Jun 2027 07:41:50.819   09 Jun 2027 07:41:50.881             0.062            31.000
       197   09 Jun 2027 07:42:20.566   09 Jun 2027 07:42:29.951             9.385          4692.500
       198   09 Jun 2027 07:42:49.782   09 Jun 2027 07:42:57.514             7.732          3866.000
       199   09 Jun 2027 07:43:17.054   09 Jun 2027 07:43:17.054             0.000             0.000
       200   09 Jun 2027 07:43:18.601   09 Jun 2027 07:43:27.933             9.332          4666.000
       201   09 Jun 2027 09:15:57.156   09 Jun 2027 09:16:20.258            23.102         11551.000
       202   09 Jun 2027 09:16:45.471   09 Jun 2027 09:17:00.174            14.703          7351.500
       203   09 Jun 2027 09:18:39.229   09 Jun 2027 09:18:56.108            16.879          8439.500
       204   09 Jun 2027 09:19:12.038   09 Jun 2027 09:19:14.645             2.607          1303.500
       205   09 Jun 2027 09:19:16.908   09 Jun 2027 09:19:19.187             2.279          1139.500
       206   09 Jun 2027 09:20:06.795   09 Jun 2027 09:20:21.395            14.600          7300.000
       207   09 Jun 2027 10:54:09.411   09 Jun 2027 10:54:24.796            15.385          7692.500
       208   10 Jun 2027 03:03:16.625   10 Jun 2027 03:06:46.551           209.926        104963.000
       209   10 Jun 2027 04:38:21.628   10 Jun 2027 04:39:59.264            97.636         48818.000
       210   10 Jun 2027 04:40:07.954   10 Jun 2027 04:40:22.298            14.344          7172.000
       211   10 Jun 2027 04:40:36.901   10 Jun 2027 04:40:53.263            16.362          8181.000
       212   10 Jun 2027 04:41:35.508   10 Jun 2027 04:41:35.508             0.000             0.000
       213   10 Jun 2027 04:42:09.911   10 Jun 2027 04:42:39.304            29.393         14696.500
       214   10 Jun 2027 04:43:00.348   10 Jun 2027 04:43:08.109             7.761          3880.500
       215   10 Jun 2027 04:43:52.299   10 Jun 2027 04:44:06.706            14.407          7203.500
       216   10 Jun 2027 04:44:59.717   10 Jun 2027 04:45:02.284             2.567          1283.500
       217   10 Jun 2027 06:14:43.625   10 Jun 2027 06:16:27.556           103.931         51965.500
       218   10 Jun 2027 06:16:39.643   10 Jun 2027 06:16:53.946            14.303          7151.500
       219   10 Jun 2027 06:17:32.915   10 Jun 2027 06:17:50.793            17.878          8939.000
       220   10 Jun 2027 06:18:31.852   10 Jun 2027 06:18:51.252            19.400          9700.000
       221   10 Jun 2027 06:19:16.341   10 Jun 2027 06:19:47.085            30.744         15372.000
       222   10 Jun 2027 07:52:13.773   10 Jun 2027 07:54:00.782           107.009         53504.500
       223   10 Jun 2027 07:54:24.001   10 Jun 2027 07:54:26.601             2.600          1300.000
       224   10 Jun 2027 07:55:15.823   10 Jun 2027 07:55:36.431            20.608         10304.000
       225   10 Jun 2027 07:56:27.798   10 Jun 2027 07:56:30.136             2.338          1169.000
       226   10 Jun 2027 09:28:18.483   10 Jun 2027 09:29:01.136            42.653         21326.500
       227   10 Jun 2027 09:30:39.184   10 Jun 2027 09:31:04.628            25.444         12722.000
       228   10 Jun 2027 09:31:46.908   10 Jun 2027 09:31:53.834             6.926          3463.000
       229   10 Jun 2027 09:32:22.856   10 Jun 2027 09:32:24.613             1.757           878.500
       230   11 Jun 2027 03:15:21.119   11 Jun 2027 03:18:33.298           192.179         96089.500
       231   11 Jun 2027 04:50:31.626   11 Jun 2027 04:52:31.164           119.538         59769.000
       232   11 Jun 2027 04:53:02.966   11 Jun 2027 04:53:25.217            22.251         11125.500
       233   11 Jun 2027 04:53:34.943   11 Jun 2027 04:53:38.489             3.546          1773.000
       234   11 Jun 2027 04:55:37.212   11 Jun 2027 04:55:58.292            21.080         10540.000
       235   11 Jun 2027 04:56:22.609   11 Jun 2027 04:56:54.166            31.557         15778.500
       236   11 Jun 2027 06:26:45.955   11 Jun 2027 06:29:22.486           156.531         78265.500
       237   11 Jun 2027 06:29:44.051   11 Jun 2027 06:29:44.253             0.202           101.000
       238   11 Jun 2027 06:29:50.087   11 Jun 2027 06:29:55.768             5.681          2840.500
       239   11 Jun 2027 06:30:13.651   11 Jun 2027 06:30:29.593            15.942          7971.000
       240   11 Jun 2027 06:31:07.093   11 Jun 2027 06:31:10.911             3.818          1909.000
       241   11 Jun 2027 06:31:49.693   11 Jun 2027 06:32:04.773            15.080          7540.000
       242   11 Jun 2027 08:04:19.353   11 Jun 2027 08:05:43.731            84.378         42189.000
       243   11 Jun 2027 08:06:10.093   11 Jun 2027 08:06:15.977             5.884          2942.000
       244   11 Jun 2027 08:06:29.177   11 Jun 2027 08:06:46.417            17.240          8620.000
       245   11 Jun 2027 08:07:29.265   11 Jun 2027 08:07:32.469             3.204          1602.000
       246   11 Jun 2027 08:07:53.509   11 Jun 2027 08:07:56.280             2.771          1385.500
       247   11 Jun 2027 08:08:46.177   11 Jun 2027 08:08:50.711             4.534          2267.000
       248   11 Jun 2027 09:40:20.664   11 Jun 2027 09:40:51.581            30.917         15458.500
       249   11 Jun 2027 09:41:14.299   11 Jun 2027 09:41:26.731            12.432          6216.000
       250   11 Jun 2027 09:42:12.993   11 Jun 2027 09:42:13.704             0.711           355.500
       251   11 Jun 2027 09:42:38.225   11 Jun 2027 09:42:44.217             5.992          2996.000
       252   11 Jun 2027 09:43:06.424   11 Jun 2027 09:43:12.731             6.307          3153.500
       253   11 Jun 2027 09:43:23.925   11 Jun 2027 09:43:23.925             0.000             0.000
       254   11 Jun 2027 09:43:24.494   11 Jun 2027 09:43:29.810             5.316          2658.000
       255   11 Jun 2027 09:44:20.323   11 Jun 2027 09:44:27.032             6.709          3354.500
       256   11 Jun 2027 09:44:48.834   11 Jun 2027 09:44:59.876            11.042          5521.000
       257   11 Jun 2027 09:45:10.890   11 Jun 2027 09:45:16.687             5.797          2898.500
       258   12 Jun 2027 03:27:04.874   12 Jun 2027 03:29:56.990           172.116         86058.000
       259   12 Jun 2027 03:30:10.869   12 Jun 2027 03:30:32.774            21.905         10952.500
       260   12 Jun 2027 03:30:58.555   12 Jun 2027 03:31:09.461            10.906          5453.000
       261   12 Jun 2027 05:01:55.831   12 Jun 2027 05:04:15.996           140.165         70082.500
       262   12 Jun 2027 05:06:07.247   12 Jun 2027 05:06:54.923            47.676         23838.000
       263   12 Jun 2027 05:08:41.869   12 Jun 2027 05:08:54.287            12.418          6209.000
       264   12 Jun 2027 05:09:13.681   12 Jun 2027 05:09:18.208             4.527          2263.500
       265   12 Jun 2027 06:38:31.647   12 Jun 2027 06:39:52.714            81.067         40533.500
       266   12 Jun 2027 06:40:25.189   12 Jun 2027 06:41:42.890            77.701         38850.500
       267   12 Jun 2027 06:42:11.483   12 Jun 2027 06:42:17.731             6.248          3124.000
       268   12 Jun 2027 06:42:45.425   12 Jun 2027 06:42:52.049             6.624          3312.000
       269   12 Jun 2027 06:42:55.811   12 Jun 2027 06:42:57.912             2.101          1050.500
       270   12 Jun 2027 08:16:49.307   12 Jun 2027 08:17:51.192            61.885         30942.500
       271   12 Jun 2027 08:18:27.237   12 Jun 2027 08:18:37.898            10.661          5330.500
       272   12 Jun 2027 08:18:58.997   12 Jun 2027 08:19:07.574             8.577          4288.500
       273   12 Jun 2027 08:20:15.686   12 Jun 2027 08:20:28.065            12.379          6189.500
       274   12 Jun 2027 09:50:09.905   12 Jun 2027 09:50:19.531             9.626          4813.000
       275   12 Jun 2027 09:52:09.166   12 Jun 2027 09:52:18.798             9.632          4816.000
       276   12 Jun 2027 09:52:29.866   12 Jun 2027 09:52:33.240             3.374          1687.000
       277   12 Jun 2027 09:52:49.290   12 Jun 2027 09:52:57.465             8.175          4087.500
       278   12 Jun 2027 09:53:50.708   12 Jun 2027 09:54:03.010            12.302          6151.000
       279   12 Jun 2027 09:54:47.237   12 Jun 2027 09:55:04.719            17.482          8741.000
       280   12 Jun 2027 09:56:41.111   12 Jun 2027 09:56:52.327            11.216          5608.000
       281   12 Jun 2027 09:57:14.840   12 Jun 2027 09:57:21.039             6.199          3099.500
       282   12 Jun 2027 09:57:30.059   12 Jun 2027 09:57:39.140             9.081          4540.500
       283   13 Jun 2027 03:37:17.248   13 Jun 2027 03:38:17.066            59.818         29909.000
       284   13 Jun 2027 03:38:49.492   13 Jun 2027 03:41:10.840           141.348         70674.000
       285   13 Jun 2027 03:41:37.673   13 Jun 2027 03:41:52.644            14.971          7485.500
       286   13 Jun 2027 03:42:45.411   13 Jun 2027 03:42:45.821             0.410           205.000
       287   13 Jun 2027 03:42:53.948   13 Jun 2027 03:43:10.334            16.386          8193.000
       288   13 Jun 2027 05:13:48.508   13 Jun 2027 05:16:08.111           139.603         69801.500
       289   13 Jun 2027 05:17:42.602   13 Jun 2027 05:17:50.303             7.701          3850.500
       290   13 Jun 2027 05:18:24.685   13 Jun 2027 05:18:44.305            19.620          9810.000
       291   13 Jun 2027 05:19:44.625   13 Jun 2027 05:19:55.972            11.347          5673.500
       292   13 Jun 2027 05:21:17.987   13 Jun 2027 05:21:18.561             0.574           287.000
       293   13 Jun 2027 06:50:52.703   13 Jun 2027 06:53:13.706           141.003         70501.500
       294   13 Jun 2027 06:54:19.491   13 Jun 2027 06:55:00.424            40.933         20466.500
       295   13 Jun 2027 06:56:24.920   13 Jun 2027 06:56:43.398            18.478          9239.000
       296   13 Jun 2027 08:28:46.973   13 Jun 2027 08:29:44.036            57.063         28531.500
       297   13 Jun 2027 08:30:41.829   13 Jun 2027 08:30:45.662             3.833          1916.500
       298   13 Jun 2027 08:31:20.865   13 Jun 2027 08:31:24.348             3.483          1741.500
       299   13 Jun 2027 08:31:38.889   13 Jun 2027 08:31:46.709             7.820          3910.000
       300   13 Jun 2027 08:32:02.587   13 Jun 2027 08:32:15.029            12.442          6221.000
       301   13 Jun 2027 10:01:58.796   13 Jun 2027 10:02:31.734            32.938         16469.000
       302   13 Jun 2027 10:02:46.310   13 Jun 2027 10:02:54.580             8.270          4135.000
       303   13 Jun 2027 10:04:11.857   13 Jun 2027 10:04:19.042             7.185          3592.500
       304   13 Jun 2027 10:05:00.704   13 Jun 2027 10:05:08.667             7.963          3981.500
       305   13 Jun 2027 10:05:20.369   13 Jun 2027 10:05:29.355             8.986          4493.000
       306   13 Jun 2027 10:06:22.629   13 Jun 2027 10:06:30.514             7.885          3942.500
       307   13 Jun 2027 10:07:10.352   13 Jun 2027 10:07:18.177             7.825          3912.500
       308   13 Jun 2027 10:07:53.242   13 Jun 2027 10:07:59.083             5.841          2920.500
       309   13 Jun 2027 10:08:41.383   13 Jun 2027 10:08:54.354            12.971          6485.500
       310   13 Jun 2027 10:09:24.308   13 Jun 2027 10:09:38.094            13.786          6893.000
