uniorb/output/strategy_1/Camera/Camera_KinoSat_112008.txt

KinoSat_112008
-------------------------
    Access    *     Start Time (UTCG)     *     Stop Time (UTCG)  *   Duration (s) *   Data (Mbytes)
         1   01 Jun 2027 04:03:58.695   01 Jun 2027 04:04:20.556            21.861         10930.500
         2   01 Jun 2027 04:04:23.784   01 Jun 2027 04:06:36.305           132.521         66260.500
         3   01 Jun 2027 04:10:21.616   01 Jun 2027 04:10:27.471             5.855          2927.500
         4   01 Jun 2027 04:10:57.540   01 Jun 2027 04:10:58.938             1.398           699.000
         5   01 Jun 2027 05:43:16.364   01 Jun 2027 05:45:10.669           114.305         57152.500
         6   01 Jun 2027 05:45:24.412   01 Jun 2027 05:45:30.936             6.524          3262.000
         7   01 Jun 2027 05:46:29.027   01 Jun 2027 05:46:36.279             7.252          3626.000
         8   01 Jun 2027 05:50:10.677   01 Jun 2027 05:50:12.439             1.762           881.000
         9   01 Jun 2027 07:09:36.438   01 Jun 2027 07:09:45.556             9.118          4559.000
        10   01 Jun 2027 07:20:21.473   01 Jun 2027 07:22:07.356           105.883         52941.500
        11   01 Jun 2027 07:23:13.804   01 Jun 2027 07:23:32.117            18.313          9156.500
        12   01 Jun 2027 08:44:21.188   01 Jun 2027 08:45:15.477            54.289         27144.500
        13   01 Jun 2027 10:20:31.862   01 Jun 2027 10:20:31.862             0.000             0.000
        14   01 Jun 2027 11:55:30.886   01 Jun 2027 11:55:35.712             4.826          2413.000
        15   02 Jun 2027 04:16:39.291   02 Jun 2027 04:20:33.088           233.797        116898.500
        16   02 Jun 2027 04:21:37.523   02 Jun 2027 04:22:15.195            37.672         18836.000
        17   02 Jun 2027 05:55:37.335   02 Jun 2027 05:57:23.563           106.228         53114.000
        18   02 Jun 2027 05:58:09.849   02 Jun 2027 05:58:20.558            10.709          5354.500
        19   02 Jun 2027 05:58:52.566   02 Jun 2027 05:58:56.424             3.858          1929.000
        20   02 Jun 2027 06:00:42.813   02 Jun 2027 06:01:02.274            19.461          9730.500
        21   02 Jun 2027 06:01:34.487   02 Jun 2027 06:01:54.212            19.725          9862.500
        22   02 Jun 2027 06:02:26.964   02 Jun 2027 06:03:01.331            34.367         17183.500
        23   02 Jun 2027 07:20:52.958   02 Jun 2027 07:22:06.920            73.962         36981.000
        24   02 Jun 2027 07:32:21.929   02 Jun 2027 07:33:07.847            45.918         22959.000
        25   02 Jun 2027 08:54:59.691   02 Jun 2027 08:55:58.750            59.059         29529.500
        26   02 Jun 2027 08:56:35.507   02 Jun 2027 08:57:01.167            25.660         12830.000
        27   02 Jun 2027 08:59:34.092   02 Jun 2027 08:59:38.638             4.546          2273.000
        28   02 Jun 2027 10:35:40.439   02 Jun 2027 10:36:27.386            46.947         23473.500
        29   03 Jun 2027 04:28:55.252   03 Jun 2027 04:30:19.095            83.843         41921.500
        30   03 Jun 2027 04:30:51.977   03 Jun 2027 04:31:52.942            60.965         30482.500
        31   03 Jun 2027 04:34:13.582   03 Jun 2027 04:34:24.676            11.094          5547.000
        32   03 Jun 2027 06:07:53.505   03 Jun 2027 06:09:28.069            94.564         47282.000
        33   03 Jun 2027 06:09:33.713   03 Jun 2027 06:09:35.896             2.183          1091.500
        34   03 Jun 2027 06:10:20.378   03 Jun 2027 06:10:26.203             5.825          2912.500
        35   03 Jun 2027 06:10:54.536   03 Jun 2027 06:10:54.536             0.000             0.000
        36   03 Jun 2027 06:11:26.409   03 Jun 2027 06:11:27.046             0.637           318.500
        37   03 Jun 2027 06:12:21.218   03 Jun 2027 06:12:27.658             6.440          3220.000
        38   03 Jun 2027 06:13:04.047   03 Jun 2027 06:13:20.477            16.430          8215.000
        39   03 Jun 2027 07:32:07.633   03 Jun 2027 07:34:14.776           127.143         63571.500
        40   03 Jun 2027 07:44:19.854   03 Jun 2027 07:44:45.676            25.822         12911.000
        41   03 Jun 2027 09:06:35.786   03 Jun 2027 09:07:42.074            66.288         33144.000
        42   03 Jun 2027 09:10:21.242   03 Jun 2027 09:11:36.533            75.291         37645.500
        43   03 Jun 2027 10:41:28.748   03 Jun 2027 10:42:17.276            48.528         24264.000
        44   03 Jun 2027 10:42:58.022   03 Jun 2027 10:42:58.022             0.000             0.000
        45   03 Jun 2027 10:43:11.380   03 Jun 2027 10:43:13.250             1.870           935.000
        46   04 Jun 2027 03:04:09.423   04 Jun 2027 03:04:20.360            10.937          5468.500
        47   04 Jun 2027 03:06:24.321   04 Jun 2027 03:06:58.849            34.528         17264.000
        48   04 Jun 2027 03:07:10.629   04 Jun 2027 03:07:19.963             9.334          4667.000
        49   04 Jun 2027 03:07:59.713   04 Jun 2027 03:08:13.550            13.837          6918.500
        50   04 Jun 2027 03:11:18.958   04 Jun 2027 03:11:30.526            11.568          5784.000
        51   04 Jun 2027 04:41:14.555   04 Jun 2027 04:41:27.825            13.270          6635.000
        52   04 Jun 2027 04:41:41.753   04 Jun 2027 04:42:34.620            52.867         26433.500
        53   04 Jun 2027 04:43:10.374   04 Jun 2027 04:43:20.685            10.311          5155.500
        54   04 Jun 2027 04:43:40.134   04 Jun 2027 04:43:52.724            12.590          6295.000
        55   04 Jun 2027 04:46:16.570   04 Jun 2027 04:46:32.884            16.314          8157.000
        56   04 Jun 2027 06:20:00.052   04 Jun 2027 06:21:07.833            67.781         33890.500
        57   04 Jun 2027 06:22:00.270   04 Jun 2027 06:22:35.389            35.119         17559.500
        58   04 Jun 2027 06:22:39.855   04 Jun 2027 06:22:43.850             3.995          1997.500
        59   04 Jun 2027 06:23:42.985   04 Jun 2027 06:23:51.370             8.385          4192.500
        60   04 Jun 2027 07:44:13.653   04 Jun 2027 07:45:26.699            73.046         36523.000
        61   04 Jun 2027 07:45:27.733   04 Jun 2027 07:45:47.920            20.187          8776.782
        62   04 Jun 2027 07:56:43.466   04 Jun 2027 07:56:46.195             2.729          1364.500
        63   04 Jun 2027 09:18:04.774   04 Jun 2027 09:18:50.819            46.045         21617.437
        64   04 Jun 2027 09:21:13.853   04 Jun 2027 09:21:22.826             8.973          4391.844
        65   04 Jun 2027 09:22:23.443   04 Jun 2027 09:22:25.917             2.474          1084.875
        66   04 Jun 2027 09:23:27.084   04 Jun 2027 09:23:32.488             5.404          1369.938
        67   04 Jun 2027 10:52:59.069   04 Jun 2027 10:53:12.170            13.101          5456.062
        68   04 Jun 2027 10:53:36.050   04 Jun 2027 10:53:42.566             6.516           259.844
        69   04 Jun 2027 10:56:42.535   04 Jun 2027 10:56:42.535             0.000             0.000
        70   04 Jun 2027 10:56:46.899   04 Jun 2027 10:56:46.899             0.000             0.000
        71   04 Jun 2027 11:00:23.668   04 Jun 2027 11:00:35.532            11.864          5932.000
        72   05 Jun 2027 03:16:08.081   05 Jun 2027 03:16:41.353            33.272         16636.000
        73   05 Jun 2027 03:18:24.200   05 Jun 2027 03:19:22.270            58.070         29035.000
        74   05 Jun 2027 03:20:12.241   05 Jun 2027 03:20:13.896             1.655           827.500
        75   05 Jun 2027 03:20:50.765   05 Jun 2027 03:21:05.937            15.172          7586.000
        76   05 Jun 2027 03:23:52.247   05 Jun 2027 03:23:53.714             1.467           733.500
        77   05 Jun 2027 04:53:52.358   05 Jun 2027 04:54:01.099             8.741          4370.500
        78   05 Jun 2027 04:54:13.925   05 Jun 2027 04:54:22.715             8.790          4395.000
        79   05 Jun 2027 04:54:23.913   05 Jun 2027 04:55:15.554            51.641         25820.500
        80   05 Jun 2027 04:55:20.537   05 Jun 2027 04:55:41.194            20.657         10328.500
        81   05 Jun 2027 04:55:49.732   05 Jun 2027 04:55:50.917             1.185           592.500
        82   05 Jun 2027 04:56:58.329   05 Jun 2027 04:57:04.887             6.558          3279.000
        83   05 Jun 2027 04:59:21.761   05 Jun 2027 04:59:28.805             7.044          3522.000
        84   05 Jun 2027 06:32:21.269   05 Jun 2027 06:34:11.249           109.980         54990.000
        85   05 Jun 2027 06:34:35.742   05 Jun 2027 06:34:38.359             2.617          1308.500
        86   05 Jun 2027 06:34:40.185   05 Jun 2027 06:34:48.983             8.798          4399.000
        87   05 Jun 2027 06:35:22.543   05 Jun 2027 06:35:26.443             3.900          1950.000
        88   05 Jun 2027 06:35:46.767   05 Jun 2027 06:35:48.442             1.675           837.500
        89   05 Jun 2027 06:36:38.056   05 Jun 2027 06:36:38.574             0.518           259.000
        90   05 Jun 2027 07:56:09.639   05 Jun 2027 07:57:13.069            63.430         30877.281
        91   05 Jun 2027 07:57:45.683   05 Jun 2027 07:57:49.071             3.388           511.438
        92   05 Jun 2027 09:32:09.571   05 Jun 2027 09:32:37.674            28.103         14051.500
        93   05 Jun 2027 09:33:19.510   05 Jun 2027 09:33:31.756            12.246          5182.750
        94   05 Jun 2027 11:07:54.633   05 Jun 2027 11:08:20.431            25.798         12448.344
        95   05 Jun 2027 11:13:38.054   05 Jun 2027 11:14:03.811            25.757          9648.906
        96   06 Jun 2027 03:28:12.496   06 Jun 2027 03:29:12.818            60.322         30161.000
        97   06 Jun 2027 03:29:28.522   06 Jun 2027 03:29:28.522             0.000             0.000
        98   06 Jun 2027 03:30:05.342   06 Jun 2027 03:31:00.019            54.677         27338.500
        99   06 Jun 2027 03:32:36.002   06 Jun 2027 03:32:43.247             7.245          3622.500
       100   06 Jun 2027 03:34:20.755   06 Jun 2027 03:34:33.658            12.903          6451.500
       101   06 Jun 2027 03:34:59.397   06 Jun 2027 03:35:13.639            14.242          7121.000
       102   06 Jun 2027 05:06:19.491   06 Jun 2027 05:06:47.675            28.184         14092.000
       103   06 Jun 2027 05:06:51.674   06 Jun 2027 05:07:42.372            50.698         25349.000
       104   06 Jun 2027 05:08:53.279   06 Jun 2027 05:09:04.033            10.754          5377.000
       105   06 Jun 2027 05:09:48.949   06 Jun 2027 05:10:11.000            22.051         11025.500
       106   06 Jun 2027 06:44:20.201   06 Jun 2027 06:46:14.945           114.744         57372.000
       107   06 Jun 2027 06:47:32.413   06 Jun 2027 06:47:42.566            10.153          5076.500
       108   06 Jun 2027 08:08:01.325   06 Jun 2027 08:08:33.405            32.080         14300.593
       109   06 Jun 2027 08:09:30.708   06 Jun 2027 08:09:35.023             4.315          1706.719
       110   06 Jun 2027 08:09:58.623   06 Jun 2027 08:10:00.986             2.363           151.531
       111   06 Jun 2027 08:10:29.652   06 Jun 2027 08:10:31.566             1.914           339.750
       112   06 Jun 2027 09:44:24.454   06 Jun 2027 09:44:47.832            23.378         11689.000
       113   06 Jun 2027 09:46:36.862   06 Jun 2027 09:46:51.730            14.868          5963.469
       114   06 Jun 2027 09:47:32.385   06 Jun 2027 09:47:35.866             3.481          1270.469
       115   06 Jun 2027 11:16:37.192   06 Jun 2027 11:16:48.585            11.393          5696.500
       116   06 Jun 2027 11:20:29.943   06 Jun 2027 11:20:46.317            16.374          7434.875
       117   06 Jun 2027 11:21:17.318   06 Jun 2027 11:21:28.214            10.896           183.656
       118   06 Jun 2027 11:22:33.118   06 Jun 2027 11:22:37.305             4.187          1520.344
       119   06 Jun 2027 11:23:35.276   06 Jun 2027 11:23:37.441             2.165           272.625
       120   06 Jun 2027 11:26:24.982   06 Jun 2027 11:26:27.769             2.787          1393.500
       121   07 Jun 2027 03:40:15.721   07 Jun 2027 03:41:30.276            74.555         37277.500
       122   07 Jun 2027 03:41:33.222   07 Jun 2027 03:42:00.309            27.087         13543.500
       123   07 Jun 2027 03:43:34.986   07 Jun 2027 03:44:17.751            42.765         21382.500
       124   07 Jun 2027 03:45:56.466   07 Jun 2027 03:45:57.142             0.676           338.000
       125   07 Jun 2027 05:18:25.605   07 Jun 2027 05:19:29.168            63.563         31781.500
       126   07 Jun 2027 05:19:36.449   07 Jun 2027 05:20:17.496            41.047         20523.500
       127   07 Jun 2027 05:21:41.630   07 Jun 2027 05:21:54.909            13.279          6639.500
       128   07 Jun 2027 05:23:27.771   07 Jun 2027 05:23:34.392             6.621          3310.500
       129   07 Jun 2027 05:24:04.363   07 Jun 2027 05:24:11.784             7.421          3710.500
       130   07 Jun 2027 06:57:34.083   07 Jun 2027 06:59:05.687            91.604         45802.000
       131   07 Jun 2027 06:59:10.965   07 Jun 2027 06:59:13.497             2.532          1266.000
       132   07 Jun 2027 06:59:52.293   07 Jun 2027 07:00:02.676            10.383          5154.532
       133   07 Jun 2027 08:20:06.262   07 Jun 2027 08:20:41.398            35.136         16517.125
       134   07 Jun 2027 08:21:46.236   07 Jun 2027 08:21:49.811             3.575          1784.562
       135   07 Jun 2027 08:22:59.345   07 Jun 2027 08:23:04.656             5.311          2172.937
       136   07 Jun 2027 09:56:35.262   07 Jun 2027 09:56:42.383             7.121          3560.500
       137   07 Jun 2027 09:58:26.521   07 Jun 2027 09:58:36.800            10.279          5139.500
       138   07 Jun 2027 11:32:21.681   07 Jun 2027 11:32:21.681             0.000             0.000
       139   07 Jun 2027 11:33:11.061   07 Jun 2027 11:33:46.824            35.763         14706.656
       140   07 Jun 2027 11:34:05.379   07 Jun 2027 11:34:10.370             4.991           404.656
       141   07 Jun 2027 11:35:05.515   07 Jun 2027 11:35:11.992             6.477           652.500
       142   07 Jun 2027 11:38:19.726   07 Jun 2027 11:38:27.618             7.892          3946.000
       143   08 Jun 2027 03:52:13.896   08 Jun 2027 03:54:35.392           141.496         70748.000
       144   08 Jun 2027 03:55:16.315   08 Jun 2027 03:55:17.302             0.987           493.500
       145   08 Jun 2027 03:55:25.383   08 Jun 2027 03:55:26.651             1.268           634.000
       146   08 Jun 2027 03:57:40.581   08 Jun 2027 03:57:45.979             5.398          2699.000
       147   08 Jun 2027 05:30:29.986   08 Jun 2027 05:31:11.356            41.370         20685.000
       148   08 Jun 2027 05:31:33.866   08 Jun 2027 05:32:25.197            51.331         25665.500
       149   08 Jun 2027 05:32:56.835   08 Jun 2027 05:33:23.434            26.599         13299.500
       150   08 Jun 2027 05:36:36.687   08 Jun 2027 05:36:36.728             0.041            20.500
       151   08 Jun 2027 07:08:43.126   08 Jun 2027 07:09:19.635            36.509         18254.500
       152   08 Jun 2027 07:09:37.503   08 Jun 2027 07:10:38.292            60.789         30394.500
       153   08 Jun 2027 07:11:07.201   08 Jun 2027 07:11:07.201             0.000             0.000
       154   08 Jun 2027 07:11:32.932   08 Jun 2027 07:11:36.716             3.784          1892.000
       155   08 Jun 2027 07:11:51.888   08 Jun 2027 07:11:57.352             5.464          2335.562
       156   08 Jun 2027 08:32:02.290   08 Jun 2027 08:32:38.088            35.798         14216.813
       157   08 Jun 2027 08:33:14.130   08 Jun 2027 08:33:16.854             2.724           845.500
       158   08 Jun 2027 08:33:48.212   08 Jun 2027 08:33:48.212             0.000             0.000
       159   08 Jun 2027 08:35:03.608   08 Jun 2027 08:35:09.513             5.905          2951.938
       160   08 Jun 2027 10:08:39.690   08 Jun 2027 10:08:54.541            14.851          6000.250
       161   08 Jun 2027 10:09:24.947   08 Jun 2027 10:09:24.947             0.000             0.000
       162   08 Jun 2027 11:43:50.277   08 Jun 2027 11:44:09.126            18.849          9424.500
       163   08 Jun 2027 11:46:14.091   08 Jun 2027 11:46:34.202            20.111          8726.094
       164   08 Jun 2027 11:47:39.291   08 Jun 2027 11:47:42.853             3.562          1781.000
       165   08 Jun 2027 11:48:16.639   08 Jun 2027 11:48:20.234             3.595          1225.250
       166   08 Jun 2027 11:49:17.196   08 Jun 2027 11:49:21.620             4.424          1655.031
       167   08 Jun 2027 11:50:12.525   08 Jun 2027 11:50:18.712             6.187          1539.313
       168   08 Jun 2027 11:50:24.319   08 Jun 2027 11:50:26.712             2.393           175.219
       169   09 Jun 2027 04:04:17.294   09 Jun 2027 04:05:32.048            74.754         37377.000
       170   09 Jun 2027 04:06:50.708   09 Jun 2027 04:07:34.563            43.855         21927.500
       171   09 Jun 2027 04:08:32.875   09 Jun 2027 04:08:46.453            13.578          6789.000
       172   09 Jun 2027 05:43:34.694   09 Jun 2027 05:45:26.781           112.087         56043.500
       173   09 Jun 2027 05:46:20.491   09 Jun 2027 05:46:24.514             4.023          2011.500
       174   09 Jun 2027 05:48:37.121   09 Jun 2027 05:48:51.811            14.690          7345.000
       175   09 Jun 2027 05:50:30.181   09 Jun 2027 05:51:20.776            50.595         25297.500
       176   09 Jun 2027 07:09:50.688   09 Jun 2027 07:10:07.436            16.748          8374.000
       177   09 Jun 2027 07:20:39.015   09 Jun 2027 07:21:53.192            74.177         37088.500
       178   09 Jun 2027 07:22:23.102   09 Jun 2027 07:22:36.034            12.932          4466.656
       179   09 Jun 2027 07:24:07.113   09 Jun 2027 07:24:07.113             0.000             0.000
       180   09 Jun 2027 08:44:37.767   09 Jun 2027 08:45:10.183            32.416         15364.094
       181   09 Jun 2027 08:45:49.043   09 Jun 2027 08:45:49.043             0.000             0.000
       182   09 Jun 2027 08:47:03.728   09 Jun 2027 08:47:12.072             8.344          3344.344
       183   09 Jun 2027 10:23:18.683   09 Jun 2027 10:23:48.237            29.554         14572.281
       184   09 Jun 2027 11:55:57.217   09 Jun 2027 11:56:21.766            24.549         11212.812
       185   10 Jun 2027 04:16:57.572   10 Jun 2027 04:18:54.158           116.586         58293.000
       186   10 Jun 2027 04:19:22.617   10 Jun 2027 04:19:34.074            11.457          5728.500
       187   10 Jun 2027 04:23:00.297   10 Jun 2027 04:23:01.961             1.664           832.000
       188   10 Jun 2027 04:23:20.422   10 Jun 2027 04:23:21.056             0.634           317.000
       189   10 Jun 2027 05:55:56.638   10 Jun 2027 05:57:56.503           119.865         59932.500
       190   10 Jun 2027 05:59:43.163   10 Jun 2027 05:59:51.914             8.751          4375.500
       191   10 Jun 2027 06:01:49.530   10 Jun 2027 06:02:11.526            21.996         10998.000
       192   10 Jun 2027 06:02:46.282   10 Jun 2027 06:03:15.892            29.610         14805.000
       193   10 Jun 2027 07:21:06.076   10 Jun 2027 07:22:25.216            79.140         39570.000
       194   10 Jun 2027 07:32:40.207   10 Jun 2027 07:32:59.903            19.696          9848.000
       195   10 Jun 2027 08:55:15.857   10 Jun 2027 08:55:47.436            31.579         15551.594
       196   10 Jun 2027 08:57:52.392   10 Jun 2027 08:58:04.446            12.054          3238.063
       197   10 Jun 2027 08:58:46.654   10 Jun 2027 08:58:47.646             0.992           341.031
       198   10 Jun 2027 08:59:09.785   10 Jun 2027 08:59:13.008             3.223           691.844
       199   10 Jun 2027 08:59:47.544   10 Jun 2027 08:59:50.957             3.413            65.750
       200   10 Jun 2027 10:30:43.297   10 Jun 2027 10:30:57.250            13.953          6893.812
       201   10 Jun 2027 10:32:07.586   10 Jun 2027 10:32:12.411             4.825          1737.656
       202   10 Jun 2027 10:32:47.835   10 Jun 2027 10:32:49.423             1.588           638.656
       203   10 Jun 2027 10:35:45.037   10 Jun 2027 10:35:54.545             9.508          4754.000
       204   11 Jun 2027 04:29:13.913   11 Jun 2027 04:30:38.060            84.147         42073.500
       205   11 Jun 2027 04:30:38.442   11 Jun 2027 04:31:00.361            21.919         10959.500
       206   11 Jun 2027 04:31:30.193   11 Jun 2027 04:31:34.646             4.453          2226.500
       207   11 Jun 2027 04:32:43.851   11 Jun 2027 04:32:43.851             0.000             0.000
       208   11 Jun 2027 04:33:01.805   11 Jun 2027 04:33:17.476            15.671          7835.500
       209   11 Jun 2027 06:08:14.195   11 Jun 2027 06:10:24.802           130.607         65303.500
       210   11 Jun 2027 06:10:50.316   11 Jun 2027 06:11:09.193            18.877          9438.500
       211   11 Jun 2027 06:12:43.279   11 Jun 2027 06:12:43.279             0.000             0.000
       212   11 Jun 2027 06:15:00.379   11 Jun 2027 06:15:13.487            13.108          6554.000
       213   11 Jun 2027 07:32:24.364   11 Jun 2027 07:33:43.856            79.492         39746.000
       214   11 Jun 2027 07:34:31.954   11 Jun 2027 07:34:35.640             3.686          1843.000
       215   11 Jun 2027 07:44:37.646   11 Jun 2027 07:44:50.605            12.959          6132.812
       216   11 Jun 2027 09:06:51.553   11 Jun 2027 09:07:22.006            30.453         15226.500
       217   11 Jun 2027 09:12:09.178   11 Jun 2027 09:12:11.675             2.497          1248.500
       218   11 Jun 2027 10:41:44.552   11 Jun 2027 10:42:05.207            20.655         10251.406
       219   11 Jun 2027 10:43:03.000   11 Jun 2027 10:43:05.936             2.936          1055.188
       220   11 Jun 2027 10:45:55.202   11 Jun 2027 10:46:06.128            10.926          4916.781
       221   12 Jun 2027 03:04:26.508   12 Jun 2027 03:04:47.413            20.905         10452.500
       222   12 Jun 2027 03:06:00.364   12 Jun 2027 03:06:09.391             9.027          4513.500
       223   12 Jun 2027 03:06:40.537   12 Jun 2027 03:06:52.850            12.313          6156.500
       224   12 Jun 2027 03:07:15.624   12 Jun 2027 03:07:33.836            18.212          9106.000
       225   12 Jun 2027 03:08:14.524   12 Jun 2027 03:08:23.277             8.753          4376.500
       226   12 Jun 2027 03:08:59.382   12 Jun 2027 03:09:11.976            12.594          6297.000
       227   12 Jun 2027 03:09:59.134   12 Jun 2027 03:10:08.449             9.315          4657.500
       228   12 Jun 2027 03:10:47.641   12 Jun 2027 03:10:58.798            11.157          5578.500
       229   12 Jun 2027 04:41:33.128   12 Jun 2027 04:41:45.796            12.668          6334.000
       230   12 Jun 2027 04:42:00.515   12 Jun 2027 04:42:58.202            57.687         28843.500
       231   12 Jun 2027 04:43:25.204   12 Jun 2027 04:43:36.309            11.105          5552.500
       232   12 Jun 2027 04:43:59.921   12 Jun 2027 04:44:27.091            27.170         13585.000
       233   12 Jun 2027 06:20:20.986   12 Jun 2027 06:22:08.863           107.877         53938.500
       234   12 Jun 2027 06:23:18.838   12 Jun 2027 06:23:38.586            19.748          9874.000
       235   12 Jun 2027 06:23:55.054   12 Jun 2027 06:23:57.777             2.723          1361.500
       236   12 Jun 2027 06:24:40.913   12 Jun 2027 06:25:00.904            19.991          9995.500
       237   12 Jun 2027 07:44:30.462   12 Jun 2027 07:45:25.213            54.751         27375.500
       238   12 Jun 2027 09:18:20.568   12 Jun 2027 09:19:06.174            45.606         22117.094
       239   12 Jun 2027 09:20:28.370   12 Jun 2027 09:20:38.435            10.065          2454.531
       240   12 Jun 2027 09:21:01.241   12 Jun 2027 09:21:03.080             1.839           494.125
       241   12 Jun 2027 09:22:06.979   12 Jun 2027 09:22:06.979             0.000             0.000
       242   12 Jun 2027 09:22:43.937   12 Jun 2027 09:22:53.494             9.557          2532.531
       243   12 Jun 2027 09:23:00.340   12 Jun 2027 09:23:10.129             9.789            63.000
       244   12 Jun 2027 10:53:15.032   12 Jun 2027 10:53:27.750            12.718          4714.406
       245   12 Jun 2027 10:55:44.401   12 Jun 2027 10:55:44.401             0.000             0.000
       246   12 Jun 2027 10:56:59.826   12 Jun 2027 10:57:00.727             0.901           450.500
       247   12 Jun 2027 11:00:30.404   12 Jun 2027 11:00:53.753            23.349         11088.625
       248   13 Jun 2027 03:16:25.886   13 Jun 2027 03:16:56.190            30.304         15152.000
       249   13 Jun 2027 03:16:59.592   13 Jun 2027 03:17:01.806             2.214          1107.000
       250   13 Jun 2027 03:17:40.353   13 Jun 2027 03:17:40.353             0.000             0.000
       251   13 Jun 2027 03:17:42.461   13 Jun 2027 03:18:06.414            23.953         11976.500
       252   13 Jun 2027 03:18:38.773   13 Jun 2027 03:18:40.330             1.557           778.500
       253   13 Jun 2027 03:18:52.907   13 Jun 2027 03:19:03.504            10.597          5298.500
       254   13 Jun 2027 03:19:36.348   13 Jun 2027 03:19:52.453            16.105          8052.500
       255   13 Jun 2027 03:20:07.152   13 Jun 2027 03:20:14.005             6.853          3426.500
       256   13 Jun 2027 03:20:36.559   13 Jun 2027 03:20:45.238             8.679          4339.500
       257   13 Jun 2027 03:21:54.214   13 Jun 2027 03:21:59.003             4.789          2394.500
       258   13 Jun 2027 03:22:36.092   13 Jun 2027 03:22:53.080            16.988          8494.000
       259   13 Jun 2027 03:23:47.435   13 Jun 2027 03:24:06.648            19.213          9606.500
       260   13 Jun 2027 04:54:11.040   13 Jun 2027 04:54:14.495             3.455          1727.500
       261   13 Jun 2027 04:54:32.515   13 Jun 2027 04:55:19.171            46.656         23328.000
       262   13 Jun 2027 04:56:09.457   13 Jun 2027 04:56:20.235            10.778          5389.000
       263   13 Jun 2027 04:57:20.927   13 Jun 2027 04:57:25.031             4.104          2052.000
       264   13 Jun 2027 04:57:38.111   13 Jun 2027 04:57:44.888             6.777          3388.500
       265   13 Jun 2027 04:58:11.181   13 Jun 2027 04:58:16.639             5.458          2729.000
       266   13 Jun 2027 04:58:26.985   13 Jun 2027 04:58:29.404             2.419          1209.500
       267   13 Jun 2027 04:59:34.657   13 Jun 2027 04:59:36.789             2.132          1066.000
       268   13 Jun 2027 06:32:57.643   13 Jun 2027 06:34:50.732           113.089         56544.500
       269   13 Jun 2027 06:35:03.658   13 Jun 2027 06:35:21.524            17.866          8933.000
       270   13 Jun 2027 06:35:39.198   13 Jun 2027 06:35:39.198             0.000             0.000
       271   13 Jun 2027 06:36:16.456   13 Jun 2027 06:36:25.098             8.642          4321.000
       272   13 Jun 2027 07:56:26.970   13 Jun 2027 07:57:28.408            61.438         29195.781
       273   13 Jun 2027 07:58:04.171   13 Jun 2027 07:58:04.171             0.000             0.000
       274   13 Jun 2027 07:58:09.808   13 Jun 2027 07:58:11.556             1.748           708.813
       275   13 Jun 2027 07:58:22.968   13 Jun 2027 07:58:22.968             0.000             0.000
       276   13 Jun 2027 07:58:30.093   13 Jun 2027 07:58:32.972             2.879           413.000
       277   13 Jun 2027 09:32:39.229   13 Jun 2027 09:33:23.805            44.576         17668.469
       278   13 Jun 2027 09:33:25.585   13 Jun 2027 09:33:26.076             0.491            40.375
       279   13 Jun 2027 09:34:18.453   13 Jun 2027 09:34:26.323             7.870          1545.031
       280   13 Jun 2027 09:34:52.401   13 Jun 2027 09:34:56.698             4.297            30.281
       281   13 Jun 2027 09:35:11.447   13 Jun 2027 09:35:14.834             3.387           460.906
       282   13 Jun 2027 11:08:15.235   13 Jun 2027 11:08:42.567            27.332         10599.344
       283   13 Jun 2027 11:13:41.225   13 Jun 2027 11:14:01.023            19.798          9195.687
       284   13 Jun 2027 11:14:29.090   13 Jun 2027 11:14:30.344             1.254           477.500
