uniorb/output/strategy_1/Camera/Camera_KinoSat_111503.txt

KinoSat_111503
-------------------------
    Access    *     Start Time (UTCG)     *     Stop Time (UTCG)  *   Duration (s) *   Data (Mbytes)
         1   01 Jun 2027 03:38:28.787   01 Jun 2027 03:40:41.920           133.133         66566.500
         2   01 Jun 2027 03:40:52.186   01 Jun 2027 03:40:58.388             6.202          3101.000
         3   01 Jun 2027 03:42:12.838   01 Jun 2027 03:42:12.838             0.000             0.000
         4   01 Jun 2027 03:42:23.669   01 Jun 2027 03:42:27.642             3.973          1986.500
         5   01 Jun 2027 03:42:59.399   01 Jun 2027 03:43:02.225             2.826          1413.000
         6   01 Jun 2027 03:44:00.331   01 Jun 2027 03:44:00.331             0.000             0.000
         7   01 Jun 2027 03:44:03.912   01 Jun 2027 03:44:05.851             1.939           969.500
         8   01 Jun 2027 03:44:42.004   01 Jun 2027 03:44:46.906             4.902          2451.000
         9   01 Jun 2027 03:45:07.387   01 Jun 2027 03:45:12.404             5.017          2508.500
        10   01 Jun 2027 05:04:36.496   01 Jun 2027 05:05:05.046            28.550         14275.000
        11   01 Jun 2027 05:15:32.658   01 Jun 2027 05:16:48.634            75.976         37988.000
        12   01 Jun 2027 05:17:41.177   01 Jun 2027 05:17:50.073             8.896          4448.000
        13   01 Jun 2027 06:39:29.647   01 Jun 2027 06:40:29.544            59.897         29948.500
        14   01 Jun 2027 08:15:15.289   01 Jun 2027 08:17:28.826           133.537         66768.500
        15   01 Jun 2027 09:49:59.157   01 Jun 2027 09:51:40.544           101.387         50693.500
        16   01 Jun 2027 09:52:10.999   01 Jun 2027 09:52:13.626             2.627          1313.500
        17   01 Jun 2027 09:52:48.645   01 Jun 2027 09:52:51.769             3.124          1562.000
        18   01 Jun 2027 09:53:21.378   01 Jun 2027 09:53:22.967             1.589           794.500
        19   01 Jun 2027 09:56:53.419   01 Jun 2027 09:56:57.180             3.761          1880.500
        20   01 Jun 2027 09:57:27.283   01 Jun 2027 09:57:31.897             4.614          2307.000
        21   01 Jun 2027 11:26:48.892   01 Jun 2027 11:29:05.096           136.204         68102.000
        22   01 Jun 2027 11:29:25.253   01 Jun 2027 11:29:40.272            15.019          7509.500
        23   02 Jun 2027 03:50:51.099   02 Jun 2027 03:52:27.302            96.203         48101.500
        24   02 Jun 2027 03:53:19.623   02 Jun 2027 03:53:20.661             1.038           519.000
        25   02 Jun 2027 03:55:22.503   02 Jun 2027 03:55:48.822            26.319         13159.500
        26   02 Jun 2027 03:57:41.224   02 Jun 2027 03:58:09.301            28.077         14038.500
        27   02 Jun 2027 05:15:53.962   02 Jun 2027 05:16:43.582            49.620         24810.000
        28   02 Jun 2027 05:27:33.809   02 Jun 2027 05:28:02.351            28.542         14271.000
        29   02 Jun 2027 05:28:48.762   02 Jun 2027 05:28:54.100             5.338          2669.000
        30   02 Jun 2027 06:49:50.929   02 Jun 2027 06:51:06.087            75.158         37579.000
        31   02 Jun 2027 06:51:47.009   02 Jun 2027 06:52:02.160            15.151          7575.500
        32   02 Jun 2027 06:54:44.169   02 Jun 2027 06:54:52.873             8.704          4352.000
        33   02 Jun 2027 08:25:05.721   02 Jun 2027 08:26:27.401            81.680         40840.000
        34   02 Jun 2027 08:26:58.903   02 Jun 2027 08:27:28.820            29.917         14958.500
        35   02 Jun 2027 08:27:48.707   02 Jun 2027 08:28:12.481            23.774         11887.000
        36   02 Jun 2027 08:30:16.109   02 Jun 2027 08:30:25.562             9.453          4726.500
        37   02 Jun 2027 10:02:07.054   02 Jun 2027 10:03:54.754           107.700         53850.000
        38   02 Jun 2027 10:05:26.620   02 Jun 2027 10:05:28.044             1.424           712.000
        39   02 Jun 2027 10:08:38.967   02 Jun 2027 10:08:56.385            17.418          8709.000
        40   02 Jun 2027 10:09:31.797   02 Jun 2027 10:09:31.966             0.169            84.500
        41   02 Jun 2027 11:39:05.037   02 Jun 2027 11:39:50.432            45.395         22697.500
        42   02 Jun 2027 11:40:34.888   02 Jun 2027 11:41:33.397            58.509         29254.500
        43   02 Jun 2027 11:42:39.461   02 Jun 2027 11:42:46.020             6.559          3279.500
        44   03 Jun 2027 04:03:10.512   03 Jun 2027 04:04:10.109            59.597         29798.500
        45   03 Jun 2027 04:04:59.651   03 Jun 2027 04:05:38.092            38.441         19220.500
        46   03 Jun 2027 04:07:08.788   03 Jun 2027 04:07:19.743            10.955          5477.500
        47   03 Jun 2027 04:07:37.864   03 Jun 2027 04:07:37.864             0.000             0.000
        48   03 Jun 2027 04:09:54.923   03 Jun 2027 04:09:55.898             0.975           487.500
        49   03 Jun 2027 05:27:15.098   03 Jun 2027 05:28:12.868            57.770         28885.000
        50   03 Jun 2027 05:39:31.118   03 Jun 2027 05:40:06.933            35.815         17907.500
        51   03 Jun 2027 07:01:30.022   03 Jun 2027 07:02:54.064            84.042         42021.000
        52   03 Jun 2027 07:03:37.619   03 Jun 2027 07:04:03.998            26.379         13189.500
        53   03 Jun 2027 07:06:07.733   03 Jun 2027 07:06:27.683            19.950          9975.000
        54   03 Jun 2027 08:36:30.544   03 Jun 2027 08:38:00.350            89.806         44903.000
        55   03 Jun 2027 08:38:58.450   03 Jun 2027 08:38:58.450             0.000             0.000
        56   03 Jun 2027 08:41:59.095   03 Jun 2027 08:41:59.095             0.000             0.000
        57   03 Jun 2027 08:42:46.284   03 Jun 2027 08:42:48.883             2.599          1299.500
        58   03 Jun 2027 08:43:24.762   03 Jun 2027 08:44:07.859            43.097         21548.500
        59   03 Jun 2027 08:44:41.787   03 Jun 2027 08:45:12.306            30.519         15259.500
        60   03 Jun 2027 10:14:09.139   03 Jun 2027 10:14:37.178            28.039         14019.500
        61   03 Jun 2027 10:15:08.683   03 Jun 2027 10:15:46.300            37.617         18808.500
        62   03 Jun 2027 10:17:16.771   03 Jun 2027 10:17:20.116             3.345          1672.500
        63   03 Jun 2027 10:18:19.180   03 Jun 2027 10:18:27.897             8.717          4358.500
        64   03 Jun 2027 10:18:41.101   03 Jun 2027 10:18:45.337             4.236          1019.561
        65   03 Jun 2027 10:19:10.602   03 Jun 2027 10:19:14.551             3.949           789.531
        66   03 Jun 2027 10:19:47.104   03 Jun 2027 10:19:49.914             2.810           907.000
        67   03 Jun 2027 10:20:18.441   03 Jun 2027 10:20:18.738             0.297           148.500
        68   03 Jun 2027 10:20:46.100   03 Jun 2027 10:20:52.850             6.750          1595.031
        69   03 Jun 2027 11:50:55.425   03 Jun 2027 11:51:11.817            16.392          7962.156
        70   03 Jun 2027 11:53:43.463   03 Jun 2027 11:53:49.264             5.801          2900.500
        71   03 Jun 2027 11:54:31.921   03 Jun 2027 11:54:40.916             8.995          1820.406
        72   03 Jun 2027 11:55:18.727   03 Jun 2027 11:55:26.670             7.943          1181.594
        73   03 Jun 2027 11:56:41.958   03 Jun 2027 11:56:46.728             4.770          2352.750
        74   03 Jun 2027 11:56:56.998   03 Jun 2027 11:56:57.179             0.181            90.500
        75   03 Jun 2027 11:57:09.377   03 Jun 2027 11:57:10.990             1.613           611.625
        76   04 Jun 2027 04:15:15.049   04 Jun 2027 04:16:27.637            72.588         36294.000
        77   04 Jun 2027 04:18:24.114   04 Jun 2027 04:18:27.821             3.707          1853.500
        78   04 Jun 2027 04:18:59.360   04 Jun 2027 04:19:07.993             8.633          4316.500
        79   04 Jun 2027 04:21:14.319   04 Jun 2027 04:21:14.319             0.000             0.000
        80   04 Jun 2027 05:39:23.042   04 Jun 2027 05:41:04.943           101.901         50950.500
        81   04 Jun 2027 05:41:17.581   04 Jun 2027 05:41:17.686             0.105            52.500
        82   04 Jun 2027 07:13:12.194   04 Jun 2027 07:15:18.416           126.222         63111.000
        83   04 Jun 2027 07:16:13.484   04 Jun 2027 07:16:40.796            27.312         13599.657
        84   04 Jun 2027 08:48:04.210   04 Jun 2027 08:48:26.175            21.965         10394.625
        85   04 Jun 2027 08:49:24.636   04 Jun 2027 08:49:28.531             3.895          1722.687
        86   04 Jun 2027 08:50:24.339   04 Jun 2027 08:50:27.018             2.679          1255.750
        87   04 Jun 2027 08:51:16.699   04 Jun 2027 08:51:23.395             6.696           938.937
        88   04 Jun 2027 08:51:44.658   04 Jun 2027 08:51:44.658             0.000             0.000
        89   04 Jun 2027 08:52:17.615   04 Jun 2027 08:52:21.625             4.010          1101.750
        90   04 Jun 2027 08:53:52.334   04 Jun 2027 08:54:03.328            10.994          2483.219
        91   04 Jun 2027 08:54:53.793   04 Jun 2027 08:54:57.439             3.646          1564.500
        92   04 Jun 2027 08:55:24.433   04 Jun 2027 08:55:25.862             1.429           488.406
        93   04 Jun 2027 08:55:42.856   04 Jun 2027 08:55:44.677             1.821           506.219
        94   04 Jun 2027 08:56:50.226   04 Jun 2027 08:56:50.226             0.000             0.000
        95   04 Jun 2027 10:26:10.414   04 Jun 2027 10:26:30.046            19.632          7024.937
        96   04 Jun 2027 10:30:31.295   04 Jun 2027 10:30:45.653            14.358          7141.375
        97   04 Jun 2027 10:31:46.618   04 Jun 2027 10:31:55.332             8.714          1516.750
        98   04 Jun 2027 10:31:59.807   04 Jun 2027 10:32:03.625             3.818           130.156
        99   04 Jun 2027 10:32:10.528   04 Jun 2027 10:32:16.116             5.588           215.719
       100   04 Jun 2027 10:33:01.062   04 Jun 2027 10:33:02.218             1.156           578.000
       101   04 Jun 2027 10:33:06.787   04 Jun 2027 10:33:08.432             1.645           761.969
       102   05 Jun 2027 04:27:51.645   05 Jun 2027 04:29:05.745            74.100         37050.000
       103   05 Jun 2027 04:29:18.437   05 Jun 2027 04:29:25.077             6.640          3320.000
       104   05 Jun 2027 04:30:09.851   05 Jun 2027 04:30:21.464            11.613          5806.500
       105   05 Jun 2027 04:31:40.896   05 Jun 2027 04:31:48.206             7.310          3655.000
       106   05 Jun 2027 04:32:27.062   05 Jun 2027 04:32:27.062             0.000             0.000
       107   05 Jun 2027 05:51:19.134   05 Jun 2027 05:52:55.956            96.822         48411.000
       108   05 Jun 2027 07:27:32.227   05 Jun 2027 07:29:27.165           114.938         57469.000
       109   05 Jun 2027 07:31:02.066   05 Jun 2027 07:31:04.137             2.071          1035.500
       110   05 Jun 2027 09:01:05.360   05 Jun 2027 09:01:21.784            16.424          7573.875
       111   05 Jun 2027 09:01:46.529   05 Jun 2027 09:01:47.343             0.814           100.094
       112   05 Jun 2027 09:01:54.600   05 Jun 2027 09:01:57.153             2.553           204.063
       113   05 Jun 2027 09:03:27.306   05 Jun 2027 09:03:32.588             5.282          2578.094
       114   05 Jun 2027 09:04:19.823   05 Jun 2027 09:04:30.294            10.471          1476.094
       115   05 Jun 2027 09:07:45.039   05 Jun 2027 09:07:45.039             0.000             0.000
       116   05 Jun 2027 09:07:48.515   05 Jun 2027 09:08:02.621            14.106          6122.406
       117   05 Jun 2027 09:08:07.354   05 Jun 2027 09:08:10.765             3.411           124.031
       118   05 Jun 2027 09:09:01.480   05 Jun 2027 09:09:01.480             0.000             0.000
       119   05 Jun 2027 09:09:38.152   05 Jun 2027 09:09:39.199             1.047           523.500
       120   05 Jun 2027 10:38:37.774   05 Jun 2027 10:38:48.982            11.208          5604.000
       121   05 Jun 2027 10:39:32.578   05 Jun 2027 10:39:37.553             4.975          2347.250
       122   05 Jun 2027 10:40:07.732   05 Jun 2027 10:40:09.129             1.397           592.031
       123   05 Jun 2027 10:40:56.553   05 Jun 2027 10:41:01.645             5.092          1419.969
       124   05 Jun 2027 10:41:48.088   05 Jun 2027 10:41:52.471             4.383          1451.344
       125   05 Jun 2027 10:42:22.584   05 Jun 2027 10:42:25.687             3.103           911.344
       126   05 Jun 2027 10:43:28.467   05 Jun 2027 10:43:33.704             5.237          1450.844
       127   05 Jun 2027 10:43:41.753   05 Jun 2027 10:43:42.472             0.719           204.344
       128   05 Jun 2027 10:43:42.572   05 Jun 2027 10:43:45.110             2.538             3.125
       129   05 Jun 2027 10:44:00.647   05 Jun 2027 10:44:01.639             0.992           179.500
       130   05 Jun 2027 10:44:24.345   05 Jun 2027 10:44:24.345             0.000             0.000
       131   05 Jun 2027 10:44:32.962   05 Jun 2027 10:44:40.012             7.050           972.406
       132   05 Jun 2027 10:44:58.129   05 Jun 2027 10:44:59.118             0.989           487.750
       133   05 Jun 2027 10:45:05.476   05 Jun 2027 10:45:07.283             1.807           198.687
       134   06 Jun 2027 03:01:29.060   06 Jun 2027 03:01:52.346            23.286         11643.000
       135   06 Jun 2027 03:02:10.210   06 Jun 2027 03:02:11.026             0.816           408.000
       136   06 Jun 2027 03:02:21.743   06 Jun 2027 03:02:35.584            13.841          6920.500
       137   06 Jun 2027 03:03:44.948   06 Jun 2027 03:03:49.280             4.332          2166.000
       138   06 Jun 2027 03:04:18.726   06 Jun 2027 03:04:23.246             4.520          2260.000
       139   06 Jun 2027 03:04:49.524   06 Jun 2027 03:04:52.670             3.146          1573.000
       140   06 Jun 2027 03:05:43.649   06 Jun 2027 03:05:49.625             5.976          2988.000
       141   06 Jun 2027 03:06:56.465   06 Jun 2027 03:07:07.866            11.401          5700.500
       142   06 Jun 2027 03:07:14.407   06 Jun 2027 03:07:25.469            11.062          5531.000
       143   06 Jun 2027 04:39:31.235   06 Jun 2027 04:40:49.550            78.315         39157.500
       144   06 Jun 2027 04:40:52.428   06 Jun 2027 04:40:55.908             3.480          1740.000
       145   06 Jun 2027 04:41:24.489   06 Jun 2027 04:41:26.705             2.216          1108.000
       146   06 Jun 2027 04:43:08.957   06 Jun 2027 04:43:17.675             8.718          4359.000
       147   06 Jun 2027 04:43:43.154   06 Jun 2027 04:43:43.154             0.000             0.000
       148   06 Jun 2027 06:03:10.298   06 Jun 2027 06:04:30.505            80.207         40103.500
       149   06 Jun 2027 07:39:37.382   06 Jun 2027 07:41:22.774           105.392         50847.875
       150   06 Jun 2027 07:41:47.017   06 Jun 2027 07:41:49.260             2.243           629.875
       151   06 Jun 2027 07:42:41.345   06 Jun 2027 07:42:45.649             4.304          1399.125
       152   06 Jun 2027 09:11:45.219   06 Jun 2027 09:11:56.078            10.859          5429.500
       153   06 Jun 2027 09:13:44.299   06 Jun 2027 09:13:48.103             3.804          1751.937
       154   06 Jun 2027 09:14:25.145   06 Jun 2027 09:14:29.141             3.996          1060.344
       155   06 Jun 2027 09:15:04.152   06 Jun 2027 09:15:07.848             3.696           310.219
       156   06 Jun 2027 09:15:30.205   06 Jun 2027 09:15:30.205             0.000             0.000
       157   06 Jun 2027 09:15:51.740   06 Jun 2027 09:15:55.237             3.497           709.406
       158   06 Jun 2027 09:17:02.478   06 Jun 2027 09:17:06.402             3.924          1272.938
       159   06 Jun 2027 09:19:49.539   06 Jun 2027 09:20:02.784            13.245          4373.656
       160   06 Jun 2027 09:20:11.761   06 Jun 2027 09:20:11.861             0.100            50.000
       161   06 Jun 2027 09:20:31.185   06 Jun 2027 09:20:32.230             1.045           522.500
       162   06 Jun 2027 09:20:35.364   06 Jun 2027 09:20:39.674             4.310           232.750
       163   06 Jun 2027 09:20:56.681   06 Jun 2027 09:20:58.389             1.708           302.438
       164   06 Jun 2027 09:21:15.702   06 Jun 2027 09:21:17.550             1.848           541.031
       165   06 Jun 2027 09:21:33.838   06 Jun 2027 09:21:33.950             0.112            56.000
       166   06 Jun 2027 10:50:42.803   06 Jun 2027 10:51:00.712            17.909          8352.375
       167   06 Jun 2027 10:53:30.617   06 Jun 2027 10:53:40.909            10.292          1267.219
       168   06 Jun 2027 10:53:55.283   06 Jun 2027 10:53:56.455             1.172           411.625
       169   06 Jun 2027 10:54:24.732   06 Jun 2027 10:54:37.201            12.469           876.031
       170   06 Jun 2027 10:54:46.968   06 Jun 2027 10:54:47.897             0.929           305.219
       171   06 Jun 2027 10:55:21.810   06 Jun 2027 10:55:24.114             2.304          1059.781
       172   06 Jun 2027 10:55:34.906   06 Jun 2027 10:55:37.878             2.972           337.250
       173   06 Jun 2027 10:55:54.833   06 Jun 2027 10:55:56.553             1.720           500.500
       174   06 Jun 2027 10:56:25.987   06 Jun 2027 10:56:25.987             0.000             0.000
       175   06 Jun 2027 10:56:53.378   06 Jun 2027 10:56:58.465             5.087          1608.969
       176   06 Jun 2027 10:57:14.220   06 Jun 2027 10:57:15.691             1.471           492.344
       177   07 Jun 2027 03:13:36.365   07 Jun 2027 03:14:37.689            61.324         30662.000
       178   07 Jun 2027 03:14:45.527   07 Jun 2027 03:14:59.852            14.325          7162.500
       179   07 Jun 2027 03:15:40.999   07 Jun 2027 03:15:41.274             0.275           137.500
       180   07 Jun 2027 03:17:10.676   07 Jun 2027 03:17:15.043             4.367          2183.500
       181   07 Jun 2027 03:17:42.262   07 Jun 2027 03:17:54.440            12.178          6089.000
       182   07 Jun 2027 03:19:08.722   07 Jun 2027 03:19:15.695             6.973          3486.500
       183   07 Jun 2027 04:52:44.413   07 Jun 2027 04:54:06.988            82.575         41287.500
       184   07 Jun 2027 04:54:20.048   07 Jun 2027 04:54:32.849            12.801          6400.500
       185   07 Jun 2027 06:15:18.676   07 Jun 2027 06:16:09.491            50.815         25407.500
       186   07 Jun 2027 07:51:47.392   07 Jun 2027 07:53:17.898            90.506         45074.001
       187   07 Jun 2027 07:53:27.364   07 Jun 2027 07:53:29.792             2.428           223.594
       188   07 Jun 2027 07:55:16.373   07 Jun 2027 07:55:23.318             6.945          3212.063
       189   07 Jun 2027 09:26:58.455   07 Jun 2027 09:27:10.334            11.879          5713.344
       190   07 Jun 2027 09:28:06.480   07 Jun 2027 09:28:09.678             3.198          1599.000
       191   07 Jun 2027 09:28:14.401   07 Jun 2027 09:28:16.241             1.840           278.281
       192   07 Jun 2027 09:29:58.543   07 Jun 2027 09:30:04.564             6.021          2975.687
       193   07 Jun 2027 09:30:44.693   07 Jun 2027 09:30:49.069             4.376           964.219
       194   07 Jun 2027 09:31:11.078   07 Jun 2027 09:31:13.177             2.099           553.281
       195   07 Jun 2027 09:31:33.201   07 Jun 2027 09:31:39.981             6.780           434.469
       196   07 Jun 2027 09:32:11.057   07 Jun 2027 09:32:12.305             1.248           624.000
       197   07 Jun 2027 09:33:03.469   07 Jun 2027 09:33:05.645             2.176          1088.000
       198   07 Jun 2027 09:33:19.863   07 Jun 2027 09:33:23.847             3.984          1302.312
       199   07 Jun 2027 09:33:31.414   07 Jun 2027 09:33:31.414             0.000             0.000
       200   07 Jun 2027 11:03:17.475   07 Jun 2027 11:03:29.138            11.663          5764.469
       201   07 Jun 2027 11:05:00.309   07 Jun 2027 11:05:04.215             3.906          1849.937
       202   07 Jun 2027 11:05:22.539   07 Jun 2027 11:05:23.700             1.161           560.156
       203   07 Jun 2027 11:05:59.191   07 Jun 2027 11:06:12.141            12.950           930.031
       204   07 Jun 2027 11:06:49.043   07 Jun 2027 11:06:56.180             7.137           629.844
       205   07 Jun 2027 11:07:21.146   07 Jun 2027 11:07:23.879             2.733           393.344
       206   07 Jun 2027 11:07:37.116   07 Jun 2027 11:07:39.905             2.789           101.125
       207   07 Jun 2027 11:07:46.767   07 Jun 2027 11:07:46.990             0.223           111.500
       208   07 Jun 2027 11:08:08.897   07 Jun 2027 11:08:11.759             2.862           770.906
       209   07 Jun 2027 11:08:50.468   07 Jun 2027 11:08:55.813             5.345           712.969
       210   07 Jun 2027 11:09:13.579   07 Jun 2027 11:09:18.009             4.430           430.094
       211   08 Jun 2027 03:25:41.364   08 Jun 2027 03:26:01.991            20.627         10313.500
       212   08 Jun 2027 03:26:44.197   08 Jun 2027 03:28:15.042            90.845         45422.500
       213   08 Jun 2027 03:28:58.602   08 Jun 2027 03:29:10.144            11.542          5771.000
       214   08 Jun 2027 03:34:00.140   08 Jun 2027 03:34:23.118            22.978         11489.000
       215   08 Jun 2027 05:03:53.300   08 Jun 2027 05:04:29.845            36.545         18272.500
       216   08 Jun 2027 05:04:58.434   08 Jun 2027 05:05:30.507            32.073         16036.500
       217   08 Jun 2027 06:28:01.245   08 Jun 2027 06:28:51.142            49.897         24948.500
       218   08 Jun 2027 06:29:23.343   08 Jun 2027 06:29:40.795            17.452          8726.000
       219   08 Jun 2027 08:03:45.798   08 Jun 2027 08:04:42.234            56.436         28208.500
       220   08 Jun 2027 08:06:06.165   08 Jun 2027 08:06:13.194             7.029          2457.750
       221   08 Jun 2027 09:38:50.205   08 Jun 2027 09:39:04.583            14.378          5306.156
       222   08 Jun 2027 09:39:31.177   08 Jun 2027 09:39:32.919             1.742           801.562
       223   08 Jun 2027 09:40:19.324   08 Jun 2027 09:40:24.503             5.179           499.531
       224   08 Jun 2027 09:40:40.925   08 Jun 2027 09:40:44.634             3.709           513.188
       225   08 Jun 2027 09:42:45.870   08 Jun 2027 09:42:53.785             7.915          3382.938
       226   08 Jun 2027 09:43:07.731   08 Jun 2027 09:43:09.640             1.909           358.500
       227   08 Jun 2027 09:43:42.879   08 Jun 2027 09:43:45.165             2.286          1038.719
       228   08 Jun 2027 09:44:28.786   08 Jun 2027 09:44:32.057             3.271          1363.156
       229   08 Jun 2027 09:45:08.056   08 Jun 2027 09:45:10.743             2.687          1124.969
       230   08 Jun 2027 09:45:30.746   08 Jun 2027 09:45:33.379             2.633           251.437
       231   08 Jun 2027 11:14:55.321   08 Jun 2027 11:15:07.862            12.541          6031.938
       232   08 Jun 2027 11:15:57.792   08 Jun 2027 11:15:59.577             1.785           665.906
       233   08 Jun 2027 11:17:05.101   08 Jun 2027 11:17:09.921             4.820          1615.250
       234   08 Jun 2027 11:17:23.818   08 Jun 2027 11:17:25.530             1.712           434.281
       235   08 Jun 2027 11:17:53.180   08 Jun 2027 11:17:57.546             4.366           864.063
       236   08 Jun 2027 11:19:07.474   08 Jun 2027 11:19:11.709             4.235          2060.531
       237   08 Jun 2027 11:19:31.899   08 Jun 2027 11:19:34.847             2.948           604.500
       238   08 Jun 2027 11:19:40.376   08 Jun 2027 11:19:43.845             3.469           172.781
       239   08 Jun 2027 11:20:03.669   08 Jun 2027 11:20:10.536             6.867           613.031
       240   09 Jun 2027 03:38:45.834   09 Jun 2027 03:40:46.760           120.926         60463.000
       241   09 Jun 2027 03:41:14.466   09 Jun 2027 03:41:14.466             0.000             0.000
       242   09 Jun 2027 03:42:27.344   09 Jun 2027 03:42:31.122             3.778          1889.000
       243   09 Jun 2027 03:45:00.113   09 Jun 2027 03:45:02.683             2.570          1285.000
       244   09 Jun 2027 03:45:41.745   09 Jun 2027 03:46:31.984            50.239         25119.500
       245   09 Jun 2027 05:04:50.536   09 Jun 2027 05:05:21.935            31.399         15699.500
       246   09 Jun 2027 05:15:49.030   09 Jun 2027 05:16:32.288            43.258         21629.000
       247   09 Jun 2027 05:17:58.672   09 Jun 2027 05:18:11.010            12.338          6169.000
       248   09 Jun 2027 06:39:08.070   09 Jun 2027 06:40:12.612            64.542         32271.000
       249   09 Jun 2027 06:40:16.466   09 Jun 2027 06:40:16.466             0.000             0.000
       250   09 Jun 2027 06:40:19.547   09 Jun 2027 06:40:32.192            12.645          6322.500
       251   09 Jun 2027 06:42:42.435   09 Jun 2027 06:42:43.708             1.273           636.500
       252   09 Jun 2027 08:15:30.426   09 Jun 2027 08:16:05.329            34.903         16210.094
       253   09 Jun 2027 08:17:08.145   09 Jun 2027 08:17:12.821             4.676          1924.281
       254   09 Jun 2027 08:18:16.868   09 Jun 2027 08:18:19.007             2.139           692.281
       255   09 Jun 2027 08:18:24.834   09 Jun 2027 08:18:30.233             5.399           161.406
       256   09 Jun 2027 08:18:33.637   09 Jun 2027 08:18:34.419             0.782           106.375
       257   09 Jun 2027 08:18:56.743   09 Jun 2027 08:18:57.892             1.149           448.156
       258   09 Jun 2027 08:19:40.501   09 Jun 2027 08:19:40.501             0.000             0.000
       259   09 Jun 2027 09:50:16.036   09 Jun 2027 09:50:26.582            10.546          4249.937
       260   09 Jun 2027 09:52:25.233   09 Jun 2027 09:52:31.299             6.066          2965.594
       261   09 Jun 2027 09:54:50.060   09 Jun 2027 09:55:01.492            11.432          3762.906
       262   09 Jun 2027 09:55:21.295   09 Jun 2027 09:55:26.066             4.771           618.844
       263   09 Jun 2027 09:55:29.524   09 Jun 2027 09:55:32.729             3.205           108.063
       264   09 Jun 2027 09:57:13.252   09 Jun 2027 09:57:19.893             6.641          3141.344
       265   09 Jun 2027 09:57:42.251   09 Jun 2027 09:57:43.637             1.386           628.031
       266   09 Jun 2027 11:27:05.587   09 Jun 2027 11:27:20.783            15.196          6898.969
       267   09 Jun 2027 11:27:35.554   09 Jun 2027 11:27:36.378             0.824           237.906
       268   09 Jun 2027 11:28:57.011   09 Jun 2027 11:29:03.552             6.541          2367.781
       269   09 Jun 2027 11:29:22.961   09 Jun 2027 11:29:28.002             5.041           447.281
       270   09 Jun 2027 11:29:56.471   09 Jun 2027 11:30:01.650             5.179           889.656
       271   09 Jun 2027 11:30:09.060   09 Jun 2027 11:30:12.612             3.552           231.562
       272   09 Jun 2027 11:30:46.442   09 Jun 2027 11:30:47.914             1.472           689.469
       273   09 Jun 2027 11:30:53.196   09 Jun 2027 11:30:55.726             2.530           165.062
       274   09 Jun 2027 11:31:28.271   09 Jun 2027 11:31:30.450             2.179           727.219
       275   09 Jun 2027 11:31:34.738   09 Jun 2027 11:31:35.567             0.829           134.000
       276   09 Jun 2027 11:32:04.059   09 Jun 2027 11:32:09.484             5.425           857.813
       277   09 Jun 2027 11:32:11.592   09 Jun 2027 11:32:14.693             3.101            10.031
       278   09 Jun 2027 11:32:46.307   09 Jun 2027 11:32:49.119             2.812           480.781
       279   09 Jun 2027 11:32:57.837   09 Jun 2027 11:33:00.330             2.493           272.437
       280   10 Jun 2027 03:51:09.101   10 Jun 2027 03:53:16.370           127.269         63634.500
       281   10 Jun 2027 03:57:25.809   10 Jun 2027 03:57:30.481             4.672          2336.000
       282   10 Jun 2027 05:16:09.906   10 Jun 2027 05:16:27.325            17.419          8709.500
       283   10 Jun 2027 05:17:26.783   10 Jun 2027 05:17:36.970            10.187          5093.500
       284   10 Jun 2027 05:27:50.260   10 Jun 2027 05:29:11.047            80.787         40393.500
       285   10 Jun 2027 06:50:06.057   10 Jun 2027 06:51:19.704            73.647         36823.500
       286   10 Jun 2027 06:52:03.319   10 Jun 2027 06:52:16.377            13.058          6305.343
       287   10 Jun 2027 06:52:45.410   10 Jun 2027 06:52:45.410             0.000             0.000
       288   10 Jun 2027 08:25:18.290   10 Jun 2027 08:25:29.182            10.892          5446.000
       289   10 Jun 2027 08:25:36.063   10 Jun 2027 08:25:36.797             0.734           367.000
       290   10 Jun 2027 08:25:53.632   10 Jun 2027 08:25:59.049             5.417          1858.531
       291   10 Jun 2027 08:28:49.727   10 Jun 2027 08:29:04.906            15.179          4938.125
       292   10 Jun 2027 08:30:20.477   10 Jun 2027 08:30:20.483             0.006             3.000
       293   10 Jun 2027 08:30:33.445   10 Jun 2027 08:30:38.998             5.553          2754.969
       294   10 Jun 2027 08:31:31.463   10 Jun 2027 08:31:37.853             6.390          1457.938
       295   10 Jun 2027 10:02:23.081   10 Jun 2027 10:02:30.597             7.516          3685.375
       296   10 Jun 2027 10:02:36.353   10 Jun 2027 10:02:37.014             0.661           179.875
       297   10 Jun 2027 10:03:13.216   10 Jun 2027 10:03:15.552             2.336           167.125
       298   10 Jun 2027 10:03:38.975   10 Jun 2027 10:03:40.840             1.865           216.969
       299   10 Jun 2027 10:04:06.620   10 Jun 2027 10:04:09.908             3.288           591.688
       300   10 Jun 2027 10:06:01.280   10 Jun 2027 10:06:09.248             7.968          2995.344
       301   10 Jun 2027 10:06:46.627   10 Jun 2027 10:06:47.838             1.211           350.812
       302   10 Jun 2027 10:07:01.797   10 Jun 2027 10:07:05.505             3.708           436.219
       303   10 Jun 2027 10:07:32.735   10 Jun 2027 10:07:37.751             5.016           543.969
       304   10 Jun 2027 10:08:00.871   10 Jun 2027 10:08:05.021             4.150           456.437
       305   10 Jun 2027 10:08:54.457   10 Jun 2027 10:08:57.296             2.839          1396.781
       306   10 Jun 2027 10:09:06.495   10 Jun 2027 10:09:10.439             3.944           245.844
       307   10 Jun 2027 10:09:31.469   10 Jun 2027 10:09:36.370             4.901           657.187
       308   10 Jun 2027 11:39:21.258   10 Jun 2027 11:39:35.771            14.513          6903.094
       309   10 Jun 2027 11:40:30.315   10 Jun 2027 11:40:33.121             2.806           973.906
       310   10 Jun 2027 11:41:04.864   10 Jun 2027 11:41:10.652             5.788           638.438
       311   10 Jun 2027 11:41:29.921   10 Jun 2027 11:41:32.412             2.491           375.844
       312   10 Jun 2027 11:42:02.793   10 Jun 2027 11:42:05.947             3.154           622.125
       313   10 Jun 2027 11:42:39.823   10 Jun 2027 11:42:45.468             5.645          1053.594
       314   10 Jun 2027 11:43:08.297   10 Jun 2027 11:43:09.583             1.286           404.844
       315   10 Jun 2027 11:43:32.303   10 Jun 2027 11:43:33.816             1.513           710.000
       316   10 Jun 2027 11:44:04.668   10 Jun 2027 11:44:06.753             2.085           964.125
       317   10 Jun 2027 11:45:13.525   10 Jun 2027 11:45:15.991             2.466          1233.000
       318   11 Jun 2027 04:03:27.435   11 Jun 2027 04:04:43.652            76.217         38108.500
       319   11 Jun 2027 04:05:43.377   11 Jun 2027 04:06:03.292            19.915          9957.500
       320   11 Jun 2027 04:07:11.347   11 Jun 2027 04:07:13.962             2.615          1307.500
       321   11 Jun 2027 04:07:52.416   11 Jun 2027 04:08:12.347            19.931          9965.500
       322   11 Jun 2027 04:09:39.360   11 Jun 2027 04:09:41.220             1.860           930.000
       323   11 Jun 2027 05:27:33.015   11 Jun 2027 05:28:27.871            54.856         27428.000
       324   11 Jun 2027 05:28:54.626   11 Jun 2027 05:29:02.005             7.379          3689.500
       325   11 Jun 2027 05:39:47.411   11 Jun 2027 05:40:14.265            26.854         13427.000
       326   11 Jun 2027 07:01:48.411   11 Jun 2027 07:03:08.743            80.332         40166.000
       327   11 Jun 2027 07:03:53.607   11 Jun 2027 07:04:26.201            32.594         16297.000
       328   11 Jun 2027 07:04:50.655   11 Jun 2027 07:04:56.757             6.102          3051.000
       329   11 Jun 2027 08:36:45.648   11 Jun 2027 08:37:06.135            20.487          9828.969
       330   11 Jun 2027 08:37:55.382   11 Jun 2027 08:37:59.174             3.792          1522.719
       331   11 Jun 2027 08:38:37.504   11 Jun 2027 08:38:40.360             2.856           676.719
       332   11 Jun 2027 08:40:50.347   11 Jun 2027 08:40:58.415             8.068          3971.250
       333   11 Jun 2027 08:42:20.806   11 Jun 2027 08:42:26.360             5.554          2348.000
       334   11 Jun 2027 08:43:08.107   11 Jun 2027 08:43:08.375             0.268           134.000
       335   11 Jun 2027 08:43:43.945   11 Jun 2027 08:43:49.316             5.371          2169.750
       336   11 Jun 2027 08:44:57.719   11 Jun 2027 08:44:59.494             1.775           887.500
       337   11 Jun 2027 10:14:25.336   11 Jun 2027 10:14:37.254            11.918          5309.500
       338   11 Jun 2027 10:15:06.480   11 Jun 2027 10:15:08.037             1.557           772.906
       339   11 Jun 2027 10:15:44.696   11 Jun 2027 10:15:46.069             1.373           686.500
       340   11 Jun 2027 10:17:07.836   11 Jun 2027 10:17:14.823             6.987          3014.312
       341   11 Jun 2027 10:17:40.878   11 Jun 2027 10:17:42.430             1.552           753.813
       342   11 Jun 2027 10:18:11.604   11 Jun 2027 10:18:17.109             5.505           569.688
       343   11 Jun 2027 10:18:29.275   11 Jun 2027 10:18:30.467             1.192           157.281
       344   11 Jun 2027 10:18:56.867   11 Jun 2027 10:18:58.460             1.593           405.844
       345   11 Jun 2027 10:19:27.741   11 Jun 2027 10:19:30.329             2.588           853.031
       346   11 Jun 2027 10:19:45.134   11 Jun 2027 10:19:46.630             1.496           240.531
       347   11 Jun 2027 10:20:42.473   11 Jun 2027 10:20:46.656             4.183          1744.687
       348   11 Jun 2027 10:21:08.393   11 Jun 2027 10:21:14.521             6.128           268.625
       349   11 Jun 2027 10:21:27.257   11 Jun 2027 10:21:29.202             1.945           394.188
       350   11 Jun 2027 11:51:12.448   11 Jun 2027 11:51:27.123            14.675          6519.531
       351   11 Jun 2027 11:52:13.116   11 Jun 2027 11:52:17.920             4.804          1401.875
       352   11 Jun 2027 11:52:47.301   11 Jun 2027 11:52:50.216             2.915           697.125
       353   11 Jun 2027 11:54:00.206   11 Jun 2027 11:54:04.603             4.397          2187.188
       354   11 Jun 2027 11:54:11.804   11 Jun 2027 11:54:12.275             0.471           225.031
       355   11 Jun 2027 11:54:38.799   11 Jun 2027 11:54:40.298             1.499           749.500
       356   11 Jun 2027 11:56:07.814   11 Jun 2027 11:56:12.393             4.579          2289.500
       357   11 Jun 2027 11:56:44.083   11 Jun 2027 11:56:44.083             0.000             0.000
       358   11 Jun 2027 11:57:09.105   11 Jun 2027 11:57:09.195             0.090            45.000
       359   11 Jun 2027 11:57:32.707   11 Jun 2027 11:57:40.073             7.366          2717.500
       360   12 Jun 2027 04:15:32.414   12 Jun 2027 04:16:44.331            71.917         35958.500
       361   12 Jun 2027 04:17:20.072   12 Jun 2027 04:17:23.946             3.874          1937.000
       362   12 Jun 2027 04:18:04.295   12 Jun 2027 04:18:13.386             9.091          4545.500
       363   12 Jun 2027 04:18:39.489   12 Jun 2027 04:18:59.125            19.636          9818.000
       364   12 Jun 2027 05:39:39.576   12 Jun 2027 05:41:06.087            86.511         43255.500
       365   12 Jun 2027 05:41:34.742   12 Jun 2027 05:41:39.546             4.804          2402.000
       366   12 Jun 2027 07:13:27.399   12 Jun 2027 07:15:26.044           118.645         59322.500
       367   12 Jun 2027 07:15:35.862   12 Jun 2027 07:15:56.637            20.775         10193.750
       368   12 Jun 2027 08:48:19.626   12 Jun 2027 08:48:38.038            18.412          9206.000
       369   12 Jun 2027 08:49:19.738   12 Jun 2027 08:49:31.973            12.235          1463.500
       370   12 Jun 2027 08:50:00.027   12 Jun 2027 08:50:01.733             1.706           629.344
       371   12 Jun 2027 08:51:04.394   12 Jun 2027 08:51:09.239             4.845           808.437
       372   12 Jun 2027 08:52:50.536   12 Jun 2027 08:52:50.536             0.000             0.000
       373   12 Jun 2027 08:54:08.613   12 Jun 2027 08:54:20.023            11.410          5480.688
       374   12 Jun 2027 08:55:11.082   12 Jun 2027 08:55:11.082             0.000             0.000
       375   12 Jun 2027 08:55:24.335   12 Jun 2027 08:55:31.380             7.045          1993.156
       376   12 Jun 2027 08:55:52.726   12 Jun 2027 08:55:56.005             3.279           553.437
       377   12 Jun 2027 08:56:27.136   12 Jun 2027 08:56:27.136             0.000             0.000
       378   12 Jun 2027 08:57:08.138   12 Jun 2027 08:57:13.994             5.856          2207.875
       379   12 Jun 2027 10:26:27.940   12 Jun 2027 10:26:52.476            24.536          7370.156
       380   12 Jun 2027 10:29:19.332   12 Jun 2027 10:29:33.065            13.733          4221.875
       381   12 Jun 2027 10:30:39.523   12 Jun 2027 10:30:43.759             4.236          1551.031
       382   12 Jun 2027 10:31:17.654   12 Jun 2027 10:31:18.630             0.976           488.000
       383   12 Jun 2027 10:32:00.562   12 Jun 2027 10:32:02.430             1.868           934.000
       384   12 Jun 2027 10:32:10.628   12 Jun 2027 10:32:13.964             3.336          1203.781
       385   12 Jun 2027 10:32:15.437   12 Jun 2027 10:32:18.421             2.984            46.031
       386   12 Jun 2027 10:32:26.586   12 Jun 2027 10:32:26.586             0.000             0.000
       387   12 Jun 2027 10:32:37.387   12 Jun 2027 10:32:41.791             4.404           592.688
       388   12 Jun 2027 10:33:00.183   12 Jun 2027 10:33:01.173             0.990           407.125
       389   12 Jun 2027 10:33:10.215   12 Jun 2027 10:33:12.586             2.371           282.562
       390   12 Jun 2027 10:33:24.687   12 Jun 2027 10:33:25.769             1.082           263.313
       391   12 Jun 2027 10:33:34.433   12 Jun 2027 10:33:35.187             0.754           270.750
       392   13 Jun 2027 04:28:09.238   13 Jun 2027 04:29:49.916           100.678         50339.000
       393   13 Jun 2027 04:31:05.961   13 Jun 2027 04:31:26.725            20.764         10382.000
       394   13 Jun 2027 05:51:34.795   13 Jun 2027 05:52:45.707            70.912         35456.000
       395   13 Jun 2027 05:53:50.065   13 Jun 2027 05:53:56.718             6.653          3326.500
       396   13 Jun 2027 07:27:49.909   13 Jun 2027 07:29:53.350           123.441         61720.500
       397   13 Jun 2027 09:01:22.429   13 Jun 2027 09:01:41.882            19.453          9088.781
       398   13 Jun 2027 09:02:06.184   13 Jun 2027 09:02:07.230             1.046            71.094
       399   13 Jun 2027 09:02:38.589   13 Jun 2027 09:02:39.078             0.489           244.500
       400   13 Jun 2027 09:03:50.664   13 Jun 2027 09:03:50.664             0.000             0.000
       401   13 Jun 2027 09:03:53.115   13 Jun 2027 09:03:59.938             6.823          2644.562
       402   13 Jun 2027 09:05:13.019   13 Jun 2027 09:05:18.670             5.651          2202.156
       403   13 Jun 2027 09:06:05.645   13 Jun 2027 09:06:18.496            12.851           619.125
       404   13 Jun 2027 09:07:05.755   13 Jun 2027 09:07:05.755             0.000             0.000
       405   13 Jun 2027 09:07:13.683   13 Jun 2027 09:07:18.093             4.410          1689.188
       406   13 Jun 2027 09:08:28.806   13 Jun 2027 09:08:30.009             1.203           601.500
       407   13 Jun 2027 09:09:34.930   13 Jun 2027 09:09:40.566             5.636          2629.000
       408   13 Jun 2027 09:09:48.717   13 Jun 2027 09:09:50.978             2.261           188.969
       409   13 Jun 2027 10:38:54.992   13 Jun 2027 10:39:06.395            11.403          5618.313
       410   13 Jun 2027 10:40:54.753   13 Jun 2027 10:40:57.142             2.389           953.031
       411   13 Jun 2027 10:41:41.882   13 Jun 2027 10:41:47.007             5.125          1398.125
       412   13 Jun 2027 10:42:32.820   13 Jun 2027 10:42:37.325             4.505          1431.656
       413   13 Jun 2027 10:42:59.849   13 Jun 2027 10:43:03.109             3.260           645.406
       414   13 Jun 2027 10:43:50.181   13 Jun 2027 10:43:57.654             7.473          1110.500
       415   13 Jun 2027 10:43:58.380   13 Jun 2027 10:43:58.573             0.193            22.688
       416   13 Jun 2027 10:44:28.515   13 Jun 2027 10:44:30.001             1.486           743.000
       417   13 Jun 2027 10:45:00.856   13 Jun 2027 10:45:02.741             1.885           942.500
       418   13 Jun 2027 10:45:11.927   13 Jun 2027 10:45:12.464             0.537           268.500
       419   13 Jun 2027 10:45:32.207   13 Jun 2027 10:45:38.574             6.367           849.937
