uniorb/output/strategy_1/Camera/Camera_KinoSat_110204.txt

KinoSat_110204
-------------------------
    Access    *     Start Time (UTCG)     *     Stop Time (UTCG)  *   Duration (s) *   Data (Mbytes)
         1   01 Jun 2027 04:11:13.327   01 Jun 2027 04:13:18.886           125.559         62779.500
         2   01 Jun 2027 04:15:56.668   01 Jun 2027 04:16:31.538            34.870         17435.000
         3   01 Jun 2027 04:16:51.538   01 Jun 2027 04:17:09.703            18.165          9082.500
         4   01 Jun 2027 05:48:52.731   01 Jun 2027 05:52:22.153           209.422        104711.000
         5   01 Jun 2027 05:53:16.679   01 Jun 2027 05:53:21.633             4.954          2477.000
         6   01 Jun 2027 07:24:57.207   01 Jun 2027 07:27:39.541           162.334         81167.000
         7   01 Jun 2027 07:27:52.501   01 Jun 2027 07:27:53.890             1.389           694.500
         8   01 Jun 2027 07:28:12.219   01 Jun 2027 07:28:30.635            18.416          9208.000
         9   01 Jun 2027 07:29:28.214   01 Jun 2027 07:29:38.484            10.270          5135.000
        10   01 Jun 2027 09:03:41.016   01 Jun 2027 09:03:43.749             2.733          1366.500
        11   02 Jun 2027 04:23:49.390   02 Jun 2027 04:30:03.052           373.662        186831.000
        12   02 Jun 2027 06:01:06.906   02 Jun 2027 06:03:46.500           159.594         79797.000
        13   02 Jun 2027 06:03:52.951   02 Jun 2027 06:03:56.196             3.245          1622.500
        14   02 Jun 2027 06:04:48.986   02 Jun 2027 06:05:42.860            53.874         26937.000
        15   02 Jun 2027 07:37:19.433   02 Jun 2027 07:40:05.700           166.267         83133.500
        16   02 Jun 2027 07:41:26.116   02 Jun 2027 07:41:43.793            17.677          8838.500
        17   03 Jun 2027 03:00:00.000   03 Jun 2027 03:06:11.605           371.605        185802.500
        18   03 Jun 2027 04:35:22.049   03 Jun 2027 04:38:23.033           180.984         90492.000
        19   03 Jun 2027 04:38:47.828   03 Jun 2027 04:39:02.207            14.379          7189.500
        20   03 Jun 2027 04:39:49.274   03 Jun 2027 04:40:09.362            20.088         10044.000
        21   03 Jun 2027 04:40:28.005   03 Jun 2027 04:40:43.328            15.323          7661.500
        22   03 Jun 2027 04:41:27.058   03 Jun 2027 04:41:42.532            15.474          7737.000
        23   03 Jun 2027 06:13:23.204   03 Jun 2027 06:15:47.314           144.110         72055.000
        24   03 Jun 2027 06:15:57.003   03 Jun 2027 06:16:07.270            10.267          5133.500
        25   03 Jun 2027 06:17:09.991   03 Jun 2027 06:17:17.694             7.703          3851.500
        26   03 Jun 2027 07:49:03.057   03 Jun 2027 07:51:47.070           164.013         82006.500
        27   03 Jun 2027 07:53:14.402   03 Jun 2027 07:53:26.859            12.457          6228.500
        28   03 Jun 2027 07:53:33.295   03 Jun 2027 07:53:44.673            11.378          5689.000
        29   04 Jun 2027 03:10:43.244   04 Jun 2027 03:15:58.504           315.260        157630.000
        30   04 Jun 2027 03:17:34.495   04 Jun 2027 03:18:16.862            42.367         21183.500
        31   04 Jun 2027 04:47:43.517   04 Jun 2027 04:49:49.453           125.936         62968.000
        32   04 Jun 2027 04:51:01.749   04 Jun 2027 04:52:03.527            61.778         30889.000
        33   04 Jun 2027 04:52:53.216   04 Jun 2027 04:53:16.096            22.880         11440.000
        34   04 Jun 2027 04:53:46.025   04 Jun 2027 04:53:48.446             2.421          1210.500
        35   04 Jun 2027 06:25:44.770   04 Jun 2027 06:28:29.268           164.498         82249.000
        36   04 Jun 2027 06:28:38.904   04 Jun 2027 06:29:04.090            25.186         12593.000
        37   04 Jun 2027 06:29:18.717   04 Jun 2027 06:29:23.563             4.846          2423.000
        38   04 Jun 2027 06:29:32.929   04 Jun 2027 06:29:41.046             8.117          4058.500
        39   04 Jun 2027 07:58:58.846   04 Jun 2027 08:00:40.391           101.545         50772.500
        40   04 Jun 2027 08:00:58.318   04 Jun 2027 08:01:08.510            10.192          5096.000
        41   04 Jun 2027 08:02:08.693   04 Jun 2027 08:02:27.522            18.829          9414.500
        42   04 Jun 2027 08:03:15.691   04 Jun 2027 08:03:17.974             2.283          1141.500
        43   04 Jun 2027 08:04:02.161   04 Jun 2027 08:04:16.706            14.545          7272.500
        44   04 Jun 2027 08:04:21.240   04 Jun 2027 08:04:21.434             0.194            97.000
        45   04 Jun 2027 08:04:53.347   04 Jun 2027 08:05:01.671             8.324          4162.000
        46   04 Jun 2027 08:05:26.062   04 Jun 2027 08:05:28.519             2.457          1228.500
        47   04 Jun 2027 08:05:44.850   04 Jun 2027 08:05:56.606            11.756          5878.000
        48   04 Jun 2027 08:06:22.556   04 Jun 2027 08:06:30.648             8.092          4046.000
        49   05 Jun 2027 03:22:51.593   05 Jun 2027 03:27:02.667           251.074        125537.000
        50   05 Jun 2027 03:27:59.144   05 Jun 2027 03:28:17.191            18.047          9023.500
        51   05 Jun 2027 03:29:18.912   05 Jun 2027 03:30:17.587            58.675         29337.500
        52   05 Jun 2027 04:59:48.963   05 Jun 2027 05:02:22.306           153.343         76671.500
        53   05 Jun 2027 05:03:16.312   05 Jun 2027 05:03:26.980            10.668          5334.000
        54   05 Jun 2027 05:03:42.839   05 Jun 2027 05:03:49.621             6.782          3391.000
        55   05 Jun 2027 05:04:50.527   05 Jun 2027 05:05:06.159            15.632          7816.000
        56   05 Jun 2027 05:05:48.097   05 Jun 2027 05:05:54.968             6.871          3435.500
        57   05 Jun 2027 06:37:41.949   05 Jun 2027 06:40:19.941           157.992         78996.000
        58   05 Jun 2027 06:40:32.731   05 Jun 2027 06:40:58.018            25.287         12643.500
        59   05 Jun 2027 08:11:10.117   05 Jun 2027 08:11:52.610            42.493         21246.500
        60   05 Jun 2027 08:12:21.574   05 Jun 2027 08:12:32.855            11.281          5640.500
        61   05 Jun 2027 08:13:18.955   05 Jun 2027 08:13:25.019             6.064          3032.000
        62   05 Jun 2027 08:13:47.024   05 Jun 2027 08:13:51.370             4.346          2173.000
        63   05 Jun 2027 08:15:23.505   05 Jun 2027 08:16:08.490            44.985         22492.500
        64   05 Jun 2027 08:17:36.736   05 Jun 2027 08:17:43.249             6.513          3256.500
        65   05 Jun 2027 08:18:34.182   05 Jun 2027 08:18:48.494            14.312          7156.000
        66   06 Jun 2027 03:34:53.061   06 Jun 2027 03:40:00.510           307.449        153724.500
        67   06 Jun 2027 03:40:19.834   06 Jun 2027 03:40:41.790            21.956         10978.000
        68   06 Jun 2027 03:40:56.718   06 Jun 2027 03:41:14.702            17.984          8992.000
        69   06 Jun 2027 03:41:23.278   06 Jun 2027 03:42:00.053            36.775         18387.500
        70   06 Jun 2027 03:42:18.582   06 Jun 2027 03:42:19.422             0.840           420.000
        71   06 Jun 2027 05:11:41.199   06 Jun 2027 05:14:47.337           186.138         93069.000
        72   06 Jun 2027 05:15:00.499   06 Jun 2027 05:15:01.780             1.281           640.500
        73   06 Jun 2027 05:17:55.663   06 Jun 2027 05:18:23.832            28.169         14084.500
        74   06 Jun 2027 06:49:43.574   06 Jun 2027 06:52:26.411           162.837         81418.500
        75   06 Jun 2027 06:52:36.684   06 Jun 2027 06:52:39.992             3.308          1654.000
        76   06 Jun 2027 06:52:52.992   06 Jun 2027 06:52:55.884             2.892          1446.000
        77   06 Jun 2027 06:53:50.602   06 Jun 2027 06:53:52.748             2.146          1073.000
        78   06 Jun 2027 08:23:35.514   06 Jun 2027 08:23:52.680            17.166          8583.000
        79   06 Jun 2027 08:24:50.805   06 Jun 2027 08:25:06.534            15.729          7864.500
        80   06 Jun 2027 08:25:20.201   06 Jun 2027 08:25:34.603            14.402          7201.000
        81   06 Jun 2027 08:27:03.286   06 Jun 2027 08:27:15.636            12.350          6175.000
        82   06 Jun 2027 08:27:29.696   06 Jun 2027 08:27:29.696             0.000             0.000
        83   06 Jun 2027 08:27:39.765   06 Jun 2027 08:27:50.123            10.358          5179.000
        84   06 Jun 2027 08:28:21.721   06 Jun 2027 08:28:31.547             9.826          4913.000
        85   06 Jun 2027 08:29:28.634   06 Jun 2027 08:29:37.878             9.244          4622.000
        86   07 Jun 2027 03:46:56.340   07 Jun 2027 03:53:42.118           405.778        202889.000
        87   07 Jun 2027 05:23:51.211   07 Jun 2027 05:27:00.209           188.998         94499.000
        88   07 Jun 2027 05:27:47.861   07 Jun 2027 05:27:50.194             2.333          1166.500
        89   07 Jun 2027 05:27:59.766   07 Jun 2027 05:28:06.871             7.105          3552.500
        90   07 Jun 2027 05:28:14.817   07 Jun 2027 05:28:23.699             8.882          4441.000
        91   07 Jun 2027 05:29:52.430   07 Jun 2027 05:29:54.012             1.582           791.000
        92   07 Jun 2027 05:30:10.200   07 Jun 2027 05:30:12.120             1.920           960.000
        93   07 Jun 2027 07:00:57.163   07 Jun 2027 07:03:31.334           154.171         77085.500
        94   07 Jun 2027 07:03:51.728   07 Jun 2027 07:03:55.898             4.170          2085.000
        95   07 Jun 2027 07:04:14.513   07 Jun 2027 07:04:26.741            12.228          6114.000
        96   07 Jun 2027 07:05:17.037   07 Jun 2027 07:05:21.549             4.512          2256.000
        97   07 Jun 2027 08:35:57.520   07 Jun 2027 08:36:14.910            17.390          8695.000
        98   07 Jun 2027 08:36:41.843   07 Jun 2027 08:36:42.526             0.683           341.500
        99   07 Jun 2027 08:37:38.686   07 Jun 2027 08:37:54.888            16.202          8101.000
       100   07 Jun 2027 08:39:01.987   07 Jun 2027 08:39:17.205            15.218          7609.000
       101   07 Jun 2027 08:39:50.287   07 Jun 2027 08:40:05.142            14.855          7427.500
       102   08 Jun 2027 03:59:22.061   08 Jun 2027 04:06:07.312           405.251        202625.500
       103   08 Jun 2027 05:36:18.539   08 Jun 2027 05:39:31.097           192.558         96279.000
       104   08 Jun 2027 05:41:45.962   08 Jun 2027 05:42:05.600            19.638          9819.000
       105   08 Jun 2027 07:13:09.267   08 Jun 2027 07:15:39.831           150.564         75282.000
       106   08 Jun 2027 07:15:53.976   08 Jun 2027 07:15:58.490             4.514          2257.000
       107   08 Jun 2027 07:16:21.088   08 Jun 2027 07:16:25.834             4.746          2373.000
       108   08 Jun 2027 07:16:36.935   08 Jun 2027 07:16:39.825             2.890          1445.000
       109   08 Jun 2027 07:16:43.164   08 Jun 2027 07:16:52.934             9.770          4885.000
       110   08 Jun 2027 08:50:45.617   08 Jun 2027 08:51:11.797            26.180         13090.000
       111   08 Jun 2027 08:51:43.776   08 Jun 2027 08:51:50.074             6.298          3149.000
       112   08 Jun 2027 08:52:18.480   08 Jun 2027 08:52:28.721            10.241          5120.500
       113   09 Jun 2027 04:11:28.371   09 Jun 2027 04:17:42.599           374.228        187114.000
       114   09 Jun 2027 04:17:44.426   09 Jun 2027 04:18:04.100            19.674          9837.000
       115   09 Jun 2027 05:49:08.916   09 Jun 2027 05:52:16.157           187.241         93620.500
       116   09 Jun 2027 05:52:36.325   09 Jun 2027 05:52:48.285            11.960          5980.000
       117   09 Jun 2027 05:53:12.591   09 Jun 2027 05:53:37.008            24.417         12208.500
       118   09 Jun 2027 07:25:11.769   09 Jun 2027 07:27:41.799           150.030         75015.000
       119   09 Jun 2027 07:28:26.255   09 Jun 2027 07:28:39.976            13.721          6860.500
       120   09 Jun 2027 07:28:57.370   09 Jun 2027 07:28:58.675             1.305           652.500
       121   09 Jun 2027 07:29:45.897   09 Jun 2027 07:29:53.533             7.636          3818.000
       122   10 Jun 2027 04:24:04.431   10 Jun 2027 04:30:17.898           373.467        186733.500
       123   10 Jun 2027 06:01:21.012   10 Jun 2027 06:03:32.610           131.598         65799.000
       124   10 Jun 2027 06:05:15.175   10 Jun 2027 06:05:57.808            42.633         21316.500
       125   10 Jun 2027 07:37:34.472   10 Jun 2027 07:40:04.175           149.703         74851.500
       126   10 Jun 2027 07:40:55.730   10 Jun 2027 07:41:17.223            21.493         10746.500
       127   11 Jun 2027 03:00:00.000   11 Jun 2027 03:04:15.165           255.165        127582.500
       128   11 Jun 2027 03:04:26.789   11 Jun 2027 03:04:26.789             0.000             0.000
       129   11 Jun 2027 03:04:33.065   11 Jun 2027 03:04:44.627            11.562          5781.000
       130   11 Jun 2027 03:05:20.923   11 Jun 2027 03:05:26.517             5.594          2797.000
       131   11 Jun 2027 03:05:49.306   11 Jun 2027 03:05:56.257             6.951          3475.500
       132   11 Jun 2027 04:35:36.734   11 Jun 2027 04:38:51.748           195.014         97507.000
       133   11 Jun 2027 04:40:28.066   11 Jun 2027 04:41:01.303            33.237         16618.500
       134   11 Jun 2027 04:42:00.696   11 Jun 2027 04:42:03.970             3.274          1637.000
       135   11 Jun 2027 06:13:48.177   11 Jun 2027 06:15:58.764           130.587         65293.500
       136   11 Jun 2027 06:16:05.089   11 Jun 2027 06:17:08.721            63.632         31816.000
       137   11 Jun 2027 06:17:23.917   11 Jun 2027 06:17:24.843             0.926           463.000
       138   11 Jun 2027 07:49:17.587   11 Jun 2027 07:51:26.459           128.872         64436.000
       139   11 Jun 2027 07:52:45.115   11 Jun 2027 07:52:59.428            14.313          7156.500
       140   11 Jun 2027 07:53:11.455   11 Jun 2027 07:53:28.647            17.192          8596.000
       141   11 Jun 2027 07:54:37.422   11 Jun 2027 07:54:44.956             7.534          3767.000
       142   12 Jun 2027 03:10:57.810   12 Jun 2027 03:15:15.391           257.581        128790.500
       143   12 Jun 2027 03:16:29.548   12 Jun 2027 03:16:33.958             4.410          2205.000
       144   12 Jun 2027 03:17:49.111   12 Jun 2027 03:18:31.640            42.529         21264.500
       145   12 Jun 2027 04:47:58.500   12 Jun 2027 04:49:56.087           117.587         58793.500
       146   12 Jun 2027 04:50:04.402   12 Jun 2027 04:50:56.627            52.225         26112.500
       147   12 Jun 2027 04:51:44.288   12 Jun 2027 04:51:51.410             7.122          3561.000
       148   12 Jun 2027 04:51:57.500   12 Jun 2027 04:51:57.500             0.000             0.000
       149   12 Jun 2027 04:52:18.250   12 Jun 2027 04:52:28.554            10.304          5152.000
       150   12 Jun 2027 04:52:54.744   12 Jun 2027 04:53:08.805            14.061          7030.500
       151   12 Jun 2027 04:53:30.606   12 Jun 2027 04:53:36.357             5.751          2875.500
       152   12 Jun 2027 06:25:59.235   12 Jun 2027 06:28:43.365           164.130         82065.000
       153   12 Jun 2027 06:29:34.370   12 Jun 2027 06:29:46.834            12.464          6232.000
       154   12 Jun 2027 07:59:13.118   12 Jun 2027 08:00:31.680            78.562         39281.000
       155   12 Jun 2027 08:01:16.442   12 Jun 2027 08:01:23.909             7.467          3733.500
       156   12 Jun 2027 08:02:23.243   12 Jun 2027 08:02:42.517            19.274          9637.000
       157   12 Jun 2027 08:03:27.660   12 Jun 2027 08:03:33.017             5.357          2678.500
       158   12 Jun 2027 08:04:05.545   12 Jun 2027 08:04:17.448            11.903          5951.500
       159   12 Jun 2027 08:04:49.829   12 Jun 2027 08:04:57.092             7.263          3631.500
       160   12 Jun 2027 08:05:27.419   12 Jun 2027 08:05:34.747             7.328          3664.000
       161   12 Jun 2027 08:05:34.769   12 Jun 2027 08:05:40.081             5.312          2656.000
       162   12 Jun 2027 08:06:44.564   12 Jun 2027 08:07:02.269            17.705          8852.500
       163   13 Jun 2027 03:23:06.553   13 Jun 2027 03:27:17.414           250.861        125430.500
       164   13 Jun 2027 03:28:15.541   13 Jun 2027 03:28:32.260            16.719          8359.500
       165   13 Jun 2027 03:29:33.444   13 Jun 2027 03:30:32.434            58.990         29495.000
       166   13 Jun 2027 05:00:03.939   13 Jun 2027 05:02:01.661           117.722         58861.000
       167   13 Jun 2027 05:03:49.260   13 Jun 2027 05:04:44.291            55.031         27515.500
       168   13 Jun 2027 05:05:04.371   13 Jun 2027 05:05:13.584             9.213          4606.500
       169   13 Jun 2027 05:05:20.678   13 Jun 2027 05:05:25.372             4.694          2347.000
       170   13 Jun 2027 05:05:42.883   13 Jun 2027 05:06:05.117            22.234         11117.000
       171   13 Jun 2027 06:37:56.822   13 Jun 2027 06:40:47.792           170.970         85485.000
       172   13 Jun 2027 06:41:12.263   13 Jun 2027 06:41:34.981            22.718         11359.000
       173   13 Jun 2027 08:11:25.588   13 Jun 2027 08:12:14.074            48.486         24243.000
       174   13 Jun 2027 08:12:36.236   13 Jun 2027 08:12:47.406            11.170          5585.000
       175   13 Jun 2027 08:13:34.811   13 Jun 2027 08:13:34.811             0.000             0.000
       176   13 Jun 2027 08:13:47.540   13 Jun 2027 08:14:01.572            14.032          7016.000
       177   13 Jun 2027 08:15:41.937   13 Jun 2027 08:16:07.344            25.407         12703.500
       178   13 Jun 2027 08:16:46.381   13 Jun 2027 08:16:49.933             3.552          1776.000
       179   13 Jun 2027 08:17:21.924   13 Jun 2027 08:17:52.420            30.496         15248.000
