uniorb/output/strategy_1/Camera/Camera_KinoSat_111808.txt

KinoSat_111808
-------------------------
    Access    *     Start Time (UTCG)     *     Stop Time (UTCG)  *   Duration (s) *   Data (Mbytes)
         1   01 Jun 2027 04:13:57.685   01 Jun 2027 04:14:25.867            28.182         14091.000
         2   01 Jun 2027 04:14:29.882   01 Jun 2027 04:15:56.668            86.786         43393.000
         3   01 Jun 2027 04:16:22.093   01 Jun 2027 04:16:28.153             6.060          3030.000
         4   01 Jun 2027 04:16:31.538   01 Jun 2027 04:16:43.470            11.932          5966.000
         5   01 Jun 2027 04:17:09.703   01 Jun 2027 04:17:24.485            14.782          7391.000
         6   01 Jun 2027 04:19:40.921   01 Jun 2027 04:19:46.389             5.468          2734.000
         7   01 Jun 2027 05:51:58.351   01 Jun 2027 05:53:58.534           120.183         60091.500
         8   01 Jun 2027 05:56:10.226   01 Jun 2027 05:56:16.060             5.834          2917.000
         9   01 Jun 2027 07:15:39.204   01 Jun 2027 07:17:41.779           122.575         61287.500
        10   01 Jun 2027 07:18:02.507   01 Jun 2027 07:18:02.507             0.000             0.000
        11   01 Jun 2027 08:52:03.266   01 Jun 2027 08:53:54.050           110.784         55392.000
        12   01 Jun 2027 10:24:15.457   01 Jun 2027 10:24:24.761             9.304          4652.000
        13   01 Jun 2027 10:26:10.226   01 Jun 2027 10:27:56.304           106.078         53039.000
        14   01 Jun 2027 10:32:53.153   01 Jun 2027 10:33:01.277             8.124          4062.000
        15   01 Jun 2027 10:33:03.666   01 Jun 2027 10:33:18.807            15.141          7570.500
        16   01 Jun 2027 10:34:02.634   01 Jun 2027 10:34:05.562             2.928          1464.000
        17   02 Jun 2027 04:26:03.754   02 Jun 2027 04:26:33.567            29.813         14906.500
        18   02 Jun 2027 04:27:35.800   02 Jun 2027 04:28:56.839            81.039         40519.500
        19   02 Jun 2027 04:29:37.168   02 Jun 2027 04:30:02.583            25.415         12707.500
        20   02 Jun 2027 06:05:12.148   02 Jun 2027 06:07:02.018           109.870         54935.000
        21   02 Jun 2027 06:07:59.812   02 Jun 2027 06:08:03.276             3.464          1732.000
        22   02 Jun 2027 07:27:44.666   02 Jun 2027 07:30:00.490           135.824         67912.000
        23   02 Jun 2027 09:04:13.832   02 Jun 2027 09:04:35.487            21.655         10827.500
        24   02 Jun 2027 09:05:11.241   02 Jun 2027 09:06:14.203            62.962         31481.000
        25   02 Jun 2027 10:39:21.325   02 Jun 2027 10:40:27.280            65.955         32977.500
        26   02 Jun 2027 10:40:36.496   02 Jun 2027 10:42:06.320            89.824         44912.000
        27   02 Jun 2027 10:44:11.290   02 Jun 2027 10:44:16.981             5.691          2845.500
        28   02 Jun 2027 10:45:25.384   02 Jun 2027 10:45:34.511             9.127          4563.500
        29   02 Jun 2027 10:45:57.225   02 Jun 2027 10:46:06.027             8.802          4401.000
        30   03 Jun 2027 03:01:27.965   03 Jun 2027 03:01:44.963            16.998          8499.000
        31   03 Jun 2027 03:02:09.022   03 Jun 2027 03:02:14.920             5.898          2949.000
        32   03 Jun 2027 03:02:48.311   03 Jun 2027 03:03:04.625            16.314          8157.000
        33   03 Jun 2027 03:04:14.008   03 Jun 2027 03:04:20.172             6.164          3082.000
        34   03 Jun 2027 03:05:12.404   03 Jun 2027 03:05:26.980            14.576          7288.000
        35   03 Jun 2027 03:06:18.171   03 Jun 2027 03:06:23.990             5.819          2909.500
        36   03 Jun 2027 04:38:07.970   03 Jun 2027 04:38:49.352            41.382         20691.000
        37   03 Jun 2027 04:39:11.908   03 Jun 2027 04:39:39.323            27.415         13707.500
        38   03 Jun 2027 04:39:52.386   03 Jun 2027 04:40:07.143            14.757          7378.500
        39   03 Jun 2027 04:41:42.532   03 Jun 2027 04:41:51.092             8.560          4280.000
        40   03 Jun 2027 04:42:10.355   03 Jun 2027 04:42:12.941             2.586          1293.000
        41   03 Jun 2027 04:43:02.511   03 Jun 2027 04:43:21.313            18.802          9401.000
        42   03 Jun 2027 04:44:14.600   03 Jun 2027 04:44:15.745             1.145           572.500
        43   03 Jun 2027 06:16:21.139   03 Jun 2027 06:16:57.654            36.515         18257.500
        44   03 Jun 2027 06:17:15.558   03 Jun 2027 06:17:38.081            22.523         11261.500
        45   03 Jun 2027 06:19:00.055   03 Jun 2027 06:19:03.625             3.570          1785.000
        46   03 Jun 2027 06:19:15.823   03 Jun 2027 06:19:34.035            18.212          9106.000
        47   03 Jun 2027 07:39:48.307   03 Jun 2027 07:41:37.737           109.430         54715.000
        48   03 Jun 2027 09:16:17.206   03 Jun 2027 09:17:36.719            79.513         39756.500
        49   03 Jun 2027 09:18:48.400   03 Jun 2027 09:19:21.005            32.605         16302.500
        50   03 Jun 2027 10:51:28.690   03 Jun 2027 10:52:52.632            83.942         41971.000
        51   03 Jun 2027 10:57:49.852   03 Jun 2027 10:58:04.899            15.047          7523.500
        52   04 Jun 2027 03:11:55.069   04 Jun 2027 03:12:01.300             6.231          3115.500
        53   04 Jun 2027 03:12:12.355   04 Jun 2027 03:13:18.665            66.310         33155.000
        54   04 Jun 2027 03:13:26.521   04 Jun 2027 03:13:34.692             8.171          4085.500
        55   04 Jun 2027 03:17:07.915   04 Jun 2027 03:17:19.908            11.993          5996.500
        56   04 Jun 2027 03:17:32.614   04 Jun 2027 03:17:32.614             0.000             0.000
        57   04 Jun 2027 03:18:52.271   04 Jun 2027 03:18:56.099             3.828          1914.000
        58   04 Jun 2027 04:51:12.658   04 Jun 2027 04:52:10.490            57.832         28916.000
        59   04 Jun 2027 04:52:13.791   04 Jun 2027 04:52:16.088             2.297          1148.500
        60   04 Jun 2027 04:52:39.098   04 Jun 2027 04:52:53.216            14.118          7059.000
        61   04 Jun 2027 04:53:16.096   04 Jun 2027 04:53:20.195             4.099          2049.500
        62   04 Jun 2027 04:56:06.569   04 Jun 2027 04:56:21.826            15.257          7628.500
        63   04 Jun 2027 04:58:47.082   04 Jun 2027 04:59:00.032            12.950          6475.000
        64   04 Jun 2027 06:17:26.662   04 Jun 2027 06:17:46.672            20.010         10005.000
        65   04 Jun 2027 06:28:16.998   04 Jun 2027 06:29:16.886            59.888         29944.000
        66   04 Jun 2027 06:29:32.632   04 Jun 2027 06:29:32.929             0.297           148.500
        67   04 Jun 2027 06:29:56.971   04 Jun 2027 06:29:57.649             0.678           339.000
        68   04 Jun 2027 06:31:05.454   04 Jun 2027 06:31:13.762             8.308          4154.000
        69   04 Jun 2027 07:52:15.260   04 Jun 2027 07:53:37.328            82.068         41028.876
        70   04 Jun 2027 09:30:05.465   04 Jun 2027 09:30:35.134            29.669         12700.594
        71   04 Jun 2027 09:30:40.467   04 Jun 2027 09:30:43.047             2.580           166.656
        72   04 Jun 2027 11:03:24.706   04 Jun 2027 11:03:39.188            14.482          7241.000
        73   04 Jun 2027 11:03:50.903   04 Jun 2027 11:03:55.523             4.620          1580.750
        74   04 Jun 2027 11:04:27.894   04 Jun 2027 11:04:28.258             0.364           124.156
        75   04 Jun 2027 11:04:43.402   04 Jun 2027 11:04:58.075            14.673           187.656
        76   04 Jun 2027 11:06:04.605   04 Jun 2027 11:06:08.791             4.186          2052.250
        77   04 Jun 2027 11:06:17.598   04 Jun 2027 11:06:20.470             2.872           230.438
        78   04 Jun 2027 11:09:39.851   04 Jun 2027 11:09:54.072            14.221          6214.687
        79   04 Jun 2027 11:10:09.613   04 Jun 2027 11:10:10.754             1.141           481.687
        80   05 Jun 2027 03:24:35.416   05 Jun 2027 03:26:20.612           105.196         52598.000
        81   05 Jun 2027 03:29:28.449   05 Jun 2027 03:29:35.842             7.393          3696.500
        82   05 Jun 2027 03:30:41.981   05 Jun 2027 03:30:44.041             2.060          1030.000
        83   05 Jun 2027 05:03:34.475   05 Jun 2027 05:04:50.527            76.052         38026.000
        84   05 Jun 2027 05:05:54.968   05 Jun 2027 05:06:14.293            19.325          9662.500
        85   05 Jun 2027 05:07:23.050   05 Jun 2027 05:07:28.023             4.973          2486.500
        86   05 Jun 2027 05:08:22.576   05 Jun 2027 05:08:30.754             8.178          4089.000
        87   05 Jun 2027 05:09:00.192   05 Jun 2027 05:09:10.080             9.888          4944.000
        88   05 Jun 2027 05:09:21.798   05 Jun 2027 05:09:33.643            11.845          5922.500
        89   05 Jun 2027 05:10:24.358   05 Jun 2027 05:10:51.806            27.448         13724.000
        90   05 Jun 2027 06:28:41.643   05 Jun 2027 06:29:46.372            64.729         32364.500
        91   05 Jun 2027 06:40:18.120   05 Jun 2027 06:40:32.731            14.611          7305.500
        92   05 Jun 2027 06:40:58.018   05 Jun 2027 06:41:18.271            20.253         10126.500
        93   05 Jun 2027 08:02:52.430   05 Jun 2027 08:03:39.205            46.775         22961.844
        94   05 Jun 2027 08:03:48.936   05 Jun 2027 08:03:49.811             0.875           297.656
        95   05 Jun 2027 08:04:31.086   05 Jun 2027 08:04:32.640             1.554           489.625
        96   05 Jun 2027 08:07:29.147   05 Jun 2027 08:07:35.174             6.027          3013.500
        97   05 Jun 2027 09:38:58.240   05 Jun 2027 09:39:13.333            15.093          7454.781
        98   05 Jun 2027 09:42:41.583   05 Jun 2027 09:42:43.666             2.083          1041.500
        99   05 Jun 2027 09:44:13.936   05 Jun 2027 09:44:30.759            16.823          8247.469
       100   05 Jun 2027 11:14:50.904   05 Jun 2027 11:14:59.808             8.904          4452.000
       101   05 Jun 2027 11:17:52.515   05 Jun 2027 11:17:52.515             0.000             0.000
       102   05 Jun 2027 11:17:56.357   05 Jun 2027 11:18:06.678            10.321          5160.500
       103   05 Jun 2027 11:19:35.356   05 Jun 2027 11:19:46.500            11.144          4763.406
       104   05 Jun 2027 11:20:37.189   05 Jun 2027 11:20:44.269             7.080          1353.719
       105   05 Jun 2027 11:21:04.421   05 Jun 2027 11:21:09.233             4.812           419.031
       106   05 Jun 2027 11:21:29.884   05 Jun 2027 11:21:31.234             1.350           645.344
       107   05 Jun 2027 11:22:15.537   05 Jun 2027 11:22:15.935             0.398           199.000
       108   06 Jun 2027 03:36:51.507   06 Jun 2027 03:38:52.686           121.179         60589.500
       109   06 Jun 2027 03:40:11.397   06 Jun 2027 03:40:11.397             0.000             0.000
       110   06 Jun 2027 03:41:00.739   06 Jun 2027 03:41:10.105             9.366          4683.000
       111   06 Jun 2027 03:42:30.784   06 Jun 2027 03:42:38.972             8.188          4094.000
       112   06 Jun 2027 05:15:51.833   06 Jun 2027 05:17:17.946            86.113         43056.500
       113   06 Jun 2027 05:18:57.652   06 Jun 2027 05:19:10.719            13.067          6533.500
       114   06 Jun 2027 05:19:49.575   06 Jun 2027 05:20:14.997            25.422         12711.000
       115   06 Jun 2027 05:22:38.352   06 Jun 2027 05:22:51.346            12.994          6497.000
       116   06 Jun 2027 06:40:02.069   06 Jun 2027 06:40:51.326            49.257         24628.500
       117   06 Jun 2027 06:41:14.472   06 Jun 2027 06:41:55.118            40.646         19664.625
       118   06 Jun 2027 06:52:15.487   06 Jun 2027 06:52:36.684            21.197          9978.156
       119   06 Jun 2027 08:14:27.619   06 Jun 2027 08:14:56.929            29.310         10858.594
       120   06 Jun 2027 08:15:18.000   06 Jun 2027 08:15:18.000             0.000             0.000
       121   06 Jun 2027 08:15:29.488   06 Jun 2027 08:15:33.948             4.460           563.875
       122   06 Jun 2027 08:16:53.432   06 Jun 2027 08:16:53.432             0.000             0.000
       123   06 Jun 2027 08:17:22.342   06 Jun 2027 08:17:28.388             6.046          2799.594
       124   06 Jun 2027 08:17:53.390   06 Jun 2027 08:17:55.060             1.670           402.594
       125   06 Jun 2027 08:19:05.871   06 Jun 2027 08:19:05.871             0.000             0.000
       126   06 Jun 2027 09:49:21.001   06 Jun 2027 09:49:31.141            10.140          4224.344
       127   06 Jun 2027 09:50:39.919   06 Jun 2027 09:50:45.404             5.485          1270.031
       128   06 Jun 2027 09:50:48.746   06 Jun 2027 09:50:49.512             0.766           104.437
       129   06 Jun 2027 09:54:07.588   06 Jun 2027 09:54:20.525            12.937          5986.437
       130   06 Jun 2027 11:28:42.436   06 Jun 2027 11:29:05.654            23.218         10766.906
       131   06 Jun 2027 11:29:53.446   06 Jun 2027 11:29:57.730             4.284          1493.500
       132   06 Jun 2027 11:30:21.082   06 Jun 2027 11:30:23.705             2.623           724.719
       133   06 Jun 2027 11:33:06.692   06 Jun 2027 11:33:17.229            10.537          4703.937
       134   06 Jun 2027 11:33:31.189   06 Jun 2027 11:33:32.462             1.273           411.094
       135   06 Jun 2027 11:33:47.753   06 Jun 2027 11:33:51.182             3.429           328.219
       136   07 Jun 2027 03:49:10.758   07 Jun 2027 03:49:23.665            12.907          6453.500
       137   07 Jun 2027 03:49:38.188   07 Jun 2027 03:51:26.941           108.753         54376.500
       138   07 Jun 2027 03:51:47.948   07 Jun 2027 03:51:52.097             4.149          2074.500
       139   07 Jun 2027 03:52:52.924   07 Jun 2027 03:53:00.062             7.138          3569.000
       140   07 Jun 2027 03:54:44.262   07 Jun 2027 03:54:44.328             0.066            33.000
       141   07 Jun 2027 03:54:59.184   07 Jun 2027 03:55:06.626             7.442          3721.000
       142   07 Jun 2027 05:27:58.635   07 Jun 2027 05:29:30.694            92.059         46029.500
       143   07 Jun 2027 05:29:58.579   07 Jun 2027 05:30:10.200            11.621          5810.500
       144   07 Jun 2027 05:31:51.750   07 Jun 2027 05:31:54.173             2.423          1211.500
       145   07 Jun 2027 05:32:18.461   07 Jun 2027 05:32:56.481            38.020         19010.000
       146   07 Jun 2027 06:52:07.730   07 Jun 2027 06:53:16.100            68.370         34185.000
       147   07 Jun 2027 08:25:57.763   07 Jun 2027 08:26:34.338            36.575         18287.500
       148   07 Jun 2027 08:27:13.030   07 Jun 2027 08:27:13.030             0.000             0.000
       149   07 Jun 2027 08:27:55.372   07 Jun 2027 08:28:00.787             5.415          2707.500
       150   07 Jun 2027 08:28:14.829   07 Jun 2027 08:28:18.503             3.674          1374.782
       151   07 Jun 2027 08:29:00.952   07 Jun 2027 08:29:00.952             0.000             0.000
       152   07 Jun 2027 08:31:06.786   07 Jun 2027 08:31:20.231            13.445          4861.375
       153   07 Jun 2027 10:00:51.518   07 Jun 2027 10:00:53.642             2.124          1062.000
       154   07 Jun 2027 10:02:50.133   07 Jun 2027 10:03:04.708            14.575          6366.344
       155   07 Jun 2027 10:03:26.698   07 Jun 2027 10:03:27.897             1.199           481.938
       156   07 Jun 2027 10:06:33.437   07 Jun 2027 10:06:42.338             8.901          4450.500
       157   07 Jun 2027 10:07:58.047   07 Jun 2027 10:08:07.093             9.046          3613.531
       158   07 Jun 2027 11:38:54.151   07 Jun 2027 11:39:12.180            18.029          7102.156
       159   07 Jun 2027 11:41:46.331   07 Jun 2027 11:41:46.331             0.000             0.000
       160   07 Jun 2027 11:44:36.919   07 Jun 2027 11:44:56.925            20.006          9946.594
       161   07 Jun 2027 11:45:40.469   07 Jun 2027 11:45:43.788             3.319          1119.688
       162   08 Jun 2027 04:01:48.637   08 Jun 2027 04:01:55.109             6.472          3236.000
       163   08 Jun 2027 04:02:10.070   08 Jun 2027 04:03:06.367            56.297         28148.500
       164   08 Jun 2027 04:04:29.121   08 Jun 2027 04:05:36.533            67.412         33706.000
       165   08 Jun 2027 05:40:35.244   08 Jun 2027 05:42:19.240           103.996         51998.000
       166   08 Jun 2027 05:43:38.971   08 Jun 2027 05:43:54.291            15.320          7660.000
       167   08 Jun 2027 07:04:04.909   08 Jun 2027 07:05:39.825            94.916         47458.000
       168   08 Jun 2027 07:05:44.530   08 Jun 2027 07:05:57.871            13.341          6670.500
       169   08 Jun 2027 08:40:16.499   08 Jun 2027 08:40:42.505            26.006         13003.000
       170   08 Jun 2027 08:40:54.844   08 Jun 2027 08:40:57.863             3.019           806.781
       171   08 Jun 2027 10:13:49.882   08 Jun 2027 10:14:04.910            15.028          6618.094
       172   08 Jun 2027 10:15:41.370   08 Jun 2027 10:15:41.370             0.000             0.000
       173   08 Jun 2027 10:16:06.681   08 Jun 2027 10:16:11.646             4.965          2362.031
       174   08 Jun 2027 10:17:05.559   08 Jun 2027 10:17:11.139             5.580          1684.781
       175   08 Jun 2027 10:18:02.847   08 Jun 2027 10:18:05.122             2.275           221.813
       176   08 Jun 2027 10:18:22.127   08 Jun 2027 10:18:24.970             2.843           262.781
       177   08 Jun 2027 10:21:29.250   08 Jun 2027 10:21:41.778            12.528          5758.750
       178   08 Jun 2027 10:21:58.305   08 Jun 2027 10:22:01.100             2.795           421.969
       179   08 Jun 2027 10:22:23.835   08 Jun 2027 10:22:24.503             0.668           334.000
       180   08 Jun 2027 11:51:16.568   08 Jun 2027 11:51:32.096            15.528          7764.000
       181   08 Jun 2027 11:52:04.377   08 Jun 2027 11:52:08.225             3.848          1166.594
       182   08 Jun 2027 11:53:26.805   08 Jun 2027 11:53:29.985             3.180          1590.000
       183   08 Jun 2027 11:55:38.472   08 Jun 2027 11:55:46.556             8.084          4042.000
       184   08 Jun 2027 11:55:48.907   08 Jun 2027 11:55:53.998             5.091           619.875
       185   08 Jun 2027 11:57:30.541   08 Jun 2027 11:57:35.557             5.016          2294.156
       186   09 Jun 2027 04:14:14.302   09 Jun 2027 04:14:20.277             5.975          2987.500
       187   09 Jun 2027 04:15:08.648   09 Jun 2027 04:16:11.102            62.454         31227.000
       188   09 Jun 2027 04:18:10.875   09 Jun 2027 04:19:03.227            52.352         26176.000
       189   09 Jun 2027 04:19:38.002   09 Jun 2027 04:19:50.780            12.778          6389.000
       190   09 Jun 2027 05:52:15.876   09 Jun 2027 05:54:13.043           117.167         58583.500
       191   09 Jun 2027 07:15:55.726   09 Jun 2027 07:17:37.792           102.066         51033.000
       192   09 Jun 2027 07:18:18.674   09 Jun 2027 07:18:18.674             0.000             0.000
       193   09 Jun 2027 08:52:23.495   09 Jun 2027 08:52:45.759            22.264         11132.000
       194   09 Jun 2027 08:53:08.335   09 Jun 2027 08:53:16.235             7.900          3358.844
       195   09 Jun 2027 08:53:54.366   09 Jun 2027 08:53:56.340             1.974           701.250
       196   09 Jun 2027 08:54:52.814   09 Jun 2027 08:54:58.568             5.754          1405.844
       197   09 Jun 2027 10:24:32.693   09 Jun 2027 10:24:41.500             8.807          4403.500
       198   09 Jun 2027 10:26:51.556   09 Jun 2027 10:27:04.171            12.615          5145.187
       199   09 Jun 2027 10:28:19.899   09 Jun 2027 10:28:25.139             5.240           853.531
       200   09 Jun 2027 10:31:33.845   09 Jun 2027 10:31:33.845             0.000             0.000
       201   09 Jun 2027 10:33:13.020   09 Jun 2027 10:33:18.567             5.547          2773.500
       202   09 Jun 2027 10:33:20.769   09 Jun 2027 10:33:35.998            15.229          6222.781
       203   09 Jun 2027 10:34:09.935   09 Jun 2027 10:34:09.935             0.000             0.000
       204   09 Jun 2027 10:34:19.666   09 Jun 2027 10:34:22.351             2.685          1300.156
       205   10 Jun 2027 04:26:21.110   10 Jun 2027 04:27:23.445            62.335         31167.500
       206   10 Jun 2027 04:27:30.480   10 Jun 2027 04:28:16.907            46.427         23213.500
       207   10 Jun 2027 04:29:55.290   10 Jun 2027 04:30:18.061            22.771         11385.500
       208   10 Jun 2027 04:32:31.140   10 Jun 2027 04:32:36.142             5.002          2501.000
       209   10 Jun 2027 06:05:29.332   10 Jun 2027 06:07:09.216            99.884         49942.000
       210   10 Jun 2027 06:07:35.789   10 Jun 2027 06:07:58.619            22.830         11415.000
       211   10 Jun 2027 07:28:03.354   10 Jun 2027 07:29:42.878            99.524         49759.969
       212   10 Jun 2027 07:30:40.686   10 Jun 2027 07:30:40.686             0.000             0.000
       213   10 Jun 2027 07:30:43.155   10 Jun 2027 07:30:44.229             1.074           537.000
       214   10 Jun 2027 09:04:31.458   10 Jun 2027 09:04:47.089            15.631          6607.281
       215   10 Jun 2027 09:05:31.062   10 Jun 2027 09:05:31.062             0.000             0.000
       216   10 Jun 2027 09:07:07.031   10 Jun 2027 09:07:21.326            14.295          4213.031
       217   10 Jun 2027 10:39:42.051   10 Jun 2027 10:40:02.098            20.047          8496.687
       218   10 Jun 2027 10:40:56.957   10 Jun 2027 10:41:05.383             8.426          1463.594
       219   10 Jun 2027 10:42:00.960   10 Jun 2027 10:42:03.799             2.839            49.500
       220   10 Jun 2027 10:42:22.605   10 Jun 2027 10:42:27.392             4.787           403.844
       221   10 Jun 2027 10:45:45.002   10 Jun 2027 10:45:45.002             0.000             0.000
       222   10 Jun 2027 10:45:54.059   10 Jun 2027 10:46:05.183            11.124          5562.000
       223   11 Jun 2027 03:00:13.438   11 Jun 2027 03:00:20.157             6.719          3359.500
       224   11 Jun 2027 03:00:40.390   11 Jun 2027 03:00:57.973            17.583          8791.500
       225   11 Jun 2027 03:01:30.104   11 Jun 2027 03:01:30.104             0.000             0.000
       226   11 Jun 2027 03:01:48.480   11 Jun 2027 03:01:55.098             6.618          3309.000
       227   11 Jun 2027 03:04:42.660   11 Jun 2027 03:04:49.098             6.438          3219.000
       228   11 Jun 2027 03:05:41.606   11 Jun 2027 03:05:49.306             7.700          3850.000
       229   11 Jun 2027 03:05:56.257   11 Jun 2027 03:06:06.287            10.030          5015.000
       230   11 Jun 2027 03:06:56.902   11 Jun 2027 03:07:03.143             6.241          3120.500
       231   11 Jun 2027 04:38:26.097   11 Jun 2027 04:39:07.237            41.140         20570.000
       232   11 Jun 2027 04:39:29.164   11 Jun 2027 04:40:24.072            54.908         27454.000
       233   11 Jun 2027 04:41:11.098   11 Jun 2027 04:41:11.098             0.000             0.000
       234   11 Jun 2027 04:41:29.082   11 Jun 2027 04:41:41.193            12.111          6055.500
       235   11 Jun 2027 04:42:29.033   11 Jun 2027 04:42:40.457            11.424          5712.000
       236   11 Jun 2027 04:44:31.424   11 Jun 2027 04:44:33.333             1.909           954.500
       237   11 Jun 2027 06:16:38.353   11 Jun 2027 06:17:14.790            36.437         18218.500
       238   11 Jun 2027 06:17:43.404   11 Jun 2027 06:18:37.726            54.322         27161.000
       239   11 Jun 2027 06:19:21.483   11 Jun 2027 06:19:24.241             2.758          1379.000
       240   11 Jun 2027 06:20:00.703   11 Jun 2027 06:20:00.703             0.000             0.000
       241   11 Jun 2027 07:40:05.378   11 Jun 2027 07:41:23.897            78.519         39259.500
       242   11 Jun 2027 07:41:31.224   11 Jun 2027 07:41:31.224             0.000             0.000
       243   11 Jun 2027 07:42:41.348   11 Jun 2027 07:42:52.154            10.806          5403.000
       244   11 Jun 2027 09:16:33.565   11 Jun 2027 09:16:45.750            12.185          6092.500
       245   11 Jun 2027 09:19:05.934   11 Jun 2027 09:19:24.053            18.119          7489.125
       246   11 Jun 2027 09:19:55.273   11 Jun 2027 09:19:59.181             3.908           501.969
       247   11 Jun 2027 10:51:57.669   11 Jun 2027 10:52:16.323            18.654          7302.063
       248   11 Jun 2027 10:54:43.673   11 Jun 2027 10:54:43.673             0.000             0.000
       249   11 Jun 2027 10:58:06.546   11 Jun 2027 10:58:22.437            15.891          7945.500
       250   12 Jun 2027 03:12:13.184   12 Jun 2027 03:13:44.966            91.782         45891.000
       251   12 Jun 2027 03:14:21.986   12 Jun 2027 03:14:23.673             1.687           843.500
       252   12 Jun 2027 03:17:34.518   12 Jun 2027 03:17:39.969             5.451          2725.500
       253   12 Jun 2027 03:17:48.105   12 Jun 2027 03:17:59.220            11.115          5557.500
       254   12 Jun 2027 03:18:17.689   12 Jun 2027 03:18:33.843            16.154          8077.000
       255   12 Jun 2027 03:18:42.670   12 Jun 2027 03:18:43.726             1.056           528.000
       256   12 Jun 2027 04:51:30.619   12 Jun 2027 04:52:33.921            63.302         31651.000
       257   12 Jun 2027 04:52:53.819   12 Jun 2027 04:52:54.744             0.925           462.500
       258   12 Jun 2027 04:53:36.357   12 Jun 2027 04:53:42.151             5.794          2897.000
       259   12 Jun 2027 04:53:52.464   12 Jun 2027 04:53:52.464             0.000             0.000
       260   12 Jun 2027 04:55:18.730   12 Jun 2027 04:55:26.439             7.709          3854.500
       261   12 Jun 2027 04:55:39.660   12 Jun 2027 04:55:40.309             0.649           324.500
       262   12 Jun 2027 04:56:23.324   12 Jun 2027 04:56:39.705            16.381          8190.500
       263   12 Jun 2027 04:58:11.905   12 Jun 2027 04:59:03.252            51.347         25673.500
       264   12 Jun 2027 06:17:40.786   12 Jun 2027 06:18:05.961            25.175         12587.500
       265   12 Jun 2027 06:28:34.126   12 Jun 2027 06:29:18.966            44.840         22420.000
       266   12 Jun 2027 06:31:12.194   12 Jun 2027 06:31:20.172             7.978          3989.000
       267   12 Jun 2027 07:52:32.150   12 Jun 2027 07:53:16.482            44.332         21871.438
       268   12 Jun 2027 07:55:21.046   12 Jun 2027 07:55:22.519             1.473           736.500
       269   12 Jun 2027 09:28:16.937   12 Jun 2027 09:28:27.421            10.484          5242.000
       270   12 Jun 2027 09:30:12.313   12 Jun 2027 09:30:23.205            10.892          3841.375
       271   12 Jun 2027 09:31:35.914   12 Jun 2027 09:31:35.914             0.000             0.000
       272   12 Jun 2027 11:03:00.819   12 Jun 2027 11:03:10.515             9.696          4848.000
       273   12 Jun 2027 11:05:42.643   12 Jun 2027 11:05:58.563            15.920          7866.062
       274   12 Jun 2027 11:06:27.312   12 Jun 2027 11:06:30.187             2.875           898.406
       275   12 Jun 2027 11:09:56.283   12 Jun 2027 11:10:11.021            14.738          6440.500
       276   12 Jun 2027 11:10:25.150   12 Jun 2027 11:10:28.620             3.470           441.531
       277   13 Jun 2027 03:24:53.359   13 Jun 2027 03:26:52.592           119.233         59616.500
       278   13 Jun 2027 03:29:09.875   13 Jun 2027 03:29:14.489             4.614          2307.000
       279   13 Jun 2027 03:30:48.277   13 Jun 2027 03:30:53.558             5.281          2640.500
       280   13 Jun 2027 05:03:53.579   13 Jun 2027 05:04:47.939            54.360         27180.000
       281   13 Jun 2027 05:05:25.372   13 Jun 2027 05:05:42.883            17.511          8755.500
       282   13 Jun 2027 05:07:12.343   13 Jun 2027 05:07:14.997             2.654          1327.000
       283   13 Jun 2027 05:08:05.483   13 Jun 2027 05:08:24.990            19.507          9753.500
       284   13 Jun 2027 06:28:55.916   13 Jun 2027 06:30:21.136            85.220         42610.000
       285   13 Jun 2027 06:40:35.390   13 Jun 2027 06:41:12.263            36.873         18436.500
       286   13 Jun 2027 08:03:07.489   13 Jun 2027 08:03:50.751            43.262         21314.906
       287   13 Jun 2027 08:04:03.586   13 Jun 2027 08:04:05.680             2.094           222.625
       288   13 Jun 2027 08:06:28.026   13 Jun 2027 08:06:37.776             9.750          4340.156
       289   13 Jun 2027 08:07:46.130   13 Jun 2027 08:07:46.130             0.000             0.000
       290   13 Jun 2027 09:38:10.397   13 Jun 2027 09:38:15.264             4.867          2433.500
       291   13 Jun 2027 09:42:50.503   13 Jun 2027 09:43:01.004            10.501          5250.500
       292   13 Jun 2027 09:44:28.518   13 Jun 2027 09:44:43.784            15.266          7385.688
       293   13 Jun 2027 11:15:09.165   13 Jun 2027 11:15:14.528             5.363          2681.500
       294   13 Jun 2027 11:18:07.144   13 Jun 2027 11:18:07.144             0.000             0.000
       295   13 Jun 2027 11:18:17.325   13 Jun 2027 11:18:23.679             6.354          3177.000
       296   13 Jun 2027 11:21:42.180   13 Jun 2027 11:22:06.601            24.421         11532.781
       297   13 Jun 2027 11:22:12.939   13 Jun 2027 11:22:15.719             2.780           191.656
