uniorb/output/strategy_1/Camera/Camera_KinoSat_110910.txt

KinoSat_110910
-------------------------
    Access    *     Start Time (UTCG)     *     Stop Time (UTCG)  *   Duration (s) *   Data (Mbytes)
         1   01 Jun 2027 04:17:42.882   01 Jun 2027 04:18:53.979            71.097         35548.500
         2   01 Jun 2027 04:19:43.659   01 Jun 2027 04:20:10.865            27.206         13603.000
         3   01 Jun 2027 04:22:07.181   01 Jun 2027 04:22:07.181             0.000             0.000
         4   01 Jun 2027 04:22:16.414   01 Jun 2027 04:22:20.927             4.513          2256.500
         5   01 Jun 2027 04:22:43.954   01 Jun 2027 04:22:54.804            10.850          5425.000
         6   01 Jun 2027 05:52:47.587   01 Jun 2027 05:54:27.596           100.009         50004.500
         7   01 Jun 2027 05:54:55.793   01 Jun 2027 05:55:15.658            19.865          9932.500
         8   01 Jun 2027 05:56:28.503   01 Jun 2027 05:56:28.503             0.000             0.000
         9   01 Jun 2027 05:56:59.516   01 Jun 2027 05:57:38.171            38.655         19327.500
        10   01 Jun 2027 05:59:35.708   01 Jun 2027 05:59:37.124             1.416           708.000
        11   01 Jun 2027 06:00:42.180   01 Jun 2027 06:01:00.087            17.907          8953.500
        12   01 Jun 2027 07:30:07.526   01 Jun 2027 07:32:21.491           133.965         66982.500
        13   01 Jun 2027 07:33:20.169   01 Jun 2027 07:33:42.946            22.777         11388.500
        14   01 Jun 2027 07:36:26.853   01 Jun 2027 07:36:44.941            18.088          9044.000
        15   01 Jun 2027 09:06:57.502   01 Jun 2027 09:09:09.246           131.744         65872.000
        16   01 Jun 2027 09:09:52.551   01 Jun 2027 09:09:52.754             0.203           101.500
        17   01 Jun 2027 09:10:30.427   01 Jun 2027 09:10:48.560            18.133          9066.500
        18   01 Jun 2027 10:44:54.274   01 Jun 2027 10:46:54.471           120.197         60098.500
        19   01 Jun 2027 10:48:03.649   01 Jun 2027 10:48:15.040            11.391          5695.500
        20   02 Jun 2027 03:07:26.362   02 Jun 2027 03:08:04.060            37.698         18849.000
        21   02 Jun 2027 04:29:27.300   02 Jun 2027 04:30:14.760            47.460         23730.000
        22   02 Jun 2027 04:30:33.722   02 Jun 2027 04:30:33.722             0.000             0.000
        23   02 Jun 2027 04:31:29.801   02 Jun 2027 04:31:42.601            12.800          6400.000
        24   02 Jun 2027 04:33:48.777   02 Jun 2027 04:33:53.495             4.718          2359.000
        25   02 Jun 2027 06:04:15.785   02 Jun 2027 06:05:47.290            91.505         45752.500
        26   02 Jun 2027 06:06:32.467   02 Jun 2027 06:06:43.960            11.493          5746.500
        27   02 Jun 2027 06:07:31.475   02 Jun 2027 06:07:42.395            10.920          5460.000
        28   02 Jun 2027 06:08:59.427   02 Jun 2027 06:09:13.268            13.841          6920.500
        29   02 Jun 2027 06:10:26.260   02 Jun 2027 06:10:30.254             3.994          1997.000
        30   02 Jun 2027 06:11:08.923   02 Jun 2027 06:11:16.108             7.185          3592.500
        31   02 Jun 2027 06:13:08.086   02 Jun 2027 06:13:13.088             5.002          2501.000
        32   02 Jun 2027 07:42:04.193   02 Jun 2027 07:43:59.570           115.377         57688.500
        33   02 Jun 2027 07:44:28.009   02 Jun 2027 07:44:41.939            13.930          6965.000
        34   02 Jun 2027 07:45:07.818   02 Jun 2027 07:45:09.401             1.583           791.500
        35   02 Jun 2027 07:46:21.245   02 Jun 2027 07:46:30.649             9.404          4702.000
        36   02 Jun 2027 07:48:03.261   02 Jun 2027 07:48:07.754             4.493          2246.500
        37   02 Jun 2027 09:18:48.782   02 Jun 2027 09:21:17.303           148.521         74260.500
        38   02 Jun 2027 09:25:09.091   02 Jun 2027 09:25:16.198             7.107          3553.500
        39   02 Jun 2027 10:56:55.833   02 Jun 2027 10:58:46.423           110.590         55295.000
        40   02 Jun 2027 10:59:09.369   02 Jun 2027 10:59:11.461             2.092          1046.000
        41   02 Jun 2027 11:00:36.976   02 Jun 2027 11:00:46.628             9.652          4826.000
        42   03 Jun 2027 03:07:16.159   03 Jun 2027 03:07:30.638            14.479          7239.500
        43   03 Jun 2027 03:09:12.378   03 Jun 2027 03:09:19.484             7.106          3553.000
        44   03 Jun 2027 04:43:13.199   03 Jun 2027 04:44:46.464            93.265         46632.500
        45   03 Jun 2027 04:45:49.483   03 Jun 2027 04:45:49.483             0.000             0.000
        46   03 Jun 2027 04:45:56.754   03 Jun 2027 04:46:08.238            11.484          5742.000
        47   03 Jun 2027 04:46:16.237   03 Jun 2027 04:46:19.270             3.033          1516.500
        48   03 Jun 2027 04:46:45.553   03 Jun 2027 04:47:09.277            23.724         11862.000
        49   03 Jun 2027 06:17:03.953   03 Jun 2027 06:17:53.117            49.164         24582.000
        50   03 Jun 2027 06:18:04.470   03 Jun 2027 06:18:05.519             1.049           524.500
        51   03 Jun 2027 06:18:59.558   03 Jun 2027 06:19:06.155             6.597          3298.500
        52   03 Jun 2027 06:19:38.027   03 Jun 2027 06:19:43.621             5.594          2797.000
        53   03 Jun 2027 06:20:02.639   03 Jun 2027 06:20:11.154             8.515          4257.500
        54   03 Jun 2027 06:21:56.997   03 Jun 2027 06:22:08.406            11.409          5704.500
        55   03 Jun 2027 06:22:28.415   03 Jun 2027 06:22:31.694             3.279          1639.500
        56   03 Jun 2027 06:22:37.309   03 Jun 2027 06:22:45.617             8.308          4154.000
        57   03 Jun 2027 06:24:48.503   03 Jun 2027 06:24:59.557            11.054          5527.000
        58   03 Jun 2027 07:54:10.618   03 Jun 2027 07:55:53.332           102.714         51357.000
        59   03 Jun 2027 07:57:11.345   03 Jun 2027 07:57:30.004            18.659          9329.500
        60   03 Jun 2027 07:57:46.559   03 Jun 2027 07:57:49.763             3.204          1602.000
        61   03 Jun 2027 07:58:35.735   03 Jun 2027 07:58:58.435            22.700         11350.000
        62   03 Jun 2027 09:31:12.612   03 Jun 2027 09:33:11.922           119.310         59655.000
        63   03 Jun 2027 09:33:33.352   03 Jun 2027 09:33:40.335             6.983          3491.500
        64   03 Jun 2027 09:35:00.360   03 Jun 2027 09:35:02.671             2.311          1155.500
        65   03 Jun 2027 09:35:12.106   03 Jun 2027 09:35:21.449             9.343          4671.500
        66   03 Jun 2027 09:37:02.007   03 Jun 2027 09:37:03.702             1.695           847.500
        67   03 Jun 2027 11:08:09.807   03 Jun 2027 11:09:08.584            58.777         29206.189
        68   03 Jun 2027 11:09:49.072   03 Jun 2027 11:09:50.581             1.509           754.500
        69   03 Jun 2027 11:10:47.713   03 Jun 2027 11:10:52.445             4.732          2178.656
        70   03 Jun 2027 11:11:38.550   03 Jun 2027 11:11:42.462             3.912          1140.219
        71   03 Jun 2027 11:12:49.237   03 Jun 2027 11:12:52.898             3.661          1830.500
        72   04 Jun 2027 03:19:10.508   04 Jun 2027 03:19:19.755             9.247          4623.500
        73   04 Jun 2027 03:20:05.372   04 Jun 2027 03:20:20.227            14.855          7427.500
        74   04 Jun 2027 04:55:34.645   04 Jun 2027 04:57:31.725           117.080         58540.000
        75   04 Jun 2027 04:58:36.858   04 Jun 2027 04:58:36.858             0.000             0.000
        76   04 Jun 2027 06:29:02.361   04 Jun 2027 06:30:59.390           117.029         58514.500
        77   04 Jun 2027 06:31:37.800   04 Jun 2027 06:31:43.701             5.901          2950.500
        78   04 Jun 2027 06:32:08.975   04 Jun 2027 06:32:15.824             6.849          3424.500
        79   04 Jun 2027 06:36:20.007   04 Jun 2027 06:36:30.098            10.091          5045.500
        80   04 Jun 2027 06:37:30.685   04 Jun 2027 06:37:33.042             2.357          1178.500
        81   04 Jun 2027 08:06:36.331   04 Jun 2027 08:07:53.133            76.802         37419.312
        82   04 Jun 2027 08:09:32.711   04 Jun 2027 08:09:39.799             7.088          3069.063
        83   04 Jun 2027 08:09:47.380   04 Jun 2027 08:09:51.418             4.038           221.000
        84   04 Jun 2027 08:10:17.330   04 Jun 2027 08:10:19.152             1.822           624.688
        85   04 Jun 2027 08:11:32.629   04 Jun 2027 08:11:40.406             7.777          1861.906
        86   04 Jun 2027 08:11:57.223   04 Jun 2027 08:11:59.069             1.846           501.688
        87   04 Jun 2027 08:12:30.997   04 Jun 2027 08:12:33.394             2.397           997.750
        88   04 Jun 2027 09:43:30.099   04 Jun 2027 09:43:37.185             7.086          3543.000
        89   04 Jun 2027 09:43:52.686   04 Jun 2027 09:44:06.210            13.524          6762.000
        90   04 Jun 2027 09:44:13.927   04 Jun 2027 09:44:20.636             6.709           782.562
        91   04 Jun 2027 09:44:52.411   04 Jun 2027 09:44:53.705             1.294           280.156
        92   04 Jun 2027 09:45:13.817   04 Jun 2027 09:45:13.817             0.000             0.000
        93   04 Jun 2027 09:45:23.388   04 Jun 2027 09:45:27.270             3.882           927.594
        94   04 Jun 2027 09:46:27.507   04 Jun 2027 09:46:28.779             1.272           636.000
        95   04 Jun 2027 09:46:38.734   04 Jun 2027 09:46:39.124             0.390           195.000
        96   04 Jun 2027 09:47:00.130   04 Jun 2027 09:47:04.470             4.340          2016.125
        97   04 Jun 2027 09:47:04.608   04 Jun 2027 09:47:06.286             1.678             4.313
        98   04 Jun 2027 09:47:15.866   04 Jun 2027 09:47:16.886             1.020           195.313
        99   04 Jun 2027 09:47:31.950   04 Jun 2027 09:47:38.050             6.100           470.750
       100   04 Jun 2027 09:48:01.582   04 Jun 2027 09:48:03.782             2.200           412.219
       101   04 Jun 2027 11:20:23.976   04 Jun 2027 11:20:40.303            16.327          6526.875
       102   04 Jun 2027 11:21:12.682   04 Jun 2027 11:21:16.569             3.887          1011.844
       103   04 Jun 2027 11:22:12.157   04 Jun 2027 11:22:18.754             6.597          1114.500
       104   04 Jun 2027 11:22:25.652   04 Jun 2027 11:22:34.927             9.275           215.562
       105   04 Jun 2027 11:22:43.147   04 Jun 2027 11:22:43.147             0.000             0.000
       106   04 Jun 2027 11:23:01.248   04 Jun 2027 11:23:04.561             3.313           822.531
       107   04 Jun 2027 11:23:38.403   04 Jun 2027 11:23:40.481             2.078          1015.938
       108   04 Jun 2027 11:24:02.318   04 Jun 2027 11:24:10.060             7.742           549.188
       109   04 Jun 2027 11:24:36.956   04 Jun 2027 11:24:41.816             4.860           424.156
       110   05 Jun 2027 03:30:57.883   05 Jun 2027 03:31:20.953            23.070         11535.000
       111   05 Jun 2027 03:32:17.847   05 Jun 2027 03:32:41.623            23.776         11888.000
       112   05 Jun 2027 03:32:59.222   05 Jun 2027 03:32:59.222             0.000             0.000
       113   05 Jun 2027 05:07:36.009   05 Jun 2027 05:09:51.050           135.041         67520.500
       114   05 Jun 2027 06:42:31.064   05 Jun 2027 06:44:01.438            90.374         45187.000
       115   05 Jun 2027 06:44:31.087   05 Jun 2027 06:44:47.567            16.480          8240.000
       116   05 Jun 2027 06:45:09.972   05 Jun 2027 06:45:11.743             1.771           885.500
       117   05 Jun 2027 06:45:32.324   05 Jun 2027 06:45:32.432             0.108            54.000
       118   05 Jun 2027 06:46:10.818   05 Jun 2027 06:46:28.008            17.190          8595.000
       119   05 Jun 2027 06:49:25.653   05 Jun 2027 06:49:29.179             3.526          1763.000
       120   05 Jun 2027 08:18:43.621   05 Jun 2027 08:19:31.109            47.488         23621.625
       121   05 Jun 2027 08:20:06.613   05 Jun 2027 08:20:09.594             2.981           840.844
       122   05 Jun 2027 08:20:30.809   05 Jun 2027 08:20:38.467             7.658           652.562
       123   05 Jun 2027 08:20:38.775   05 Jun 2027 08:20:41.536             2.761             4.094
       124   05 Jun 2027 08:21:10.762   05 Jun 2027 08:21:19.343             8.581           391.406
       125   05 Jun 2027 08:22:01.303   05 Jun 2027 08:22:03.524             2.221          1033.750
       126   05 Jun 2027 08:22:39.734   05 Jun 2027 08:22:42.451             2.717           919.656
       127   05 Jun 2027 08:23:13.594   05 Jun 2027 08:23:15.200             1.606           803.000
       128   05 Jun 2027 08:24:20.457   05 Jun 2027 08:24:27.827             7.370          2194.937
       129   05 Jun 2027 08:24:46.496   05 Jun 2027 08:24:47.855             1.359           425.281
       130   05 Jun 2027 08:24:51.192   05 Jun 2027 08:24:51.844             0.652           104.281
       131   05 Jun 2027 09:56:26.673   05 Jun 2027 09:56:45.592            18.919          8783.750
       132   05 Jun 2027 09:57:12.185   05 Jun 2027 09:57:14.184             1.999           731.250
       133   05 Jun 2027 09:58:01.020   05 Jun 2027 09:58:03.197             2.177          1015.469
       134   05 Jun 2027 09:58:35.214   05 Jun 2027 09:58:37.770             2.556           908.969
       135   05 Jun 2027 09:58:45.065   05 Jun 2027 09:58:46.232             1.167            46.094
       136   05 Jun 2027 09:59:20.013   05 Jun 2027 09:59:22.314             2.301           787.094
       137   05 Jun 2027 10:00:30.684   05 Jun 2027 10:00:33.886             3.202          1601.000
       138   05 Jun 2027 10:00:43.705   05 Jun 2027 10:00:47.956             4.251           842.406
       139   05 Jun 2027 11:32:31.198   05 Jun 2027 11:32:50.367            19.169          8652.406
       140   05 Jun 2027 11:33:50.536   05 Jun 2027 11:33:56.008             5.472          1873.844
       141   05 Jun 2027 11:34:38.779   05 Jun 2027 11:34:43.358             4.579          1169.844
       142   05 Jun 2027 11:35:07.133   05 Jun 2027 11:35:08.185             1.052           507.344
       143   05 Jun 2027 11:36:02.961   05 Jun 2027 11:36:09.761             6.800          1684.125
       144   05 Jun 2027 11:36:55.466   05 Jun 2027 11:36:57.329             1.863           931.500
       145   06 Jun 2027 03:43:11.945   06 Jun 2027 03:43:47.637            35.692         17846.000
       146   06 Jun 2027 03:43:59.961   06 Jun 2027 03:44:01.887             1.926           963.000
       147   06 Jun 2027 03:44:45.531   06 Jun 2027 03:44:56.874            11.343          5671.500
       148   06 Jun 2027 03:45:20.995   06 Jun 2027 03:45:51.647            30.652         15326.000
       149   06 Jun 2027 05:19:43.805   06 Jun 2027 05:21:54.132           130.327         65163.500
       150   06 Jun 2027 05:22:29.284   06 Jun 2027 05:22:35.389             6.105          3052.500
       151   06 Jun 2027 06:54:53.776   06 Jun 2027 06:56:38.035           104.259         52129.500
       152   06 Jun 2027 06:57:41.195   06 Jun 2027 06:57:46.439             5.244          2622.000
       153   06 Jun 2027 06:59:53.964   06 Jun 2027 06:59:56.625             2.661          1330.500
       154   06 Jun 2027 07:00:44.522   06 Jun 2027 07:00:46.383             1.861           930.500
       155   06 Jun 2027 07:01:01.360   06 Jun 2027 07:01:05.950             4.590          2295.000
       156   06 Jun 2027 07:01:26.812   06 Jun 2027 07:01:26.812             0.000             0.000
       157   06 Jun 2027 08:31:19.226   06 Jun 2027 08:31:41.558            22.332          9968.407
       158   06 Jun 2027 08:32:00.846   06 Jun 2027 08:32:05.490             4.644           602.750
       159   06 Jun 2027 08:32:50.456   06 Jun 2027 08:32:53.961             3.505           277.750
       160   06 Jun 2027 08:34:27.654   06 Jun 2027 08:34:30.831             3.177          1588.500
       161   06 Jun 2027 08:34:45.326   06 Jun 2027 08:34:49.274             3.948          1792.375
       162   06 Jun 2027 08:34:59.017   06 Jun 2027 08:35:01.427             2.410           259.875
       163   06 Jun 2027 08:35:32.013   06 Jun 2027 08:35:33.547             1.534           466.437
       164   06 Jun 2027 08:36:37.291   06 Jun 2027 08:36:37.291             0.000             0.000
       165   06 Jun 2027 08:36:51.399   06 Jun 2027 08:37:01.241             9.842          2222.531
       166   06 Jun 2027 10:08:33.675   06 Jun 2027 10:08:50.461            16.786          8368.031
       167   06 Jun 2027 10:09:23.103   06 Jun 2027 10:09:24.086             0.983           121.437
       168   06 Jun 2027 10:09:41.326   06 Jun 2027 10:09:43.149             1.823           538.750
       169   06 Jun 2027 10:10:21.462   06 Jun 2027 10:10:24.326             2.864          1113.781
       170   06 Jun 2027 10:10:55.291   06 Jun 2027 10:10:57.876             2.585           229.406
       171   06 Jun 2027 10:11:33.504   06 Jun 2027 10:11:33.536             0.032            16.000
       172   06 Jun 2027 10:11:56.693   06 Jun 2027 10:12:03.256             6.563          1727.250
       173   06 Jun 2027 10:12:49.264   06 Jun 2027 10:12:52.355             3.091          1389.438
       174   06 Jun 2027 10:12:53.727   06 Jun 2027 10:12:55.470             1.743            42.875
       175   06 Jun 2027 10:12:58.727   06 Jun 2027 10:12:59.492             0.765           101.781
       176   06 Jun 2027 11:44:48.254   06 Jun 2027 11:45:01.540            13.286          6428.344
       177   06 Jun 2027 11:45:16.728   06 Jun 2027 11:45:24.237             7.509           142.125
       178   06 Jun 2027 11:46:35.623   06 Jun 2027 11:46:40.831             5.208          2009.406
       179   06 Jun 2027 11:47:23.156   06 Jun 2027 11:47:30.028             6.872           918.281
       180   06 Jun 2027 11:48:46.797   06 Jun 2027 11:48:52.547             5.750          2125.312
       181   06 Jun 2027 11:48:54.578   06 Jun 2027 11:48:56.435             1.857            63.469
       182   06 Jun 2027 11:49:22.718   06 Jun 2027 11:49:25.166             2.448           821.344
       183   07 Jun 2027 03:55:41.972   07 Jun 2027 03:56:23.888            41.916         20958.000
       184   07 Jun 2027 03:56:45.219   07 Jun 2027 03:56:59.717            14.498          7249.000
       185   07 Jun 2027 05:31:36.788   07 Jun 2027 05:33:57.250           140.462         70231.000
       186   07 Jun 2027 05:33:57.959   07 Jun 2027 05:34:05.024             7.065          3532.500
       187   07 Jun 2027 07:06:33.033   07 Jun 2027 07:08:34.654           121.621         59582.094
       188   07 Jun 2027 07:09:23.713   07 Jun 2027 07:09:28.264             4.551          1533.094
       189   07 Jun 2027 07:09:42.608   07 Jun 2027 07:09:42.608             0.000             0.000
       190   07 Jun 2027 07:09:54.380   07 Jun 2027 07:09:57.207             2.827           810.125
       191   07 Jun 2027 07:11:31.537   07 Jun 2027 07:11:36.297             4.760          2380.000
       192   07 Jun 2027 08:42:51.544   07 Jun 2027 08:43:21.469            29.925         14438.813
       193   07 Jun 2027 08:43:28.748   07 Jun 2027 08:43:29.992             1.244           204.438
       194   07 Jun 2027 08:44:37.988   07 Jun 2027 08:44:47.391             9.403          1327.969
       195   07 Jun 2027 08:45:17.117   07 Jun 2027 08:45:18.230             1.113           330.969
       196   07 Jun 2027 08:45:53.789   07 Jun 2027 08:45:55.244             1.455           450.375
       197   07 Jun 2027 08:46:59.586   07 Jun 2027 08:47:01.123             1.537           768.500
       198   07 Jun 2027 08:47:03.712   07 Jun 2027 08:47:06.634             2.922           943.937
       199   07 Jun 2027 08:47:28.382   07 Jun 2027 08:47:29.724             1.342           375.219
       200   07 Jun 2027 08:47:54.292   07 Jun 2027 08:47:55.470             1.178           422.375
       201   07 Jun 2027 08:48:46.795   07 Jun 2027 08:48:49.878             3.083          1374.094
       202   07 Jun 2027 08:48:54.749   07 Jun 2027 08:48:57.022             2.273            53.687
       203   07 Jun 2027 10:21:07.107   07 Jun 2027 10:21:28.862            21.755         10344.344
       204   07 Jun 2027 10:21:41.712   07 Jun 2027 10:21:43.894             2.182           401.563
       205   07 Jun 2027 10:21:49.706   07 Jun 2027 10:21:53.267             3.561           143.281
       206   07 Jun 2027 10:22:43.477   07 Jun 2027 10:22:48.102             4.625          1569.062
       207   07 Jun 2027 10:23:08.135   07 Jun 2027 10:23:09.733             1.598           523.094
       208   07 Jun 2027 10:24:01.506   07 Jun 2027 10:24:05.402             3.896          1411.156
       209   07 Jun 2027 10:24:40.036   07 Jun 2027 10:24:46.458             6.422          1082.312
       210   07 Jun 2027 11:56:27.197   07 Jun 2027 11:56:40.076            12.879          6237.875
       211   07 Jun 2027 11:57:18.360   07 Jun 2027 11:57:20.955             2.595           553.000
       212   07 Jun 2027 11:57:48.822   07 Jun 2027 11:57:51.911             3.089           771.375
       213   07 Jun 2027 11:58:06.669   07 Jun 2027 11:58:10.475             3.806           260.500
       214   07 Jun 2027 11:59:13.393   07 Jun 2027 11:59:21.589             8.196          1966.188
       215   07 Jun 2027 11:59:42.333   07 Jun 2027 11:59:43.390             1.057           360.656
       216   08 Jun 2027 04:06:38.809   08 Jun 2027 04:07:47.298            68.489         34244.500
       217   08 Jun 2027 04:08:25.372   08 Jun 2027 04:08:25.372             0.000             0.000
       218   08 Jun 2027 04:10:52.566   08 Jun 2027 04:10:56.495             3.929          1964.500
       219   08 Jun 2027 05:41:55.505   08 Jun 2027 05:42:29.044            33.539         16769.500
       220   08 Jun 2027 05:43:20.652   08 Jun 2027 05:45:11.271           110.619         55309.500
       221   08 Jun 2027 05:46:27.774   08 Jun 2027 05:46:35.826             8.052          4026.000
       222   08 Jun 2027 07:18:06.347   08 Jun 2027 07:19:57.399           111.052         55526.000
       223   08 Jun 2027 07:20:48.378   08 Jun 2027 07:20:48.378             0.000             0.000
       224   08 Jun 2027 07:21:04.460   08 Jun 2027 07:21:09.984             5.524          2762.000
       225   08 Jun 2027 07:21:45.968   08 Jun 2027 07:21:56.846            10.878          5439.000
       226   08 Jun 2027 07:22:45.201   08 Jun 2027 07:22:47.177             1.976           988.000
       227   08 Jun 2027 07:22:52.261   08 Jun 2027 07:22:57.453             5.192          1696.187
       228   08 Jun 2027 07:23:46.848   08 Jun 2027 07:23:48.183             1.335           667.500
       229   08 Jun 2027 07:25:22.320   08 Jun 2027 07:25:32.736            10.416          3677.781
       230   08 Jun 2027 08:55:10.841   08 Jun 2027 08:55:45.358            34.517         14341.687
       231   08 Jun 2027 08:56:27.984   08 Jun 2027 08:56:33.206             5.222          1180.250
       232   08 Jun 2027 08:57:17.186   08 Jun 2027 08:57:20.054             2.868           930.781
       233   08 Jun 2027 08:58:32.885   08 Jun 2027 08:58:36.707             3.822          1623.000
       234   08 Jun 2027 08:59:17.000   08 Jun 2027 08:59:23.546             6.546          1259.156
       235   08 Jun 2027 09:00:04.569   08 Jun 2027 09:00:08.662             4.093          1281.969
       236   08 Jun 2027 09:00:43.130   08 Jun 2027 09:00:46.544             3.414          1059.906
       237   08 Jun 2027 09:01:08.731   08 Jun 2027 09:01:12.372             3.641           693.344
       238   08 Jun 2027 09:01:23.720   08 Jun 2027 09:01:24.470             0.750           210.125
       239   08 Jun 2027 10:33:09.997   08 Jun 2027 10:33:24.022            14.025          7012.500
       240   08 Jun 2027 10:34:43.898   08 Jun 2027 10:34:50.197             6.299          2563.656
       241   08 Jun 2027 10:35:09.674   08 Jun 2027 10:35:09.674             0.000             0.000
       242   08 Jun 2027 10:35:30.576   08 Jun 2027 10:35:40.551             9.975          1256.625
       243   08 Jun 2027 10:36:46.589   08 Jun 2027 10:36:51.221             4.632          2063.687
       244   09 Jun 2027 04:17:57.877   09 Jun 2027 04:19:08.664            70.787         35393.500
       245   09 Jun 2027 04:20:53.596   09 Jun 2027 04:21:31.312            37.716         18858.000
       246   09 Jun 2027 05:53:02.131   09 Jun 2027 05:54:44.587           102.456         51228.000
       247   09 Jun 2027 05:55:30.055   09 Jun 2027 05:55:30.055             0.000             0.000
       248   09 Jun 2027 05:57:16.555   09 Jun 2027 05:57:56.048            39.493         19746.500
       249   09 Jun 2027 06:01:01.093   09 Jun 2027 06:01:14.693            13.600          6800.000
       250   09 Jun 2027 07:30:42.796   09 Jun 2027 07:32:15.472            92.676         46338.000
       251   09 Jun 2027 07:34:00.476   09 Jun 2027 07:34:28.854            28.378         10956.031
       252   09 Jun 2027 07:36:09.820   09 Jun 2027 07:36:09.820             0.000             0.000
       253   09 Jun 2027 07:36:41.401   09 Jun 2027 07:36:59.627            18.226          3844.750
       254   09 Jun 2027 09:07:12.535   09 Jun 2027 09:07:39.985            27.450         13100.594
       255   09 Jun 2027 09:08:21.261   09 Jun 2027 09:08:23.704             2.443          1195.187
       256   09 Jun 2027 09:08:41.462   09 Jun 2027 09:08:45.116             3.654           554.938
       257   09 Jun 2027 09:09:03.648   09 Jun 2027 09:09:04.756             1.108           442.406
       258   09 Jun 2027 09:09:40.544   09 Jun 2027 09:09:43.118             2.574           442.844
       259   09 Jun 2027 09:10:09.932   09 Jun 2027 09:10:13.527             3.595           837.938
       260   09 Jun 2027 09:11:03.103   09 Jun 2027 09:11:06.210             3.107          1549.250
       261   09 Jun 2027 09:11:11.161   09 Jun 2027 09:11:11.615             0.454           143.594
       262   09 Jun 2027 09:11:11.639   09 Jun 2027 09:11:12.800             1.161             0.750
       263   09 Jun 2027 09:11:32.975   09 Jun 2027 09:11:44.466            11.491           590.563
       264   09 Jun 2027 09:12:06.201   09 Jun 2027 09:12:06.698             0.497           248.500
       265   09 Jun 2027 09:12:25.633   09 Jun 2027 09:12:30.898             5.265           624.250
       266   09 Jun 2027 09:13:13.177   09 Jun 2027 09:13:16.701             3.524          1181.687
       267   09 Jun 2027 10:45:09.564   09 Jun 2027 10:45:24.109            14.545          7054.156
       268   09 Jun 2027 10:46:13.474   09 Jun 2027 10:46:17.155             3.681          1519.750
       269   09 Jun 2027 10:46:20.653   09 Jun 2027 10:46:21.861             1.208            60.969
       270   09 Jun 2027 10:46:35.666   09 Jun 2027 10:46:37.998             2.332           137.687
       271   09 Jun 2027 10:47:02.329   09 Jun 2027 10:47:06.481             4.152           556.813
       272   09 Jun 2027 10:48:14.496   09 Jun 2027 10:48:19.084             4.588          2125.469
       273   09 Jun 2027 10:48:29.445   09 Jun 2027 10:48:30.295             0.850           323.781
       274   09 Jun 2027 10:48:43.206   09 Jun 2027 10:48:43.918             0.712           356.000
       275   09 Jun 2027 10:49:04.468   09 Jun 2027 10:49:08.589             4.121           646.032
       276   10 Jun 2027 03:07:41.589   10 Jun 2027 03:08:18.763            37.174         18587.000
       277   10 Jun 2027 04:29:41.989   10 Jun 2027 04:30:50.689            68.700         34350.000
       278   10 Jun 2027 04:32:57.044   10 Jun 2027 04:33:00.152             3.108          1554.000
       279   10 Jun 2027 04:33:13.754   10 Jun 2027 04:33:13.876             0.122            61.000
       280   10 Jun 2027 04:34:08.524   10 Jun 2027 04:34:23.072            14.548          7274.000
       281   10 Jun 2027 06:04:30.334   10 Jun 2027 06:06:01.638            91.304         45652.000
       282   10 Jun 2027 06:07:47.200   10 Jun 2027 06:07:47.200             0.000             0.000
       283   10 Jun 2027 06:08:04.827   10 Jun 2027 06:08:11.821             6.994          3497.000
       284   10 Jun 2027 06:08:33.912   10 Jun 2027 06:08:33.912             0.000             0.000
       285   10 Jun 2027 06:09:58.146   10 Jun 2027 06:10:06.438             8.292          4146.000
       286   10 Jun 2027 06:11:01.143   10 Jun 2027 06:11:07.946             6.803          3401.500
       287   10 Jun 2027 07:42:19.139   10 Jun 2027 07:43:56.875            97.736         48868.000
       288   10 Jun 2027 07:44:21.915   10 Jun 2027 07:44:25.965             4.050          2025.000
       289   10 Jun 2027 07:44:42.546   10 Jun 2027 07:44:44.592             2.046          1023.000
       290   10 Jun 2027 07:45:10.516   10 Jun 2027 07:45:14.779             4.263          1972.625
       291   10 Jun 2027 07:45:36.517   10 Jun 2027 07:45:39.499             2.982           432.563
       292   10 Jun 2027 07:46:26.394   10 Jun 2027 07:46:29.529             3.135          1424.062
       293   10 Jun 2027 07:49:13.742   10 Jun 2027 07:49:19.750             6.008          3004.000
       294   10 Jun 2027 07:49:39.464   10 Jun 2027 07:49:44.833             5.369          2530.563
       295   10 Jun 2027 09:19:03.539   10 Jun 2027 09:19:08.618             5.079          2539.500
       296   10 Jun 2027 09:19:33.211   10 Jun 2027 09:19:50.172            16.961          8425.906
       297   10 Jun 2027 09:20:19.019   10 Jun 2027 09:20:20.604             1.585           641.219
       298   10 Jun 2027 09:21:39.848   10 Jun 2027 09:21:41.941             2.093           212.844
       299   10 Jun 2027 09:22:21.658   10 Jun 2027 09:22:25.207             3.549          1153.969
       300   10 Jun 2027 09:23:05.786   10 Jun 2027 09:23:08.266             2.480           968.000
       301   10 Jun 2027 09:23:14.879   10 Jun 2027 09:23:18.884             4.005           206.656
       302   10 Jun 2027 09:24:08.111   10 Jun 2027 09:24:11.371             3.260          1536.500
       303   10 Jun 2027 09:25:23.949   10 Jun 2027 09:25:29.834             5.885          2268.062
       304   10 Jun 2027 10:57:11.162   10 Jun 2027 10:57:28.675            17.513          8477.500
       305   10 Jun 2027 10:58:14.629   10 Jun 2027 10:58:18.531             3.902          1436.062
       306   10 Jun 2027 10:58:24.346   10 Jun 2027 10:58:26.268             1.922           181.719
       307   10 Jun 2027 10:58:47.867   10 Jun 2027 10:58:47.867             0.000             0.000
       308   10 Jun 2027 10:58:49.492   10 Jun 2027 10:58:53.646             4.154           723.125
       309   10 Jun 2027 10:59:13.755   10 Jun 2027 10:59:20.073             6.318           628.406
       310   10 Jun 2027 10:59:39.518   10 Jun 2027 10:59:47.942             8.424           376.969
       311   10 Jun 2027 11:00:33.369   10 Jun 2027 11:00:38.081             4.712          1390.969
       312   10 Jun 2027 11:00:51.812   10 Jun 2027 11:00:51.812             0.000             0.000
       313   10 Jun 2027 11:01:06.059   10 Jun 2027 11:01:07.612             1.553           758.281
       314   11 Jun 2027 03:07:31.133   11 Jun 2027 03:07:45.265            14.132          7066.000
       315   11 Jun 2027 03:08:11.306   11 Jun 2027 03:08:22.678            11.372          5686.000
       316   11 Jun 2027 03:08:42.614   11 Jun 2027 03:08:42.614             0.000             0.000
       317   11 Jun 2027 04:43:27.872   11 Jun 2027 04:44:56.970            89.098         44549.000
       318   11 Jun 2027 04:46:05.684   11 Jun 2027 04:46:05.684             0.000             0.000
       319   11 Jun 2027 04:46:13.067   11 Jun 2027 04:46:23.433            10.366          5183.000
       320   11 Jun 2027 06:17:18.842   11 Jun 2027 06:19:04.524           105.682         52841.000
       321   11 Jun 2027 06:19:58.360   11 Jun 2027 06:20:04.641             6.281          3140.500
       322   11 Jun 2027 06:20:25.849   11 Jun 2027 06:20:35.122             9.273          4636.500
       323   11 Jun 2027 06:22:32.935   11 Jun 2027 06:22:37.134             4.199          2099.500
       324   11 Jun 2027 06:24:27.855   11 Jun 2027 06:24:35.643             7.788          3894.000
       325   11 Jun 2027 06:25:20.096   11 Jun 2027 06:25:30.876            10.780          5390.000
       326   11 Jun 2027 07:54:25.590   11 Jun 2027 07:55:44.956            79.366         38643.844
       327   11 Jun 2027 07:55:51.044   11 Jun 2027 07:55:51.437             0.393             2.469
       328   11 Jun 2027 07:56:18.927   11 Jun 2027 07:56:18.927             0.000             0.000
       329   11 Jun 2027 07:56:24.792   11 Jun 2027 07:56:27.612             2.820           911.875
       330   11 Jun 2027 07:57:11.196   11 Jun 2027 07:57:16.291             5.095          1073.844
       331   11 Jun 2027 07:57:37.562   11 Jun 2027 07:57:38.099             0.537           268.500
       332   11 Jun 2027 07:58:03.987   11 Jun 2027 07:58:08.008             4.021           849.625
       333   11 Jun 2027 07:58:09.033   11 Jun 2027 07:58:09.033             0.000             0.000
       334   11 Jun 2027 07:58:52.356   11 Jun 2027 07:58:56.848             4.492          1367.531
       335   11 Jun 2027 07:59:54.612   11 Jun 2027 08:00:00.088             5.476          1799.250
       336   11 Jun 2027 08:01:05.057   11 Jun 2027 08:01:07.861             2.804          1402.000
       337   11 Jun 2027 08:01:15.222   11 Jun 2027 08:01:19.090             3.868           858.313
       338   11 Jun 2027 09:31:28.104   11 Jun 2027 09:31:49.430            21.326         10488.219
       339   11 Jun 2027 09:32:15.693   11 Jun 2027 09:32:18.934             3.241           775.781
       340   11 Jun 2027 09:33:07.579   11 Jun 2027 09:33:12.815             5.236          1520.156
       341   11 Jun 2027 09:34:13.432   11 Jun 2027 09:34:14.985             1.553           776.500
       342   11 Jun 2027 09:34:48.835   11 Jun 2027 09:34:53.537             4.702          1284.812
       343   11 Jun 2027 09:35:15.302   11 Jun 2027 09:35:17.628             2.326           451.594
       344   11 Jun 2027 09:35:25.673   11 Jun 2027 09:35:26.901             1.228           251.406
       345   11 Jun 2027 09:36:07.242   11 Jun 2027 09:36:13.810             6.568          1243.031
       346   11 Jun 2027 09:37:16.816   11 Jun 2027 09:37:24.739             7.923          1792.125
       347   11 Jun 2027 11:08:25.431   11 Jun 2027 11:08:37.409            11.978          5989.000
       348   11 Jun 2027 11:08:42.694   11 Jun 2027 11:08:44.650             1.956           824.563
       349   11 Jun 2027 11:09:09.922   11 Jun 2027 11:09:12.341             2.419           676.750
       350   11 Jun 2027 11:09:42.761   11 Jun 2027 11:09:48.312             5.551           758.531
       351   11 Jun 2027 11:10:18.830   11 Jun 2027 11:10:27.229             8.399           891.062
       352   11 Jun 2027 11:10:37.920   11 Jun 2027 11:10:37.920             0.000             0.000
       353   11 Jun 2027 11:10:41.169   11 Jun 2027 11:10:45.901             4.732           424.375
       354   11 Jun 2027 11:11:22.029   11 Jun 2027 11:11:25.393             3.364          1014.500
       355   11 Jun 2027 11:11:43.427   11 Jun 2027 11:11:54.050            10.623           501.312
       356   11 Jun 2027 11:11:58.451   11 Jun 2027 11:12:03.538             5.087           137.531
       357   11 Jun 2027 11:12:21.657   11 Jun 2027 11:12:22.321             0.664            77.781
       358   12 Jun 2027 03:19:25.355   12 Jun 2027 03:20:10.815            45.460         22730.000
       359   12 Jun 2027 03:20:23.207   12 Jun 2027 03:20:36.266            13.059          6529.500
       360   12 Jun 2027 04:55:49.647   12 Jun 2027 04:57:47.990           118.343         59171.500
       361   12 Jun 2027 06:27:58.079   12 Jun 2027 06:30:00.063           121.984         60992.000
       362   12 Jun 2027 06:32:34.064   12 Jun 2027 06:32:38.829             4.765          2382.500
       363   12 Jun 2027 06:34:28.693   12 Jun 2027 06:34:32.950             4.257          2128.500
       364   12 Jun 2027 06:36:34.044   12 Jun 2027 06:36:36.501             2.457          1228.500
       365   12 Jun 2027 06:36:55.053   12 Jun 2027 06:36:55.053             0.000             0.000
       366   12 Jun 2027 06:37:13.565   12 Jun 2027 06:37:16.600             3.035          1517.500
       367   12 Jun 2027 06:37:34.212   12 Jun 2027 06:37:45.470            11.258          5629.000
       368   12 Jun 2027 08:06:51.563   12 Jun 2027 08:07:33.126            41.563         18235.062
       369   12 Jun 2027 08:08:45.117   12 Jun 2027 08:08:51.337             6.220          1054.969
       370   12 Jun 2027 08:09:29.553   12 Jun 2027 08:09:32.735             3.182           544.719
       371   12 Jun 2027 08:09:49.062   12 Jun 2027 08:09:50.438             1.376           295.937
       372   12 Jun 2027 08:10:32.356   12 Jun 2027 08:10:33.792             1.436           646.750
       373   12 Jun 2027 08:11:03.414   12 Jun 2027 08:11:03.960             0.546           273.000
       374   12 Jun 2027 08:11:11.671   12 Jun 2027 08:11:13.106             1.435           458.344
       375   12 Jun 2027 08:11:37.364   12 Jun 2027 08:11:37.501             0.137            68.500
       376   12 Jun 2027 08:12:10.182   12 Jun 2027 08:12:14.429             4.247          1632.594
       377   12 Jun 2027 08:12:17.348   12 Jun 2027 08:12:26.949             9.601            91.219
       378   12 Jun 2027 08:12:37.148   12 Jun 2027 08:12:38.800             1.652           318.719
       379   12 Jun 2027 08:12:56.391   12 Jun 2027 08:12:57.100             0.709           323.938
       380   12 Jun 2027 08:13:05.897   12 Jun 2027 08:13:09.571             3.674           274.906
       381   12 Jun 2027 08:13:30.870   12 Jun 2027 08:13:33.632             2.762           443.969
       382   12 Jun 2027 09:43:46.248   12 Jun 2027 09:43:54.465             8.217          4108.500
       383   12 Jun 2027 09:44:07.964   12 Jun 2027 09:44:20.600            12.636          5520.750
       384   12 Jun 2027 09:44:28.306   12 Jun 2027 09:44:36.934             8.628           194.188
       385   12 Jun 2027 09:45:16.008   12 Jun 2027 09:45:18.143             2.135           236.563
       386   12 Jun 2027 09:45:38.103   12 Jun 2027 09:45:39.514             1.411           203.875
       387   12 Jun 2027 09:46:11.546   12 Jun 2027 09:46:14.536             2.990           922.656
       388   12 Jun 2027 09:47:12.263   12 Jun 2027 09:47:14.376             2.113           903.281
       389   12 Jun 2027 09:47:18.495   12 Jun 2027 09:47:19.176             0.681            58.125
       390   12 Jun 2027 09:47:19.863   12 Jun 2027 09:47:21.892             2.029            21.469
       391   12 Jun 2027 09:47:31.525   12 Jun 2027 09:47:33.038             1.513           216.375
       392   12 Jun 2027 09:49:07.270   12 Jun 2027 09:49:10.971             3.701          1850.500
       393   12 Jun 2027 09:49:18.796   12 Jun 2027 09:49:20.532             1.736           868.000
       394   12 Jun 2027 11:20:39.081   12 Jun 2027 11:20:52.628            13.547          6468.906
       395   12 Jun 2027 11:21:53.257   12 Jun 2027 11:21:54.363             1.106           553.000
       396   12 Jun 2027 11:22:16.214   12 Jun 2027 11:22:22.956             6.742          1921.094
       397   12 Jun 2027 11:22:41.582   12 Jun 2027 11:22:41.582             0.000             0.000
       398   12 Jun 2027 11:22:49.942   12 Jun 2027 11:22:54.010             4.068           664.312
       399   12 Jun 2027 11:23:22.694   12 Jun 2027 11:23:30.220             7.526           813.969
       400   12 Jun 2027 11:23:35.038   12 Jun 2027 11:23:37.408             2.370           150.562
       401   12 Jun 2027 11:25:04.941   12 Jun 2027 11:25:07.300             2.359          1179.500
       402   13 Jun 2027 03:31:12.606   13 Jun 2027 03:31:35.608            23.002         11501.000
       403   13 Jun 2027 03:32:01.465   13 Jun 2027 03:32:05.972             4.507          2253.500
       404   13 Jun 2027 03:32:32.539   13 Jun 2027 03:32:37.321             4.782          2391.000
       405   13 Jun 2027 05:07:51.504   13 Jun 2027 05:10:07.843           136.339         68169.500
       406   13 Jun 2027 06:42:46.535   13 Jun 2027 06:44:45.135           118.600         59300.000
       407   13 Jun 2027 06:45:55.876   13 Jun 2027 06:46:06.206            10.330          5165.000
       408   13 Jun 2027 06:48:15.416   13 Jun 2027 06:48:28.670            13.254          6627.000
       409   13 Jun 2027 08:18:59.028   13 Jun 2027 08:19:40.671            41.643         19773.000
       410   13 Jun 2027 08:21:13.264   13 Jun 2027 08:21:19.337             6.073          2463.062
       411   13 Jun 2027 08:21:50.915   13 Jun 2027 08:21:52.034             1.119           393.031
       412   13 Jun 2027 08:22:16.370   13 Jun 2027 08:22:18.766             2.396           760.500
       413   13 Jun 2027 08:22:56.677   13 Jun 2027 08:22:58.369             1.692           846.000
       414   13 Jun 2027 08:23:29.895   13 Jun 2027 08:23:31.128             1.233           616.500
       415   13 Jun 2027 08:24:12.082   13 Jun 2027 08:24:13.780             1.698           849.000
       416   13 Jun 2027 08:25:04.414   13 Jun 2027 08:25:09.649             5.235          2518.031
       417   13 Jun 2027 09:56:42.615   13 Jun 2027 09:57:02.903            20.288          9667.688
       418   13 Jun 2027 09:57:26.605   13 Jun 2027 09:57:28.292             1.687           166.063
       419   13 Jun 2027 09:57:40.965   13 Jun 2027 09:57:41.790             0.825            98.875
       420   13 Jun 2027 09:57:54.461   13 Jun 2027 09:57:54.754             0.293           146.500
       421   13 Jun 2027 09:58:39.082   13 Jun 2027 09:58:45.022             5.940          1591.469
       422   13 Jun 2027 09:59:36.872   13 Jun 2027 09:59:40.199             3.327          1620.313
       423   13 Jun 2027 10:00:02.246   13 Jun 2027 10:00:02.246             0.000             0.000
       424   13 Jun 2027 10:00:21.685   13 Jun 2027 10:00:28.355             6.670          1296.438
       425   13 Jun 2027 10:01:02.811   13 Jun 2027 10:01:05.676             2.865          1076.750
       426   13 Jun 2027 11:32:48.905   13 Jun 2027 11:33:06.011            17.106          8316.094
       427   13 Jun 2027 11:33:22.347   13 Jun 2027 11:33:23.589             1.242           413.031
       428   13 Jun 2027 11:33:38.311   13 Jun 2027 11:33:40.267             1.956           435.156
       429   13 Jun 2027 11:33:54.657   13 Jun 2027 11:33:58.558             3.901           428.250
       430   13 Jun 2027 11:34:15.976   13 Jun 2027 11:34:18.457             2.481           277.406
       431   13 Jun 2027 11:34:41.060   13 Jun 2027 11:34:45.250             4.190           652.063
       432   13 Jun 2027 11:35:13.282   13 Jun 2027 11:35:15.576             2.294           709.156
       433   13 Jun 2027 11:35:31.532   13 Jun 2027 11:35:33.430             1.898           455.906
       434   13 Jun 2027 11:36:30.011   13 Jun 2027 11:36:34.736             4.725          1768.156
       435   13 Jun 2027 11:37:02.246   13 Jun 2027 11:37:04.132             1.886           748.469
