uniorb/output/strategy_1/Camera/Camera_KinoSat_111606.txt

KinoSat_111606
-------------------------
    Access    *     Start Time (UTCG)     *     Stop Time (UTCG)  *   Duration (s) *   Data (Mbytes)
         1   01 Jun 2027 03:04:16.053   01 Jun 2027 03:04:39.945            23.892         11946.000
         2   01 Jun 2027 03:04:43.060   01 Jun 2027 03:05:17.472            34.412         17206.000
         3   01 Jun 2027 03:05:27.290   01 Jun 2027 03:05:38.131            10.841          5420.500
         4   01 Jun 2027 03:05:50.583   01 Jun 2027 03:05:58.373             7.790          3895.000
         5   01 Jun 2027 03:07:33.994   01 Jun 2027 03:07:46.605            12.611          6305.500
         6   01 Jun 2027 03:09:22.119   01 Jun 2027 03:09:22.474             0.355           177.500
         7   01 Jun 2027 03:09:35.336   01 Jun 2027 03:09:35.336             0.000             0.000
         8   01 Jun 2027 04:42:38.855   01 Jun 2027 04:44:20.593           101.738         50869.000
         9   01 Jun 2027 04:46:27.377   01 Jun 2027 04:46:53.942            26.565         13282.500
        10   01 Jun 2027 06:06:41.830   01 Jun 2027 06:07:51.896            70.066         35033.000
        11   01 Jun 2027 07:42:39.200   01 Jun 2027 07:45:06.277           147.077         73538.500
        12   01 Jun 2027 09:16:28.778   01 Jun 2027 09:18:25.550           116.772         58386.000
        13   01 Jun 2027 09:24:19.271   01 Jun 2027 09:24:35.613            16.342          8171.000
        14   01 Jun 2027 10:53:32.818   01 Jun 2027 10:55:07.832            95.014         47507.000
        15   01 Jun 2027 10:56:23.892   01 Jun 2027 10:57:08.180            44.288         22144.000
        16   01 Jun 2027 11:00:10.517   01 Jun 2027 11:00:21.675            11.158          5579.000
        17   02 Jun 2027 03:16:51.041   02 Jun 2027 03:17:38.544            47.503         23751.500
        18   02 Jun 2027 03:17:47.678   02 Jun 2027 03:18:30.619            42.941         21470.500
        19   02 Jun 2027 03:18:36.884   02 Jun 2027 03:18:49.245            12.361          6180.500
        20   02 Jun 2027 03:21:32.139   02 Jun 2027 03:21:37.908             5.769          2884.500
        21   02 Jun 2027 04:55:13.550   02 Jun 2027 04:56:42.465            88.915         44457.500
        22   02 Jun 2027 04:57:02.650   02 Jun 2027 04:57:17.891            15.241          7620.500
        23   02 Jun 2027 04:57:59.003   02 Jun 2027 04:58:10.190            11.187          5593.500
        24   02 Jun 2027 06:18:36.023   02 Jun 2027 06:19:15.982            39.959         19979.500
        25   02 Jun 2027 06:19:33.198   02 Jun 2027 06:19:49.332            16.134          8067.000
        26   02 Jun 2027 06:20:32.616   02 Jun 2027 06:20:45.299            12.683          6341.500
        27   02 Jun 2027 07:54:58.143   02 Jun 2027 07:56:40.415           102.272         51136.000
        28   02 Jun 2027 09:28:27.062   02 Jun 2027 09:29:37.786            70.724         35362.000
        29   02 Jun 2027 09:30:21.443   02 Jun 2027 09:30:54.204            32.761         16380.500
        30   02 Jun 2027 09:35:23.629   02 Jun 2027 09:35:23.629             0.000             0.000
        31   02 Jun 2027 09:35:28.733   02 Jun 2027 09:36:01.460            32.727         16363.500
        32   02 Jun 2027 09:36:37.000   02 Jun 2027 09:36:52.719            15.719          7859.500
        33   02 Jun 2027 11:05:59.556   02 Jun 2027 11:07:08.480            68.924         34462.000
        34   02 Jun 2027 11:08:15.006   02 Jun 2027 11:09:12.146            57.140         28570.000
        35   02 Jun 2027 11:10:46.868   02 Jun 2027 11:10:53.503             6.635          3317.500
        36   02 Jun 2027 11:12:09.631   02 Jun 2027 11:12:23.824            14.193          7096.500
        37   03 Jun 2027 03:28:47.468   03 Jun 2027 03:28:53.368             5.900          2950.000
        38   03 Jun 2027 03:29:04.866   03 Jun 2027 03:30:26.055            81.189         40594.500
        39   03 Jun 2027 03:30:54.534   03 Jun 2027 03:30:56.425             1.891           945.500
        40   03 Jun 2027 03:32:23.301   03 Jun 2027 03:32:32.902             9.601          4800.500
        41   03 Jun 2027 03:32:35.078   03 Jun 2027 03:32:53.487            18.409          9204.500
        42   03 Jun 2027 05:06:51.591   03 Jun 2027 05:08:01.114            69.523         34761.500
        43   03 Jun 2027 05:09:42.738   03 Jun 2027 05:09:42.738             0.000             0.000
        44   03 Jun 2027 05:10:10.260   03 Jun 2027 05:10:13.216             2.956          1478.000
        45   03 Jun 2027 05:10:38.151   03 Jun 2027 05:10:44.206             6.055          3027.500
        46   03 Jun 2027 05:10:59.378   03 Jun 2027 05:11:02.494             3.116          1558.000
        47   03 Jun 2027 06:30:26.830   03 Jun 2027 06:31:29.164            62.334         31167.000
        48   03 Jun 2027 08:07:00.366   03 Jun 2027 08:08:55.710           115.344         57672.000
        49   03 Jun 2027 08:09:33.403   03 Jun 2027 08:09:38.086             4.683          2341.500
        50   03 Jun 2027 08:10:08.070   03 Jun 2027 08:10:32.933            24.863         12431.500
        51   03 Jun 2027 09:41:30.725   03 Jun 2027 09:42:48.140            77.415         38707.500
        52   03 Jun 2027 09:44:32.825   03 Jun 2027 09:45:01.862            29.037         14518.500
        53   03 Jun 2027 09:46:21.583   03 Jun 2027 09:46:29.167             7.584          3792.000
        54   03 Jun 2027 09:47:51.920   03 Jun 2027 09:47:52.501             0.581           290.500
        55   03 Jun 2027 09:47:55.166   03 Jun 2027 09:47:57.565             2.399          1199.500
        56   03 Jun 2027 09:48:52.216   03 Jun 2027 09:48:52.889             0.673           336.500
        57   03 Jun 2027 11:18:06.830   03 Jun 2027 11:18:47.487            40.657         19364.250
        58   03 Jun 2027 11:20:16.876   03 Jun 2027 11:20:23.199             6.323          2147.375
        59   03 Jun 2027 11:21:46.076   03 Jun 2027 11:21:56.718            10.642          2589.906
        60   03 Jun 2027 11:22:53.789   03 Jun 2027 11:22:56.469             2.680          1340.000
        61   03 Jun 2027 11:23:10.358   03 Jun 2027 11:23:19.261             8.903           668.375
        62   03 Jun 2027 11:23:52.206   03 Jun 2027 11:23:52.956             0.750           302.781
        63   03 Jun 2027 11:24:05.274   03 Jun 2027 11:24:06.345             1.071           208.281
        64   03 Jun 2027 11:24:22.754   03 Jun 2027 11:24:24.796             2.042           454.719
        65   04 Jun 2027 03:40:56.230   04 Jun 2027 03:41:55.959            59.729         29864.500
        66   04 Jun 2027 03:42:05.369   04 Jun 2027 03:42:48.264            42.895         21447.500
        67   04 Jun 2027 03:42:56.190   04 Jun 2027 03:42:56.244             0.054            27.000
        68   04 Jun 2027 03:43:16.460   04 Jun 2027 03:43:16.803             0.343           171.500
        69   04 Jun 2027 03:43:26.218   04 Jun 2027 03:43:37.312            11.094          5547.000
        70   04 Jun 2027 03:46:35.252   04 Jun 2027 03:46:35.252             0.000             0.000
        71   04 Jun 2027 05:19:14.635   04 Jun 2027 05:19:45.386            30.751         15375.500
        72   04 Jun 2027 05:20:03.882   04 Jun 2027 05:21:02.888            59.006         29503.000
        73   04 Jun 2027 05:21:36.596   04 Jun 2027 05:21:37.073             0.477           238.500
        74   04 Jun 2027 06:42:37.623   04 Jun 2027 06:43:51.346            73.723         36861.500
        75   04 Jun 2027 06:44:37.306   04 Jun 2027 06:45:02.736            25.430         12715.000
        76   04 Jun 2027 08:19:09.315   04 Jun 2027 08:19:54.681            45.366         22683.000
        77   04 Jun 2027 08:21:04.419   04 Jun 2027 08:21:10.609             6.190          2750.781
        78   04 Jun 2027 08:21:33.275   04 Jun 2027 08:21:35.313             2.038           679.281
        79   04 Jun 2027 08:22:07.940   04 Jun 2027 08:22:07.940             0.000             0.000
        80   04 Jun 2027 09:54:38.129   04 Jun 2027 09:54:51.379            13.250          6565.500
        81   04 Jun 2027 09:55:50.534   04 Jun 2027 09:55:53.993             3.459          1296.500
        82   04 Jun 2027 09:56:32.578   04 Jun 2027 09:56:34.312             1.734           354.719
        83   04 Jun 2027 09:56:59.408   04 Jun 2027 09:57:02.266             2.858           748.063
        84   04 Jun 2027 09:57:37.636   04 Jun 2027 09:57:42.232             4.596           671.031
        85   04 Jun 2027 09:58:15.800   04 Jun 2027 09:58:17.272             1.472           441.094
        86   04 Jun 2027 09:58:46.573   04 Jun 2027 09:58:48.552             1.979           915.656
        87   04 Jun 2027 09:59:16.370   04 Jun 2027 09:59:20.144             3.774           869.313
        88   04 Jun 2027 10:00:45.948   04 Jun 2027 10:00:51.765             5.817          2528.531
        89   04 Jun 2027 11:30:42.639   04 Jun 2027 11:30:58.091            15.452          6183.000
        90   04 Jun 2027 11:32:10.956   04 Jun 2027 11:32:17.103             6.147          1704.656
        91   04 Jun 2027 11:32:44.971   04 Jun 2027 11:32:47.987             3.016           628.875
        92   04 Jun 2027 11:33:17.716   04 Jun 2027 11:33:24.284             6.568           906.375
        93   04 Jun 2027 11:34:06.574   04 Jun 2027 11:34:08.378             1.804           900.469
        94   04 Jun 2027 11:34:22.023   04 Jun 2027 11:34:23.151             1.128           426.406
        95   04 Jun 2027 11:34:37.771   04 Jun 2027 11:34:39.008             1.237           456.875
        96   04 Jun 2027 11:35:53.715   04 Jun 2027 11:36:00.120             6.405          2334.594
        97   04 Jun 2027 11:36:10.148   04 Jun 2027 11:36:12.257             2.109           138.500
        98   04 Jun 2027 11:36:24.477   04 Jun 2027 11:36:25.745             1.268           335.031
        99   05 Jun 2027 03:53:01.521   05 Jun 2027 03:53:10.086             8.565          4282.500
       100   05 Jun 2027 03:54:02.896   05 Jun 2027 03:55:55.051           112.155         56077.500
       101   05 Jun 2027 03:59:03.515   05 Jun 2027 03:59:07.389             3.874          1937.000
       102   05 Jun 2027 04:00:49.416   05 Jun 2027 04:00:53.457             4.041          2020.500
       103   05 Jun 2027 05:31:11.532   05 Jun 2027 05:31:50.516            38.984         19492.000
       104   05 Jun 2027 05:32:14.468   05 Jun 2027 05:33:02.608            48.140         24070.000
       105   05 Jun 2027 05:33:25.138   05 Jun 2027 05:33:28.859             3.721          1860.500
       106   05 Jun 2027 06:55:14.312   05 Jun 2027 06:56:58.179           103.867         51933.500
       107   05 Jun 2027 08:31:02.510   05 Jun 2027 08:31:14.349            11.839          5919.500
       108   05 Jun 2027 08:32:48.831   05 Jun 2027 08:33:06.291            17.460          7715.438
       109   05 Jun 2027 08:33:36.899   05 Jun 2027 08:33:44.267             7.368           956.500
       110   05 Jun 2027 10:05:59.741   05 Jun 2027 10:06:07.355             7.614          3807.000
       111   05 Jun 2027 10:06:35.821   05 Jun 2027 10:06:39.716             3.895          1184.469
       112   05 Jun 2027 10:07:32.725   05 Jun 2027 10:07:33.173             0.448           224.000
       113   05 Jun 2027 10:09:03.016   05 Jun 2027 10:09:10.379             7.363          3628.531
       114   05 Jun 2027 10:11:24.911   05 Jun 2027 10:11:32.132             7.221          3610.500
       115   05 Jun 2027 10:12:28.742   05 Jun 2027 10:12:34.010             5.268          2307.813
       116   05 Jun 2027 10:12:59.556   05 Jun 2027 10:13:02.961             3.405           754.813
       117   05 Jun 2027 11:42:14.968   05 Jun 2027 11:42:33.120            18.152          7527.750
       118   05 Jun 2027 11:43:25.412   05 Jun 2027 11:43:30.073             4.661          1195.625
       119   05 Jun 2027 11:44:03.549   05 Jun 2027 11:44:05.691             2.142           802.656
       120   05 Jun 2027 11:44:21.531   05 Jun 2027 11:44:23.480             1.949           399.312
       121   05 Jun 2027 11:44:26.671   05 Jun 2027 11:44:28.791             2.120            99.719
       122   05 Jun 2027 11:45:12.588   05 Jun 2027 11:45:14.706             2.118           835.469
       123   05 Jun 2027 11:45:46.318   05 Jun 2027 11:45:48.702             2.384           845.125
       124   05 Jun 2027 11:46:30.798   05 Jun 2027 11:46:35.225             4.427          1255.250
       125   05 Jun 2027 11:46:58.209   05 Jun 2027 11:47:09.643            11.434           528.531
       126   05 Jun 2027 11:47:51.797   05 Jun 2027 11:48:04.511            12.714          1317.313
       127   06 Jun 2027 04:06:06.711   06 Jun 2027 04:07:50.804           104.093         52046.500
       128   06 Jun 2027 04:08:02.388   06 Jun 2027 04:08:04.359             1.971           985.500
       129   06 Jun 2027 04:10:55.130   06 Jun 2027 04:11:07.714            12.584          6292.000
       130   06 Jun 2027 04:12:10.679   06 Jun 2027 04:12:15.776             5.097          2548.500
       131   06 Jun 2027 04:13:06.570   06 Jun 2027 04:13:44.398            37.828         18914.000
       132   06 Jun 2027 05:32:00.677   06 Jun 2027 05:32:45.912            45.235         22617.500
       133   06 Jun 2027 05:43:08.039   06 Jun 2027 05:44:07.153            59.114         29557.000
       134   06 Jun 2027 05:44:29.480   06 Jun 2027 05:44:41.334            11.854          5927.000
       135   06 Jun 2027 07:06:05.065   06 Jun 2027 07:07:36.701            91.636         45818.000
       136   06 Jun 2027 07:09:37.816   06 Jun 2027 07:09:52.600            14.784          6671.844
       137   06 Jun 2027 08:41:21.746   06 Jun 2027 08:41:32.973            11.227          5613.500
       138   06 Jun 2027 08:41:50.514   06 Jun 2027 08:41:51.700             1.186           593.000
       139   06 Jun 2027 08:43:04.276   06 Jun 2027 08:43:10.461             6.185          2721.031
       140   06 Jun 2027 08:44:20.712   06 Jun 2027 08:44:25.971             5.259          1706.156
       141   06 Jun 2027 08:44:50.895   06 Jun 2027 08:44:56.722             5.827           598.656
       142   06 Jun 2027 08:45:03.391   06 Jun 2027 08:45:05.889             2.498           175.562
       143   06 Jun 2027 08:45:57.215   06 Jun 2027 08:45:57.215             0.000             0.000
       144   06 Jun 2027 10:17:32.805   06 Jun 2027 10:17:43.639            10.834          4712.031
       145   06 Jun 2027 10:18:02.401   06 Jun 2027 10:18:04.315             1.914           265.625
       146   06 Jun 2027 10:19:33.959   06 Jun 2027 10:19:33.959             0.000             0.000
       147   06 Jun 2027 10:20:36.793   06 Jun 2027 10:20:47.488            10.695          4735.500
       148   06 Jun 2027 10:21:09.208   06 Jun 2027 10:21:10.564             1.356           474.312
       149   06 Jun 2027 10:24:25.994   06 Jun 2027 10:24:40.169            14.175          5453.375
       150   06 Jun 2027 10:24:49.035   06 Jun 2027 10:24:50.886             1.851           269.094
       151   06 Jun 2027 11:54:36.134   06 Jun 2027 11:54:48.596            12.462          6149.656
       152   06 Jun 2027 11:57:19.924   06 Jun 2027 11:57:29.085             9.161          4569.531
       153   06 Jun 2027 11:58:23.560   06 Jun 2027 11:58:27.274             3.714          1505.438
       154   06 Jun 2027 11:58:56.220   06 Jun 2027 11:58:58.725             2.505           821.906
       155   06 Jun 2027 11:59:22.336   06 Jun 2027 11:59:27.277             4.941           737.844
       156   07 Jun 2027 04:18:36.474   07 Jun 2027 04:19:57.477            81.003         40501.500
       157   07 Jun 2027 04:20:51.254   07 Jun 2027 04:20:55.217             3.963          1981.500
       158   07 Jun 2027 04:22:02.464   07 Jun 2027 04:22:23.285            20.821         10410.500
       159   07 Jun 2027 04:24:06.727   07 Jun 2027 04:24:21.883            15.156          7578.000
       160   07 Jun 2027 04:25:21.692   07 Jun 2027 04:25:42.929            21.237         10618.500
       161   07 Jun 2027 05:43:28.197   07 Jun 2027 05:44:01.586            33.389         16694.500
       162   07 Jun 2027 05:44:09.915   07 Jun 2027 05:44:35.662            25.747         12873.500
       163   07 Jun 2027 05:55:10.918   07 Jun 2027 05:56:06.208            55.290         27645.000
       164   07 Jun 2027 07:17:23.868   07 Jun 2027 07:18:35.568            71.700         35850.000
       165   07 Jun 2027 07:19:24.994   07 Jun 2027 07:20:03.503            38.509         17054.812
       166   07 Jun 2027 08:52:28.963   07 Jun 2027 08:52:46.187            17.224          8540.344
       167   07 Jun 2027 08:52:59.738   07 Jun 2027 08:52:59.738             0.000             0.000
       168   07 Jun 2027 08:53:18.399   07 Jun 2027 08:53:20.038             1.639           800.531
       169   07 Jun 2027 08:54:49.759   07 Jun 2027 08:54:49.759             0.000             0.000
       170   07 Jun 2027 08:55:58.511   07 Jun 2027 08:56:05.994             7.483          3741.500
       171   07 Jun 2027 08:56:18.422   07 Jun 2027 08:56:18.422             0.000             0.000
       172   07 Jun 2027 08:57:38.883   07 Jun 2027 08:57:48.677             9.794          4113.562
       173   07 Jun 2027 10:29:47.316   07 Jun 2027 10:30:00.621            13.305          5943.719
       174   07 Jun 2027 10:30:33.503   07 Jun 2027 10:30:35.509             2.006           382.719
       175   07 Jun 2027 10:31:20.676   07 Jun 2027 10:31:26.768             6.092           832.938
       176   07 Jun 2027 10:33:13.751   07 Jun 2027 10:33:21.182             7.431          3110.562
       177   07 Jun 2027 10:33:29.333   07 Jun 2027 10:33:30.706             1.373           254.719
       178   07 Jun 2027 10:34:12.618   07 Jun 2027 10:34:18.003             5.385          1241.813
       179   07 Jun 2027 10:34:46.064   07 Jun 2027 10:34:49.711             3.647           627.781
       180   07 Jun 2027 10:35:07.905   07 Jun 2027 10:35:11.790             3.885           465.000
       181   07 Jun 2027 10:35:49.826   07 Jun 2027 10:35:56.014             6.188          1188.625
       182   07 Jun 2027 10:36:22.813   07 Jun 2027 10:36:25.002             2.189           623.625
       183   07 Jun 2027 10:36:42.932   07 Jun 2027 10:36:45.799             2.867           560.313
       184   08 Jun 2027 04:30:36.795   08 Jun 2027 04:32:06.790            89.995         44997.500
       185   08 Jun 2027 04:32:14.825   08 Jun 2027 04:32:36.598            21.773         10886.500
       186   08 Jun 2027 04:33:11.501   08 Jun 2027 04:33:11.501             0.000             0.000
       187   08 Jun 2027 04:35:18.110   08 Jun 2027 04:35:50.199            32.089         16044.500
       188   08 Jun 2027 04:37:34.845   08 Jun 2027 04:37:40.921             6.076          3038.000
       189   08 Jun 2027 05:54:57.540   08 Jun 2027 05:56:03.177            65.637         32818.500
       190   08 Jun 2027 05:56:44.973   08 Jun 2027 05:56:47.973             3.000          1500.000
       191   08 Jun 2027 05:57:09.513   08 Jun 2027 05:57:11.450             1.937           968.500
       192   08 Jun 2027 06:07:12.104   08 Jun 2027 06:07:34.382            22.278         11139.000
       193   08 Jun 2027 07:29:08.796   08 Jun 2027 07:30:29.225            80.429         40214.500
       194   08 Jun 2027 07:31:11.417   08 Jun 2027 07:31:20.936             9.519          4759.500
       195   08 Jun 2027 07:34:03.135   08 Jun 2027 07:34:03.135             0.000             0.000
       196   08 Jun 2027 09:03:57.237   08 Jun 2027 09:04:27.259            30.022         13507.187
       197   08 Jun 2027 09:04:42.836   08 Jun 2027 09:04:42.836             0.000             0.000
       198   08 Jun 2027 09:05:41.425   08 Jun 2027 09:05:46.138             4.713          2164.500
       199   08 Jun 2027 09:07:59.184   08 Jun 2027 09:08:09.365            10.181          4004.094
       200   08 Jun 2027 09:09:32.889   08 Jun 2027 09:09:34.599             1.710           855.000
       201   08 Jun 2027 09:09:58.370   08 Jun 2027 09:10:08.004             9.634          2241.312
       202   08 Jun 2027 10:41:45.551   08 Jun 2027 10:41:59.952            14.401          5797.156
       203   08 Jun 2027 10:42:38.586   08 Jun 2027 10:42:39.281             0.695           312.094
       204   08 Jun 2027 10:43:22.112   08 Jun 2027 10:43:32.791            10.679          1303.781
       205   08 Jun 2027 10:45:56.925   08 Jun 2027 10:45:56.925             0.000             0.000
       206   08 Jun 2027 10:47:19.862   08 Jun 2027 10:47:34.580            14.718          7063.000
       207   08 Jun 2027 10:47:52.975   08 Jun 2027 10:47:52.975             0.000             0.000
       208   08 Jun 2027 10:48:25.240   08 Jun 2027 10:48:28.834             3.594          1568.625
       209   08 Jun 2027 10:48:37.567   08 Jun 2027 10:48:41.661             4.094           272.906
       210   08 Jun 2027 10:48:45.154   08 Jun 2027 10:48:45.393             0.239            77.687
       211   09 Jun 2027 03:04:33.356   09 Jun 2027 03:04:56.381            23.025         11512.500
       212   09 Jun 2027 03:04:59.918   09 Jun 2027 03:05:58.598            58.680         29340.000
       213   09 Jun 2027 03:07:14.837   09 Jun 2027 03:07:25.603            10.766          5383.000
       214   09 Jun 2027 03:09:59.828   09 Jun 2027 03:09:59.828             0.000             0.000
       215   09 Jun 2027 04:42:56.237   09 Jun 2027 04:44:22.047            85.810         42905.000
       216   09 Jun 2027 04:45:41.202   09 Jun 2027 04:45:41.576             0.374           187.000
       217   09 Jun 2027 04:46:45.557   09 Jun 2027 04:47:08.739            23.182         11591.000
       218   09 Jun 2027 06:06:57.920   09 Jun 2027 06:07:29.197            31.277         15638.500
       219   09 Jun 2027 06:07:57.435   09 Jun 2027 06:08:08.137            10.702          5351.000
       220   09 Jun 2027 06:08:11.624   09 Jun 2027 06:08:37.416            25.792         12896.000
       221   09 Jun 2027 07:42:55.532   09 Jun 2027 07:44:22.558            87.026         43134.968
       222   09 Jun 2027 09:16:45.461   09 Jun 2027 09:16:58.226            12.765          6230.438
       223   09 Jun 2027 09:18:08.623   09 Jun 2027 09:18:12.135             3.512           434.812
       224   09 Jun 2027 09:18:55.933   09 Jun 2027 09:18:55.933             0.000             0.000
       225   09 Jun 2027 09:19:08.957   09 Jun 2027 09:19:12.038             3.081          1192.937
       226   09 Jun 2027 09:19:36.799   09 Jun 2027 09:19:39.558             2.759           713.906
       227   09 Jun 2027 09:20:21.164   09 Jun 2027 09:20:23.604             2.440          1154.719
       228   09 Jun 2027 09:21:39.654   09 Jun 2027 09:21:41.923             2.269          1134.500
       229   09 Jun 2027 09:22:08.068   09 Jun 2027 09:22:14.694             6.626          1930.437
       230   09 Jun 2027 09:22:46.697   09 Jun 2027 09:22:46.754             0.057            28.500
       231   09 Jun 2027 09:22:59.647   09 Jun 2027 09:23:03.103             3.456          1166.500
       232   09 Jun 2027 09:23:40.081   09 Jun 2027 09:23:40.081             0.000             0.000
       233   09 Jun 2027 09:24:25.722   09 Jun 2027 09:24:30.640             4.918          2360.094
       234   09 Jun 2027 09:24:46.179   09 Jun 2027 09:24:46.179             0.000             0.000
       235   09 Jun 2027 09:25:09.269   09 Jun 2027 09:25:13.354             4.085          1114.406
       236   09 Jun 2027 10:53:52.079   09 Jun 2027 10:54:07.510            15.431          7242.500
       237   09 Jun 2027 10:54:48.880   09 Jun 2027 10:54:50.158             1.278           594.125
       238   09 Jun 2027 10:55:19.691   09 Jun 2027 10:55:21.609             1.918           922.906
       239   09 Jun 2027 10:56:04.007   09 Jun 2027 10:56:07.238             3.231          1235.406
       240   09 Jun 2027 10:56:37.457   09 Jun 2027 10:56:39.277             1.820           527.250
       241   09 Jun 2027 10:57:25.684   09 Jun 2027 10:57:30.049             4.365          1450.219
       242   09 Jun 2027 10:58:37.183   09 Jun 2027 10:58:40.281             3.098          1261.094
       243   09 Jun 2027 10:59:14.082   09 Jun 2027 10:59:16.036             1.954           960.219
       244   09 Jun 2027 10:59:25.390   09 Jun 2027 10:59:28.189             2.799           236.719
       245   09 Jun 2027 11:00:25.756   09 Jun 2027 11:00:27.440             1.684           842.000
       246   09 Jun 2027 11:00:38.539   09 Jun 2027 11:00:40.611             2.072           815.719
       247   10 Jun 2027 03:17:10.884   10 Jun 2027 03:17:54.533            43.649         21824.500
       248   10 Jun 2027 03:18:00.543   10 Jun 2027 03:18:46.916            46.373         23186.500
       249   10 Jun 2027 03:18:48.826   10 Jun 2027 03:19:11.723            22.897         11448.500
       250   10 Jun 2027 03:19:41.009   10 Jun 2027 03:19:54.215            13.206          6603.000
       251   10 Jun 2027 04:55:30.675   10 Jun 2027 04:56:32.863            62.188         31094.000
       252   10 Jun 2027 04:56:41.284   10 Jun 2027 04:56:55.457            14.173          7086.500
       253   10 Jun 2027 05:00:02.789   10 Jun 2027 05:00:06.270             3.481          1740.500
       254   10 Jun 2027 06:18:52.710   10 Jun 2027 06:19:33.636            40.926         20463.000
       255   10 Jun 2027 07:55:16.275   10 Jun 2027 07:56:45.034            88.759         42327.312
       256   10 Jun 2027 07:57:17.175   10 Jun 2027 07:57:19.969             2.794           799.906
       257   10 Jun 2027 09:28:44.145   10 Jun 2027 09:28:55.219            11.074          5178.156
       258   10 Jun 2027 09:31:46.442   10 Jun 2027 09:31:55.868             9.426          4002.781
       259   10 Jun 2027 09:35:20.316   10 Jun 2027 09:35:37.165            16.849          6389.000
       260   10 Jun 2027 09:35:47.443   10 Jun 2027 09:35:47.907             0.464           188.406
       261   10 Jun 2027 09:36:37.684   10 Jun 2027 09:36:37.684             0.000             0.000
       262   10 Jun 2027 09:37:13.389   10 Jun 2027 09:37:15.193             1.804           902.000
       263   10 Jun 2027 11:06:18.102   10 Jun 2027 11:06:32.137            14.035          7017.500
       264   10 Jun 2027 11:06:41.566   10 Jun 2027 11:06:45.606             4.040           800.781
       265   10 Jun 2027 11:07:07.296   10 Jun 2027 11:07:08.746             1.450           330.031
       266   10 Jun 2027 11:07:49.530   10 Jun 2027 11:07:55.091             5.561           810.875
       267   10 Jun 2027 11:08:30.283   10 Jun 2027 11:08:35.488             5.205           411.688
       268   10 Jun 2027 11:09:01.325   10 Jun 2027 11:09:02.897             1.572           706.687
       269   10 Jun 2027 11:09:32.948   10 Jun 2027 11:09:34.572             1.624           713.719
       270   10 Jun 2027 11:09:59.102   10 Jun 2027 11:10:05.277             6.175           178.937
       271   10 Jun 2027 11:10:12.158   10 Jun 2027 11:10:14.924             2.766           191.969
       272   10 Jun 2027 11:10:22.835   10 Jun 2027 11:10:26.014             3.179           137.969
       273   10 Jun 2027 11:11:01.876   10 Jun 2027 11:11:10.691             8.815           945.937
       274   10 Jun 2027 11:11:39.134   10 Jun 2027 11:11:51.728            12.594           853.313
       275   10 Jun 2027 11:12:16.503   10 Jun 2027 11:12:17.919             1.416            72.781
       276   10 Jun 2027 11:12:23.069   10 Jun 2027 11:12:25.493             2.424           160.938
       277   10 Jun 2027 11:12:45.587   10 Jun 2027 11:12:46.016             0.429           214.500
       278   11 Jun 2027 03:29:04.329   11 Jun 2027 03:29:09.578             5.249          2624.500
       279   11 Jun 2027 03:29:34.251   11 Jun 2027 03:31:00.485            86.234         43117.000
       280   11 Jun 2027 03:31:10.169   11 Jun 2027 03:31:31.505            21.336         10668.000
       281   11 Jun 2027 03:32:44.369   11 Jun 2027 03:32:50.870             6.501          3250.500
       282   11 Jun 2027 05:07:45.482   11 Jun 2027 05:09:27.394           101.912         50956.000
       283   11 Jun 2027 06:30:40.364   11 Jun 2027 06:31:36.834            56.470         28235.000
       284   11 Jun 2027 06:32:58.832   11 Jun 2027 06:33:07.695             8.863          4431.500
       285   11 Jun 2027 08:07:17.777   11 Jun 2027 08:08:32.614            74.837         37308.781
       286   11 Jun 2027 08:09:50.727   11 Jun 2027 08:09:59.231             8.504          2039.969
       287   11 Jun 2027 09:42:13.072   11 Jun 2027 09:42:22.401             9.329          4641.281
       288   11 Jun 2027 09:42:41.930   11 Jun 2027 09:42:43.221             1.291            62.062
       289   11 Jun 2027 09:43:16.592   11 Jun 2027 09:43:18.424             1.832           388.563
       290   11 Jun 2027 09:43:48.382   11 Jun 2027 09:43:51.453             3.071           484.156
       291   11 Jun 2027 09:44:35.694   11 Jun 2027 09:44:39.864             4.170           700.906
       292   11 Jun 2027 09:45:07.021   11 Jun 2027 09:45:09.547             2.526           469.906
       293   11 Jun 2027 09:45:16.910   11 Jun 2027 09:45:20.885             3.975           188.125
       294   11 Jun 2027 09:46:14.759   11 Jun 2027 09:46:14.759             0.000             0.000
       295   11 Jun 2027 09:47:42.322   11 Jun 2027 09:47:51.600             9.278          3949.594
       296   11 Jun 2027 09:48:29.136   11 Jun 2027 09:48:32.788             3.652           997.656
       297   11 Jun 2027 09:48:51.094   11 Jun 2027 09:48:52.656             1.562           572.063
       298   11 Jun 2027 09:49:08.696   11 Jun 2027 09:49:10.368             1.672           501.250
       299   11 Jun 2027 11:18:25.767   11 Jun 2027 11:18:40.542            14.775          6018.781
       300   11 Jun 2027 11:18:54.252   11 Jun 2027 11:18:56.436             2.184           124.563
       301   11 Jun 2027 11:19:15.761   11 Jun 2027 11:19:17.325             1.564           603.906
       302   11 Jun 2027 11:20:18.284   11 Jun 2027 11:20:23.658             5.374          1675.219
       303   11 Jun 2027 11:21:03.859   11 Jun 2027 11:21:08.594             4.735          1228.031
       304   11 Jun 2027 11:22:20.510   11 Jun 2027 11:22:25.022             4.512          2154.031
       305   11 Jun 2027 11:22:29.483   11 Jun 2027 11:22:30.413             0.930           139.406
       306   11 Jun 2027 11:22:49.878   11 Jun 2027 11:22:50.071             0.193            96.500
       307   11 Jun 2027 11:22:53.128   11 Jun 2027 11:22:55.605             2.477           325.375
       308   11 Jun 2027 11:23:18.333   11 Jun 2027 11:23:20.977             2.644           580.281
       309   11 Jun 2027 11:23:27.729   11 Jun 2027 11:23:27.729             0.000             0.000
       310   11 Jun 2027 11:24:25.584   11 Jun 2027 11:24:32.516             6.932          2018.969
       311   11 Jun 2027 11:24:56.080   11 Jun 2027 11:24:57.299             1.219           483.750
       312   12 Jun 2027 03:41:13.112   12 Jun 2027 03:42:15.258            62.146         31073.000
       313   12 Jun 2027 03:42:22.044   12 Jun 2027 03:43:22.786            60.742         30371.000
       314   12 Jun 2027 03:43:51.779   12 Jun 2027 03:43:59.794             8.015          4007.500
       315   12 Jun 2027 03:44:11.903   12 Jun 2027 03:44:13.225             1.322           661.000
       316   12 Jun 2027 03:45:10.952   12 Jun 2027 03:45:10.952             0.000             0.000
       317   12 Jun 2027 03:45:57.149   12 Jun 2027 03:46:00.113             2.964          1482.000
       318   12 Jun 2027 03:47:07.231   12 Jun 2027 03:47:08.100             0.869           434.500
       319   12 Jun 2027 05:19:31.696   12 Jun 2027 05:20:03.040            31.344         15672.000
       320   12 Jun 2027 05:20:21.301   12 Jun 2027 05:21:19.851            58.550         29275.000
       321   12 Jun 2027 05:21:29.021   12 Jun 2027 05:21:38.605             9.584          4792.000
       322   12 Jun 2027 05:22:17.302   12 Jun 2027 05:22:36.173            18.871          9435.500
       323   12 Jun 2027 06:42:54.179   12 Jun 2027 06:44:07.952            73.773         36886.500
       324   12 Jun 2027 06:45:45.959   12 Jun 2027 06:45:45.959             0.000             0.000
       325   12 Jun 2027 08:19:26.089   12 Jun 2027 08:19:48.122            22.033         10805.219
       326   12 Jun 2027 08:20:49.266   12 Jun 2027 08:20:49.266             0.000             0.000
       327   12 Jun 2027 08:20:56.503   12 Jun 2027 08:21:01.361             4.858          2136.906
       328   12 Jun 2027 08:21:52.609   12 Jun 2027 08:21:52.609             0.000             0.000
       329   12 Jun 2027 08:22:25.333   12 Jun 2027 08:22:34.342             9.009          2575.406
       330   12 Jun 2027 09:54:36.043   12 Jun 2027 09:54:46.175            10.132          4875.844
       331   12 Jun 2027 09:55:49.976   12 Jun 2027 09:55:53.489             3.513          1750.594
       332   12 Jun 2027 09:59:42.726   12 Jun 2027 10:00:00.262            17.536          7065.094
       333   12 Jun 2027 10:00:54.739   12 Jun 2027 10:00:57.632             2.893           949.031
       334   12 Jun 2027 11:31:01.478   12 Jun 2027 11:31:16.930            15.452          5706.250
       335   12 Jun 2027 11:32:26.433   12 Jun 2027 11:32:30.242             3.809          1652.875
       336   12 Jun 2027 11:32:55.544   12 Jun 2027 11:32:57.923             2.379           340.750
       337   12 Jun 2027 11:33:07.870   12 Jun 2027 11:33:13.032             5.162           265.281
       338   12 Jun 2027 11:34:38.799   12 Jun 2027 11:34:43.860             5.061          2218.437
       339   12 Jun 2027 11:35:02.017   12 Jun 2027 11:35:06.201             4.184           549.562
       340   12 Jun 2027 11:35:12.167   12 Jun 2027 11:35:19.515             7.348           186.438
       341   12 Jun 2027 11:36:22.843   12 Jun 2027 11:36:26.846             4.003          1937.531
       342   12 Jun 2027 11:36:40.023   12 Jun 2027 11:36:43.851             3.828           411.781
       343   13 Jun 2027 03:53:19.340   13 Jun 2027 03:53:21.606             2.266          1133.000
       344   13 Jun 2027 03:54:19.833   13 Jun 2027 03:55:54.440            94.607         47303.500
       345   13 Jun 2027 03:56:09.643   13 Jun 2027 03:56:11.357             1.714           857.000
       346   13 Jun 2027 03:56:37.712   13 Jun 2027 03:56:45.675             7.963          3981.500
       347   13 Jun 2027 03:57:09.832   13 Jun 2027 03:57:46.962            37.130         18565.000
       348   13 Jun 2027 04:01:07.501   13 Jun 2027 04:01:11.220             3.719          1859.500
       349   13 Jun 2027 05:31:28.582   13 Jun 2027 05:32:07.603            39.021         19510.500
       350   13 Jun 2027 05:32:29.735   13 Jun 2027 05:32:58.803            29.068         14534.000
       351   13 Jun 2027 05:33:41.256   13 Jun 2027 05:33:43.401             2.145          1072.500
       352   13 Jun 2027 06:55:29.592   13 Jun 2027 06:57:14.382           104.790         52395.000
       353   13 Jun 2027 08:31:19.264   13 Jun 2027 08:31:43.676            24.412          9834.844
       354   13 Jun 2027 08:31:51.290   13 Jun 2027 08:31:53.283             1.993           237.937
       355   13 Jun 2027 08:33:36.511   13 Jun 2027 08:33:49.816            13.305          2571.313
       356   13 Jun 2027 08:34:05.359   13 Jun 2027 08:34:08.834             3.475           485.719
       357   13 Jun 2027 10:06:15.286   13 Jun 2027 10:06:30.514            15.228          5152.906
       358   13 Jun 2027 10:07:51.168   13 Jun 2027 10:07:59.083             7.915          2223.156
       359   13 Jun 2027 10:09:16.721   13 Jun 2027 10:09:16.721             0.000             0.000
       360   13 Jun 2027 10:11:42.543   13 Jun 2027 10:11:55.015            12.472          6193.125
       361   13 Jun 2027 10:12:23.607   13 Jun 2027 10:12:26.828             3.221           680.250
       362   13 Jun 2027 10:12:58.331   13 Jun 2027 10:13:03.430             5.099           777.156
       363   13 Jun 2027 11:42:34.276   13 Jun 2027 11:42:52.192            17.916          7950.063
       364   13 Jun 2027 11:43:20.456   13 Jun 2027 11:43:22.538             2.082           332.344
       365   13 Jun 2027 11:43:40.059   13 Jun 2027 11:43:42.197             2.138           501.969
       366   13 Jun 2027 11:44:18.489   13 Jun 2027 11:44:21.340             2.851           760.563
       367   13 Jun 2027 11:44:37.600   13 Jun 2027 11:44:43.671             6.071           311.875
       368   13 Jun 2027 11:45:13.411   13 Jun 2027 11:45:16.971             3.560           929.375
       369   13 Jun 2027 11:46:18.896   13 Jun 2027 11:46:22.503             3.607          1785.750
       370   13 Jun 2027 11:46:42.280   13 Jun 2027 11:46:43.964             1.684           547.156
       371   13 Jun 2027 11:46:56.358   13 Jun 2027 11:47:00.285             3.927           340.969
       372   13 Jun 2027 11:47:37.121   13 Jun 2027 11:47:45.258             8.137          1151.125
       373   13 Jun 2027 11:48:02.061   13 Jun 2027 11:48:07.301             5.240           285.187
