uniorb/output/strategy_1/Camera/Camera_KinoSat_110404.txt

KinoSat_110404
-------------------------
    Access    *     Start Time (UTCG)     *     Stop Time (UTCG)  *   Duration (s) *   Data (Mbytes)
         1   01 Jun 2027 04:01:51.229   01 Jun 2027 04:03:28.971            97.742         48871.000
         2   01 Jun 2027 04:03:47.717   01 Jun 2027 04:04:15.603            27.886         13943.000
         3   01 Jun 2027 04:06:14.357   01 Jun 2027 04:06:34.719            20.362         10181.000
         4   01 Jun 2027 04:07:12.318   01 Jun 2027 04:07:18.878             6.560          3280.000
         5   01 Jun 2027 04:07:54.083   01 Jun 2027 04:08:11.720            17.637          8818.500
         6   01 Jun 2027 04:08:28.362   01 Jun 2027 04:08:37.990             9.628          4814.000
         7   01 Jun 2027 05:38:13.400   01 Jun 2027 05:40:57.331           163.931         81965.500
         8   01 Jun 2027 05:41:42.375   01 Jun 2027 05:42:10.189            27.814         13907.000
         9   01 Jun 2027 05:42:40.421   01 Jun 2027 05:42:48.371             7.950          3975.000
        10   01 Jun 2027 05:44:28.535   01 Jun 2027 05:44:32.773             4.238          2119.000
        11   01 Jun 2027 07:15:41.660   01 Jun 2027 07:18:24.426           162.766         81383.000
        12   01 Jun 2027 07:19:05.634   01 Jun 2027 07:19:16.664            11.030          5515.000
        13   01 Jun 2027 07:19:41.213   01 Jun 2027 07:19:48.350             7.137          3568.500
        14   01 Jun 2027 08:51:47.968   01 Jun 2027 08:53:58.342           130.374         65187.000
        15   01 Jun 2027 08:54:26.429   01 Jun 2027 08:54:40.120            13.691          6845.500
        16   02 Jun 2027 04:14:00.213   02 Jun 2027 04:19:32.379           332.166        166083.000
        17   02 Jun 2027 04:19:59.063   02 Jun 2027 04:20:10.026            10.963          5481.500
        18   02 Jun 2027 04:20:33.088   02 Jun 2027 04:20:36.635             3.547          1773.500
        19   02 Jun 2027 05:50:13.212   02 Jun 2027 05:53:28.898           195.686         97843.000
        20   02 Jun 2027 05:54:25.114   02 Jun 2027 05:54:40.103            14.989          7494.500
        21   02 Jun 2027 05:55:39.300   02 Jun 2027 05:55:59.286            19.986          9993.000
        22   02 Jun 2027 07:27:48.078   02 Jun 2027 07:30:17.069           148.991         74495.500
        23   02 Jun 2027 07:30:27.327   02 Jun 2027 07:30:28.488             1.161           580.500
        24   02 Jun 2027 07:30:54.822   02 Jun 2027 07:31:09.429            14.607          7303.500
        25   02 Jun 2027 07:31:18.984   02 Jun 2027 07:31:33.494            14.510          7255.000
        26   02 Jun 2027 07:31:54.558   02 Jun 2027 07:31:55.466             0.908           454.000
        27   02 Jun 2027 07:32:14.190   02 Jun 2027 07:32:19.136             4.946          2473.000
        28   02 Jun 2027 09:03:49.774   02 Jun 2027 09:06:00.104           130.330         65165.000
        29   02 Jun 2027 09:06:01.020   02 Jun 2027 09:06:19.548            18.528          9264.000
        30   02 Jun 2027 09:07:51.781   02 Jun 2027 09:07:55.649             3.868          1934.000
        31   02 Jun 2027 09:08:24.278   02 Jun 2027 09:08:34.486            10.208          5104.000
        32   02 Jun 2027 09:08:45.271   02 Jun 2027 09:08:48.160             2.889          1444.500
        33   03 Jun 2027 04:25:23.918   03 Jun 2027 04:32:36.010           432.092        216046.000
        34   03 Jun 2027 04:32:42.695   03 Jun 2027 04:32:47.228             4.533          2266.500
        35   03 Jun 2027 06:02:00.594   03 Jun 2027 06:05:21.590           200.996        100498.000
        36   03 Jun 2027 06:05:36.804   03 Jun 2027 06:05:41.682             4.878          2439.000
        37   03 Jun 2027 06:06:04.899   03 Jun 2027 06:06:05.289             0.390           195.000
        38   03 Jun 2027 06:07:22.267   03 Jun 2027 06:07:40.988            18.721          9360.500
        39   03 Jun 2027 06:08:06.509   03 Jun 2027 06:08:11.398             4.889          2444.500
        40   03 Jun 2027 07:40:18.486   03 Jun 2027 07:43:06.800           168.314         84157.000
        41   03 Jun 2027 07:43:26.813   03 Jun 2027 07:43:31.382             4.569          2284.500
        42   03 Jun 2027 07:43:48.902   03 Jun 2027 07:43:53.957             5.055          2527.500
        43   03 Jun 2027 09:13:38.117   03 Jun 2027 09:15:05.602            87.485         43742.500
        44   03 Jun 2027 09:15:37.933   03 Jun 2027 09:16:34.534            56.601         28300.500
        45   03 Jun 2027 09:17:25.695   03 Jun 2027 09:17:26.586             0.891           445.500
        46   03 Jun 2027 09:18:57.973   03 Jun 2027 09:19:36.937            38.964         19482.000
        47   03 Jun 2027 09:20:35.364   03 Jun 2027 09:20:38.855             3.491          1745.500
        48   04 Jun 2027 03:00:34.951   04 Jun 2027 03:05:41.303           306.352        153176.000
        49   04 Jun 2027 03:07:02.140   04 Jun 2027 03:07:07.143             5.003          2501.500
        50   04 Jun 2027 04:37:18.574   04 Jun 2027 04:39:11.505           112.931         56465.500
        51   04 Jun 2027 04:39:54.195   04 Jun 2027 04:40:01.772             7.577          3788.500
        52   04 Jun 2027 04:40:37.536   04 Jun 2027 04:40:54.070            16.534          8267.000
        53   04 Jun 2027 04:41:11.726   04 Jun 2027 04:41:19.402             7.676          3838.000
        54   04 Jun 2027 04:42:22.664   04 Jun 2027 04:42:41.801            19.137          9568.500
        55   04 Jun 2027 04:43:56.471   04 Jun 2027 04:44:30.844            34.373         17186.500
        56   04 Jun 2027 06:14:21.639   04 Jun 2027 06:16:58.393           156.754         78377.000
        57   04 Jun 2027 06:17:51.197   04 Jun 2027 06:17:51.197             0.000             0.000
        58   04 Jun 2027 06:18:13.000   04 Jun 2027 06:18:28.500            15.500          7750.000
        59   04 Jun 2027 06:20:26.966   04 Jun 2027 06:20:31.420             4.454          2227.000
        60   04 Jun 2027 07:52:15.838   04 Jun 2027 07:54:35.194           139.356         69678.000
        61   04 Jun 2027 09:25:29.325   04 Jun 2027 09:26:15.251            45.926         22963.000
        62   04 Jun 2027 09:27:16.109   04 Jun 2027 09:27:19.319             3.210          1605.000
        63   04 Jun 2027 09:27:39.199   04 Jun 2027 09:27:50.806            11.607          5803.500
        64   04 Jun 2027 09:28:15.010   04 Jun 2027 09:28:22.914             7.904          3952.000
        65   04 Jun 2027 09:29:34.559   04 Jun 2027 09:29:44.955            10.396          5198.000
        66   04 Jun 2027 09:29:54.623   04 Jun 2027 09:30:04.471             9.848          4924.000
        67   04 Jun 2027 09:31:10.579   04 Jun 2027 09:31:19.353             8.774          4387.000
        68   04 Jun 2027 09:31:22.194   04 Jun 2027 09:31:33.499            11.305          5652.500
        69   04 Jun 2027 09:32:22.636   04 Jun 2027 09:32:25.444             2.808          1404.000
        70   04 Jun 2027 09:33:04.385   04 Jun 2027 09:33:22.078            17.693          8846.500
        71   05 Jun 2027 03:11:55.124   05 Jun 2027 03:14:00.956           125.832         62916.000
        72   05 Jun 2027 03:14:05.341   05 Jun 2027 03:15:21.355            76.014         38007.000
        73   05 Jun 2027 03:15:48.196   05 Jun 2027 03:16:22.525            34.329         17164.500
        74   05 Jun 2027 03:17:25.786   05 Jun 2027 03:17:33.486             7.700          3850.000
        75   05 Jun 2027 03:17:43.234   05 Jun 2027 03:18:24.200            40.966         20483.000
        76   05 Jun 2027 03:19:57.436   05 Jun 2027 03:19:59.301             1.865           932.500
        77   05 Jun 2027 04:49:29.561   05 Jun 2027 04:51:23.601           114.040         57020.000
        78   05 Jun 2027 04:51:46.152   05 Jun 2027 04:51:46.152             0.000             0.000
        79   05 Jun 2027 04:52:28.763   05 Jun 2027 04:52:28.763             0.000             0.000
        80   05 Jun 2027 04:52:38.532   05 Jun 2027 04:53:07.073            28.541         14270.500
        81   05 Jun 2027 04:54:29.711   05 Jun 2027 04:54:38.288             8.577          4288.500
        82   05 Jun 2027 04:55:20.710   05 Jun 2027 04:55:36.631            15.921          7960.500
        83   05 Jun 2027 04:55:37.124   05 Jun 2027 04:55:39.507             2.383          1191.500
        84   05 Jun 2027 06:26:12.326   05 Jun 2027 06:29:05.672           173.346         86673.000
        85   05 Jun 2027 06:30:21.134   05 Jun 2027 06:30:52.032            30.898         15449.000
        86   05 Jun 2027 06:31:57.520   05 Jun 2027 06:32:20.181            22.661         11330.500
        87   05 Jun 2027 08:04:15.693   05 Jun 2027 08:05:37.849            82.156         41078.000
        88   05 Jun 2027 08:05:55.222   05 Jun 2027 08:06:12.978            17.756          8878.000
        89   05 Jun 2027 08:07:10.979   05 Jun 2027 08:07:16.403             5.424          2712.000
        90   05 Jun 2027 08:07:51.391   05 Jun 2027 08:08:03.524            12.133          6066.500
        91   05 Jun 2027 09:37:57.161   05 Jun 2027 09:38:17.315            20.154         10077.000
        92   05 Jun 2027 09:38:45.041   05 Jun 2027 09:38:56.317            11.276          5638.000
        93   05 Jun 2027 09:39:50.059   05 Jun 2027 09:40:09.680            19.621          9810.500
        94   05 Jun 2027 09:41:31.939   05 Jun 2027 09:41:36.522             4.583          2291.500
        95   05 Jun 2027 09:41:46.357   05 Jun 2027 09:41:58.064            11.707          5853.500
        96   05 Jun 2027 09:43:18.045   05 Jun 2027 09:43:30.949            12.904          6452.000
        97   05 Jun 2027 09:43:44.576   05 Jun 2027 09:43:51.226             6.650          3325.000
        98   05 Jun 2027 09:44:10.098   05 Jun 2027 09:44:10.098             0.000             0.000
        99   05 Jun 2027 09:44:32.125   05 Jun 2027 09:44:38.450             6.325          3162.500
       100   06 Jun 2027 03:23:25.513   06 Jun 2027 03:27:07.978           222.465        111232.500
       101   06 Jun 2027 03:27:54.167   06 Jun 2027 03:28:11.833            17.666          8833.000
       102   06 Jun 2027 03:28:29.204   06 Jun 2027 03:28:33.465             4.261          2130.500
       103   06 Jun 2027 03:28:57.992   06 Jun 2027 03:29:12.818            14.826          7413.000
       104   06 Jun 2027 03:29:28.522   06 Jun 2027 03:29:30.922             2.400          1200.000
       105   06 Jun 2027 03:31:02.937   06 Jun 2027 03:31:34.587            31.650         15825.000
       106   06 Jun 2027 03:32:37.487   06 Jun 2027 03:32:39.159             1.672           836.000
       107   06 Jun 2027 05:01:23.780   06 Jun 2027 05:03:48.163           144.383         72191.500
       108   06 Jun 2027 05:04:31.754   06 Jun 2027 05:04:40.677             8.923          4461.500
       109   06 Jun 2027 05:05:15.475   06 Jun 2027 05:05:23.312             7.837          3918.500
       110   06 Jun 2027 05:06:25.222   06 Jun 2027 05:06:28.705             3.483          1741.500
       111   06 Jun 2027 05:07:08.091   06 Jun 2027 05:07:32.617            24.526         12263.000
       112   06 Jun 2027 05:07:51.044   06 Jun 2027 05:07:52.055             1.011           505.500
       113   06 Jun 2027 05:08:38.334   06 Jun 2027 05:08:52.431            14.097          7048.500
       114   06 Jun 2027 06:38:19.596   06 Jun 2027 06:41:01.699           162.103         81051.500
       115   06 Jun 2027 06:41:37.816   06 Jun 2027 06:41:58.455            20.639         10319.500
       116   06 Jun 2027 06:43:24.055   06 Jun 2027 06:43:38.636            14.581          7290.500
       117   06 Jun 2027 06:43:58.107   06 Jun 2027 06:43:59.004             0.897           448.500
       118   06 Jun 2027 06:44:32.607   06 Jun 2027 06:44:49.270            16.663          8331.500
       119   06 Jun 2027 08:16:01.495   06 Jun 2027 08:16:48.918            47.423         23711.500
       120   06 Jun 2027 08:17:40.272   06 Jun 2027 08:17:50.523            10.251          5125.500
       121   06 Jun 2027 08:18:01.800   06 Jun 2027 08:18:12.424            10.624          5312.000
       122   06 Jun 2027 08:18:39.916   06 Jun 2027 08:18:43.728             3.812          1906.000
       123   06 Jun 2027 08:18:57.925   06 Jun 2027 08:19:00.383             2.458          1229.000
       124   06 Jun 2027 08:19:27.517   06 Jun 2027 08:19:44.717            17.200          8600.000
       125   06 Jun 2027 09:50:17.211   06 Jun 2027 09:50:28.321            11.110          5555.000
       126   06 Jun 2027 09:51:11.096   06 Jun 2027 09:51:29.993            18.897          9448.500
       127   06 Jun 2027 09:52:14.271   06 Jun 2027 09:52:18.097             3.826          1913.000
       128   06 Jun 2027 09:52:23.920   06 Jun 2027 09:52:44.833            20.913         10456.500
       129   06 Jun 2027 09:54:28.203   06 Jun 2027 09:54:31.799             3.596          1798.000
       130   06 Jun 2027 09:54:51.155   06 Jun 2027 09:54:53.599             2.444          1222.000
       131   06 Jun 2027 09:55:21.099   06 Jun 2027 09:55:33.234            12.135          6067.500
       132   07 Jun 2027 03:36:19.416   07 Jun 2027 03:41:00.064           280.648        140324.000
       133   07 Jun 2027 03:41:30.168   07 Jun 2027 03:41:30.168             0.000             0.000
       134   07 Jun 2027 03:43:03.779   07 Jun 2027 03:43:20.187            16.408          8204.000
       135   07 Jun 2027 03:44:10.474   07 Jun 2027 03:44:21.555            11.081          5540.500
       136   07 Jun 2027 03:44:53.092   07 Jun 2027 03:44:54.083             0.991           495.500
       137   07 Jun 2027 05:13:45.116   07 Jun 2027 05:16:18.091           152.975         76487.500
       138   07 Jun 2027 05:16:22.700   07 Jun 2027 05:16:40.445            17.745          8872.500
       139   07 Jun 2027 05:17:37.597   07 Jun 2027 05:17:52.717            15.120          7560.000
       140   07 Jun 2027 05:20:17.496   07 Jun 2027 05:20:45.561            28.065         14032.500
       141   07 Jun 2027 06:50:48.667   07 Jun 2027 06:53:39.002           170.335         85167.500
       142   07 Jun 2027 06:54:10.321   07 Jun 2027 06:54:15.823             5.502          2751.000
       143   07 Jun 2027 06:56:18.223   07 Jun 2027 06:56:38.675            20.452         10226.000
       144   07 Jun 2027 08:27:34.021   07 Jun 2027 08:28:28.987            54.966         27483.000
       145   07 Jun 2027 08:28:35.453   07 Jun 2027 08:28:50.804            15.351          7675.500
       146   07 Jun 2027 08:29:39.196   07 Jun 2027 08:29:41.425             2.229          1114.500
       147   07 Jun 2027 08:29:55.214   07 Jun 2027 08:30:03.201             7.987          3993.500
       148   07 Jun 2027 08:30:40.931   07 Jun 2027 08:30:46.772             5.841          2920.500
       149   07 Jun 2027 08:31:02.834   07 Jun 2027 08:31:05.228             2.394          1197.000
       150   07 Jun 2027 10:02:50.172   07 Jun 2027 10:02:57.132             6.960          3480.000
       151   07 Jun 2027 10:04:31.754   07 Jun 2027 10:04:53.287            21.533         10766.500
       152   07 Jun 2027 10:05:39.473   07 Jun 2027 10:05:42.356             2.883          1441.500
       153   07 Jun 2027 10:06:50.726   07 Jun 2027 10:07:20.797            30.071         15035.500
       154   08 Jun 2027 03:48:54.767   08 Jun 2027 03:53:01.551           246.784        123392.000
       155   08 Jun 2027 03:53:31.292   08 Jun 2027 03:54:28.468            57.176         28588.000
       156   08 Jun 2027 03:55:38.455   08 Jun 2027 03:55:43.563             5.108          2554.000
       157   08 Jun 2027 03:56:48.753   08 Jun 2027 03:56:50.968             2.215          1107.500
       158   08 Jun 2027 05:25:57.719   08 Jun 2027 05:28:21.947           144.228         72114.000
       159   08 Jun 2027 05:29:08.686   08 Jun 2027 05:29:30.938            22.252         11126.000
       160   08 Jun 2027 05:29:35.726   08 Jun 2027 05:29:38.633             2.907          1453.500
       161   08 Jun 2027 05:32:16.284   08 Jun 2027 05:32:40.912            24.628         12314.000
       162   08 Jun 2027 07:02:54.716   08 Jun 2027 07:05:26.696           151.980         75990.000
       163   08 Jun 2027 07:05:46.675   08 Jun 2027 07:05:56.697            10.022          5011.000
       164   08 Jun 2027 07:06:16.666   08 Jun 2027 07:06:16.666             0.000             0.000
       165   08 Jun 2027 07:06:25.242   08 Jun 2027 07:06:41.365            16.123          8061.500
       166   08 Jun 2027 07:07:06.309   08 Jun 2027 07:07:11.750             5.441          2720.500
       167   08 Jun 2027 08:39:40.381   08 Jun 2027 08:40:28.602            48.221         24110.500
       168   08 Jun 2027 08:41:26.632   08 Jun 2027 08:41:43.014            16.382          8191.000
       169   08 Jun 2027 08:41:55.647   08 Jun 2027 08:41:56.755             1.108           554.000
       170   08 Jun 2027 08:42:19.074   08 Jun 2027 08:42:28.158             9.084          4542.000
       171   08 Jun 2027 08:42:52.761   08 Jun 2027 08:43:02.781            10.020          5010.000
       172   08 Jun 2027 08:43:11.160   08 Jun 2027 08:43:12.474             1.314           657.000
       173   08 Jun 2027 08:43:40.527   08 Jun 2027 08:43:43.516             2.989          1494.500
       174   08 Jun 2027 08:44:08.967   08 Jun 2027 08:44:14.273             5.306          2653.000
       175   08 Jun 2027 10:17:54.348   08 Jun 2027 10:18:29.831            35.483         17741.500
       176   09 Jun 2027 04:02:06.270   09 Jun 2027 04:07:28.716           322.446        161223.000
       177   09 Jun 2027 04:08:42.921   09 Jun 2027 04:08:52.552             9.631          4815.500
       178   09 Jun 2027 05:38:28.393   09 Jun 2027 05:40:58.198           149.805         74902.500
       179   09 Jun 2027 05:41:42.925   09 Jun 2027 05:41:55.759            12.834          6417.000
       180   09 Jun 2027 05:44:06.663   09 Jun 2027 05:44:47.449            40.786         20393.000
       181   09 Jun 2027 07:15:56.136   09 Jun 2027 07:18:35.193           159.057         79528.500
       182   09 Jun 2027 07:19:07.451   09 Jun 2027 07:19:09.207             1.756           878.000
       183   09 Jun 2027 07:20:05.992   09 Jun 2027 07:20:24.403            18.411          9205.500
       184   09 Jun 2027 08:52:03.007   09 Jun 2027 08:52:54.467            51.460         25730.000
       185   09 Jun 2027 08:53:37.850   09 Jun 2027 08:53:44.670             6.820          3410.000
       186   09 Jun 2027 08:53:56.340   09 Jun 2027 08:54:03.926             7.586          3793.000
       187   09 Jun 2027 08:54:22.137   09 Jun 2027 08:54:42.731            20.594         10297.000
       188   09 Jun 2027 08:56:01.642   09 Jun 2027 08:56:02.019             0.377           188.500
       189   09 Jun 2027 08:56:10.103   09 Jun 2027 08:56:16.741             6.638          3319.000
       190   10 Jun 2027 04:14:14.810   10 Jun 2027 04:19:39.424           324.614        162307.000
       191   10 Jun 2027 04:20:35.164   10 Jun 2027 04:20:47.916            12.752          6376.000
       192   10 Jun 2027 05:50:13.256   10 Jun 2027 05:53:34.689           201.433        100716.500
       193   10 Jun 2027 05:55:06.452   10 Jun 2027 05:55:10.646             4.194          2097.000
       194   10 Jun 2027 05:55:27.716   10 Jun 2027 05:55:41.694            13.978          6989.000
       195   10 Jun 2027 05:56:14.715   10 Jun 2027 05:56:20.194             5.479          2739.500
       196   10 Jun 2027 07:28:02.600   10 Jun 2027 07:30:22.406           139.806         69903.000
       197   10 Jun 2027 07:30:51.976   10 Jun 2027 07:30:53.592             1.616           808.000
       198   10 Jun 2027 07:31:11.602   10 Jun 2027 07:31:18.493             6.891          3445.500
       199   10 Jun 2027 07:31:27.555   10 Jun 2027 07:31:32.327             4.772          2386.000
       200   10 Jun 2027 07:31:53.913   10 Jun 2027 07:31:58.930             5.017          2508.500
       201   10 Jun 2027 07:32:11.398   10 Jun 2027 07:32:13.160             1.762           881.000
       202   10 Jun 2027 07:32:29.349   10 Jun 2027 07:32:33.517             4.168          2084.000
       203   10 Jun 2027 09:04:04.494   10 Jun 2027 09:04:52.682            48.188         24094.000
       204   10 Jun 2027 09:06:42.285   10 Jun 2027 09:07:06.803            24.518         12259.000
       205   10 Jun 2027 09:08:06.921   10 Jun 2027 09:08:10.952             4.031          2015.500
       206   10 Jun 2027 09:08:41.101   10 Jun 2027 09:08:51.835            10.734          5367.000
       207   10 Jun 2027 09:08:53.248   10 Jun 2027 09:09:00.938             7.690          3845.000
       208   11 Jun 2027 04:25:37.742   11 Jun 2027 04:30:55.037           317.295        158647.500
       209   11 Jun 2027 04:31:40.954   11 Jun 2027 04:31:43.186             2.232          1116.000
       210   11 Jun 2027 04:32:50.826   11 Jun 2027 04:33:01.974            11.148          5574.000
       211   11 Jun 2027 06:02:15.500   11 Jun 2027 06:05:19.223           183.723         91861.500
       212   11 Jun 2027 06:07:21.195   11 Jun 2027 06:07:36.771            15.576          7788.000
       213   11 Jun 2027 07:40:33.397   11 Jun 2027 07:42:48.037           134.640         67320.000
       214   11 Jun 2027 07:44:00.638   11 Jun 2027 07:44:23.441            22.803         11401.500
       215   11 Jun 2027 09:13:52.522   11 Jun 2027 09:14:21.747            29.225         14612.500
       216   11 Jun 2027 09:14:35.438   11 Jun 2027 09:14:37.929             2.491          1245.500
       217   11 Jun 2027 09:15:00.807   11 Jun 2027 09:15:19.189            18.382          9191.000
       218   11 Jun 2027 09:16:49.493   11 Jun 2027 09:16:59.567            10.074          5037.000
       219   11 Jun 2027 09:17:34.023   11 Jun 2027 09:17:39.278             5.255          2627.500
       220   11 Jun 2027 09:17:48.070   11 Jun 2027 09:17:51.297             3.227          1613.500
       221   11 Jun 2027 09:17:58.351   11 Jun 2027 09:18:02.380             4.029          2014.500
       222   11 Jun 2027 09:18:33.741   11 Jun 2027 09:18:41.002             7.261          3630.500
       223   11 Jun 2027 09:19:12.958   11 Jun 2027 09:19:19.570             6.612          3306.000
       224   11 Jun 2027 09:19:51.501   11 Jun 2027 09:19:59.326             7.825          3912.500
       225   11 Jun 2027 09:20:25.877   11 Jun 2027 09:20:27.617             1.740           870.000
       226   11 Jun 2027 09:20:51.400   11 Jun 2027 09:21:02.727            11.327          5663.500
       227   12 Jun 2027 03:00:49.247   12 Jun 2027 03:02:01.875            72.628         36314.000
       228   12 Jun 2027 03:02:31.889   12 Jun 2027 03:05:36.288           184.399         92199.500
       229   12 Jun 2027 03:07:18.440   12 Jun 2027 03:07:21.944             3.504          1752.000
       230   12 Jun 2027 04:37:33.656   12 Jun 2027 04:39:25.584           111.928         55964.000
       231   12 Jun 2027 04:39:49.402   12 Jun 2027 04:40:08.929            19.527          9763.500
       232   12 Jun 2027 04:41:06.196   12 Jun 2027 04:41:19.367            13.171          6585.500
       233   12 Jun 2027 04:41:29.063   12 Jun 2027 04:41:31.283             2.220          1110.000
       234   12 Jun 2027 04:42:07.723   12 Jun 2027 04:42:14.874             7.151          3575.500
       235   12 Jun 2027 04:42:39.130   12 Jun 2027 04:42:51.887            12.757          6378.500
       236   12 Jun 2027 04:42:58.202   12 Jun 2027 04:42:58.499             0.297           148.500
       237   12 Jun 2027 04:43:25.059   12 Jun 2027 04:43:38.293            13.234          6617.000
       238   12 Jun 2027 04:44:10.907   12 Jun 2027 04:44:27.659            16.752          8376.000
       239   12 Jun 2027 04:44:45.188   12 Jun 2027 04:44:47.083             1.895           947.500
       240   12 Jun 2027 04:45:01.667   12 Jun 2027 04:45:02.157             0.490           245.000
       241   12 Jun 2027 06:14:36.355   12 Jun 2027 06:17:12.870           156.515         78257.500
       242   12 Jun 2027 06:17:43.615   12 Jun 2027 06:17:48.746             5.131          2565.500
       243   12 Jun 2027 06:18:07.693   12 Jun 2027 06:18:14.907             7.214          3607.000
       244   12 Jun 2027 06:19:03.061   12 Jun 2027 06:19:13.143            10.082          5041.000
       245   12 Jun 2027 06:20:41.453   12 Jun 2027 06:20:45.809             4.356          2178.000
       246   12 Jun 2027 07:52:30.434   12 Jun 2027 07:54:10.365            99.931         49965.500
       247   12 Jun 2027 07:54:31.499   12 Jun 2027 07:54:40.307             8.808          4404.000
       248   12 Jun 2027 07:55:36.269   12 Jun 2027 07:55:51.739            15.470          7735.000
       249   12 Jun 2027 09:25:44.630   12 Jun 2027 09:26:29.919            45.289         22644.500
       250   12 Jun 2027 09:27:53.991   12 Jun 2027 09:27:55.105             1.114           557.000
       251   12 Jun 2027 09:28:08.397   12 Jun 2027 09:28:34.875            26.478         13239.000
       252   12 Jun 2027 09:30:38.750   12 Jun 2027 09:30:47.526             8.776          4388.000
       253   12 Jun 2027 09:31:08.491   12 Jun 2027 09:31:17.526             9.035          4517.500
       254   12 Jun 2027 09:31:50.114   12 Jun 2027 09:32:01.258            11.144          5572.000
       255   12 Jun 2027 09:32:38.681   12 Jun 2027 09:32:40.804             2.123          1061.500
       256   13 Jun 2027 03:12:09.485   13 Jun 2027 03:14:15.866           126.381         63190.500
       257   13 Jun 2027 03:14:19.805   13 Jun 2027 03:15:37.926            78.121         39060.500
       258   13 Jun 2027 03:16:03.303   13 Jun 2027 03:16:38.355            35.052         17526.000
       259   13 Jun 2027 03:17:40.353   13 Jun 2027 03:17:42.461             2.108          1054.000
       260   13 Jun 2027 03:18:40.330   13 Jun 2027 03:19:18.688            38.358         19179.000
       261   13 Jun 2027 04:49:43.876   13 Jun 2027 04:51:41.963           118.087         59043.500
       262   13 Jun 2027 04:52:10.280   13 Jun 2027 04:52:11.738             1.458           729.000
       263   13 Jun 2027 04:52:43.470   13 Jun 2027 04:52:55.906            12.436          6218.000
       264   13 Jun 2027 04:53:33.461   13 Jun 2027 04:53:46.807            13.346          6673.000
       265   13 Jun 2027 04:54:42.129   13 Jun 2027 04:54:56.879            14.750          7375.000
       266   13 Jun 2027 04:55:51.471   13 Jun 2027 04:56:18.563            27.092         13546.000
       267   13 Jun 2027 06:26:26.647   13 Jun 2027 06:28:29.408           122.761         61380.500
       268   13 Jun 2027 06:29:20.450   13 Jun 2027 06:30:04.275            43.825         21912.500
       269   13 Jun 2027 06:30:10.046   13 Jun 2027 06:30:14.036             3.990          1995.000
       270   13 Jun 2027 06:32:03.637   13 Jun 2027 06:32:23.386            19.749          9874.500
       271   13 Jun 2027 06:32:47.057   13 Jun 2027 06:33:03.319            16.262          8131.000
       272   13 Jun 2027 08:04:30.462   13 Jun 2027 08:06:03.267            92.805         46402.500
       273   13 Jun 2027 08:06:49.376   13 Jun 2027 08:07:03.567            14.191          7095.500
       274   13 Jun 2027 08:07:22.149   13 Jun 2027 08:07:26.895             4.746          2373.000
       275   13 Jun 2027 08:08:02.300   13 Jun 2027 08:08:18.494            16.194          8097.000
       276   13 Jun 2027 09:38:12.500   13 Jun 2027 09:38:31.977            19.477          9738.500
       277   13 Jun 2027 09:38:59.750   13 Jun 2027 09:39:11.375            11.625          5812.500
       278   13 Jun 2027 09:39:37.419   13 Jun 2027 09:39:40.231             2.812          1406.000
       279   13 Jun 2027 09:39:57.843   13 Jun 2027 09:40:01.431             3.588          1794.000
       280   13 Jun 2027 09:40:13.260   13 Jun 2027 09:40:23.940            10.680          5340.000
       281   13 Jun 2027 09:41:44.565   13 Jun 2027 09:42:01.014            16.449          8224.500
       282   13 Jun 2027 09:42:42.402   13 Jun 2027 09:42:53.898            11.496          5748.000
       283   13 Jun 2027 09:43:32.861   13 Jun 2027 09:43:45.977            13.116          6558.000
       284   13 Jun 2027 09:44:47.720   13 Jun 2027 09:44:53.742             6.022          3011.000
