uniorb/output/strategy_1/Camera/Camera_KinoSat_111608.txt

KinoSat_111608
-------------------------
    Access    *     Start Time (UTCG)     *     Stop Time (UTCG)  *   Duration (s) *   Data (Mbytes)
         1   01 Jun 2027 04:23:12.039   01 Jun 2027 04:25:31.957           139.918         69959.000
         2   01 Jun 2027 04:27:10.351   01 Jun 2027 04:27:14.744             4.393          2196.500
         3   01 Jun 2027 04:27:40.358   01 Jun 2027 04:27:56.639            16.281          8140.500
         4   01 Jun 2027 05:48:01.693   01 Jun 2027 05:49:13.715            72.022         36011.000
         5   01 Jun 2027 05:59:41.574   01 Jun 2027 06:00:38.983            57.409         28704.500
         6   01 Jun 2027 07:21:59.387   01 Jun 2027 07:23:05.724            66.337         33168.500
         7   01 Jun 2027 07:23:53.309   01 Jun 2027 07:24:37.802            44.493         22246.500
         8   01 Jun 2027 07:25:14.175   01 Jun 2027 07:25:31.864            17.689          8844.500
         9   01 Jun 2027 08:56:53.815   01 Jun 2027 08:57:59.700            65.885         32942.500
        10   01 Jun 2027 08:58:37.201   01 Jun 2027 08:58:54.297            17.096          8548.000
        11   01 Jun 2027 08:59:01.380   01 Jun 2027 08:59:17.875            16.495          8247.500
        12   01 Jun 2027 10:34:25.515   01 Jun 2027 10:36:07.849           102.334         51167.000
        13   01 Jun 2027 10:40:37.754   01 Jun 2027 10:40:54.094            16.340          8170.000
        14   01 Jun 2027 10:41:40.155   01 Jun 2027 10:41:45.328             5.173          2586.500
        15   02 Jun 2027 03:00:00.000   02 Jun 2027 03:00:23.434            23.434         11717.000
        16   02 Jun 2027 03:01:08.822   02 Jun 2027 03:01:11.758             2.936          1468.000
        17   02 Jun 2027 03:01:14.879   02 Jun 2027 03:01:19.333             4.454          2227.000
        18   02 Jun 2027 03:01:59.376   02 Jun 2027 03:02:01.732             2.356          1178.000
        19   02 Jun 2027 03:02:07.023   02 Jun 2027 03:02:12.224             5.201          2600.500
        20   02 Jun 2027 04:35:16.108   02 Jun 2027 04:36:36.373            80.265         40132.500
        21   02 Jun 2027 04:37:29.703   02 Jun 2027 04:37:54.738            25.035         12517.500
        22   02 Jun 2027 04:38:18.624   02 Jun 2027 04:38:22.989             4.365          2182.500
        23   02 Jun 2027 04:39:54.889   02 Jun 2027 04:39:59.578             4.689          2344.500
        24   02 Jun 2027 04:40:26.676   02 Jun 2027 04:40:32.127             5.451          2725.500
        25   02 Jun 2027 04:40:59.352   02 Jun 2027 04:40:59.352             0.000             0.000
        26   02 Jun 2027 04:42:09.881   02 Jun 2027 04:42:10.954             1.073           536.500
        27   02 Jun 2027 05:59:35.246   02 Jun 2027 06:00:38.448            63.202         31601.000
        28   02 Jun 2027 06:01:23.819   02 Jun 2027 06:01:34.726            10.907          5453.500
        29   02 Jun 2027 06:11:55.818   02 Jun 2027 06:12:15.840            20.022         10011.000
        30   02 Jun 2027 07:33:31.242   02 Jun 2027 07:34:51.410            80.168         40084.000
        31   02 Jun 2027 07:35:39.700   02 Jun 2027 07:36:00.329            20.629         10314.500
        32   02 Jun 2027 07:38:37.671   02 Jun 2027 07:38:48.299            10.628          5314.000
        33   02 Jun 2027 09:08:24.465   02 Jun 2027 09:10:25.337           120.872         60436.000
        34   02 Jun 2027 09:11:20.815   02 Jun 2027 09:11:20.815             0.000             0.000
        35   02 Jun 2027 09:12:52.975   02 Jun 2027 09:12:52.975             0.000             0.000
        36   02 Jun 2027 09:15:19.898   02 Jun 2027 09:15:20.927             1.029           514.500
        37   02 Jun 2027 09:17:21.407   02 Jun 2027 09:17:48.208            26.801         13400.500
        38   02 Jun 2027 10:46:20.528   02 Jun 2027 10:47:29.554            69.026         34513.000
        39   02 Jun 2027 10:47:47.254   02 Jun 2027 10:48:07.260            20.006         10003.000
        40   02 Jun 2027 10:52:11.109   02 Jun 2027 10:52:50.852            39.743         19871.500
        41   03 Jun 2027 03:09:10.954   03 Jun 2027 03:09:24.244            13.290          6645.000
        42   03 Jun 2027 03:09:34.099   03 Jun 2027 03:10:27.613            53.514         26757.000
        43   03 Jun 2027 03:10:44.093   03 Jun 2027 03:10:50.655             6.562          3281.000
        44   03 Jun 2027 03:13:25.384   03 Jun 2027 03:13:37.174            11.790          5895.000
        45   03 Jun 2027 03:14:41.391   03 Jun 2027 03:14:46.541             5.150          2575.000
        46   03 Jun 2027 04:47:42.370   03 Jun 2027 04:48:37.790            55.420         27710.000
        47   03 Jun 2027 04:50:14.913   03 Jun 2027 04:50:52.715            37.802         18901.000
        48   03 Jun 2027 06:11:31.044   03 Jun 2027 06:12:02.778            31.734         15867.000
        49   03 Jun 2027 07:47:30.752   03 Jun 2027 07:49:45.274           134.522         67261.000
        50   03 Jun 2027 09:21:18.272   03 Jun 2027 09:23:24.636           126.364         63182.000
        51   03 Jun 2027 09:24:18.639   03 Jun 2027 09:24:18.639             0.000             0.000
        52   03 Jun 2027 09:26:12.839   03 Jun 2027 09:26:30.127            17.288          8644.000
        53   03 Jun 2027 09:28:22.199   03 Jun 2027 09:28:25.017             2.818          1409.000
        54   03 Jun 2027 09:28:33.403   03 Jun 2027 09:28:38.449             5.046          2523.000
        55   03 Jun 2027 09:28:41.627   03 Jun 2027 09:28:43.004             1.377           688.500
        56   03 Jun 2027 10:58:32.848   03 Jun 2027 10:59:31.002            58.154         29077.000
        57   03 Jun 2027 11:00:21.128   03 Jun 2027 11:00:24.914             3.786          1740.000
        58   03 Jun 2027 11:02:01.358   03 Jun 2027 11:02:06.255             4.897          2441.531
        59   03 Jun 2027 11:02:22.675   03 Jun 2027 11:02:33.297            10.622           293.750
        60   03 Jun 2027 11:03:40.781   03 Jun 2027 11:03:43.848             3.067          1533.500
        61   03 Jun 2027 11:03:54.695   03 Jun 2027 11:03:54.695             0.000             0.000
        62   03 Jun 2027 11:03:57.800   03 Jun 2027 11:04:01.180             3.380          1011.375
        63   03 Jun 2027 11:04:40.701   03 Jun 2027 11:04:46.703             6.002          1235.031
        64   03 Jun 2027 11:05:43.106   03 Jun 2027 11:05:44.843             1.737           868.500
        65   04 Jun 2027 03:21:45.205   04 Jun 2027 03:22:12.340            27.135         13567.500
        66   04 Jun 2027 03:22:23.197   04 Jun 2027 03:23:10.594            47.397         23698.500
        67   04 Jun 2027 03:23:29.505   04 Jun 2027 03:23:36.969             7.464          3732.000
        68   04 Jun 2027 03:26:26.710   04 Jun 2027 03:26:44.668            17.958          8979.000
        69   04 Jun 2027 03:26:55.699   04 Jun 2027 03:27:05.538             9.839          4919.500
        70   04 Jun 2027 05:00:01.340   04 Jun 2027 05:01:12.087            70.747         35373.500
        71   04 Jun 2027 05:02:06.592   04 Jun 2027 05:02:09.547             2.955          1477.500
        72   04 Jun 2027 05:02:34.168   04 Jun 2027 05:02:42.641             8.473          4236.500
        73   04 Jun 2027 05:03:21.980   04 Jun 2027 05:03:21.980             0.000             0.000
        74   04 Jun 2027 06:23:23.166   04 Jun 2027 06:24:41.141            77.975         38987.500
        75   04 Jun 2027 07:59:44.795   04 Jun 2027 08:01:12.110            87.315         43657.500
        76   04 Jun 2027 08:01:41.440   04 Jun 2027 08:01:46.684             5.244          2271.938
        77   04 Jun 2027 09:32:03.312   04 Jun 2027 09:32:15.236            11.924          5685.469
        78   04 Jun 2027 09:32:36.793   04 Jun 2027 09:32:37.520             0.727           363.500
        79   04 Jun 2027 09:34:29.357   04 Jun 2027 09:34:47.966            18.609          3066.375
        80   04 Jun 2027 09:35:44.081   04 Jun 2027 09:35:44.081             0.000             0.000
        81   04 Jun 2027 09:36:20.780   04 Jun 2027 09:36:28.090             7.310          1679.906
        82   04 Jun 2027 09:38:11.548   04 Jun 2027 09:38:11.548             0.000             0.000
        83   04 Jun 2027 09:39:00.343   04 Jun 2027 09:39:10.094             9.751          4612.906
        84   04 Jun 2027 09:39:25.488   04 Jun 2027 09:39:25.801             0.313            67.344
        85   04 Jun 2027 09:39:44.763   04 Jun 2027 09:39:48.960             4.197           592.562
        86   04 Jun 2027 09:40:25.093   04 Jun 2027 09:40:27.289             2.196           629.062
        87   04 Jun 2027 09:40:48.078   04 Jun 2027 09:40:50.931             2.853           517.625
        88   04 Jun 2027 09:41:06.235   04 Jun 2027 09:41:07.596             1.361           478.250
        89   04 Jun 2027 09:41:19.429   04 Jun 2027 09:41:22.706             3.277           366.844
        90   04 Jun 2027 09:41:33.661   04 Jun 2027 09:41:36.372             2.711           342.344
        91   04 Jun 2027 09:41:42.119   04 Jun 2027 09:41:44.354             2.235           121.000
        92   04 Jun 2027 11:10:54.029   04 Jun 2027 11:11:07.707            13.678          6229.031
        93   04 Jun 2027 11:11:59.787   04 Jun 2027 11:12:02.446             2.659           731.031
        94   04 Jun 2027 11:12:28.506   04 Jun 2027 11:12:30.863             2.357           814.375
        95   04 Jun 2027 11:13:01.713   04 Jun 2027 11:13:03.859             2.146           964.062
        96   04 Jun 2027 11:13:36.789   04 Jun 2027 11:13:42.201             5.412           721.688
        97   04 Jun 2027 11:14:04.997   04 Jun 2027 11:14:07.031             2.034           677.781
        98   04 Jun 2027 11:14:54.395   04 Jun 2027 11:14:55.319             0.924           361.187
        99   04 Jun 2027 11:15:12.528   04 Jun 2027 11:15:14.874             2.346           330.375
       100   04 Jun 2027 11:15:20.211   04 Jun 2027 11:15:20.837             0.626           166.781
       101   04 Jun 2027 11:15:21.265   04 Jun 2027 11:15:21.383             0.118            13.375
       102   04 Jun 2027 11:15:36.994   04 Jun 2027 11:15:38.606             1.612           375.781
       103   04 Jun 2027 11:16:06.114   04 Jun 2027 11:16:07.125             1.011           505.500
       104   04 Jun 2027 11:17:02.838   04 Jun 2027 11:17:10.257             7.419          1804.531
       105   04 Jun 2027 11:17:27.023   04 Jun 2027 11:17:29.879             2.856           378.656
       106   05 Jun 2027 03:33:52.246   05 Jun 2027 03:34:53.349            61.103         30551.500
       107   05 Jun 2027 03:34:58.950   05 Jun 2027 03:35:36.581            37.631         18815.500
       108   05 Jun 2027 03:36:21.829   05 Jun 2027 03:36:37.007            15.178          7589.000
       109   05 Jun 2027 03:36:47.352   05 Jun 2027 03:36:49.529             2.177          1088.500
       110   05 Jun 2027 03:37:20.005   05 Jun 2027 03:37:22.424             2.419          1209.500
       111   05 Jun 2027 03:39:15.918   05 Jun 2027 03:39:36.006            20.088         10044.000
       112   05 Jun 2027 03:39:57.603   05 Jun 2027 03:40:01.735             4.132          2066.000
       113   05 Jun 2027 05:13:46.742   05 Jun 2027 05:15:01.279            74.537         37268.500
       114   05 Jun 2027 05:15:19.330   05 Jun 2027 05:15:24.038             4.708          2354.000
       115   05 Jun 2027 06:35:26.617   05 Jun 2027 06:36:21.611            54.994         27497.000
       116   05 Jun 2027 06:37:36.356   05 Jun 2027 06:38:03.974            27.618         13809.000
       117   05 Jun 2027 08:11:52.029   05 Jun 2027 08:12:36.861            44.832         20923.750
       118   05 Jun 2027 09:47:00.175   05 Jun 2027 09:47:14.634            14.459          5453.219
       119   05 Jun 2027 09:48:05.548   05 Jun 2027 09:48:14.805             9.257           933.156
       120   05 Jun 2027 09:48:22.615   05 Jun 2027 09:48:23.187             0.572           244.063
       121   05 Jun 2027 09:50:42.780   05 Jun 2027 09:50:42.780             0.000             0.000
       122   05 Jun 2027 09:52:16.371   05 Jun 2027 09:52:29.109            12.738          5784.625
       123   05 Jun 2027 09:52:59.796   05 Jun 2027 09:52:59.796             0.000             0.000
       124   05 Jun 2027 09:53:15.927   05 Jun 2027 09:53:18.854             2.927          1463.063
       125   05 Jun 2027 09:53:41.081   05 Jun 2027 09:53:46.012             4.931           277.125
       126   05 Jun 2027 11:23:21.831   05 Jun 2027 11:23:35.002            13.171          6428.469
       127   05 Jun 2027 11:23:59.034   05 Jun 2027 11:24:00.091             1.057           430.750
       128   05 Jun 2027 11:24:58.468   05 Jun 2027 11:25:00.540             2.072           493.938
       129   05 Jun 2027 11:25:39.837   05 Jun 2027 11:25:43.831             3.994          1215.656
       130   05 Jun 2027 11:26:56.504   05 Jun 2027 11:27:00.554             4.050          2025.000
       131   05 Jun 2027 11:27:19.994   05 Jun 2027 11:27:26.050             6.056           853.531
       132   05 Jun 2027 11:28:30.579   05 Jun 2027 11:28:38.539             7.960          2016.531
       133   05 Jun 2027 11:28:44.555   05 Jun 2027 11:28:46.745             2.190           188.000
       134   06 Jun 2027 03:45:49.290   06 Jun 2027 03:46:38.981            49.691         24845.500
       135   06 Jun 2027 03:46:55.992   06 Jun 2027 03:48:03.367            67.375         33687.500
       136   06 Jun 2027 03:48:23.096   06 Jun 2027 03:48:23.096             0.000             0.000
       137   06 Jun 2027 03:48:48.514   06 Jun 2027 03:48:48.538             0.024            12.000
       138   06 Jun 2027 03:49:10.214   06 Jun 2027 03:49:21.920            11.706          5853.000
       139   06 Jun 2027 03:50:29.504   06 Jun 2027 03:50:35.424             5.920          2960.000
       140   06 Jun 2027 03:51:46.004   06 Jun 2027 03:51:46.550             0.546           273.000
       141   06 Jun 2027 05:24:03.617   06 Jun 2027 05:24:40.804            37.187         18593.500
       142   06 Jun 2027 05:24:53.404   06 Jun 2027 05:25:38.315            44.911         22455.500
       143   06 Jun 2027 05:25:50.876   06 Jun 2027 05:26:14.638            23.762         11881.000
       144   06 Jun 2027 06:47:24.287   06 Jun 2027 06:48:42.933            78.646         39323.000
       145   06 Jun 2027 08:24:01.542   06 Jun 2027 08:24:26.390            24.848         11581.595
       146   06 Jun 2027 08:24:46.036   06 Jun 2027 08:24:46.923             0.887           443.500
       147   06 Jun 2027 08:25:24.518   06 Jun 2027 08:25:27.483             2.965          1180.125
       148   06 Jun 2027 08:25:44.951   06 Jun 2027 08:25:47.040             2.089           545.875
       149   06 Jun 2027 08:26:01.026   06 Jun 2027 08:26:02.179             1.153           258.062
       150   06 Jun 2027 08:26:36.708   06 Jun 2027 08:26:43.637             6.929          1079.031
       151   06 Jun 2027 08:27:25.772   06 Jun 2027 08:27:25.772             0.000             0.000
       152   06 Jun 2027 09:59:11.460   06 Jun 2027 09:59:22.930            11.470          4203.156
       153   06 Jun 2027 09:59:39.633   06 Jun 2027 09:59:45.176             5.543           521.969
       154   06 Jun 2027 10:00:50.723   06 Jun 2027 10:00:53.834             3.111           832.438
       155   06 Jun 2027 10:01:20.907   06 Jun 2027 10:01:22.871             1.964            53.187
       156   06 Jun 2027 10:04:16.595   06 Jun 2027 10:04:38.041            21.446          5428.875
       157   06 Jun 2027 10:05:29.057   06 Jun 2027 10:05:34.120             5.063          1378.500
       158   06 Jun 2027 11:35:28.979   06 Jun 2027 11:35:40.825            11.846          5828.625
       159   06 Jun 2027 11:36:20.670   06 Jun 2027 11:36:26.663             5.993           835.000
       160   06 Jun 2027 11:37:14.631   06 Jun 2027 11:37:16.960             2.329          1164.500
       161   06 Jun 2027 11:37:28.893   06 Jun 2027 11:37:30.660             1.767           592.281
       162   06 Jun 2027 11:38:02.880   06 Jun 2027 11:38:08.724             5.844           855.312
       163   06 Jun 2027 11:38:46.051   06 Jun 2027 11:38:48.309             2.258          1129.000
       164   06 Jun 2027 11:38:58.316   06 Jun 2027 11:38:58.643             0.327           163.500
       165   06 Jun 2027 11:39:19.391   06 Jun 2027 11:39:21.145             1.754           798.250
       166   06 Jun 2027 11:39:35.577   06 Jun 2027 11:39:39.965             4.388           451.000
       167   06 Jun 2027 11:40:22.152   06 Jun 2027 11:40:24.346             2.194           966.750
       168   06 Jun 2027 11:40:33.322   06 Jun 2027 11:40:36.683             3.361           280.500
       169   07 Jun 2027 03:58:54.833   07 Jun 2027 04:00:18.305            83.472         41736.000
       170   07 Jun 2027 04:00:43.934   07 Jun 2027 04:01:17.227            33.293         16646.500
       171   07 Jun 2027 04:01:43.471   07 Jun 2027 04:01:43.471             0.000             0.000
       172   07 Jun 2027 04:02:43.236   07 Jun 2027 04:02:43.317             0.081            40.500
       173   07 Jun 2027 04:05:14.465   07 Jun 2027 04:05:20.009             5.544          2772.000
       174   07 Jun 2027 04:05:45.611   07 Jun 2027 04:05:59.096            13.485          6742.500
       175   07 Jun 2027 05:25:15.733   07 Jun 2027 05:25:24.153             8.420          4210.000
       176   07 Jun 2027 05:36:00.860   07 Jun 2027 05:36:42.998            42.138         21069.000
       177   07 Jun 2027 05:36:48.743   07 Jun 2027 05:37:33.834            45.091         22545.500
       178   07 Jun 2027 05:38:11.766   07 Jun 2027 05:38:16.692             4.926          2463.000
       179   07 Jun 2027 07:00:00.586   07 Jun 2027 07:01:27.534            86.948         43474.000
       180   07 Jun 2027 08:35:45.440   07 Jun 2027 08:36:01.917            16.477          8238.500
       181   07 Jun 2027 08:36:48.352   07 Jun 2027 08:36:59.076            10.724          5243.125
       182   07 Jun 2027 08:37:47.430   07 Jun 2027 08:37:51.278             3.848          1511.062
       183   07 Jun 2027 08:38:34.791   07 Jun 2027 08:38:36.287             1.496           748.000
       184   07 Jun 2027 08:38:39.542   07 Jun 2027 08:38:41.963             2.421           675.281
       185   07 Jun 2027 10:10:37.308   07 Jun 2027 10:10:48.719            11.411          5669.687
       186   07 Jun 2027 10:11:27.521   07 Jun 2027 10:11:35.265             7.744          1157.094
       187   07 Jun 2027 10:12:20.515   07 Jun 2027 10:12:23.262             2.747           990.062
       188   07 Jun 2027 10:16:16.199   07 Jun 2027 10:16:31.555            15.356          7220.531
       189   07 Jun 2027 10:17:24.395   07 Jun 2027 10:17:27.594             3.199          1125.313
       190   07 Jun 2027 10:17:44.588   07 Jun 2027 10:17:47.142             2.554           369.156
       191   07 Jun 2027 11:47:12.223   07 Jun 2027 11:47:27.079            14.856          6885.688
       192   07 Jun 2027 11:47:39.628   07 Jun 2027 11:47:42.524             2.896           265.938
       193   07 Jun 2027 11:47:59.759   07 Jun 2027 11:48:00.554             0.795           182.781
       194   07 Jun 2027 11:48:17.755   07 Jun 2027 11:48:18.869             1.114           434.813
       195   07 Jun 2027 11:48:35.470   07 Jun 2027 11:48:42.350             6.880           251.188
       196   07 Jun 2027 11:49:04.374   07 Jun 2027 11:49:04.982             0.608           304.000
       197   07 Jun 2027 11:52:04.085   07 Jun 2027 11:52:17.028            12.943          5718.719
       198   07 Jun 2027 11:52:58.287   07 Jun 2027 11:52:59.507             1.220           610.000
       199   07 Jun 2027 11:53:06.661   07 Jun 2027 11:53:13.179             6.518           902.906
       200   08 Jun 2027 04:11:15.446   08 Jun 2027 04:12:31.816            76.370         38185.000
       201   08 Jun 2027 04:12:42.446   08 Jun 2027 04:12:51.101             8.655          4327.500
       202   08 Jun 2027 04:13:08.698   08 Jun 2027 04:13:16.367             7.669          3834.500
       203   08 Jun 2027 04:14:19.291   08 Jun 2027 04:14:29.234             9.943          4971.500
       204   08 Jun 2027 04:17:16.528   08 Jun 2027 04:17:32.483            15.955          7977.500
       205   08 Jun 2027 04:18:04.440   08 Jun 2027 04:18:37.394            32.954         16477.000
       206   08 Jun 2027 05:36:32.880   08 Jun 2027 05:37:45.682            72.802         36401.000
       207   08 Jun 2027 05:47:59.222   08 Jun 2027 05:48:50.755            51.533         25766.500
       208   08 Jun 2027 07:10:38.625   08 Jun 2027 07:11:37.571            58.946         29473.000
       209   08 Jun 2027 07:12:14.256   08 Jun 2027 07:12:59.493            45.237         22430.719
       210   08 Jun 2027 07:14:52.926   08 Jun 2027 07:14:52.926             0.000             0.000
       211   08 Jun 2027 08:45:59.734   08 Jun 2027 08:46:15.494            15.760          7339.563
       212   08 Jun 2027 08:47:34.524   08 Jun 2027 08:47:47.740            13.216          1166.469
       213   08 Jun 2027 08:49:32.093   08 Jun 2027 08:49:40.487             8.394          3182.156
       214   08 Jun 2027 10:22:27.799   08 Jun 2027 10:22:40.009            12.210          4286.219
       215   08 Jun 2027 10:25:42.898   08 Jun 2027 10:25:54.813            11.915          5522.906
       216   08 Jun 2027 10:26:53.488   08 Jun 2027 10:27:02.787             9.299          1823.937
       217   08 Jun 2027 10:27:32.351   08 Jun 2027 10:27:34.229             1.878           923.875
       218   08 Jun 2027 10:27:36.136   08 Jun 2027 10:27:38.087             1.951            59.594
       219   08 Jun 2027 10:27:57.273   08 Jun 2027 10:28:02.565             5.292           599.563
       220   08 Jun 2027 10:28:11.680   08 Jun 2027 10:28:12.870             1.190           268.187
       221   08 Jun 2027 10:29:11.442   08 Jun 2027 10:29:15.978             4.536          1761.781
       222   08 Jun 2027 10:29:37.417   08 Jun 2027 10:29:37.648             0.231           115.500
       223   08 Jun 2027 11:59:33.759   08 Jun 2027 11:59:54.995            21.236          8426.094
       224   09 Jun 2027 04:23:29.648   09 Jun 2027 04:25:07.265            97.617         48808.500
       225   09 Jun 2027 04:26:13.055   09 Jun 2027 04:26:26.329            13.274          6637.000
       226   09 Jun 2027 04:27:15.209   09 Jun 2027 04:27:28.460            13.251          6625.500
       227   09 Jun 2027 04:28:31.464   09 Jun 2027 04:28:38.960             7.496          3748.000
       228   09 Jun 2027 04:28:44.496   09 Jun 2027 04:28:48.747             4.251          2125.500
       229   09 Jun 2027 04:30:18.736   09 Jun 2027 04:30:35.329            16.593          8296.500
       230   09 Jun 2027 05:47:46.878   09 Jun 2027 05:48:53.568            66.690         33345.000
       231   09 Jun 2027 05:59:58.522   09 Jun 2027 06:00:56.730            58.208         29104.000
       232   09 Jun 2027 07:22:14.981   09 Jun 2027 07:23:21.751            66.770         33385.000
       233   09 Jun 2027 07:24:10.460   09 Jun 2027 07:24:41.481            31.021         14262.969
       234   09 Jun 2027 07:25:45.323   09 Jun 2027 07:25:45.323             0.000             0.000
       235   09 Jun 2027 08:57:08.785   09 Jun 2027 08:57:23.287            14.502          6668.031
       236   09 Jun 2027 08:57:40.256   09 Jun 2027 08:57:45.711             5.455           417.406
       237   09 Jun 2027 08:58:18.809   09 Jun 2027 08:58:18.809             0.000             0.000
       238   09 Jun 2027 08:58:44.412   09 Jun 2027 08:58:51.712             7.300          1162.844
       239   09 Jun 2027 09:02:27.585   09 Jun 2027 09:02:47.618            20.033          6740.844
       240   09 Jun 2027 10:34:42.271   09 Jun 2027 10:34:54.595            12.324          5330.469
       241   09 Jun 2027 10:35:08.665   09 Jun 2027 10:35:10.901             2.236           236.656
       242   09 Jun 2027 10:35:28.563   09 Jun 2027 10:35:33.507             4.944           300.875
       243   09 Jun 2027 10:35:38.243   09 Jun 2027 10:35:39.418             1.175            51.469
       244   09 Jun 2027 10:35:42.991   09 Jun 2027 10:35:43.754             0.763           111.656
       245   09 Jun 2027 10:36:29.758   09 Jun 2027 10:36:33.573             3.815          1209.125
       246   09 Jun 2027 10:36:41.945   09 Jun 2027 10:36:45.066             3.121           146.062
       247   09 Jun 2027 10:37:27.366   09 Jun 2027 10:37:31.050             3.684           591.656
       248   09 Jun 2027 10:38:49.501   09 Jun 2027 10:38:57.192             7.691          2391.937
       249   09 Jun 2027 10:39:05.828   09 Jun 2027 10:39:06.879             1.051           269.875
       250   09 Jun 2027 10:39:16.511   09 Jun 2027 10:39:16.836             0.325           126.750
       251   09 Jun 2027 10:40:00.768   09 Jun 2027 10:40:06.051             5.283          1056.906
       252   09 Jun 2027 10:40:32.192   09 Jun 2027 10:40:43.019            10.827           803.437
       253   09 Jun 2027 10:41:09.192   09 Jun 2027 10:41:10.656             1.464           710.937
       254   09 Jun 2027 10:41:16.035   09 Jun 2027 10:41:16.869             0.834             2.438
       255   09 Jun 2027 10:41:23.328   09 Jun 2027 10:41:31.849             8.521            25.938
       256   10 Jun 2027 03:00:00.000   10 Jun 2027 03:00:16.515            16.515          8257.500
       257   10 Jun 2027 03:00:59.078   10 Jun 2027 03:01:06.612             7.534          3767.000
       258   10 Jun 2027 03:01:25.760   10 Jun 2027 03:01:26.243             0.483           241.500
       259   10 Jun 2027 03:02:05.481   10 Jun 2027 03:02:17.445            11.964          5982.000
       260   10 Jun 2027 04:35:34.697   10 Jun 2027 04:37:07.989            93.292         46646.000
       261   10 Jun 2027 04:38:04.283   10 Jun 2027 04:38:17.336            13.053          6526.500
       262   10 Jun 2027 04:39:34.857   10 Jun 2027 04:40:05.427            30.570         15285.000
       263   10 Jun 2027 05:59:52.294   10 Jun 2027 06:00:55.111            62.817         31408.500
       264   10 Jun 2027 06:12:14.357   10 Jun 2027 06:12:31.350            16.993          8496.500
       265   10 Jun 2027 07:33:44.556   10 Jun 2027 07:35:07.770            83.214         41607.000
       266   10 Jun 2027 07:35:43.868   10 Jun 2027 07:35:56.634            12.766          6383.000
       267   10 Jun 2027 07:38:36.086   10 Jun 2027 07:38:47.698            11.612          5685.031
       268   10 Jun 2027 09:08:39.510   10 Jun 2027 09:08:53.150            13.640          6325.187
       269   10 Jun 2027 09:09:29.002   10 Jun 2027 09:09:29.002             0.000             0.000
       270   10 Jun 2027 09:10:43.532   10 Jun 2027 09:10:49.435             5.903          2549.406
       271   10 Jun 2027 09:11:38.986   10 Jun 2027 09:11:38.986             0.000             0.000
       272   10 Jun 2027 09:12:11.191   10 Jun 2027 09:12:19.958             8.767          2482.406
       273   10 Jun 2027 09:14:21.565   10 Jun 2027 09:14:30.528             8.963          3737.313
       274   10 Jun 2027 09:15:38.112   10 Jun 2027 09:15:48.349            10.237          2112.000
       275   10 Jun 2027 09:15:53.744   10 Jun 2027 09:16:00.756             7.012            86.063
       276   10 Jun 2027 09:17:09.693   10 Jun 2027 09:17:14.377             4.684          2150.094
       277   10 Jun 2027 09:17:25.381   10 Jun 2027 09:17:26.884             1.503            44.813
       278   10 Jun 2027 09:18:04.032   10 Jun 2027 09:18:05.432             1.400           700.000
       279   10 Jun 2027 10:46:36.423   10 Jun 2027 10:46:48.339            11.916          5958.000
       280   10 Jun 2027 10:47:03.864   10 Jun 2027 10:47:03.864             0.000             0.000
       281   10 Jun 2027 10:49:34.880   10 Jun 2027 10:49:49.904            15.024          5334.500
       282   10 Jun 2027 10:50:40.358   10 Jun 2027 10:50:41.286             0.928           464.000
       283   10 Jun 2027 10:52:09.960   10 Jun 2027 10:52:09.960             0.000             0.000
       284   10 Jun 2027 10:52:25.599   10 Jun 2027 10:52:35.487             9.888          3604.500
       285   10 Jun 2027 10:53:16.385   10 Jun 2027 10:53:19.066             2.681          1122.125
       286   10 Jun 2027 10:53:27.294   10 Jun 2027 10:53:29.529             2.235           257.125
       287   10 Jun 2027 10:53:35.830   10 Jun 2027 10:53:36.780             0.950            27.125
       288   11 Jun 2027 03:09:28.488   11 Jun 2027 03:10:21.546            53.058         26529.000
       289   11 Jun 2027 03:10:48.284   11 Jun 2027 03:10:59.988            11.704          5852.000
       290   11 Jun 2027 03:11:23.175   11 Jun 2027 03:11:29.113             5.938          2969.000
       291   11 Jun 2027 03:14:33.842   11 Jun 2027 03:14:44.100            10.258          5129.000
       292   11 Jun 2027 04:47:59.407   11 Jun 2027 04:49:00.438            61.031         30515.500
       293   11 Jun 2027 04:49:26.185   11 Jun 2027 04:49:43.494            17.309          8654.500
       294   11 Jun 2027 04:50:29.625   11 Jun 2027 04:50:32.349             2.724          1362.000
       295   11 Jun 2027 04:50:43.811   11 Jun 2027 04:51:06.986            23.175         11587.500
       296   11 Jun 2027 06:11:48.798   11 Jun 2027 06:12:56.529            67.731         33865.500
       297   11 Jun 2027 07:47:47.849   11 Jun 2027 07:49:30.199           102.350         50097.687
       298   11 Jun 2027 07:49:49.008   11 Jun 2027 07:49:50.378             1.370           178.813
       299   11 Jun 2027 07:50:17.738   11 Jun 2027 07:50:24.270             6.532           624.312
       300   11 Jun 2027 09:21:33.521   11 Jun 2027 09:21:51.486            17.965          5777.344
       301   11 Jun 2027 09:23:12.333   11 Jun 2027 09:23:18.788             6.455           807.969
       302   11 Jun 2027 09:23:30.426   11 Jun 2027 09:23:32.147             1.721           363.688
       303   11 Jun 2027 09:24:36.760   11 Jun 2027 09:24:41.297             4.537          1844.375
       304   11 Jun 2027 09:29:16.077   11 Jun 2027 09:29:33.103            17.026          8284.844
       305   11 Jun 2027 09:29:56.152   11 Jun 2027 09:29:56.152             0.000             0.000
       306   11 Jun 2027 10:58:57.035   11 Jun 2027 10:59:13.094            16.059          7256.688
       307   11 Jun 2027 10:59:28.996   11 Jun 2027 10:59:30.857             1.861           302.750
       308   11 Jun 2027 11:00:16.144   11 Jun 2027 11:00:16.635             0.491            61.375
       309   11 Jun 2027 11:00:31.118   11 Jun 2027 11:00:31.118             0.000             0.000
       310   11 Jun 2027 11:03:10.259   11 Jun 2027 11:03:24.227            13.968          5425.750
       311   11 Jun 2027 11:03:31.830   11 Jun 2027 11:03:32.750             0.920            59.656
       312   11 Jun 2027 11:03:59.158   11 Jun 2027 11:04:00.485             1.327           113.281
       313   11 Jun 2027 11:04:09.357   11 Jun 2027 11:04:11.900             2.543           277.250
       314   11 Jun 2027 11:04:31.612   11 Jun 2027 11:04:35.432             3.820           589.094
       315   11 Jun 2027 11:05:37.959   11 Jun 2027 11:05:42.883             4.924          1748.937
       316   12 Jun 2027 03:22:01.552   12 Jun 2027 03:22:28.172            26.620         13310.000
       317   12 Jun 2027 03:22:39.207   12 Jun 2027 03:24:07.940            88.733         44366.500
       318   12 Jun 2027 03:24:31.511   12 Jun 2027 03:24:45.250            13.739          6869.500
       319   12 Jun 2027 03:27:23.759   12 Jun 2027 03:27:27.446             3.687          1843.500
       320   12 Jun 2027 03:28:08.308   12 Jun 2027 03:28:11.062             2.754          1377.000
       321   12 Jun 2027 05:00:18.064   12 Jun 2027 05:00:53.583            35.519         17759.500
       322   12 Jun 2027 05:01:10.487   12 Jun 2027 05:01:43.715            33.228         16614.000
       323   12 Jun 2027 05:02:24.305   12 Jun 2027 05:02:27.801             3.496          1748.000
       324   12 Jun 2027 05:02:48.462   12 Jun 2027 05:02:57.157             8.695          4347.500
       325   12 Jun 2027 05:03:43.571   12 Jun 2027 05:04:11.960            28.389         14194.500
       326   12 Jun 2027 06:23:40.247   12 Jun 2027 06:24:35.598            55.351         27675.500
       327   12 Jun 2027 06:25:09.048   12 Jun 2027 06:25:09.048             0.000             0.000
       328   12 Jun 2027 08:00:02.397   12 Jun 2027 08:01:01.618            59.221         29610.500
       329   12 Jun 2027 08:01:54.838   12 Jun 2027 08:02:03.793             8.955          3189.000
       330   12 Jun 2027 08:02:35.845   12 Jun 2027 08:02:39.151             3.306           253.406
       331   12 Jun 2027 08:03:07.840   12 Jun 2027 08:03:11.151             3.311           841.187
       332   12 Jun 2027 09:34:06.426   12 Jun 2027 09:34:16.686            10.260          4694.688
       333   12 Jun 2027 09:36:38.874   12 Jun 2027 09:36:38.874             0.000             0.000
       334   12 Jun 2027 09:36:52.291   12 Jun 2027 09:37:02.030             9.739          3921.969
       335   12 Jun 2027 09:37:12.795   12 Jun 2027 09:37:13.012             0.217            66.406
       336   12 Jun 2027 09:38:28.567   12 Jun 2027 09:38:34.597             6.030          2116.344
       337   12 Jun 2027 09:39:13.538   12 Jun 2027 09:39:15.784             2.246          1123.000
       338   12 Jun 2027 09:40:33.384   12 Jun 2027 09:40:35.967             2.583          1291.500
       339   12 Jun 2027 09:40:38.141   12 Jun 2027 09:40:42.159             4.018          1295.344
       340   12 Jun 2027 09:41:35.028   12 Jun 2027 09:41:38.817             3.789          1396.563
       341   12 Jun 2027 09:41:49.470   12 Jun 2027 09:41:51.095             1.625           317.500
       342   12 Jun 2027 09:41:58.139   12 Jun 2027 09:41:59.362             1.223           168.000
       343   12 Jun 2027 11:11:11.015   12 Jun 2027 11:11:30.471            19.456          6609.906
       344   12 Jun 2027 11:11:44.472   12 Jun 2027 11:11:48.099             3.627           223.563
       345   12 Jun 2027 11:12:01.755   12 Jun 2027 11:12:03.562             1.807           426.750
       346   12 Jun 2027 11:12:48.002   12 Jun 2027 11:12:54.105             6.103           989.406
       347   12 Jun 2027 11:13:59.461   12 Jun 2027 11:14:03.575             4.114          1393.594
       348   12 Jun 2027 11:14:59.889   12 Jun 2027 11:15:05.453             5.564          1637.687
       349   12 Jun 2027 11:15:21.987   12 Jun 2027 11:15:24.501             2.514           360.156
       350   12 Jun 2027 11:15:33.307   12 Jun 2027 11:15:35.287             1.980           275.187
       351   12 Jun 2027 11:15:35.651   12 Jun 2027 11:15:35.849             0.198            11.375
       352   12 Jun 2027 11:15:44.182   12 Jun 2027 11:15:44.919             0.737           211.313
       353   12 Jun 2027 11:16:06.195   12 Jun 2027 11:16:08.443             2.248           639.281
       354   12 Jun 2027 11:17:09.627   12 Jun 2027 11:17:13.425             3.798          1861.063
       355   12 Jun 2027 11:17:47.575   12 Jun 2027 11:17:53.507             5.932          1067.188
       356   13 Jun 2027 03:34:07.818   13 Jun 2027 03:35:09.256            61.438         30719.000
       357   13 Jun 2027 03:35:15.404   13 Jun 2027 03:36:15.427            60.023         30011.500
       358   13 Jun 2027 03:36:49.213   13 Jun 2027 03:36:49.213             0.000             0.000
       359   13 Jun 2027 03:39:42.767   13 Jun 2027 03:39:53.657            10.890          5445.000
       360   13 Jun 2027 03:40:12.049   13 Jun 2027 03:40:20.708             8.659          4329.500
       361   13 Jun 2027 05:13:11.298   13 Jun 2027 05:14:16.151            64.853         32426.500
       362   13 Jun 2027 05:14:50.766   13 Jun 2027 05:14:56.560             5.794          2897.000
       363   13 Jun 2027 05:16:39.536   13 Jun 2027 05:16:45.084             5.548          2774.000
       364   13 Jun 2027 06:35:44.008   13 Jun 2027 06:36:58.795            74.787         37393.500
       365   13 Jun 2027 06:37:06.627   13 Jun 2027 06:37:12.282             5.655          2827.500
       366   13 Jun 2027 08:12:13.190   13 Jun 2027 08:13:06.973            53.783         26418.626
       367   13 Jun 2027 08:13:23.849   13 Jun 2027 08:13:27.003             3.154           527.375
       368   13 Jun 2027 08:14:22.348   13 Jun 2027 08:14:30.088             7.740          1303.219
       369   13 Jun 2027 08:15:12.652   13 Jun 2027 08:15:16.395             3.743          1317.844
       370   13 Jun 2027 09:47:18.189   13 Jun 2027 09:47:30.950            12.761          5280.656
       371   13 Jun 2027 09:47:56.767   13 Jun 2027 09:47:56.851             0.084            42.000
       372   13 Jun 2027 09:48:14.179   13 Jun 2027 09:48:16.774             2.595          1148.343
       373   13 Jun 2027 09:48:40.674   13 Jun 2027 09:48:40.674             0.000             0.000
       374   13 Jun 2027 09:50:26.297   13 Jun 2027 09:50:33.934             7.637          3800.937
       375   13 Jun 2027 09:51:14.551   13 Jun 2027 09:51:17.175             2.624          1220.250
       376   13 Jun 2027 09:52:04.193   13 Jun 2027 09:52:09.833             5.640          1053.281
       377   13 Jun 2027 09:52:34.979   13 Jun 2027 09:52:36.435             1.456           627.844
       378   13 Jun 2027 09:53:11.480   13 Jun 2027 09:53:14.643             3.163           813.969
       379   13 Jun 2027 09:53:32.558   13 Jun 2027 09:53:33.709             1.151           559.844
       380   13 Jun 2027 09:53:47.557   13 Jun 2027 09:53:50.742             3.185           209.562
       381   13 Jun 2027 11:23:40.254   13 Jun 2027 11:23:52.305            12.051          5709.250
       382   13 Jun 2027 11:24:15.519   13 Jun 2027 11:24:16.318             0.799           361.594
       383   13 Jun 2027 11:25:14.433   13 Jun 2027 11:25:15.552             1.119           394.594
       384   13 Jun 2027 11:25:32.218   13 Jun 2027 11:25:33.576             1.358           493.844
       385   13 Jun 2027 11:26:55.940   13 Jun 2027 11:27:02.936             6.996          2571.594
       386   13 Jun 2027 11:27:15.364   13 Jun 2027 11:27:15.364             0.000             0.000
       387   13 Jun 2027 11:27:34.648   13 Jun 2027 11:27:36.825             2.177           905.781
       388   13 Jun 2027 11:27:56.953   13 Jun 2027 11:27:57.959             1.006           503.000
       389   13 Jun 2027 11:28:12.568   13 Jun 2027 11:28:14.988             2.420           582.531
       390   13 Jun 2027 11:29:15.589   13 Jun 2027 11:29:21.170             5.581          1856.875
       391   13 Jun 2027 11:29:50.258   13 Jun 2027 11:29:51.511             1.253           573.969
