uniorb/output/strategy_1/Camera/Camera_KinoSat_111507.txt

KinoSat_111507
-------------------------
    Access    *     Start Time (UTCG)     *     Stop Time (UTCG)  *   Duration (s) *   Data (Mbytes)
         1   01 Jun 2027 03:00:00.000   01 Jun 2027 03:00:38.579            38.579         19289.500
         2   01 Jun 2027 03:01:48.909   01 Jun 2027 03:01:48.909             0.000             0.000
         3   01 Jun 2027 03:02:19.613   01 Jun 2027 03:02:21.974             2.361          1180.500
         4   01 Jun 2027 03:02:58.419   01 Jun 2027 03:03:02.562             4.143          2071.500
         5   01 Jun 2027 03:03:09.986   01 Jun 2027 03:03:14.715             4.729          2364.500
         6   01 Jun 2027 03:04:30.947   01 Jun 2027 03:04:44.566            13.619          6809.500
         7   01 Jun 2027 03:04:52.878   01 Jun 2027 03:05:06.727            13.849          6924.500
         8   01 Jun 2027 04:36:58.929   01 Jun 2027 04:38:38.851            99.922         49961.000
         9   01 Jun 2027 04:38:50.897   01 Jun 2027 04:38:51.801             0.904           452.000
        10   01 Jun 2027 04:40:37.606   01 Jun 2027 04:40:56.210            18.604          9302.000
        11   01 Jun 2027 04:41:25.062   01 Jun 2027 04:41:50.054            24.992         12496.000
        12   01 Jun 2027 06:00:37.951   01 Jun 2027 06:01:56.497            78.546         39273.000
        13   01 Jun 2027 07:37:01.288   01 Jun 2027 07:38:51.985           110.697         55348.500
        14   01 Jun 2027 07:39:24.835   01 Jun 2027 07:39:54.459            29.624         14812.000
        15   01 Jun 2027 07:40:28.436   01 Jun 2027 07:40:28.436             0.000             0.000
        16   01 Jun 2027 09:11:06.453   01 Jun 2027 09:11:47.707            41.254         20627.000
        17   01 Jun 2027 09:12:46.709   01 Jun 2027 09:13:12.688            25.979         12989.500
        18   01 Jun 2027 09:14:07.173   01 Jun 2027 09:14:25.916            18.743          9371.500
        19   01 Jun 2027 09:15:27.548   01 Jun 2027 09:16:10.896            43.348         21674.000
        20   01 Jun 2027 09:18:37.631   01 Jun 2027 09:18:49.891            12.260          6130.000
        21   01 Jun 2027 09:18:59.941   01 Jun 2027 09:19:01.053             1.112           556.000
        22   01 Jun 2027 10:48:08.902   01 Jun 2027 10:50:16.478           127.576         63788.000
        23   01 Jun 2027 10:52:52.746   01 Jun 2027 10:53:11.101            18.355          9177.500
        24   02 Jun 2027 03:11:05.785   02 Jun 2027 03:12:07.280            61.495         30747.500
        25   02 Jun 2027 03:12:13.689   02 Jun 2027 03:12:37.989            24.300         12150.000
        26   02 Jun 2027 03:13:20.193   02 Jun 2027 03:13:21.962             1.769           884.500
        27   02 Jun 2027 03:15:20.207   02 Jun 2027 03:15:41.506            21.299         10649.500
        28   02 Jun 2027 04:50:11.372   02 Jun 2027 04:51:36.435            85.063         42531.500
        29   02 Jun 2027 04:51:48.774   02 Jun 2027 04:51:56.351             7.577          3788.500
        30   02 Jun 2027 06:12:42.892   02 Jun 2027 06:13:36.972            54.080         27040.000
        31   02 Jun 2027 06:14:11.905   02 Jun 2027 06:14:11.905             0.000             0.000
        32   02 Jun 2027 06:15:01.100   02 Jun 2027 06:15:01.100             0.000             0.000
        33   02 Jun 2027 07:49:11.865   02 Jun 2027 07:51:12.843           120.978         60489.000
        34   02 Jun 2027 09:24:17.994   02 Jun 2027 09:26:00.733           102.739         51369.500
        35   02 Jun 2027 09:26:13.114   02 Jun 2027 09:26:35.375            22.261         11130.500
        36   02 Jun 2027 09:30:55.565   02 Jun 2027 09:31:04.539             8.974          4487.000
        37   02 Jun 2027 11:00:40.146   02 Jun 2027 11:02:30.715           110.569         55284.500
        38   02 Jun 2027 11:02:50.801   02 Jun 2027 11:02:55.557             4.756          2378.000
        39   02 Jun 2027 11:03:22.085   02 Jun 2027 11:03:24.537             2.452          1226.000
        40   02 Jun 2027 11:03:54.659   02 Jun 2027 11:04:03.333             8.674          4337.000
        41   02 Jun 2027 11:05:08.775   02 Jun 2027 11:05:17.033             8.258          4129.000
        42   02 Jun 2027 11:06:05.734   02 Jun 2027 11:06:15.766            10.032          5016.000
        43   02 Jun 2027 11:06:39.077   02 Jun 2027 11:06:40.713             1.636           818.000
        44   03 Jun 2027 03:23:05.442   03 Jun 2027 03:23:49.715            44.273         22136.500
        45   03 Jun 2027 03:24:11.256   03 Jun 2027 03:24:49.517            38.261         19130.500
        46   03 Jun 2027 03:25:00.018   03 Jun 2027 03:25:05.184             5.166          2583.000
        47   03 Jun 2027 03:25:17.919   03 Jun 2027 03:25:20.365             2.446          1223.000
        48   03 Jun 2027 03:26:38.527   03 Jun 2027 03:26:38.527             0.000             0.000
        49   03 Jun 2027 03:27:03.655   03 Jun 2027 03:27:05.601             1.946           973.000
        50   03 Jun 2027 03:27:29.495   03 Jun 2027 03:27:45.068            15.573          7786.500
        51   03 Jun 2027 05:01:18.267   03 Jun 2027 05:01:56.337            38.070         19035.000
        52   03 Jun 2027 05:02:08.816   03 Jun 2027 05:02:53.400            44.584         22292.000
        53   03 Jun 2027 06:24:47.066   03 Jun 2027 06:25:32.610            45.544         22772.000
        54   03 Jun 2027 06:27:27.933   03 Jun 2027 06:27:39.754            11.821          5910.500
        55   03 Jun 2027 08:01:16.098   03 Jun 2027 08:03:25.502           129.404         64702.000
        56   03 Jun 2027 09:36:26.618   03 Jun 2027 09:37:48.367            81.749         40874.500
        57   03 Jun 2027 09:38:33.895   03 Jun 2027 09:38:47.710            13.815          6907.500
        58   03 Jun 2027 09:42:48.140   03 Jun 2027 09:43:03.289            15.149          7574.500
        59   03 Jun 2027 11:12:24.453   03 Jun 2027 11:13:20.726            56.273         26901.844
        60   03 Jun 2027 11:14:28.548   03 Jun 2027 11:14:32.406             3.858          1929.000
        61   03 Jun 2027 11:14:49.355   03 Jun 2027 11:14:51.115             1.760           559.875
        62   03 Jun 2027 11:15:35.426   03 Jun 2027 11:15:38.741             3.315          1384.719
        63   03 Jun 2027 11:15:39.769   03 Jun 2027 11:15:41.682             1.913            32.125
        64   03 Jun 2027 11:16:37.982   03 Jun 2027 11:16:42.964             4.982          1542.969
        65   03 Jun 2027 11:17:22.151   03 Jun 2027 11:17:24.726             2.575          1224.594
        66   03 Jun 2027 11:18:15.167   03 Jun 2027 11:18:17.719             2.552          1276.000
        67   03 Jun 2027 11:18:40.177   03 Jun 2027 11:18:45.403             5.226           770.375
        68   04 Jun 2027 03:36:10.535   04 Jun 2027 03:37:36.732            86.197         43098.500
        69   04 Jun 2027 03:38:36.028   04 Jun 2027 03:38:38.979             2.951          1475.500
        70   04 Jun 2027 03:39:00.807   04 Jun 2027 03:39:04.920             4.113          2056.500
        71   04 Jun 2027 03:40:29.275   04 Jun 2027 03:40:30.446             1.171           585.500
        72   04 Jun 2027 03:42:24.381   04 Jun 2027 03:42:28.863             4.482          2241.000
        73   04 Jun 2027 03:42:50.109   04 Jun 2027 03:43:16.460            26.351         13175.500
        74   04 Jun 2027 05:02:26.028   04 Jun 2027 05:02:44.366            18.338          9169.000
        75   04 Jun 2027 05:13:16.036   04 Jun 2027 05:14:13.616            57.580         28790.000
        76   04 Jun 2027 05:14:35.221   04 Jun 2027 05:14:57.589            22.368         11184.000
        77   04 Jun 2027 06:37:14.006   04 Jun 2027 06:38:48.996            94.990         47495.000
        78   04 Jun 2027 08:13:00.550   04 Jun 2027 08:13:35.590            35.040         17520.000
        79   04 Jun 2027 08:14:34.959   04 Jun 2027 08:15:09.151            34.192         14802.345
        80   04 Jun 2027 08:15:17.391   04 Jun 2027 08:15:22.413             5.022           227.063
        81   04 Jun 2027 08:16:29.258   04 Jun 2027 08:16:29.258             0.000             0.000
        82   04 Jun 2027 08:17:09.175   04 Jun 2027 08:17:14.359             5.184          2592.000
        83   04 Jun 2027 09:47:44.084   04 Jun 2027 09:47:55.242            11.158          5188.094
        84   04 Jun 2027 09:49:50.487   04 Jun 2027 09:49:56.789             6.302          2787.531
        85   04 Jun 2027 09:51:03.072   04 Jun 2027 09:51:03.072             0.000             0.000
        86   04 Jun 2027 09:53:37.190   04 Jun 2027 09:53:49.359            12.169          5856.750
        87   04 Jun 2027 09:54:25.413   04 Jun 2027 09:54:27.056             1.643           789.094
        88   04 Jun 2027 09:55:01.968   04 Jun 2027 09:55:05.151             3.183           967.500
        89   04 Jun 2027 11:24:28.473   04 Jun 2027 11:24:41.816            13.343          6621.969
        90   04 Jun 2027 11:24:57.618   04 Jun 2027 11:24:59.163             1.545            76.469
        91   04 Jun 2027 11:25:17.504   04 Jun 2027 11:25:18.717             1.213           281.187
        92   04 Jun 2027 11:26:24.270   04 Jun 2027 11:26:30.127             5.857          1785.719
        93   04 Jun 2027 11:26:34.252   04 Jun 2027 11:26:34.709             0.457           128.906
        94   04 Jun 2027 11:27:21.871   04 Jun 2027 11:27:27.421             5.550           880.063
        95   04 Jun 2027 11:27:28.110   04 Jun 2027 11:27:28.567             0.457            21.531
        96   04 Jun 2027 11:28:13.308   04 Jun 2027 11:28:16.463             3.155          1105.375
        97   04 Jun 2027 11:28:58.286   04 Jun 2027 11:29:02.039             3.753          1279.656
        98   04 Jun 2027 11:29:05.440   04 Jun 2027 11:29:05.440             0.000             0.000
        99   04 Jun 2027 11:29:31.182   04 Jun 2027 11:29:34.235             3.053           910.719
       100   04 Jun 2027 11:29:42.661   04 Jun 2027 11:29:54.564            11.903           108.500
       101   04 Jun 2027 11:30:13.240   04 Jun 2027 11:30:14.527             1.287           481.781
       102   04 Jun 2027 11:30:28.527   04 Jun 2027 11:30:32.084             3.557           273.563
       103   04 Jun 2027 11:30:49.390   04 Jun 2027 11:30:50.211             0.821           362.594
       104   05 Jun 2027 03:48:31.229   05 Jun 2027 03:50:23.635           112.406         56203.000
       105   05 Jun 2027 03:51:12.580   05 Jun 2027 03:51:31.227            18.647          9323.500
       106   05 Jun 2027 03:54:28.503   05 Jun 2027 03:54:30.622             2.119          1059.500
       107   05 Jun 2027 03:55:21.239   05 Jun 2027 03:55:55.371            34.132         17066.000
       108   05 Jun 2027 05:13:41.787   05 Jun 2027 05:14:26.599            44.812         22406.000
       109   05 Jun 2027 05:25:14.982   05 Jun 2027 05:26:06.837            51.855         25927.500
       110   05 Jun 2027 06:47:52.582   05 Jun 2027 06:48:50.814            58.232         29116.000
       111   05 Jun 2027 06:49:29.101   05 Jun 2027 06:49:44.316            15.215          7607.500
       112   05 Jun 2027 06:49:47.378   05 Jun 2027 06:49:58.294            10.916          5458.000
       113   05 Jun 2027 06:50:50.834   05 Jun 2027 06:50:50.834             0.000             0.000
       114   05 Jun 2027 06:52:09.253   05 Jun 2027 06:52:14.255             5.002          2501.000
       115   05 Jun 2027 08:23:01.113   05 Jun 2027 08:23:33.246            32.133         16066.500
       116   05 Jun 2027 08:25:51.568   05 Jun 2027 08:25:59.745             8.177          4088.500
       117   05 Jun 2027 08:26:47.575   05 Jun 2027 08:26:52.168             4.593          2180.219
       118   05 Jun 2027 08:27:12.180   05 Jun 2027 08:27:14.519             2.339           132.781
       119   05 Jun 2027 08:28:53.897   05 Jun 2027 08:28:53.897             0.000             0.000
       120   05 Jun 2027 09:59:47.943   05 Jun 2027 09:59:57.538             9.595          4495.844
       121   05 Jun 2027 10:03:04.293   05 Jun 2027 10:03:10.086             5.793          2896.500
       122   05 Jun 2027 10:03:21.655   05 Jun 2027 10:03:31.903            10.248          3301.125
       123   05 Jun 2027 10:04:48.210   05 Jun 2027 10:04:54.170             5.960          2327.625
       124   05 Jun 2027 10:04:57.075   05 Jun 2027 10:04:57.359             0.284            85.688
       125   05 Jun 2027 10:05:14.689   05 Jun 2027 10:05:15.982             1.293           401.906
       126   05 Jun 2027 10:05:37.644   05 Jun 2027 10:05:37.644             0.000             0.000
       127   05 Jun 2027 10:05:56.372   05 Jun 2027 10:05:59.741             3.369          1248.438
       128   05 Jun 2027 10:06:54.865   05 Jun 2027 10:06:57.605             2.740          1370.000
       129   05 Jun 2027 11:36:48.978   05 Jun 2027 11:37:03.452            14.474          7237.000
       130   05 Jun 2027 11:37:32.676   05 Jun 2027 11:37:37.178             4.502          1086.688
       131   05 Jun 2027 11:38:31.495   05 Jun 2027 11:38:33.626             2.131          1065.500
       132   05 Jun 2027 11:38:41.292   05 Jun 2027 11:38:42.556             1.264           365.844
       133   05 Jun 2027 11:39:14.335   05 Jun 2027 11:39:17.847             3.512           827.469
       134   05 Jun 2027 11:40:07.644   05 Jun 2027 11:40:13.454             5.810          1328.781
       135   05 Jun 2027 11:40:54.880   05 Jun 2027 11:40:55.131             0.251           125.500
       136   05 Jun 2027 11:40:56.960   05 Jun 2027 11:40:59.686             2.726          1226.219
       137   05 Jun 2027 11:41:30.025   05 Jun 2027 11:41:31.231             1.206           603.000
       138   05 Jun 2027 11:41:59.380   05 Jun 2027 11:42:01.650             2.270          1135.000
       139   05 Jun 2027 11:42:47.152   05 Jun 2027 11:42:50.935             3.783          1486.625
       140   06 Jun 2027 04:00:46.972   06 Jun 2027 04:02:13.253            86.281         43140.500
       141   06 Jun 2027 04:03:10.713   06 Jun 2027 04:03:31.149            20.436         10218.000
       142   06 Jun 2027 04:04:37.069   06 Jun 2027 04:04:48.293            11.224          5612.000
       143   06 Jun 2027 04:05:03.280   06 Jun 2027 04:05:21.827            18.547          9273.500
       144   06 Jun 2027 04:05:44.481   06 Jun 2027 04:05:50.038             5.557          2778.500
       145   06 Jun 2027 04:05:56.169   06 Jun 2027 04:05:56.963             0.794           397.000
       146   06 Jun 2027 04:06:33.634   06 Jun 2027 04:06:48.450            14.816          7408.000
       147   06 Jun 2027 05:25:00.305   06 Jun 2027 05:26:27.179            86.874         43437.000
       148   06 Jun 2027 05:37:14.027   06 Jun 2027 05:37:37.910            23.883         11941.500
       149   06 Jun 2027 06:59:28.315   06 Jun 2027 07:00:35.589            67.274         33637.000
       150   06 Jun 2027 07:01:24.313   06 Jun 2027 07:01:46.203            21.890         10945.000
       151   06 Jun 2027 07:01:50.722   06 Jun 2027 07:01:53.256             2.534          1082.594
       152   06 Jun 2027 08:34:21.226   06 Jun 2027 08:34:43.269            22.043          9128.844
       153   06 Jun 2027 08:34:56.254   06 Jun 2027 08:34:57.262             1.008           196.656
       154   06 Jun 2027 08:35:50.320   06 Jun 2027 08:36:00.994            10.674           922.156
       155   06 Jun 2027 08:36:44.696   06 Jun 2027 08:36:45.131             0.435           217.500
       156   06 Jun 2027 08:38:15.621   06 Jun 2027 08:38:15.621             0.000             0.000
       157   06 Jun 2027 08:39:42.781   06 Jun 2027 08:39:56.419            13.638          6640.219
       158   06 Jun 2027 08:40:32.926   06 Jun 2027 08:40:35.167             2.241           997.187
       159   06 Jun 2027 08:40:47.800   06 Jun 2027 08:40:53.767             5.967           118.906
       160   06 Jun 2027 08:41:00.193   06 Jun 2027 08:41:01.806             1.613            43.375
       161   06 Jun 2027 08:41:30.876   06 Jun 2027 08:41:32.973             2.097           908.437
       162   06 Jun 2027 08:41:50.514   06 Jun 2027 08:41:51.700             1.186           548.156
       163   06 Jun 2027 10:11:55.916   06 Jun 2027 10:12:13.394            17.478          6485.844
       164   06 Jun 2027 10:12:55.470   06 Jun 2027 10:12:58.727             3.257           813.687
       165   06 Jun 2027 10:13:02.464   06 Jun 2027 10:13:02.911             0.447           116.781
       166   06 Jun 2027 10:14:34.286   06 Jun 2027 10:14:40.166             5.880          2571.969
       167   06 Jun 2027 10:15:07.437   06 Jun 2027 10:15:09.050             1.613           775.031
       168   06 Jun 2027 10:16:20.119   06 Jun 2027 10:16:25.534             5.415          1679.563
       169   06 Jun 2027 10:18:05.257   06 Jun 2027 10:18:12.147             6.890          3008.219
       170   06 Jun 2027 10:18:35.002   06 Jun 2027 10:18:40.134             5.132           289.562
       171   06 Jun 2027 10:18:55.367   06 Jun 2027 10:18:57.868             2.501           476.031
       172   06 Jun 2027 11:48:38.831   06 Jun 2027 11:48:50.593            11.762          5546.656
       173   06 Jun 2027 11:49:46.088   06 Jun 2027 11:49:50.573             4.485          1609.687
       174   06 Jun 2027 11:50:44.557   06 Jun 2027 11:50:47.733             3.176          1372.031
       175   06 Jun 2027 11:52:23.339   06 Jun 2027 11:52:31.112             7.773          2987.687
       176   06 Jun 2027 11:52:51.233   06 Jun 2027 11:52:52.580             1.347           420.844
       177   06 Jun 2027 11:53:32.956   06 Jun 2027 11:53:38.545             5.589          1261.750
       178   06 Jun 2027 11:54:10.819   06 Jun 2027 11:54:10.819             0.000             0.000
       179   06 Jun 2027 11:54:37.235   06 Jun 2027 11:54:39.697             2.462          1137.500
       180   06 Jun 2027 11:54:51.451   06 Jun 2027 11:54:52.556             1.105           367.313
       181   07 Jun 2027 04:12:52.464   07 Jun 2027 04:14:16.781            84.317         42158.500
       182   07 Jun 2027 04:14:26.234   07 Jun 2027 04:14:38.669            12.435          6217.500
       183   07 Jun 2027 04:15:02.074   07 Jun 2027 04:15:02.074             0.000             0.000
       184   07 Jun 2027 04:16:06.634   07 Jun 2027 04:16:06.634             0.000             0.000
       185   07 Jun 2027 04:18:54.186   07 Jun 2027 04:18:56.203             2.017          1008.500
       186   07 Jun 2027 05:37:06.319   07 Jun 2027 05:38:24.925            78.606         39303.000
       187   07 Jun 2027 05:38:58.440   07 Jun 2027 05:39:00.488             2.048          1024.000
       188   07 Jun 2027 05:49:35.740   07 Jun 2027 05:49:41.300             5.560          2780.000
       189   07 Jun 2027 07:10:57.021   07 Jun 2027 07:12:19.335            82.314         41157.000
       190   07 Jun 2027 07:12:59.969   07 Jun 2027 07:13:54.094            54.125         25213.812
       191   07 Jun 2027 08:45:51.160   07 Jun 2027 08:46:02.538            11.378          5689.000
       192   07 Jun 2027 08:46:44.252   07 Jun 2027 08:46:59.586            15.334          5009.906
       193   07 Jun 2027 08:47:40.776   07 Jun 2027 08:47:45.093             4.317           473.063
       194   07 Jun 2027 08:49:25.627   07 Jun 2027 08:49:31.896             6.269          2622.156
       195   07 Jun 2027 08:50:32.773   07 Jun 2027 08:50:36.658             3.885          1827.312
       196   07 Jun 2027 08:50:57.917   07 Jun 2027 08:50:59.267             1.350           244.375
       197   07 Jun 2027 08:51:24.866   07 Jun 2027 08:51:26.249             1.383           119.906
       198   07 Jun 2027 08:52:53.625   07 Jun 2027 08:52:59.738             6.113          2413.250
       199   07 Jun 2027 08:53:18.399   07 Jun 2027 08:53:20.038             1.639           583.156
       200   07 Jun 2027 08:54:49.759   07 Jun 2027 08:54:57.831             8.072          2803.781
       201   07 Jun 2027 08:55:07.747   07 Jun 2027 08:55:10.136             2.389           218.375
       202   07 Jun 2027 10:23:51.179   07 Jun 2027 10:24:07.494            16.315          7743.406
       203   07 Jun 2027 10:28:09.551   07 Jun 2027 10:28:24.904            15.353          7424.594
       204   07 Jun 2027 10:28:30.564   07 Jun 2027 10:28:31.046             0.482           176.875
       205   07 Jun 2027 10:28:40.695   07 Jun 2027 10:28:40.695             0.000             0.000
       206   07 Jun 2027 10:29:30.021   07 Jun 2027 10:29:35.611             5.590          1820.187
       207   07 Jun 2027 10:30:12.061   07 Jun 2027 10:30:17.383             5.322          1139.063
       208   07 Jun 2027 10:30:21.256   07 Jun 2027 10:30:24.146             2.890           121.031
       209   07 Jun 2027 10:30:36.846   07 Jun 2027 10:30:38.081             1.235           305.375
       210   07 Jun 2027 10:30:49.961   07 Jun 2027 10:30:51.465             1.504           187.219
       211   08 Jun 2027 04:25:18.636   08 Jun 2027 04:26:45.888            87.252         43626.000
       212   08 Jun 2027 04:27:42.005   08 Jun 2027 04:27:49.238             7.233          3616.500
       213   08 Jun 2027 04:28:26.914   08 Jun 2027 04:28:40.149            13.235          6617.500
       214   08 Jun 2027 04:29:30.947   08 Jun 2027 04:30:00.412            29.465         14732.500
       215   08 Jun 2027 05:49:02.562   08 Jun 2027 05:50:26.001            83.439         41719.500
       216   08 Jun 2027 07:25:15.746   08 Jun 2027 07:27:08.583           112.837         56418.500
       217   08 Jun 2027 08:58:47.372   08 Jun 2027 08:59:11.730            24.358         11090.125
       218   08 Jun 2027 08:59:32.579   08 Jun 2027 08:59:32.866             0.287           139.562
       219   08 Jun 2027 08:59:49.888   08 Jun 2027 08:59:50.903             1.015           363.438
       220   08 Jun 2027 09:00:37.307   08 Jun 2027 09:00:43.045             5.738          1019.031
       221   08 Jun 2027 09:01:20.141   08 Jun 2027 09:01:20.736             0.595           297.500
       222   08 Jun 2027 09:04:32.161   08 Jun 2027 09:04:43.765            11.604          5802.000
       223   08 Jun 2027 09:05:58.277   08 Jun 2027 09:05:59.097             0.820           410.000
       224   08 Jun 2027 09:06:27.385   08 Jun 2027 09:06:38.031            10.646          3041.594
       225   08 Jun 2027 09:06:39.638   08 Jun 2027 09:06:39.922             0.284            33.312
       226   08 Jun 2027 09:07:21.397   08 Jun 2027 09:07:22.105             0.708           354.000
       227   08 Jun 2027 10:36:13.368   08 Jun 2027 10:36:32.943            19.575          8388.344
       228   08 Jun 2027 10:36:49.043   08 Jun 2027 10:36:50.212             1.169           364.219
       229   08 Jun 2027 10:37:00.937   08 Jun 2027 10:37:02.823             1.886           335.156
       230   08 Jun 2027 10:37:13.689   08 Jun 2027 10:37:14.002             0.313           124.125
       231   08 Jun 2027 10:38:31.779   08 Jun 2027 10:38:31.779             0.000             0.000
       232   08 Jun 2027 10:40:39.615   08 Jun 2027 10:40:51.349            11.734          5421.687
       233   08 Jun 2027 10:41:46.457   08 Jun 2027 10:41:50.158             3.701          1722.125
       234   08 Jun 2027 10:42:23.738   08 Jun 2027 10:42:27.867             4.129          1049.375
       235   08 Jun 2027 10:42:28.599   08 Jun 2027 10:42:34.852             6.253            19.719
       236   08 Jun 2027 10:42:59.186   08 Jun 2027 10:43:00.970             1.784           760.438
       237   09 Jun 2027 03:00:00.000   09 Jun 2027 03:00:05.630             5.630          2815.000
       238   09 Jun 2027 03:00:17.823   09 Jun 2027 03:00:53.155            35.332         17666.000
       239   09 Jun 2027 03:02:36.925   09 Jun 2027 03:02:42.066             5.141          2570.500
       240   09 Jun 2027 03:03:38.133   09 Jun 2027 03:03:46.289             8.156          4078.000
       241   09 Jun 2027 03:04:24.285   09 Jun 2027 03:04:35.851            11.566          5783.000
       242   09 Jun 2027 03:04:49.233   09 Jun 2027 03:05:00.825            11.592          5796.000
       243   09 Jun 2027 03:05:22.694   09 Jun 2027 03:05:24.338             1.644           822.000
       244   09 Jun 2027 04:37:14.212   09 Jun 2027 04:38:28.108            73.896         36948.000
       245   09 Jun 2027 04:38:33.819   09 Jun 2027 04:38:36.688             2.869          1434.500
       246   09 Jun 2027 04:39:02.790   09 Jun 2027 04:39:13.015            10.225          5112.500
       247   09 Jun 2027 04:40:15.940   09 Jun 2027 04:40:23.296             7.356          3678.000
       248   09 Jun 2027 04:42:06.199   09 Jun 2027 04:42:07.152             0.953           476.500
       249   09 Jun 2027 06:00:54.554   09 Jun 2027 06:02:12.826            78.272         39136.000
       250   09 Jun 2027 07:37:21.094   09 Jun 2027 07:39:07.029           105.935         50735.062
       251   09 Jun 2027 07:39:38.388   09 Jun 2027 07:39:41.372             2.984           959.594
       252   09 Jun 2027 07:39:59.690   09 Jun 2027 07:40:05.949             6.259           542.750
       253   09 Jun 2027 09:09:30.987   09 Jun 2027 09:09:38.582             7.595          3797.500
       254   09 Jun 2027 09:11:26.360   09 Jun 2027 09:11:31.291             4.931          1611.531
       255   09 Jun 2027 09:13:04.928   09 Jun 2027 09:13:10.638             5.710          1877.281
       256   09 Jun 2027 09:13:30.940   09 Jun 2027 09:13:33.604             2.664           526.063
       257   09 Jun 2027 09:14:26.160   09 Jun 2027 09:14:27.705             1.545           676.094
       258   09 Jun 2027 09:15:14.653   09 Jun 2027 09:15:14.722             0.069            34.500
       259   09 Jun 2027 09:16:32.675   09 Jun 2027 09:16:41.231             8.556          3868.656
       260   09 Jun 2027 09:17:48.875   09 Jun 2027 09:17:53.856             4.981          1889.938
       261   09 Jun 2027 09:19:07.142   09 Jun 2027 09:19:12.038             4.896          2290.187
       262   09 Jun 2027 09:19:16.908   09 Jun 2027 09:19:17.322             0.414            70.719
       263   09 Jun 2027 10:48:24.662   09 Jun 2027 10:48:40.433            15.771          7475.000
       264   09 Jun 2027 10:48:57.107   09 Jun 2027 10:48:58.778             1.671           427.000
       265   09 Jun 2027 10:49:21.459   09 Jun 2027 10:49:23.513             2.054           381.719
       266   09 Jun 2027 10:49:31.249   09 Jun 2027 10:49:38.658             7.409           241.750
       267   09 Jun 2027 10:50:18.447   09 Jun 2027 10:50:24.049             5.602          1196.000
       268   09 Jun 2027 10:50:53.588   09 Jun 2027 10:50:54.926             1.338           384.656
       269   09 Jun 2027 10:51:28.450   09 Jun 2027 10:51:36.905             8.455           861.313
       270   09 Jun 2027 10:52:51.687   09 Jun 2027 10:53:00.201             8.514          2289.563
       271   09 Jun 2027 10:53:30.549   09 Jun 2027 10:53:34.245             3.696           743.531
       272   09 Jun 2027 10:54:30.300   09 Jun 2027 10:54:36.268             5.968          1741.313
       273   09 Jun 2027 10:55:00.179   09 Jun 2027 10:55:01.784             1.605           747.219
       274   10 Jun 2027 03:11:20.591   10 Jun 2027 03:12:23.343            62.752         31376.000
       275   10 Jun 2027 03:12:29.984   10 Jun 2027 03:12:40.007            10.023          5011.500
       276   10 Jun 2027 03:12:46.556   10 Jun 2027 03:12:53.541             6.985          3492.500
       277   10 Jun 2027 03:12:56.309   10 Jun 2027 03:12:56.309             0.000             0.000
       278   10 Jun 2027 03:12:58.212   10 Jun 2027 03:12:59.031             0.819           409.500
       279   10 Jun 2027 03:13:31.811   10 Jun 2027 03:13:42.082            10.271          5135.500
       280   10 Jun 2027 03:14:29.683   10 Jun 2027 03:14:34.289             4.606          2303.000
       281   10 Jun 2027 03:14:52.737   10 Jun 2027 03:14:59.424             6.687          3343.500
       282   10 Jun 2027 03:16:02.759   10 Jun 2027 03:16:12.520             9.761          4880.500
       283   10 Jun 2027 03:16:58.089   10 Jun 2027 03:16:58.089             0.000             0.000
       284   10 Jun 2027 03:17:00.129   10 Jun 2027 03:17:01.919             1.790           895.000
       285   10 Jun 2027 04:50:27.671   10 Jun 2027 04:51:44.057            76.386         38193.000
       286   10 Jun 2027 06:13:00.119   10 Jun 2027 06:13:51.916            51.797         25898.500
       287   10 Jun 2027 06:15:42.892   10 Jun 2027 06:15:42.892             0.000             0.000
       288   10 Jun 2027 07:49:28.908   10 Jun 2027 07:50:59.667            90.759         44466.531
       289   10 Jun 2027 07:51:59.281   10 Jun 2027 07:51:59.281             0.000             0.000
       290   10 Jun 2027 07:52:37.001   10 Jun 2027 07:52:42.504             5.503          2751.500
       291   10 Jun 2027 09:24:36.720   10 Jun 2027 09:24:47.063            10.343          5087.969
       292   10 Jun 2027 09:25:48.842   10 Jun 2027 09:25:52.971             4.129          1696.812
       293   10 Jun 2027 09:26:06.161   10 Jun 2027 09:26:07.178             1.017           412.188
       294   10 Jun 2027 09:26:37.696   10 Jun 2027 09:26:41.117             3.421           736.094
       295   10 Jun 2027 09:27:03.245   10 Jun 2027 09:27:08.337             5.092           409.687
       296   10 Jun 2027 09:27:34.789   10 Jun 2027 09:27:36.299             1.510           722.406
       297   10 Jun 2027 09:29:38.353   10 Jun 2027 09:29:47.361             9.008          3641.750
       298   10 Jun 2027 09:30:50.664   10 Jun 2027 09:30:54.631             3.967          1798.188
       299   10 Jun 2027 09:31:07.146   10 Jun 2027 09:31:09.363             2.217            78.688
       300   10 Jun 2027 11:00:58.473   10 Jun 2027 11:01:09.806            11.333          5655.125
       301   10 Jun 2027 11:02:42.044   10 Jun 2027 11:02:47.387             5.343          2223.875
       302   10 Jun 2027 11:03:08.571   10 Jun 2027 11:03:12.045             3.474           662.000
       303   10 Jun 2027 11:03:36.439   10 Jun 2027 11:03:40.423             3.984           762.312
       304   10 Jun 2027 11:04:59.739   10 Jun 2027 11:05:04.452             4.713          2356.500
       305   10 Jun 2027 11:05:34.937   10 Jun 2027 11:05:38.920             3.983          1039.000
       306   10 Jun 2027 11:06:32.137   10 Jun 2027 11:06:36.914             4.777          1369.844
       307   10 Jun 2027 11:06:56.735   10 Jun 2027 11:06:58.789             2.054           474.031
       308   11 Jun 2027 03:23:22.714   11 Jun 2027 03:24:03.278            40.564         20282.000
       309   11 Jun 2027 03:24:27.534   11 Jun 2027 03:25:16.678            49.144         24572.000
       310   11 Jun 2027 03:25:45.296   11 Jun 2027 03:25:59.922            14.626          7313.000
       311   11 Jun 2027 03:28:17.898   11 Jun 2027 03:28:22.555             4.657          2328.500
       312   11 Jun 2027 05:01:34.894   11 Jun 2027 05:02:12.962            38.068         19034.000
       313   11 Jun 2027 05:02:26.249   11 Jun 2027 05:03:08.679            42.430         21215.000
       314   11 Jun 2027 06:25:03.214   11 Jun 2027 06:25:56.234            53.020         26510.000
       315   11 Jun 2027 06:26:25.109   11 Jun 2027 06:26:33.275             8.166          4083.000
       316   11 Jun 2027 08:01:32.005   11 Jun 2027 08:02:48.395            76.390         36232.219
       317   11 Jun 2027 08:03:15.930   11 Jun 2027 08:03:17.467             1.537           588.500
       318   11 Jun 2027 08:04:17.384   11 Jun 2027 08:04:20.831             3.447          1723.500
       319   11 Jun 2027 08:04:33.892   11 Jun 2027 08:04:35.408             1.516           460.125
       320   11 Jun 2027 09:36:43.976   11 Jun 2027 09:36:53.143             9.167          4583.500
       321   11 Jun 2027 09:38:07.409   11 Jun 2027 09:38:07.409             0.000             0.000
       322   11 Jun 2027 09:38:18.800   11 Jun 2027 09:38:26.942             8.142          3171.563
       323   11 Jun 2027 09:39:06.293   11 Jun 2027 09:39:06.293             0.000             0.000
       324   11 Jun 2027 09:39:38.224   11 Jun 2027 09:39:41.969             3.745          1872.500
       325   11 Jun 2027 09:41:55.212   11 Jun 2027 09:41:55.212             0.000             0.000
       326   11 Jun 2027 09:43:04.158   11 Jun 2027 09:43:18.424            14.266          6549.031
       327   11 Jun 2027 11:12:39.203   11 Jun 2027 11:12:54.805            15.602          7412.906
       328   11 Jun 2027 11:13:10.865   11 Jun 2027 11:13:12.455             1.590           184.969
       329   11 Jun 2027 11:13:39.029   11 Jun 2027 11:13:40.470             1.441           342.250
       330   11 Jun 2027 11:13:42.021   11 Jun 2027 11:13:44.874             2.853            27.656
       331   11 Jun 2027 11:14:01.545   11 Jun 2027 11:14:03.728             2.183           197.188
       332   11 Jun 2027 11:14:42.064   11 Jun 2027 11:14:43.777             1.713            55.719
       333   11 Jun 2027 11:15:16.475   11 Jun 2027 11:15:21.542             5.067           835.656
       334   11 Jun 2027 11:16:58.617   11 Jun 2027 11:17:05.679             7.062          2351.000
       335   11 Jun 2027 11:17:43.284   11 Jun 2027 11:17:45.435             2.151          1075.500
       336   11 Jun 2027 11:18:10.832   11 Jun 2027 11:18:13.261             2.429           893.312
       337   12 Jun 2027 03:36:27.434   12 Jun 2027 03:38:29.494           122.060         61030.000
       338   12 Jun 2027 03:39:20.837   12 Jun 2027 03:39:20.837             0.000             0.000
       339   12 Jun 2027 03:40:11.437   12 Jun 2027 03:40:14.954             3.517          1758.500
       340   12 Jun 2027 03:42:42.938   12 Jun 2027 03:43:03.205            20.267         10133.500
       341   12 Jun 2027 05:02:40.182   12 Jun 2027 05:03:02.486            22.304         11152.000
       342   12 Jun 2027 05:13:32.377   12 Jun 2027 05:14:29.918            57.541         28770.500
       343   12 Jun 2027 05:16:29.751   12 Jun 2027 05:16:30.277             0.526           263.000
       344   12 Jun 2027 05:16:38.010   12 Jun 2027 05:17:00.090            22.080         11040.000
       345   12 Jun 2027 06:37:30.040   12 Jun 2027 06:39:00.287            90.247         44168.407
       346   12 Jun 2027 08:13:15.936   12 Jun 2027 08:13:31.222            15.286          7643.000
       347   12 Jun 2027 08:14:31.644   12 Jun 2027 08:14:38.632             6.988          2303.469
       348   12 Jun 2027 08:15:43.905   12 Jun 2027 08:15:47.480             3.575          1626.000
       349   12 Jun 2027 08:16:32.351   12 Jun 2027 08:16:35.302             2.951          1314.344
       350   12 Jun 2027 09:47:58.845   12 Jun 2027 09:48:09.674            10.829          4912.531
       351   12 Jun 2027 09:48:48.727   12 Jun 2027 09:48:59.635            10.908          1213.812
       352   12 Jun 2027 09:49:42.485   12 Jun 2027 09:49:42.980             0.495           112.813
       353   12 Jun 2027 09:50:49.375   12 Jun 2027 09:50:52.088             2.713          1286.156
       354   12 Jun 2027 09:51:27.000   12 Jun 2027 09:51:27.000             0.000             0.000
       355   12 Jun 2027 09:53:54.529   12 Jun 2027 09:54:04.723            10.194          4769.469
       356   12 Jun 2027 09:54:40.084   12 Jun 2027 09:54:45.660             5.576          1100.375
       357   12 Jun 2027 09:55:04.719   12 Jun 2027 09:55:12.113             7.394           579.500
       358   12 Jun 2027 09:55:28.325   12 Jun 2027 09:55:28.325             0.000             0.000
       359   12 Jun 2027 11:24:45.624   12 Jun 2027 11:25:00.806            15.182          5769.750
       360   12 Jun 2027 11:25:13.414   12 Jun 2027 11:25:16.775             3.361           107.563
       361   12 Jun 2027 11:26:17.394   12 Jun 2027 11:26:21.225             3.831          1894.344
       362   12 Jun 2027 11:26:31.760   12 Jun 2027 11:26:32.461             0.701            49.781
       363   12 Jun 2027 11:26:51.425   12 Jun 2027 11:26:53.204             1.779           434.781
       364   12 Jun 2027 11:27:23.135   12 Jun 2027 11:27:24.422             1.287           528.000
       365   12 Jun 2027 11:27:45.549   12 Jun 2027 11:27:45.804             0.255            38.188
       366   12 Jun 2027 11:28:08.630   12 Jun 2027 11:28:12.575             3.945           465.938
       367   12 Jun 2027 11:28:35.089   12 Jun 2027 11:28:37.161             2.072           525.875
       368   12 Jun 2027 11:29:10.282   12 Jun 2027 11:29:13.197             2.915           705.156
       369   12 Jun 2027 11:29:18.314   12 Jun 2027 11:29:18.996             0.682           159.906
       370   12 Jun 2027 11:30:16.076   12 Jun 2027 11:30:21.280             5.204          1747.969
       371   12 Jun 2027 11:30:36.152   12 Jun 2027 11:30:41.287             5.135           461.281
       372   13 Jun 2027 03:48:48.307   13 Jun 2027 03:50:07.790            79.483         39741.500
       373   13 Jun 2027 03:50:31.946   13 Jun 2027 03:50:58.418            26.472         13236.000
       374   13 Jun 2027 03:51:59.747   13 Jun 2027 03:52:06.503             6.756          3378.000
       375   13 Jun 2027 03:54:43.253   13 Jun 2027 03:54:46.388             3.135          1567.500
       376   13 Jun 2027 03:55:38.704   13 Jun 2027 03:56:09.235            30.531         15265.500
       377   13 Jun 2027 05:13:55.175   13 Jun 2027 05:14:44.342            49.167         24583.500
       378   13 Jun 2027 05:25:32.851   13 Jun 2027 05:25:54.179            21.328         10664.000
       379   13 Jun 2027 05:26:21.458   13 Jun 2027 05:26:31.741            10.283          5141.500
       380   13 Jun 2027 06:48:06.918   13 Jun 2027 06:49:06.373            59.455         29727.500
       381   13 Jun 2027 06:49:46.009   13 Jun 2027 06:50:37.612            51.603         25801.500
       382   13 Jun 2027 08:23:10.963   13 Jun 2027 08:23:34.197            23.234         11525.751
       383   13 Jun 2027 08:25:07.002   13 Jun 2027 08:25:18.243            11.241          2335.594
       384   13 Jun 2027 08:27:52.061   13 Jun 2027 08:28:03.121            11.060          4792.219
       385   13 Jun 2027 08:28:10.549   13 Jun 2027 08:28:11.226             0.677           232.125
       386   13 Jun 2027 08:29:11.010   13 Jun 2027 08:29:13.472             2.462          1231.000
       387   13 Jun 2027 08:29:21.438   13 Jun 2027 08:29:24.118             2.680           874.719
       388   13 Jun 2027 10:00:05.816   13 Jun 2027 10:00:12.173             6.357          3178.500
       389   13 Jun 2027 10:02:08.510   13 Jun 2027 10:02:23.805            15.295          4637.594
       390   13 Jun 2027 10:03:40.768   13 Jun 2027 10:03:40.768             0.000             0.000
       391   13 Jun 2027 10:05:53.059   13 Jun 2027 10:06:02.905             9.846          4666.969
       392   13 Jun 2027 10:06:55.060   13 Jun 2027 10:07:02.385             7.325          1385.844
       393   13 Jun 2027 10:07:22.637   13 Jun 2027 10:07:26.883             4.246           573.000
       394   13 Jun 2027 11:37:06.078   13 Jun 2027 11:37:19.389            13.311          6494.469
       395   13 Jun 2027 11:38:09.669   13 Jun 2027 11:38:13.938             4.269           996.750
       396   13 Jun 2027 11:39:44.316   13 Jun 2027 11:39:50.059             5.743          2146.656
       397   13 Jun 2027 11:40:24.348   13 Jun 2027 11:40:26.492             2.144           816.719
       398   13 Jun 2027 11:41:09.817   13 Jun 2027 11:41:13.276             3.459          1285.875
       399   13 Jun 2027 11:41:45.942   13 Jun 2027 11:41:47.320             1.378           689.000
       400   13 Jun 2027 11:42:18.030   13 Jun 2027 11:42:19.084             1.054           527.000
       401   13 Jun 2027 11:43:09.821   13 Jun 2027 11:43:14.792             4.971          2350.031
