uniorb/output/strategy_1/Camera/Camera_KinoSat_110603.txt

KinoSat_110603
-------------------------
    Access    *     Start Time (UTCG)     *     Stop Time (UTCG)  *   Duration (s) *   Data (Mbytes)
         1   01 Jun 2027 04:03:05.662   01 Jun 2027 04:05:15.332           129.670         64835.000
         2   01 Jun 2027 05:37:48.812   01 Jun 2027 05:39:31.668           102.856         51428.000
         3   01 Jun 2027 05:39:40.690   01 Jun 2027 05:40:10.397            29.707         14853.500
         4   01 Jun 2027 05:40:57.331   01 Jun 2027 05:41:11.655            14.324          7162.000
         5   01 Jun 2027 05:42:48.371   01 Jun 2027 05:43:00.149            11.778          5889.000
         6   01 Jun 2027 05:44:42.113   01 Jun 2027 05:44:42.122             0.009             4.500
         7   01 Jun 2027 05:45:15.502   01 Jun 2027 05:45:20.135             4.633          2316.500
         8   01 Jun 2027 07:14:34.634   01 Jun 2027 07:17:00.654           146.020         73010.000
         9   01 Jun 2027 07:18:12.662   01 Jun 2027 07:18:36.567            23.905         11952.500
        10   01 Jun 2027 07:18:51.370   01 Jun 2027 07:18:52.902             1.532           766.000
        11   01 Jun 2027 07:19:38.456   01 Jun 2027 07:19:41.213             2.757          1378.500
        12   01 Jun 2027 08:52:50.559   01 Jun 2027 08:54:58.053           127.494         63747.000
        13   01 Jun 2027 08:55:41.038   01 Jun 2027 08:55:47.474             6.436          3218.000
        14   01 Jun 2027 10:26:09.451   01 Jun 2027 10:27:38.714            89.263         44631.500
        15   01 Jun 2027 10:28:06.911   01 Jun 2027 10:28:35.331            28.420         14210.000
        16   01 Jun 2027 10:29:56.903   01 Jun 2027 10:30:07.356            10.453          5226.500
        17   01 Jun 2027 10:33:01.056   01 Jun 2027 10:33:06.069             5.013          2506.500
        18   02 Jun 2027 04:13:06.437   02 Jun 2027 04:14:03.565            57.128         28564.000
        19   02 Jun 2027 04:14:19.653   02 Jun 2027 04:14:20.500             0.847           423.500
        20   02 Jun 2027 04:14:48.938   02 Jun 2027 04:14:57.702             8.764          4382.000
        21   02 Jun 2027 05:49:53.942   02 Jun 2027 05:51:53.865           119.923         59961.500
        22   02 Jun 2027 05:52:11.057   02 Jun 2027 05:52:12.744             1.687           843.500
        23   02 Jun 2027 05:53:28.898   02 Jun 2027 05:53:46.084            17.186          8593.000
        24   02 Jun 2027 05:54:24.176   02 Jun 2027 05:54:25.114             0.938           469.000
        25   02 Jun 2027 05:54:40.103   02 Jun 2027 05:54:51.939            11.836          5918.000
        26   02 Jun 2027 05:55:13.507   02 Jun 2027 05:55:20.318             6.811          3405.500
        27   02 Jun 2027 05:56:22.433   02 Jun 2027 05:56:24.475             2.042          1021.000
        28   02 Jun 2027 05:56:27.955   02 Jun 2027 05:56:39.091            11.136          5568.000
        29   02 Jun 2027 07:26:54.985   02 Jun 2027 07:28:56.997           122.012         61006.000
        30   02 Jun 2027 07:30:28.488   02 Jun 2027 07:31:03.906            35.418         17709.000
        31   02 Jun 2027 07:31:33.494   02 Jun 2027 07:31:38.406             4.912          2456.000
        32   02 Jun 2027 09:04:48.425   02 Jun 2027 09:07:00.641           132.216         66108.000
        33   02 Jun 2027 09:07:41.619   02 Jun 2027 09:07:44.592             2.973          1486.500
        34   02 Jun 2027 09:08:34.486   02 Jun 2027 09:08:43.727             9.241          4620.500
        35   02 Jun 2027 10:38:05.131   02 Jun 2027 10:40:12.943           127.812         63906.000
        36   02 Jun 2027 10:43:26.720   02 Jun 2027 10:43:32.312             5.592          2796.000
        37   02 Jun 2027 10:43:40.534   02 Jun 2027 10:44:02.151            21.617         10808.500
        38   03 Jun 2027 04:24:26.449   03 Jun 2027 04:25:20.354            53.905         26952.500
        39   03 Jun 2027 04:26:39.922   03 Jun 2027 04:27:07.822            27.900         13950.000
        40   03 Jun 2027 04:27:41.244   03 Jun 2027 04:27:42.351             1.107           553.500
        41   03 Jun 2027 04:29:26.286   03 Jun 2027 04:29:41.167            14.881          7440.500
        42   03 Jun 2027 04:30:45.852   03 Jun 2027 04:30:51.977             6.125          3062.500
        43   03 Jun 2027 04:32:36.010   03 Jun 2027 04:32:42.695             6.685          3342.500
        44   03 Jun 2027 04:32:45.477   03 Jun 2027 04:33:00.073            14.596          7298.000
        45   03 Jun 2027 06:02:01.094   03 Jun 2027 06:03:42.374           101.280         50640.000
        46   03 Jun 2027 06:04:27.611   03 Jun 2027 06:04:27.611             0.000             0.000
        47   03 Jun 2027 06:04:37.854   03 Jun 2027 06:04:40.105             2.251          1125.500
        48   03 Jun 2027 06:05:00.413   03 Jun 2027 06:05:04.334             3.921          1960.500
        49   03 Jun 2027 06:05:21.590   03 Jun 2027 06:05:36.804            15.214          7607.000
        50   03 Jun 2027 07:38:44.216   03 Jun 2027 07:41:34.290           170.074         85037.000
        51   03 Jun 2027 07:43:06.800   03 Jun 2027 07:43:06.800             0.000             0.000
        52   03 Jun 2027 07:43:31.382   03 Jun 2027 07:43:45.686            14.304          7152.000
        53   03 Jun 2027 07:44:14.800   03 Jun 2027 07:44:34.318            19.518          9759.000
        54   03 Jun 2027 09:16:47.897   03 Jun 2027 09:18:57.973           130.076         65038.000
        55   03 Jun 2027 09:19:44.733   03 Jun 2027 09:19:48.833             4.100          2050.000
        56   03 Jun 2027 09:20:20.159   03 Jun 2027 09:20:31.358            11.199          5599.500
        57   03 Jun 2027 10:50:31.350   03 Jun 2027 10:51:25.600            54.250         25007.469
        58   03 Jun 2027 10:52:06.288   03 Jun 2027 10:52:12.232             5.944          1271.500
        59   03 Jun 2027 10:52:41.769   03 Jun 2027 10:52:41.769             0.000             0.000
        60   03 Jun 2027 10:53:18.701   03 Jun 2027 10:53:23.784             5.083          1886.094
        61   03 Jun 2027 10:54:18.960   03 Jun 2027 10:54:29.474            10.514          1594.281
        62   03 Jun 2027 10:54:47.987   03 Jun 2027 10:54:47.987             0.000             0.000
        63   03 Jun 2027 10:55:27.127   03 Jun 2027 10:55:31.165             4.038          1763.625
        64   03 Jun 2027 10:56:26.878   03 Jun 2027 10:56:33.440             6.562          1622.688
        65   04 Jun 2027 03:01:01.830   04 Jun 2027 03:01:09.888             8.058          4029.000
        66   04 Jun 2027 03:03:56.654   04 Jun 2027 03:04:20.360            23.706         11853.000
        67   04 Jun 2027 03:06:58.849   04 Jun 2027 03:06:59.514             0.665           332.500
        68   04 Jun 2027 04:35:56.279   04 Jun 2027 04:37:11.133            74.854         37427.000
        69   04 Jun 2027 04:38:20.296   04 Jun 2027 04:38:30.394            10.098          5049.000
        70   04 Jun 2027 04:38:34.814   04 Jun 2027 04:38:40.772             5.958          2979.000
        71   04 Jun 2027 04:40:04.044   04 Jun 2027 04:40:15.654            11.610          5805.000
        72   04 Jun 2027 04:40:59.323   04 Jun 2027 04:41:01.365             2.042          1021.000
        73   04 Jun 2027 04:41:19.402   04 Jun 2027 04:41:35.976            16.574          8287.000
        74   04 Jun 2027 04:44:32.809   04 Jun 2027 04:44:34.809             2.000          1000.000
        75   04 Jun 2027 04:44:46.979   04 Jun 2027 04:44:50.224             3.245          1622.500
        76   04 Jun 2027 06:13:56.345   04 Jun 2027 06:15:11.059            74.714         37357.000
        77   04 Jun 2027 06:15:19.298   04 Jun 2027 06:15:33.037            13.739          6869.500
        78   04 Jun 2027 06:16:18.812   04 Jun 2027 06:16:29.285            10.473          5236.500
        79   04 Jun 2027 06:17:27.539   04 Jun 2027 06:17:31.392             3.853          1926.500
        80   04 Jun 2027 06:18:10.444   04 Jun 2027 06:18:12.014             1.570           785.000
        81   04 Jun 2027 06:18:28.500   04 Jun 2027 06:18:40.222            11.722          5861.000
        82   04 Jun 2027 06:20:31.730   04 Jun 2027 06:20:36.850             5.120          2560.000
        83   04 Jun 2027 07:50:51.489   04 Jun 2027 07:52:42.603           111.114         55557.000
        84   04 Jun 2027 07:53:41.842   04 Jun 2027 07:53:55.735            13.893          6946.500
        85   04 Jun 2027 07:54:55.225   04 Jun 2027 07:54:59.746             4.521          2260.500
        86   04 Jun 2027 07:56:01.749   04 Jun 2027 07:56:09.929             8.180          4090.000
        87   04 Jun 2027 09:28:25.371   04 Jun 2027 09:28:49.554            24.183         11699.031
        88   04 Jun 2027 09:29:54.623   04 Jun 2027 09:29:57.476             2.853          1383.406
        89   04 Jun 2027 09:31:10.579   04 Jun 2027 09:31:14.727             4.148          2065.875
        90   04 Jun 2027 09:31:15.457   04 Jun 2027 09:31:18.448             2.991            22.813
        91   04 Jun 2027 09:31:33.558   04 Jun 2027 09:31:35.197             1.639           472.188
        92   04 Jun 2027 09:32:02.849   04 Jun 2027 09:32:07.268             4.419           512.531
        93   04 Jun 2027 09:32:22.636   04 Jun 2027 09:32:25.444             2.808           480.250
        94   04 Jun 2027 11:02:48.880   04 Jun 2027 11:02:53.144             4.264          1963.531
        95   04 Jun 2027 11:03:08.186   04 Jun 2027 11:03:11.516             3.330           221.750
        96   04 Jun 2027 11:03:25.479   04 Jun 2027 11:03:28.600             3.121           213.219
        97   04 Jun 2027 11:05:10.072   04 Jun 2027 11:05:16.045             5.973          2419.438
        98   04 Jun 2027 11:05:37.121   04 Jun 2027 11:05:39.407             2.286           635.844
        99   04 Jun 2027 11:06:07.066   04 Jun 2027 11:06:08.791             1.725           753.844
       100   04 Jun 2027 11:06:23.726   04 Jun 2027 11:06:28.453             4.727           466.719
       101   04 Jun 2027 11:07:11.942   04 Jun 2027 11:07:15.154             3.212          1101.844
       102   05 Jun 2027 03:15:19.573   05 Jun 2027 03:15:48.196            28.623         14311.500
       103   05 Jun 2027 03:16:50.366   05 Jun 2027 03:16:50.366             0.000             0.000
       104   05 Jun 2027 03:17:33.486   05 Jun 2027 03:17:43.234             9.748          4874.000
       105   05 Jun 2027 04:48:52.268   05 Jun 2027 04:50:52.313           120.045         60022.500
       106   05 Jun 2027 04:51:23.601   05 Jun 2027 04:51:33.718            10.117          5058.500
       107   05 Jun 2027 04:53:17.120   05 Jun 2027 04:53:18.765             1.645           822.500
       108   05 Jun 2027 04:54:43.352   05 Jun 2027 04:54:43.806             0.454           227.000
       109   05 Jun 2027 04:55:03.388   05 Jun 2027 04:55:18.004            14.616          7308.000
       110   05 Jun 2027 04:56:28.556   05 Jun 2027 04:56:32.456             3.900          1950.000
       111   05 Jun 2027 04:57:04.887   05 Jun 2027 04:57:23.499            18.612          9306.000
       112   05 Jun 2027 06:26:18.290   05 Jun 2027 06:28:06.738           108.448         54224.000
       113   05 Jun 2027 06:28:49.633   05 Jun 2027 06:28:50.551             0.918           459.000
       114   05 Jun 2027 06:32:48.903   05 Jun 2027 06:33:03.648            14.745          7372.500
       115   05 Jun 2027 08:03:20.671   05 Jun 2027 08:04:31.719            71.048         35524.000
       116   05 Jun 2027 08:04:46.453   05 Jun 2027 08:04:52.279             5.826          2913.000
       117   05 Jun 2027 08:05:37.849   05 Jun 2027 08:05:40.893             3.044          1459.969
       118   05 Jun 2027 08:05:49.116   05 Jun 2027 08:05:50.799             1.683           256.969
       119   05 Jun 2027 08:06:12.978   05 Jun 2027 08:06:14.759             1.781           659.031
       120   05 Jun 2027 08:07:16.403   05 Jun 2027 08:07:16.403             0.000             0.000
       121   05 Jun 2027 08:07:24.857   05 Jun 2027 08:07:32.817             7.960          2190.562
       122   05 Jun 2027 08:07:38.983   05 Jun 2027 08:07:45.988             7.005            96.625
       123   05 Jun 2027 09:40:08.805   05 Jun 2027 09:40:34.422            25.617         11245.937
       124   05 Jun 2027 09:40:41.794   05 Jun 2027 09:40:42.263             0.469           164.594
       125   05 Jun 2027 09:41:36.522   05 Jun 2027 09:41:36.592             0.070            35.000
       126   05 Jun 2027 09:42:20.697   05 Jun 2027 09:42:27.753             7.056          2560.219
       127   05 Jun 2027 09:43:00.675   05 Jun 2027 09:43:03.177             2.502          1028.812
       128   05 Jun 2027 09:43:30.949   05 Jun 2027 09:43:33.215             2.266           403.250
       129   05 Jun 2027 09:44:00.537   05 Jun 2027 09:44:02.650             2.113           853.813
       130   05 Jun 2027 09:44:13.829   05 Jun 2027 09:44:16.757             2.928           220.438
       131   05 Jun 2027 09:44:24.021   05 Jun 2027 09:44:26.302             2.281            13.188
       132   05 Jun 2027 09:44:51.870   05 Jun 2027 09:44:51.870             0.000             0.000
       133   05 Jun 2027 11:15:24.090   05 Jun 2027 11:15:27.041             2.951          1475.500
       134   05 Jun 2027 11:17:07.782   05 Jun 2027 11:17:10.828             3.046          1458.031
       135   05 Jun 2027 11:17:51.341   05 Jun 2027 11:17:53.890             2.549          1260.750
       136   05 Jun 2027 11:18:34.678   05 Jun 2027 11:18:37.613             2.935          1274.625
       137   05 Jun 2027 11:19:10.278   05 Jun 2027 11:19:12.761             2.483           546.188
       138   06 Jun 2027 03:27:25.778   06 Jun 2027 03:27:54.167            28.389         14194.500
       139   06 Jun 2027 03:28:19.960   06 Jun 2027 03:28:29.204             9.244          4622.000
       140   06 Jun 2027 03:28:33.465   06 Jun 2027 03:28:37.888             4.423          2211.500
       141   06 Jun 2027 03:29:30.922   06 Jun 2027 03:29:43.105            12.183          6091.500
       142   06 Jun 2027 04:59:35.306   06 Jun 2027 04:59:44.950             9.644          4822.000
       143   06 Jun 2027 05:01:30.947   06 Jun 2027 05:03:25.553           114.606         57303.000
       144   06 Jun 2027 05:05:15.475   06 Jun 2027 05:05:17.463             1.988           994.000
       145   06 Jun 2027 05:07:45.910   06 Jun 2027 05:08:09.688            23.778         11889.000
       146   06 Jun 2027 05:09:20.946   06 Jun 2027 05:09:21.120             0.174            87.000
       147   06 Jun 2027 06:38:29.293   06 Jun 2027 06:40:40.092           130.799         65399.500
       148   06 Jun 2027 06:41:07.344   06 Jun 2027 06:41:09.260             1.916           958.000
       149   06 Jun 2027 06:42:09.661   06 Jun 2027 06:42:15.752             6.091          3045.500
       150   06 Jun 2027 06:44:30.901   06 Jun 2027 06:44:32.607             1.706           853.000
       151   06 Jun 2027 08:15:34.506   06 Jun 2027 08:16:23.896            49.390         23263.188
       152   06 Jun 2027 08:17:50.523   06 Jun 2027 08:17:55.060             4.537          2268.500
       153   06 Jun 2027 08:18:37.342   06 Jun 2027 08:18:43.728             6.386          1728.344
       154   06 Jun 2027 08:20:24.647   06 Jun 2027 08:20:28.472             3.825          1912.500
       155   06 Jun 2027 09:52:12.171   06 Jun 2027 09:52:29.854            17.683          8302.281
       156   06 Jun 2027 09:52:41.946   06 Jun 2027 09:52:44.170             2.224           289.937
       157   06 Jun 2027 09:53:02.904   06 Jun 2027 09:53:05.266             2.362           564.719
       158   06 Jun 2027 09:53:38.059   06 Jun 2027 09:53:40.838             2.779           865.094
       159   06 Jun 2027 09:54:15.949   06 Jun 2027 09:54:20.525             4.576          1097.219
       160   06 Jun 2027 09:54:28.297   06 Jun 2027 09:54:30.322             2.025           160.094
       161   06 Jun 2027 09:55:29.321   06 Jun 2027 09:55:33.234             3.913          1843.719
       162   06 Jun 2027 09:55:41.838   06 Jun 2027 09:55:43.175             1.337            84.094
       163   06 Jun 2027 09:55:57.848   06 Jun 2027 09:55:59.284             1.436           458.531
       164   06 Jun 2027 09:56:18.266   06 Jun 2027 09:56:23.459             5.193           485.969
       165   06 Jun 2027 09:57:15.047   06 Jun 2027 09:57:18.254             3.207          1603.500
       166   06 Jun 2027 11:30:31.534   06 Jun 2027 11:30:44.057            12.523          2581.687
       167   06 Jun 2027 11:30:51.989   06 Jun 2027 11:30:59.932             7.943           247.875
       168   07 Jun 2027 03:39:33.301   07 Jun 2027 03:40:15.474            42.173         21086.500
       169   07 Jun 2027 03:41:03.586   07 Jun 2027 03:41:30.168            26.582         13291.000
       170   07 Jun 2027 05:14:41.075   07 Jun 2027 05:16:22.700           101.625         50812.500
       171   07 Jun 2027 05:16:40.445   07 Jun 2027 05:16:56.020            15.575          7787.500
       172   07 Jun 2027 05:17:10.460   07 Jun 2027 05:17:15.354             4.894          2447.000
       173   07 Jun 2027 05:18:14.060   07 Jun 2027 05:18:14.060             0.000             0.000
       174   07 Jun 2027 05:19:38.486   07 Jun 2027 05:19:58.030            19.544          9772.000
       175   07 Jun 2027 05:21:15.004   07 Jun 2027 05:21:24.486             9.482          4741.000
       176   07 Jun 2027 06:51:02.719   07 Jun 2027 06:52:46.430           103.711         51855.500
       177   07 Jun 2027 06:53:12.086   07 Jun 2027 06:53:32.845            20.759         10379.500
       178   07 Jun 2027 06:54:29.619   07 Jun 2027 06:54:49.343            19.724          8386.063
       179   07 Jun 2027 06:54:59.342   07 Jun 2027 06:55:02.922             3.580           171.844
       180   07 Jun 2027 06:55:20.461   07 Jun 2027 06:55:20.837             0.376           188.000
       181   07 Jun 2027 08:28:28.154   07 Jun 2027 08:29:07.438            39.284         19642.000
       182   07 Jun 2027 08:29:26.960   07 Jun 2027 08:29:28.764             1.804           719.781
       183   07 Jun 2027 08:29:41.425   07 Jun 2027 08:29:41.425             0.000             0.000
       184   07 Jun 2027 08:29:55.214   07 Jun 2027 08:29:56.751             1.537           736.781
       185   07 Jun 2027 08:30:59.557   07 Jun 2027 08:31:02.834             3.277          1638.500
       186   07 Jun 2027 08:31:32.745   07 Jun 2027 08:31:41.273             8.528          1258.906
       187   07 Jun 2027 08:32:07.182   07 Jun 2027 08:32:09.090             1.908           701.906
       188   07 Jun 2027 08:32:24.343   07 Jun 2027 08:32:25.475             1.132           432.906
       189   07 Jun 2027 10:04:39.066   07 Jun 2027 10:04:59.969            20.903          8190.062
       190   07 Jun 2027 10:05:47.438   07 Jun 2027 10:05:52.030             4.592          1452.469
       191   07 Jun 2027 10:07:26.726   07 Jun 2027 10:07:31.334             4.608          1806.719
       192   07 Jun 2027 10:07:42.215   07 Jun 2027 10:07:45.002             2.787           122.500
       193   07 Jun 2027 10:08:15.546   07 Jun 2027 10:08:21.139             5.593           923.406
       194   08 Jun 2027 03:51:36.055   08 Jun 2027 03:52:02.492            26.437         13218.500
       195   08 Jun 2027 03:53:32.333   08 Jun 2027 03:53:41.320             8.987          4493.500
       196   08 Jun 2027 03:54:29.913   08 Jun 2027 03:55:00.753            30.840         15420.000
       197   08 Jun 2027 05:26:47.958   08 Jun 2027 05:28:36.941           108.983         54491.500
       198   08 Jun 2027 05:29:12.285   08 Jun 2027 05:29:13.293             1.008           504.000
       199   08 Jun 2027 05:29:27.564   08 Jun 2027 05:30:05.352            37.788         18894.000
       200   08 Jun 2027 05:33:04.909   08 Jun 2027 05:33:26.765            21.856         10928.000
       201   08 Jun 2027 07:02:43.630   08 Jun 2027 07:04:37.471           113.841         56920.500
       202   08 Jun 2027 07:05:19.426   08 Jun 2027 07:05:44.530            25.104         11534.031
       203   08 Jun 2027 07:06:34.672   08 Jun 2027 07:06:38.152             3.480          1402.406
       204   08 Jun 2027 07:08:39.340   08 Jun 2027 07:08:42.127             2.787          1393.500
       205   08 Jun 2027 08:40:35.740   08 Jun 2027 08:41:06.435            30.695         13854.250
       206   08 Jun 2027 08:41:31.890   08 Jun 2027 08:41:33.341             1.451           272.406
       207   08 Jun 2027 08:42:42.368   08 Jun 2027 08:42:49.300             6.932          2111.031
       208   08 Jun 2027 08:43:58.482   08 Jun 2027 08:44:02.908             4.426          2099.844
       209   08 Jun 2027 08:44:06.330   08 Jun 2027 08:44:08.967             2.637            19.469
       210   08 Jun 2027 08:44:14.273   08 Jun 2027 08:44:15.013             0.740           165.812
       211   08 Jun 2027 10:16:33.494   08 Jun 2027 10:16:51.300            17.806          8468.063
       212   08 Jun 2027 10:17:17.233   08 Jun 2027 10:17:22.976             5.743           810.406
       213   08 Jun 2027 10:17:43.165   08 Jun 2027 10:17:43.165             0.000             0.000
       214   08 Jun 2027 10:17:51.086   08 Jun 2027 10:17:54.348             3.262           324.344
       215   08 Jun 2027 10:18:46.947   08 Jun 2027 10:18:50.577             3.630          1627.844
       216   08 Jun 2027 10:19:34.639   08 Jun 2027 10:19:40.619             5.980           642.437
       217   08 Jun 2027 10:20:08.395   08 Jun 2027 10:20:14.064             5.669           835.688
       218   08 Jun 2027 10:21:25.848   08 Jun 2027 10:21:28.763             2.915          1423.563
       219   09 Jun 2027 04:03:19.941   09 Jun 2027 04:04:08.854            48.913         24456.500
       220   09 Jun 2027 04:07:01.242   09 Jun 2027 04:07:06.120             4.878          2439.000
       221   09 Jun 2027 05:38:03.183   09 Jun 2027 05:40:39.297           156.114         78057.000
       222   09 Jun 2027 05:44:30.893   09 Jun 2027 05:44:31.462             0.569           284.500
       223   09 Jun 2027 05:44:38.417   09 Jun 2027 05:44:47.043             8.626          4313.000
       224   09 Jun 2027 07:14:49.382   09 Jun 2027 07:17:08.315           138.933         69274.875
       225   09 Jun 2027 07:18:39.214   09 Jun 2027 07:18:45.727             6.513          2834.500
       226   09 Jun 2027 08:53:05.040   09 Jun 2027 08:53:37.850            32.810         15430.750
       227   09 Jun 2027 08:54:03.926   09 Jun 2027 08:54:05.217             1.291           601.750
       228   09 Jun 2027 08:54:11.223   09 Jun 2027 08:54:13.860             2.637           187.687
       229   09 Jun 2027 08:54:55.039   09 Jun 2027 08:54:58.568             3.529          1232.281
       230   09 Jun 2027 08:55:37.911   09 Jun 2027 08:55:39.645             1.734           668.844
       231   09 Jun 2027 08:55:56.304   09 Jun 2027 08:56:01.642             5.338           520.594
       232   09 Jun 2027 08:56:21.335   09 Jun 2027 08:56:23.292             1.957           615.406
       233   09 Jun 2027 08:56:44.875   09 Jun 2027 08:56:47.044             2.169           674.469
       234   09 Jun 2027 10:26:24.018   09 Jun 2027 10:26:38.830            14.812          7247.844
       235   09 Jun 2027 10:27:52.502   09 Jun 2027 10:27:53.715             1.213           606.500
       236   09 Jun 2027 10:28:20.673   09 Jun 2027 10:28:25.139             4.466          1070.906
       237   09 Jun 2027 10:28:44.903   09 Jun 2027 10:28:46.209             1.306           270.375
       238   09 Jun 2027 10:29:40.338   09 Jun 2027 10:29:45.032             4.694          1561.531
       239   09 Jun 2027 10:29:58.116   09 Jun 2027 10:29:59.336             1.220           408.875
       240   09 Jun 2027 10:31:26.662   09 Jun 2027 10:31:33.845             7.183          2358.875
       241   09 Jun 2027 10:31:41.448   09 Jun 2027 10:31:41.890             0.442           130.594
       242   09 Jun 2027 10:32:06.038   09 Jun 2027 10:32:11.630             5.592           126.062
       243   09 Jun 2027 10:32:59.812   09 Jun 2027 10:33:08.995             9.183          1005.844
       244   09 Jun 2027 10:33:25.636   09 Jun 2027 10:33:28.061             2.425           377.062
       245   09 Jun 2027 10:33:51.527   09 Jun 2027 10:33:53.467             1.940           216.375
       246   10 Jun 2027 04:13:20.988   10 Jun 2027 04:14:34.544            73.556         36778.000
       247   10 Jun 2027 04:15:03.452   10 Jun 2027 04:15:12.923             9.471          4735.500
       248   10 Jun 2027 04:15:42.088   10 Jun 2027 04:15:42.148             0.060            30.000
       249   10 Jun 2027 04:19:39.424   10 Jun 2027 04:19:55.023            15.599          7799.500
       250   10 Jun 2027 05:50:08.820   10 Jun 2027 05:52:11.715           122.895         61447.500
       251   10 Jun 2027 05:52:20.536   10 Jun 2027 05:52:27.382             6.846          3423.000
       252   10 Jun 2027 05:53:05.056   10 Jun 2027 05:53:12.635             7.579          3789.500
       253   10 Jun 2027 05:56:42.375   10 Jun 2027 05:56:56.112            13.737          6868.500
       254   10 Jun 2027 05:57:34.432   10 Jun 2027 05:57:34.607             0.175            87.500
       255   10 Jun 2027 07:27:09.759   10 Jun 2027 07:29:15.752           125.993         62996.500
       256   10 Jun 2027 07:30:32.163   10 Jun 2027 07:30:43.267            11.104          5552.000
       257   10 Jun 2027 07:31:09.255   10 Jun 2027 07:31:14.793             5.538          1354.125
       258   10 Jun 2027 07:31:48.098   10 Jun 2027 07:31:48.098             0.000             0.000
       259   10 Jun 2027 07:31:58.930   10 Jun 2027 07:32:03.911             4.981          1263.656
       260   10 Jun 2027 07:33:08.884   10 Jun 2027 07:33:08.884             0.000             0.000
       261   10 Jun 2027 09:05:03.172   10 Jun 2027 09:05:29.360            26.188         12951.125
       262   10 Jun 2027 09:06:15.019   10 Jun 2027 09:06:18.425             3.406          1426.844
       263   10 Jun 2027 09:07:06.803   10 Jun 2027 09:07:14.823             8.020          1470.969
       264   10 Jun 2027 09:07:28.095   10 Jun 2027 09:07:30.362             2.267           414.750
       265   10 Jun 2027 09:07:51.995   10 Jun 2027 09:07:55.399             3.404           393.625
       266   10 Jun 2027 09:08:06.574   10 Jun 2027 09:08:06.921             0.347           173.500
       267   10 Jun 2027 09:08:32.114   10 Jun 2027 09:08:36.647             4.533           938.844
       268   10 Jun 2027 09:08:51.835   10 Jun 2027 09:08:53.150             1.315           347.000
       269   10 Jun 2027 10:38:20.490   10 Jun 2027 10:38:35.097            14.607          7193.313
       270   10 Jun 2027 10:39:30.213   10 Jun 2027 10:39:30.213             0.000             0.000
       271   10 Jun 2027 10:39:33.729   10 Jun 2027 10:39:37.376             3.647           719.500
       272   10 Jun 2027 10:39:56.401   10 Jun 2027 10:39:57.535             1.134           479.094
       273   10 Jun 2027 10:40:11.483   10 Jun 2027 10:40:12.582             1.099           435.875
       274   10 Jun 2027 10:40:31.255   10 Jun 2027 10:40:35.382             4.127            74.344
       275   10 Jun 2027 10:41:28.460   10 Jun 2027 10:41:30.517             2.057           379.312
       276   10 Jun 2027 10:41:42.434   10 Jun 2027 10:41:42.434             0.000             0.000
       277   10 Jun 2027 10:41:54.417   10 Jun 2027 10:41:58.363             3.946           559.062
       278   10 Jun 2027 10:43:27.342   10 Jun 2027 10:43:32.629             5.287          2417.375
       279   10 Jun 2027 10:44:22.904   10 Jun 2027 10:44:28.026             5.122          1291.781
       280   10 Jun 2027 10:45:22.006   10 Jun 2027 10:45:29.931             7.925          1525.188
       281   10 Jun 2027 10:46:05.183   10 Jun 2027 10:46:07.436             2.253           722.969
       282   11 Jun 2027 04:24:40.770   11 Jun 2027 04:25:56.080            75.310         37655.000
       283   11 Jun 2027 04:27:51.771   11 Jun 2027 04:27:54.865             3.094          1547.000
       284   11 Jun 2027 04:28:04.740   11 Jun 2027 04:28:06.778             2.038          1019.000
       285   11 Jun 2027 04:31:43.186   11 Jun 2027 04:32:14.184            30.998         15499.000
       286   11 Jun 2027 04:32:43.904   11 Jun 2027 04:32:50.826             6.922          3461.000
       287   11 Jun 2027 04:33:00.275   11 Jun 2027 04:33:14.815            14.540          7270.000
       288   11 Jun 2027 06:02:15.575   11 Jun 2027 06:04:08.735           113.160         56580.000
       289   11 Jun 2027 06:04:51.171   11 Jun 2027 06:05:11.007            19.836          9918.000
       290   11 Jun 2027 06:07:36.771   11 Jun 2027 06:07:55.823            19.052          9526.000
       291   11 Jun 2027 07:38:58.840   11 Jun 2027 07:40:58.014           119.174         59587.000
       292   11 Jun 2027 07:42:03.263   11 Jun 2027 07:42:09.181             5.918          2199.875
       293   11 Jun 2027 07:42:30.237   11 Jun 2027 07:42:31.639             1.402           592.938
       294   11 Jun 2027 07:43:40.054   11 Jun 2027 07:43:41.441             1.387           693.500
       295   11 Jun 2027 07:43:53.108   11 Jun 2027 07:44:00.638             7.530          1757.156
       296   11 Jun 2027 07:44:21.148   11 Jun 2027 07:44:23.441             2.293           640.937
       297   11 Jun 2027 07:44:49.255   11 Jun 2027 07:44:50.605             1.350           559.406
       298   11 Jun 2027 09:17:02.408   11 Jun 2027 09:17:26.528            24.120         11406.188
       299   11 Jun 2027 09:18:29.374   11 Jun 2027 09:18:33.741             4.367          1729.719
       300   11 Jun 2027 09:19:31.961   11 Jun 2027 09:19:39.210             7.249          1819.375
       301   11 Jun 2027 09:20:03.635   11 Jun 2027 09:20:04.550             0.915           379.187
       302   11 Jun 2027 09:20:22.034   11 Jun 2027 09:20:24.224             2.190           486.875
       303   11 Jun 2027 09:21:02.727   11 Jun 2027 09:21:07.152             4.425          1203.219
       304   11 Jun 2027 10:50:46.232   11 Jun 2027 10:50:54.454             8.222          2636.312
       305   11 Jun 2027 10:52:02.186   11 Jun 2027 10:52:16.323            14.137          1764.594
       306   11 Jun 2027 10:53:08.766   11 Jun 2027 10:53:12.750             3.984          1583.469
       307   11 Jun 2027 10:53:19.243   11 Jun 2027 10:53:21.520             2.277           189.500
       308   11 Jun 2027 10:53:42.782   11 Jun 2027 10:53:44.877             2.095           271.844
       309   11 Jun 2027 10:54:26.802   11 Jun 2027 10:54:29.863             3.061          1235.781
       310   11 Jun 2027 10:55:27.333   11 Jun 2027 10:55:31.826             4.493          1795.937
       311   11 Jun 2027 10:55:49.664   11 Jun 2027 10:55:49.664             0.000             0.000
       312   11 Jun 2027 10:55:51.426   11 Jun 2027 10:55:52.390             0.964           295.281
       313   11 Jun 2027 10:57:21.463   11 Jun 2027 10:57:29.689             8.226          2609.219
       314   12 Jun 2027 03:01:16.179   12 Jun 2027 03:01:24.780             8.601          4300.500
       315   12 Jun 2027 03:02:21.691   12 Jun 2027 03:02:25.171             3.480          1740.000
       316   12 Jun 2027 03:04:11.631   12 Jun 2027 03:04:36.183            24.552         12276.000
       317   12 Jun 2027 03:06:00.364   12 Jun 2027 03:06:00.364             0.000             0.000
       318   12 Jun 2027 03:06:09.391   12 Jun 2027 03:06:29.584            20.193         10096.500
       319   12 Jun 2027 04:36:10.863   12 Jun 2027 04:37:25.986            75.123         37561.500
       320   12 Jun 2027 04:38:35.176   12 Jun 2027 04:38:47.325            12.149          6074.500
       321   12 Jun 2027 04:39:54.074   12 Jun 2027 04:40:15.716            21.642         10821.000
       322   12 Jun 2027 04:42:02.351   12 Jun 2027 04:42:07.723             5.372          2686.000
       323   12 Jun 2027 04:44:47.083   12 Jun 2027 04:44:57.041             9.958          4979.000
       324   12 Jun 2027 04:45:06.252   12 Jun 2027 04:45:20.652            14.400          7200.000
       325   12 Jun 2027 06:14:11.104   12 Jun 2027 06:15:48.875            97.771         48885.500
       326   12 Jun 2027 06:16:34.256   12 Jun 2027 06:16:44.535            10.279          5139.500
       327   12 Jun 2027 06:18:41.966   12 Jun 2027 06:18:44.902             2.936          1468.000
       328   12 Jun 2027 06:19:13.143   12 Jun 2027 06:19:21.666             8.523          4261.500
       329   12 Jun 2027 07:51:05.809   12 Jun 2027 07:52:35.622            89.813         44393.344
       330   12 Jun 2027 07:52:50.013   12 Jun 2027 07:52:51.143             1.130           443.969
       331   12 Jun 2027 07:53:56.451   12 Jun 2027 07:53:57.854             1.403           701.500
       332   12 Jun 2027 07:55:10.969   12 Jun 2027 07:55:14.751             3.782          1891.000
       333   12 Jun 2027 07:56:41.998   12 Jun 2027 07:56:50.099             8.101          3530.657
       334   12 Jun 2027 09:28:39.863   12 Jun 2027 09:28:59.124            19.261          9630.500
       335   12 Jun 2027 09:29:02.983   12 Jun 2027 09:29:04.563             1.580           155.281
       336   12 Jun 2027 09:29:26.587   12 Jun 2027 09:29:26.587             0.000             0.000
       337   12 Jun 2027 09:29:39.844   12 Jun 2027 09:29:44.483             4.639          1102.531
       338   12 Jun 2027 09:30:19.711   12 Jun 2027 09:30:23.205             3.494          1048.625
       339   12 Jun 2027 09:30:38.552   12 Jun 2027 09:30:38.750             0.198            18.969
       340   12 Jun 2027 09:31:00.474   12 Jun 2027 09:31:03.996             3.522           678.875
       341   12 Jun 2027 09:31:33.676   12 Jun 2027 09:31:35.914             2.238           787.031
       342   12 Jun 2027 09:32:19.553   12 Jun 2027 09:32:22.045             2.492           983.469
       343   12 Jun 2027 09:32:29.327   12 Jun 2027 09:32:29.458             0.131            44.469
       344   12 Jun 2027 09:32:46.369   12 Jun 2027 09:32:46.369             0.000             0.000
       345   12 Jun 2027 09:32:57.086   12 Jun 2027 09:33:04.244             7.158           575.156
       346   12 Jun 2027 11:03:02.624   12 Jun 2027 11:03:06.080             3.456          1728.000
       347   12 Jun 2027 11:04:06.345   12 Jun 2027 11:04:14.753             8.408          2379.125
       348   12 Jun 2027 11:04:52.242   12 Jun 2027 11:04:53.300             1.058           392.906
       349   12 Jun 2027 11:05:20.129   12 Jun 2027 11:05:25.393             5.264           231.687
       350   12 Jun 2027 11:06:23.707   12 Jun 2027 11:06:30.187             6.480          1822.312
       351   12 Jun 2027 11:06:55.563   12 Jun 2027 11:06:55.563             0.000             0.000
       352   12 Jun 2027 11:07:42.646   12 Jun 2027 11:07:46.600             3.954          1977.000
       353   12 Jun 2027 11:07:59.507   12 Jun 2027 11:08:02.942             3.435           536.188
       354   13 Jun 2027 03:15:34.027   13 Jun 2027 03:16:03.303            29.276         14638.000
       355   13 Jun 2027 04:49:07.134   13 Jun 2027 04:50:47.806           100.672         50336.000
       356   13 Jun 2027 04:50:58.249   13 Jun 2027 04:51:07.290             9.041          4520.500
       357   13 Jun 2027 04:51:38.615   13 Jun 2027 04:51:38.615             0.000             0.000
       358   13 Jun 2027 04:52:01.204   13 Jun 2027 04:52:10.280             9.076          4538.000
       359   13 Jun 2027 04:56:20.235   13 Jun 2027 04:56:37.694            17.459          8729.500
       360   13 Jun 2027 04:57:39.954   13 Jun 2027 04:57:41.005             1.051           525.500
       361   13 Jun 2027 06:26:33.103   13 Jun 2027 06:28:27.155           114.052         57026.000
       362   13 Jun 2027 06:30:31.825   13 Jun 2027 06:30:36.040             4.215          2107.500
       363   13 Jun 2027 06:30:38.214   13 Jun 2027 06:30:38.926             0.712           356.000
       364   13 Jun 2027 06:30:54.272   13 Jun 2027 06:31:02.203             7.931          3965.500
       365   13 Jun 2027 06:31:43.418   13 Jun 2027 06:31:43.418             0.000             0.000
       366   13 Jun 2027 06:32:01.620   13 Jun 2027 06:32:03.637             2.017          1008.500
       367   13 Jun 2027 06:32:35.415   13 Jun 2027 06:32:47.057            11.642          5821.000
       368   13 Jun 2027 08:03:35.122   13 Jun 2027 08:04:52.256            77.134         37393.312
       369   13 Jun 2027 08:05:01.687   13 Jun 2027 08:05:01.751             0.064            32.000
       370   13 Jun 2027 08:05:11.676   13 Jun 2027 08:05:13.198             1.522           572.875
       371   13 Jun 2027 08:06:05.904   13 Jun 2027 08:06:09.857             3.953           817.125
       372   13 Jun 2027 08:07:03.567   13 Jun 2027 08:07:05.976             2.409          1204.500
       373   13 Jun 2027 08:07:26.895   13 Jun 2027 08:07:31.521             4.626          1127.656
       374   13 Jun 2027 08:08:45.645   13 Jun 2027 08:08:50.147             4.502          2251.000
       375   13 Jun 2027 09:40:23.955   13 Jun 2027 09:40:45.725            21.770         10166.843
       376   13 Jun 2027 09:41:13.809   13 Jun 2027 09:41:17.367             3.558           877.625
       377   13 Jun 2027 09:41:51.380   13 Jun 2027 09:41:51.380             0.000             0.000
       378   13 Jun 2027 09:42:01.014   13 Jun 2027 09:42:04.277             3.263          1002.156
       379   13 Jun 2027 09:42:06.212   13 Jun 2027 09:42:09.864             3.652            49.937
       380   13 Jun 2027 09:42:28.020   13 Jun 2027 09:42:28.147             0.127            52.625
       381   13 Jun 2027 09:42:47.067   13 Jun 2027 09:42:50.503             3.436           366.313
       382   13 Jun 2027 09:43:02.467   13 Jun 2027 09:43:03.375             0.908           369.000
       383   13 Jun 2027 09:43:45.977   13 Jun 2027 09:43:49.793             3.816           904.344
       384   13 Jun 2027 09:44:07.883   13 Jun 2027 09:44:08.380             0.497           248.500
       385   13 Jun 2027 09:44:53.742   13 Jun 2027 09:45:07.042            13.300          1434.344
       386   13 Jun 2027 11:15:40.262   13 Jun 2027 11:15:40.994             0.732           366.000
       387   13 Jun 2027 11:17:26.300   13 Jun 2027 11:17:30.265             3.965          1461.063
       388   13 Jun 2027 11:17:41.950   13 Jun 2027 11:17:45.284             3.334           350.125
       389   13 Jun 2027 11:17:56.488   13 Jun 2027 11:17:58.642             2.154           171.594
       390   13 Jun 2027 11:18:11.740   13 Jun 2027 11:18:13.441             1.701           396.469
       391   13 Jun 2027 11:18:47.616   13 Jun 2027 11:18:50.810             3.194           603.625
       392   13 Jun 2027 11:19:08.191   13 Jun 2027 11:19:11.053             2.862           543.156
       393   13 Jun 2027 11:19:24.865   13 Jun 2027 11:19:27.527             2.662           116.187
