uniorb/output/strategy_1/Camera/Camera_KinoSat_111602.txt

KinoSat_111602
-------------------------
    Access    *     Start Time (UTCG)     *     Stop Time (UTCG)  *   Duration (s) *   Data (Mbytes)
         1   01 Jun 2027 03:43:13.705   01 Jun 2027 03:44:15.390            61.685         30842.500
         2   01 Jun 2027 03:44:22.091   01 Jun 2027 03:45:52.972            90.881         45440.500
         3   01 Jun 2027 03:46:47.696   01 Jun 2027 03:46:54.921             7.225          3612.500
         4   01 Jun 2027 05:21:31.599   01 Jun 2027 05:22:05.075            33.476         16738.000
         5   01 Jun 2027 05:22:20.142   01 Jun 2027 05:23:18.417            58.275         29137.500
         6   01 Jun 2027 05:23:51.861   01 Jun 2027 05:23:53.558             1.697           848.500
         7   01 Jun 2027 05:24:51.436   01 Jun 2027 05:24:51.436             0.000             0.000
         8   01 Jun 2027 05:25:04.383   01 Jun 2027 05:25:20.786            16.403          8201.500
         9   01 Jun 2027 06:44:53.998   01 Jun 2027 06:46:08.845            74.847         37423.500
        10   01 Jun 2027 08:21:26.752   01 Jun 2027 08:23:23.748           116.996         58498.000
        11   01 Jun 2027 09:56:37.240   01 Jun 2027 09:58:27.776           110.536         55268.000
        12   01 Jun 2027 09:58:36.528   01 Jun 2027 09:58:45.044             8.516          4258.000
        13   01 Jun 2027 10:03:01.925   01 Jun 2027 10:03:13.231            11.306          5653.000
        14   01 Jun 2027 11:32:58.787   01 Jun 2027 11:34:59.770           120.983         60491.500
        15   01 Jun 2027 11:35:16.014   01 Jun 2027 11:35:29.015            13.001          6500.500
        16   01 Jun 2027 11:36:40.669   01 Jun 2027 11:36:44.663             3.994          1997.000
        17   01 Jun 2027 11:37:12.077   01 Jun 2027 11:37:20.496             8.419          4209.500
        18   01 Jun 2027 11:37:38.308   01 Jun 2027 11:37:45.200             6.892          3446.000
        19   02 Jun 2027 03:56:20.334   02 Jun 2027 03:57:53.833            93.499         46749.500
        20   02 Jun 2027 03:58:12.315   02 Jun 2027 03:58:30.685            18.370          9185.000
        21   02 Jun 2027 03:58:35.717   02 Jun 2027 03:58:36.350             0.633           316.500
        22   02 Jun 2027 04:01:19.363   02 Jun 2027 04:01:22.254             2.891          1445.500
        23   02 Jun 2027 04:02:49.953   02 Jun 2027 04:02:56.732             6.779          3389.500
        24   02 Jun 2027 04:03:09.786   02 Jun 2027 04:03:58.648            48.862         24431.000
        25   02 Jun 2027 05:33:28.373   02 Jun 2027 05:34:08.264            39.891         19945.500
        26   02 Jun 2027 05:34:27.551   02 Jun 2027 05:35:00.491            32.940         16470.000
        27   02 Jun 2027 05:35:35.980   02 Jun 2027 05:35:45.490             9.510          4755.000
        28   02 Jun 2027 05:36:53.383   02 Jun 2027 05:36:54.249             0.866           433.000
        29   02 Jun 2027 06:57:23.744   02 Jun 2027 06:58:52.879            89.135         44567.500
        30   02 Jun 2027 07:00:03.512   02 Jun 2027 07:00:07.557             4.045          2022.500
        31   02 Jun 2027 08:33:18.502   02 Jun 2027 08:34:48.619            90.117         45058.500
        32   02 Jun 2027 08:35:54.267   02 Jun 2027 08:36:01.064             6.797          3398.500
        33   02 Jun 2027 08:36:37.621   02 Jun 2027 08:37:21.096            43.475         21737.500
        34   02 Jun 2027 10:08:12.039   02 Jun 2027 10:08:38.967            26.928         13464.000
        35   02 Jun 2027 10:09:50.172   02 Jun 2027 10:10:27.173            37.001         18500.500
        36   02 Jun 2027 10:10:57.109   02 Jun 2027 10:11:11.782            14.673          7336.500
        37   02 Jun 2027 10:14:53.003   02 Jun 2027 10:15:21.529            28.526         14263.000
        38   02 Jun 2027 11:44:35.164   02 Jun 2027 11:46:27.165           112.001         56000.500
        39   02 Jun 2027 11:49:00.677   02 Jun 2027 11:49:12.205            11.528          5764.000
        40   03 Jun 2027 04:08:24.289   03 Jun 2027 04:09:47.369            83.080         41540.000
        41   03 Jun 2027 04:12:44.014   03 Jun 2027 04:12:47.940             3.926          1963.000
        42   03 Jun 2027 04:14:49.647   03 Jun 2027 04:14:54.668             5.021          2510.500
        43   03 Jun 2027 04:14:57.704   03 Jun 2027 04:15:13.110            15.406          7703.000
        44   03 Jun 2027 05:34:10.218   03 Jun 2027 05:35:06.639            56.421         28210.500
        45   03 Jun 2027 05:45:24.666   03 Jun 2027 05:46:20.669            56.003         28001.500
        46   03 Jun 2027 07:08:01.240   03 Jun 2027 07:10:09.446           128.206         64103.000
        47   03 Jun 2027 08:43:35.884   03 Jun 2027 08:44:21.746            45.862         22931.000
        48   03 Jun 2027 08:45:02.373   03 Jun 2027 08:46:14.520            72.147         36073.500
        49   03 Jun 2027 10:19:48.694   03 Jun 2027 10:20:18.441            29.747         14873.500
        50   03 Jun 2027 10:21:50.878   03 Jun 2027 10:22:50.213            59.335         29667.500
        51   03 Jun 2027 10:23:00.277   03 Jun 2027 10:23:05.558             5.281          2588.748
        52   03 Jun 2027 10:24:33.704   03 Jun 2027 10:24:39.227             5.523          2576.563
        53   03 Jun 2027 10:26:53.116   03 Jun 2027 10:26:58.406             5.290          2645.000
        54   03 Jun 2027 10:27:07.159   03 Jun 2027 10:27:13.288             6.129          1458.594
        55   03 Jun 2027 11:56:55.066   03 Jun 2027 11:57:16.467            21.401          9495.781
        56   03 Jun 2027 11:57:29.462   03 Jun 2027 11:57:32.863             3.401           406.094
        57   03 Jun 2027 11:58:32.397   03 Jun 2027 11:58:36.245             3.848          1166.062
        58   03 Jun 2027 11:59:05.992   03 Jun 2027 11:59:14.143             8.151           929.594
        59   03 Jun 2027 11:59:34.544   03 Jun 2027 11:59:35.088             0.544           272.000
        60   04 Jun 2027 04:20:53.700   04 Jun 2027 04:22:04.650            70.950         35475.000
        61   04 Jun 2027 04:23:42.195   04 Jun 2027 04:23:49.165             6.970          3485.000
        62   04 Jun 2027 04:24:09.857   04 Jun 2027 04:24:12.988             3.131          1565.500
        63   04 Jun 2027 04:25:43.023   04 Jun 2027 04:25:43.023             0.000             0.000
        64   04 Jun 2027 04:26:18.462   04 Jun 2027 04:26:39.799            21.337         10668.500
        65   04 Jun 2027 04:27:41.358   04 Jun 2027 04:28:02.007            20.649         10324.500
        66   04 Jun 2027 05:45:44.631   04 Jun 2027 05:45:51.961             7.330          3665.000
        67   04 Jun 2027 05:46:55.472   04 Jun 2027 05:47:18.496            23.024         11512.000
        68   04 Jun 2027 05:57:28.061   04 Jun 2027 05:58:27.307            59.246         29623.000
        69   04 Jun 2027 07:19:43.540   04 Jun 2027 07:20:50.043            66.503         33251.500
        70   04 Jun 2027 07:21:40.698   04 Jun 2027 07:22:47.823            67.125         33416.375
        71   04 Jun 2027 08:54:42.609   04 Jun 2027 08:55:03.631            21.022         10385.469
        72   04 Jun 2027 08:56:17.890   04 Jun 2027 08:56:20.169             2.279          1139.500
        73   04 Jun 2027 08:56:46.279   04 Jun 2027 08:56:50.226             3.947          1018.125
        74   04 Jun 2027 08:57:41.199   04 Jun 2027 08:57:41.199             0.000             0.000
        75   04 Jun 2027 08:58:20.266   04 Jun 2027 08:58:29.384             9.118          2813.750
        76   04 Jun 2027 08:59:56.102   04 Jun 2027 08:59:56.102             0.000             0.000
        77   04 Jun 2027 09:00:21.991   04 Jun 2027 09:00:31.146             9.155          3337.344
        78   04 Jun 2027 09:01:05.902   04 Jun 2027 09:01:09.169             3.267          1086.125
        79   04 Jun 2027 09:01:25.337   04 Jun 2027 09:01:28.187             2.850           504.625
        80   04 Jun 2027 09:02:40.557   04 Jun 2027 09:02:43.772             3.215          1586.594
        81   04 Jun 2027 10:33:51.043   04 Jun 2027 10:34:06.971            15.928          7799.500
        82   04 Jun 2027 10:35:07.720   04 Jun 2027 10:35:14.612             6.892          1898.406
        83   04 Jun 2027 10:35:36.100   04 Jun 2027 10:35:37.743             1.643           671.500
        84   04 Jun 2027 10:37:33.904   04 Jun 2027 10:37:41.951             8.047          3630.031
        85   04 Jun 2027 10:38:30.637   04 Jun 2027 10:38:35.684             5.047          1373.812
        86   04 Jun 2027 10:38:58.799   04 Jun 2027 10:38:59.500             0.701           350.500
        87   04 Jun 2027 10:39:17.449   04 Jun 2027 10:39:23.665             6.216           916.000
        88   05 Jun 2027 03:00:00.000   05 Jun 2027 03:00:09.456             9.456          4728.000
        89   05 Jun 2027 04:32:55.939   05 Jun 2027 04:34:53.045           117.106         58553.000
        90   05 Jun 2027 04:36:14.139   05 Jun 2027 04:36:17.117             2.978          1489.000
        91   05 Jun 2027 04:36:42.586   05 Jun 2027 04:36:44.386             1.800           900.000
        92   05 Jun 2027 04:36:51.727   05 Jun 2027 04:36:57.767             6.040          3020.000
        93   05 Jun 2027 04:37:43.939   05 Jun 2027 04:38:05.793            21.854         10927.000
        94   05 Jun 2027 04:39:54.181   05 Jun 2027 04:39:56.866             2.685          1342.500
        95   05 Jun 2027 05:57:17.053   05 Jun 2027 05:58:20.813            63.760         31880.000
        96   05 Jun 2027 06:09:33.549   05 Jun 2027 06:10:01.158            27.609         13804.500
        97   05 Jun 2027 07:31:22.320   05 Jun 2027 07:32:36.771            74.451         37225.500
        98   05 Jun 2027 07:33:26.431   05 Jun 2027 07:33:40.600            14.169          7084.500
        99   05 Jun 2027 07:35:01.452   05 Jun 2027 07:35:01.452             0.000             0.000
       100   05 Jun 2027 09:06:10.649   05 Jun 2027 09:06:36.905            26.256         12821.750
       101   05 Jun 2027 09:06:58.304   05 Jun 2027 09:06:59.497             1.193           314.063
       102   05 Jun 2027 09:08:07.354   05 Jun 2027 09:08:10.765             3.411           124.031
       103   05 Jun 2027 09:09:01.480   05 Jun 2027 09:09:05.802             4.322          1579.812
       104   05 Jun 2027 09:11:48.963   05 Jun 2027 09:11:56.282             7.319          3659.500
       105   05 Jun 2027 09:13:06.185   05 Jun 2027 09:13:14.067             7.882          3277.312
       106   05 Jun 2027 09:13:21.719   05 Jun 2027 09:13:21.813             0.094            47.000
       107   05 Jun 2027 09:13:55.601   05 Jun 2027 09:14:06.170            10.569          1193.562
       108   05 Jun 2027 09:15:06.832   05 Jun 2027 09:15:13.471             6.639          1895.687
       109   05 Jun 2027 10:44:03.329   05 Jun 2027 10:44:23.186            19.857          6025.062
       110   05 Jun 2027 10:45:07.283   05 Jun 2027 10:45:10.662             3.379           373.250
       111   05 Jun 2027 10:45:15.315   05 Jun 2027 10:45:17.476             2.161            52.000
       112   05 Jun 2027 10:45:36.413   05 Jun 2027 10:45:39.260             2.847           496.938
       113   05 Jun 2027 10:45:50.534   05 Jun 2027 10:45:50.561             0.027            13.500
       114   05 Jun 2027 10:47:03.807   05 Jun 2027 10:47:14.720            10.913          2583.500
       115   05 Jun 2027 10:49:14.265   05 Jun 2027 10:49:21.164             6.899          2977.437
       116   05 Jun 2027 10:50:10.944   05 Jun 2027 10:50:17.035             6.091          1494.344
       117   05 Jun 2027 10:51:08.249   05 Jun 2027 10:51:11.520             3.271          1284.219
       118   06 Jun 2027 03:06:52.081   06 Jun 2027 03:07:10.826            18.745          9372.500
       119   06 Jun 2027 03:07:16.592   06 Jun 2027 03:07:41.009            24.417         12208.500
       120   06 Jun 2027 03:08:15.235   06 Jun 2027 03:08:29.088            13.853          6926.500
       121   06 Jun 2027 03:08:56.517   06 Jun 2027 03:08:57.166             0.649           324.500
       122   06 Jun 2027 03:09:07.217   06 Jun 2027 03:09:08.632             1.415           707.500
       123   06 Jun 2027 03:10:08.115   06 Jun 2027 03:10:20.329            12.214          6107.000
       124   06 Jun 2027 04:45:20.092   06 Jun 2027 04:46:47.215            87.123         43561.500
       125   06 Jun 2027 04:47:17.798   06 Jun 2027 04:47:22.187             4.389          2194.500
       126   06 Jun 2027 04:47:54.561   06 Jun 2027 04:48:10.962            16.401          8200.500
       127   06 Jun 2027 04:48:36.612   06 Jun 2027 04:49:02.301            25.689         12844.500
       128   06 Jun 2027 06:09:14.660   06 Jun 2027 06:09:58.052            43.392         21696.000
       129   06 Jun 2027 06:10:53.247   06 Jun 2027 06:11:00.179             6.932          3466.000
       130   06 Jun 2027 06:11:27.483   06 Jun 2027 06:11:31.351             3.868          1934.000
       131   06 Jun 2027 07:45:12.834   06 Jun 2027 07:46:51.599            98.765         49071.312
       132   06 Jun 2027 07:47:10.475   06 Jun 2027 07:47:11.948             1.473           589.875
       133   06 Jun 2027 07:47:24.622   06 Jun 2027 07:47:25.635             1.013           238.625
       134   06 Jun 2027 09:19:01.273   06 Jun 2027 09:19:16.532            15.259          6044.344
       135   06 Jun 2027 09:19:50.855   06 Jun 2027 09:19:54.569             3.714           774.312
       136   06 Jun 2027 09:20:31.185   06 Jun 2027 09:20:35.364             4.179           603.875
       137   06 Jun 2027 09:21:15.702   06 Jun 2027 09:21:17.550             1.848           541.031
       138   06 Jun 2027 09:21:33.838   06 Jun 2027 09:21:37.312             3.474           509.000
       139   06 Jun 2027 09:22:14.096   06 Jun 2027 09:22:16.267             2.171           578.969
       140   06 Jun 2027 09:23:41.194   06 Jun 2027 09:23:41.194             0.000             0.000
       141   06 Jun 2027 09:26:04.644   06 Jun 2027 09:26:20.563            15.919          7136.781
       142   06 Jun 2027 09:27:06.325   06 Jun 2027 09:27:11.534             5.209          1427.281
       143   06 Jun 2027 09:27:28.876   06 Jun 2027 09:27:30.060             1.184           141.000
       144   06 Jun 2027 10:56:10.450   06 Jun 2027 10:56:33.479            23.029          7994.938
       145   06 Jun 2027 10:56:51.124   06 Jun 2027 10:56:52.280             1.156           270.687
       146   06 Jun 2027 10:57:08.227   06 Jun 2027 10:57:09.310             1.083           498.344
       147   06 Jun 2027 10:58:05.199   06 Jun 2027 10:58:10.157             4.958          1593.094
       148   06 Jun 2027 10:58:55.538   06 Jun 2027 10:58:56.850             1.312           656.000
       149   06 Jun 2027 10:59:06.183   06 Jun 2027 10:59:13.248             7.065           635.031
       150   06 Jun 2027 10:59:25.631   06 Jun 2027 10:59:32.136             6.505           248.531
       151   06 Jun 2027 11:00:25.526   06 Jun 2027 11:00:27.904             2.378          1189.000
       152   06 Jun 2027 11:01:15.100   06 Jun 2027 11:01:22.155             7.055          1659.344
       153   06 Jun 2027 11:01:22.599   06 Jun 2027 11:01:22.834             0.235            13.875
       154   06 Jun 2027 11:01:36.229   06 Jun 2027 11:01:37.362             1.133           418.594
       155   06 Jun 2027 11:02:16.253   06 Jun 2027 11:02:20.627             4.374          1091.812
       156   06 Jun 2027 11:02:40.479   06 Jun 2027 11:02:43.951             3.472           581.156
       157   06 Jun 2027 11:02:49.731   06 Jun 2027 11:02:53.014             3.283           180.625
       158   06 Jun 2027 11:02:53.996   06 Jun 2027 11:02:56.237             2.241            22.406
       159   06 Jun 2027 11:03:00.968   06 Jun 2027 11:03:03.802             2.834           147.844
       160   07 Jun 2027 03:19:36.725   07 Jun 2027 03:19:56.106            19.381          9690.500
       161   07 Jun 2027 03:20:10.867   07 Jun 2027 03:20:52.297            41.430         20715.000
       162   07 Jun 2027 03:21:11.594   07 Jun 2027 03:21:39.101            27.507         13753.500
       163   07 Jun 2027 03:23:00.369   07 Jun 2027 03:23:08.253             7.884          3942.000
       164   07 Jun 2027 03:24:31.553   07 Jun 2027 03:24:35.149             3.596          1798.000
       165   07 Jun 2027 03:24:50.295   07 Jun 2027 03:24:56.889             6.594          3297.000
       166   07 Jun 2027 03:25:37.185   07 Jun 2027 03:25:38.413             1.228           614.000
       167   07 Jun 2027 04:57:44.488   07 Jun 2027 04:58:44.866            60.378         30189.000
       168   07 Jun 2027 04:59:13.180   07 Jun 2027 04:59:39.427            26.247         13123.500
       169   07 Jun 2027 04:59:52.298   07 Jun 2027 05:00:07.907            15.609          7804.500
       170   07 Jun 2027 06:21:07.444   07 Jun 2027 06:22:00.971            53.527         26763.500
       171   07 Jun 2027 06:22:39.530   07 Jun 2027 06:22:45.264             5.734          2867.000
       172   07 Jun 2027 07:57:29.906   07 Jun 2027 07:58:44.046            74.140         37070.000
       173   07 Jun 2027 07:58:50.949   07 Jun 2027 07:58:59.695             8.746          3549.000
       174   07 Jun 2027 07:59:09.768   07 Jun 2027 07:59:12.420             2.652            90.937
       175   07 Jun 2027 09:31:24.005   07 Jun 2027 09:31:39.981            15.976          5747.031
       176   07 Jun 2027 09:34:01.647   07 Jun 2027 09:34:15.905            14.258          3416.937
       177   07 Jun 2027 09:37:42.589   07 Jun 2027 09:37:55.061            12.472          6095.625
       178   07 Jun 2027 09:38:03.432   07 Jun 2027 09:38:07.364             3.932           231.594
       179   07 Jun 2027 09:38:21.436   07 Jun 2027 09:38:23.038             1.602           375.688
       180   07 Jun 2027 09:38:48.443   07 Jun 2027 09:38:50.279             1.836           535.844
       181   07 Jun 2027 09:39:22.463   07 Jun 2027 09:39:25.513             3.050          1005.750
       182   07 Jun 2027 11:08:36.562   07 Jun 2027 11:08:48.868            12.306          5914.813
       183   07 Jun 2027 11:09:03.091   07 Jun 2027 11:09:04.469             1.378            69.938
       184   07 Jun 2027 11:09:34.915   07 Jun 2027 11:09:41.096             6.181           764.438
       185   07 Jun 2027 11:10:53.661   07 Jun 2027 11:10:59.794             6.133          2228.437
       186   07 Jun 2027 11:11:18.450   07 Jun 2027 11:11:19.036             0.586           249.000
       187   07 Jun 2027 11:11:36.162   07 Jun 2027 11:11:46.299            10.137           535.188
       188   07 Jun 2027 11:11:50.458   07 Jun 2027 11:11:54.810             4.352           129.969
       189   07 Jun 2027 11:12:35.697   07 Jun 2027 11:12:39.000             3.303           594.719
       190   07 Jun 2027 11:13:00.702   07 Jun 2027 11:13:02.038             1.336           585.906
       191   07 Jun 2027 11:13:04.761   07 Jun 2027 11:13:06.020             1.259            62.875
       192   07 Jun 2027 11:13:32.977   07 Jun 2027 11:13:36.297             3.320           505.156
       193   07 Jun 2027 11:13:51.244   07 Jun 2027 11:13:52.767             1.523           419.625
       194   07 Jun 2027 11:14:41.436   07 Jun 2027 11:14:44.756             3.320          1520.906
       195   07 Jun 2027 11:15:06.228   07 Jun 2027 11:15:07.882             1.654           671.000
       196   08 Jun 2027 03:31:44.673   08 Jun 2027 03:32:36.357            51.684         25842.000
       197   08 Jun 2027 03:32:42.309   08 Jun 2027 03:33:52.382            70.073         35036.500
       198   08 Jun 2027 03:36:25.926   08 Jun 2027 03:36:29.362             3.436          1718.000
       199   08 Jun 2027 03:36:58.673   08 Jun 2027 03:37:08.297             9.624          4812.000
       200   08 Jun 2027 05:10:03.211   08 Jun 2027 05:11:14.390            71.179         35589.500
       201   08 Jun 2027 05:12:03.589   08 Jun 2027 05:12:03.589             0.000             0.000
       202   08 Jun 2027 05:12:16.887   08 Jun 2027 05:12:19.706             2.819          1409.500
       203   08 Jun 2027 05:13:03.511   08 Jun 2027 05:13:23.634            20.123         10061.500
       204   08 Jun 2027 06:32:57.490   08 Jun 2027 06:33:54.110            56.620         28310.000
       205   08 Jun 2027 06:34:03.769   08 Jun 2027 06:34:20.778            17.009          8504.500
       206   08 Jun 2027 06:35:10.943   08 Jun 2027 06:35:12.869             1.926           963.000
       207   08 Jun 2027 08:09:33.375   08 Jun 2027 08:10:20.590            47.215         22212.781
       208   08 Jun 2027 09:44:41.481   08 Jun 2027 09:44:53.133            11.652          5712.406
       209   08 Jun 2027 09:45:36.245   08 Jun 2027 09:45:38.889             2.644          1115.844
       210   08 Jun 2027 09:46:29.324   08 Jun 2027 09:46:32.610             3.286          1575.250
       211   08 Jun 2027 09:47:09.344   08 Jun 2027 09:47:11.699             2.355           835.156
       212   08 Jun 2027 09:47:24.032   08 Jun 2027 09:47:25.190             1.158           368.594
       213   08 Jun 2027 09:48:18.916   08 Jun 2027 09:48:22.211             3.295          1522.250
       214   08 Jun 2027 09:48:59.900   08 Jun 2027 09:49:03.642             3.742          1114.000
       215   08 Jun 2027 09:49:08.933   08 Jun 2027 09:49:11.158             2.225            92.281
       216   08 Jun 2027 09:50:37.985   08 Jun 2027 09:50:40.598             2.613          1306.500
       217   08 Jun 2027 09:50:47.146   08 Jun 2027 09:50:50.161             3.015          1183.250
       218   08 Jun 2027 09:51:04.732   08 Jun 2027 09:51:10.837             6.105           455.344
       219   08 Jun 2027 11:21:01.728   08 Jun 2027 11:21:16.987            15.259          7373.656
       220   08 Jun 2027 11:22:42.752   08 Jun 2027 11:22:48.702             5.950          2114.625
       221   08 Jun 2027 11:23:14.295   08 Jun 2027 11:23:21.829             7.534           786.500
       222   08 Jun 2027 11:23:27.801   08 Jun 2027 11:23:29.064             1.263           186.625
       223   08 Jun 2027 11:24:57.104   08 Jun 2027 11:25:01.602             4.498          2207.250
       224   08 Jun 2027 11:25:05.086   08 Jun 2027 11:25:05.517             0.431           108.875
       225   08 Jun 2027 11:25:30.304   08 Jun 2027 11:25:35.207             4.903           774.594
       226   08 Jun 2027 11:26:32.692   08 Jun 2027 11:26:37.739             5.047          1764.094
       227   08 Jun 2027 11:26:57.313   08 Jun 2027 11:27:01.910             4.597           611.687
       228   09 Jun 2027 03:43:30.632   09 Jun 2027 03:44:31.462            60.830         30415.000
       229   09 Jun 2027 03:44:38.357   09 Jun 2027 03:45:41.745            63.388         31694.000
       230   09 Jun 2027 03:46:30.895   09 Jun 2027 03:46:31.644             0.749           374.500
       231   09 Jun 2027 03:46:53.019   09 Jun 2027 03:46:56.804             3.785          1892.500
       232   09 Jun 2027 03:47:23.238   09 Jun 2027 03:47:51.938            28.700         14350.000
       233   09 Jun 2027 05:21:47.905   09 Jun 2027 05:22:22.581            34.676         17338.000
       234   09 Jun 2027 05:22:36.571   09 Jun 2027 05:23:16.323            39.752         19876.000
       235   09 Jun 2027 05:24:51.906   09 Jun 2027 05:24:51.906             0.000             0.000
       236   09 Jun 2027 05:25:08.453   09 Jun 2027 05:25:19.150            10.697          5348.500
       237   09 Jun 2027 06:45:09.924   09 Jun 2027 06:46:25.448            75.524         37762.000
       238   09 Jun 2027 08:21:44.533   09 Jun 2027 08:22:20.419            35.886         17600.000
       239   09 Jun 2027 08:23:02.381   09 Jun 2027 08:23:02.974             0.593           296.500
       240   09 Jun 2027 08:23:04.929   09 Jun 2027 08:23:04.929             0.000             0.000
       241   09 Jun 2027 08:23:12.850   09 Jun 2027 08:23:14.947             2.097          1029.250
       242   09 Jun 2027 08:24:04.774   09 Jun 2027 08:24:09.178             4.404          1300.562
       243   09 Jun 2027 08:24:43.954   09 Jun 2027 08:24:43.954             0.000             0.000
       244   09 Jun 2027 08:25:00.739   09 Jun 2027 08:25:01.944             1.205           602.500
       245   09 Jun 2027 08:25:11.002   09 Jun 2027 08:25:13.949             2.947          1265.125
       246   09 Jun 2027 09:56:54.044   09 Jun 2027 09:57:04.554            10.510          4992.562
       247   09 Jun 2027 09:57:22.154   09 Jun 2027 09:57:30.441             8.287           550.000
       248   09 Jun 2027 09:58:22.280   09 Jun 2027 09:58:24.856             2.576          1191.000
       249   09 Jun 2027 09:59:49.586   09 Jun 2027 09:59:56.795             7.209          2647.812
       250   09 Jun 2027 10:03:14.003   09 Jun 2027 10:03:29.251            15.248          5910.594
       251   09 Jun 2027 11:33:15.362   09 Jun 2027 11:33:30.313            14.951          6529.250
       252   09 Jun 2027 11:35:07.622   09 Jun 2027 11:35:14.328             6.706          2094.344
       253   09 Jun 2027 11:35:33.802   09 Jun 2027 11:35:38.105             4.303           514.094
       254   09 Jun 2027 11:36:56.313   09 Jun 2027 11:37:01.706             5.393          2219.188
       255   09 Jun 2027 11:37:28.669   09 Jun 2027 11:37:36.970             8.301           842.594
       256   09 Jun 2027 11:37:41.105   09 Jun 2027 11:37:41.748             0.643           129.219
       257   10 Jun 2027 03:56:37.244   10 Jun 2027 03:58:28.766           111.522         55761.000
       258   10 Jun 2027 03:58:58.780   10 Jun 2027 03:59:06.043             7.263          3631.500
       259   10 Jun 2027 04:00:54.903   10 Jun 2027 04:00:54.903             0.000             0.000
       260   10 Jun 2027 04:01:11.444   10 Jun 2027 04:01:13.440             1.996           998.000
       261   10 Jun 2027 04:03:01.019   10 Jun 2027 04:03:14.265            13.246          6623.000
       262   10 Jun 2027 04:03:27.850   10 Jun 2027 04:03:45.081            17.231          8615.500
       263   10 Jun 2027 05:33:44.706   10 Jun 2027 05:34:25.403            40.697         20348.500
       264   10 Jun 2027 05:34:42.476   10 Jun 2027 05:35:51.411            68.935         34467.500
       265   10 Jun 2027 06:57:40.541   10 Jun 2027 06:59:04.746            84.205         41820.469
       266   10 Jun 2027 08:33:33.713   10 Jun 2027 08:33:46.188            12.475          6171.594
       267   10 Jun 2027 08:35:44.287   10 Jun 2027 08:35:57.613            13.326          3690.594
       268   10 Jun 2027 08:36:52.630   10 Jun 2027 08:36:52.630             0.000             0.000
       269   10 Jun 2027 10:08:27.202   10 Jun 2027 10:08:44.946            17.744          7250.156
       270   10 Jun 2027 10:09:10.439   10 Jun 2027 10:09:17.420             6.981           622.094
       271   10 Jun 2027 10:10:04.252   10 Jun 2027 10:10:06.525             2.273          1024.469
       272   10 Jun 2027 10:11:17.185   10 Jun 2027 10:11:17.185             0.000             0.000
       273   10 Jun 2027 10:11:17.928   10 Jun 2027 10:11:24.115             6.187          2180.188
       274   10 Jun 2027 10:15:09.132   10 Jun 2027 10:15:23.727            14.595          7000.469
       275   10 Jun 2027 10:15:34.388   10 Jun 2027 10:15:34.998             0.610           187.469
       276   10 Jun 2027 11:44:53.040   10 Jun 2027 11:45:07.503            14.463          6541.188
       277   10 Jun 2027 11:45:47.166   10 Jun 2027 11:45:49.443             2.277          1037.125
       278   10 Jun 2027 11:46:49.428   10 Jun 2027 11:46:54.014             4.586          1769.687
       279   10 Jun 2027 11:47:31.917   10 Jun 2027 11:47:37.448             5.531           958.188
       280   10 Jun 2027 11:48:34.895   10 Jun 2027 11:48:38.261             3.366          1575.406
       281   10 Jun 2027 11:49:04.368   10 Jun 2027 11:49:08.697             4.329           815.844
       282   10 Jun 2027 11:49:30.977   10 Jun 2027 11:49:34.411             3.434           551.156
       283   10 Jun 2027 11:49:51.177   10 Jun 2027 11:49:54.047             2.870           523.937
       284   10 Jun 2027 11:50:18.109   10 Jun 2027 11:50:24.589             6.480           751.937
       285   11 Jun 2027 04:08:41.421   11 Jun 2027 04:10:25.323           103.902         51951.000
       286   11 Jun 2027 04:11:20.523   11 Jun 2027 04:11:20.523             0.000             0.000
       287   11 Jun 2027 04:11:57.457   11 Jun 2027 04:12:02.539             5.082          2541.000
       288   11 Jun 2027 04:13:27.131   11 Jun 2027 04:13:30.867             3.736          1868.000
       289   11 Jun 2027 04:14:45.325   11 Jun 2027 04:14:54.107             8.782          4391.000
       290   11 Jun 2027 04:15:44.508   11 Jun 2027 04:16:18.472            33.964         16982.000
       291   11 Jun 2027 05:34:23.875   11 Jun 2027 05:35:26.634            62.759         31379.500
       292   11 Jun 2027 05:45:41.615   11 Jun 2027 05:46:27.829            46.214         23107.000
       293   11 Jun 2027 05:46:41.486   11 Jun 2027 05:46:46.947             5.461          2730.500
       294   11 Jun 2027 07:08:16.927   11 Jun 2027 07:09:21.658            64.731         32365.500
       295   11 Jun 2027 07:09:35.191   11 Jun 2027 07:10:25.991            50.800         24748.969
       296   11 Jun 2027 08:43:49.482   11 Jun 2027 08:44:09.308            19.826          9153.000
       297   11 Jun 2027 08:44:25.452   11 Jun 2027 08:44:29.702             4.250           104.031
       298   11 Jun 2027 08:45:35.237   11 Jun 2027 08:45:35.237             0.000             0.000
       299   11 Jun 2027 08:46:32.520   11 Jun 2027 08:46:41.516             8.996          3624.437
       300   11 Jun 2027 08:48:10.579   11 Jun 2027 08:48:15.289             4.710          2355.000
       301   11 Jun 2027 10:20:07.308   11 Jun 2027 10:20:21.686            14.378          6646.250
       302   11 Jun 2027 10:23:19.651   11 Jun 2027 10:23:33.698            14.047          5194.344
       303   11 Jun 2027 10:24:22.532   11 Jun 2027 10:24:26.859             4.327          1480.469
       304   11 Jun 2027 10:25:15.480   11 Jun 2027 10:25:18.058             2.578           956.281
       305   11 Jun 2027 10:25:25.591   11 Jun 2027 10:25:26.821             1.230           196.750
       306   11 Jun 2027 10:27:39.935   11 Jun 2027 10:27:40.443             0.508           254.000
       307   11 Jun 2027 11:57:13.046   11 Jun 2027 11:57:31.746            18.700          8519.000
       308   11 Jun 2027 11:57:47.915   11 Jun 2027 11:57:51.062             3.147           475.250
       309   11 Jun 2027 11:58:47.858   11 Jun 2027 11:58:53.309             5.451          1128.344
       310   11 Jun 2027 11:59:22.690   11 Jun 2027 11:59:29.034             6.344           865.906
       311   11 Jun 2027 11:59:50.125   11 Jun 2027 11:59:51.691             1.566           337.375
       312   12 Jun 2027 04:21:11.612   12 Jun 2027 04:22:24.429            72.817         36408.500
       313   12 Jun 2027 04:22:41.609   12 Jun 2027 04:22:41.935             0.326           163.000
       314   12 Jun 2027 04:22:49.730   12 Jun 2027 04:22:50.289             0.559           279.500
       315   12 Jun 2027 04:23:56.698   12 Jun 2027 04:24:24.132            27.434         13717.000
       316   12 Jun 2027 04:25:17.840   12 Jun 2027 04:25:55.312            37.472         18736.000
       317   12 Jun 2027 05:46:01.155   12 Jun 2027 05:46:35.911            34.756         17378.000
       318   12 Jun 2027 05:47:11.388   12 Jun 2027 05:47:35.570            24.182         12091.000
       319   12 Jun 2027 05:57:42.003   12 Jun 2027 05:58:39.728            57.725         28862.500
       320   12 Jun 2027 07:20:00.312   12 Jun 2027 07:21:06.270            65.958         32979.000
       321   12 Jun 2027 07:21:57.239   12 Jun 2027 07:22:25.554            28.315         14157.500
       322   12 Jun 2027 07:24:36.731   12 Jun 2027 07:24:36.731             0.000             0.000
       323   12 Jun 2027 08:54:57.983   12 Jun 2027 08:55:19.821            21.838         10659.375
       324   12 Jun 2027 08:55:42.246   12 Jun 2027 08:55:44.714             2.468           559.719
       325   12 Jun 2027 08:55:58.843   12 Jun 2027 08:55:58.843             0.000             0.000
       326   12 Jun 2027 08:56:35.155   12 Jun 2027 08:56:40.633             5.478          1454.156
       327   12 Jun 2027 08:58:52.833   12 Jun 2027 08:59:00.408             7.575          3271.719
       328   12 Jun 2027 09:00:11.269   12 Jun 2027 09:00:13.290             2.021          1010.500
       329   12 Jun 2027 09:00:39.946   12 Jun 2027 09:00:43.417             3.471          1735.500
       330   12 Jun 2027 09:01:21.382   12 Jun 2027 09:01:24.645             3.263          1487.813
       331   12 Jun 2027 09:01:25.858   12 Jun 2027 09:01:27.909             2.051            37.906
       332   12 Jun 2027 09:02:11.491   12 Jun 2027 09:02:17.623             6.132          1337.000
       333   12 Jun 2027 10:32:26.594   12 Jun 2027 10:32:37.387            10.793          4971.531
       334   12 Jun 2027 10:33:18.366   12 Jun 2027 10:33:21.493             3.127           897.094
       335   12 Jun 2027 10:37:56.515   12 Jun 2027 10:38:12.129            15.614          7112.281
       336   12 Jun 2027 10:39:05.082   12 Jun 2027 10:39:10.209             5.127          1654.781
       337   12 Jun 2027 10:39:21.767   12 Jun 2027 10:39:31.938            10.171           207.344
       338   13 Jun 2027 03:00:00.000   13 Jun 2027 03:00:08.137             8.137          4068.500
       339   13 Jun 2027 04:33:13.689   13 Jun 2027 04:35:11.868           118.179         59089.500
       340   13 Jun 2027 04:36:58.038   13 Jun 2027 04:36:58.038             0.000             0.000
       341   13 Jun 2027 04:37:49.188   13 Jun 2027 04:37:58.597             9.409          4704.500
       342   13 Jun 2027 04:39:09.928   13 Jun 2027 04:39:13.006             3.078          1539.000
       343   13 Jun 2027 04:39:40.619   13 Jun 2027 04:39:55.184            14.565          7282.500
       344   13 Jun 2027 04:40:11.847   13 Jun 2027 04:40:12.459             0.612           306.000
       345   13 Jun 2027 05:57:34.517   13 Jun 2027 05:58:11.819            37.302         18651.000
       346   13 Jun 2027 05:59:19.095   13 Jun 2027 05:59:40.620            21.525         10762.500
       347   13 Jun 2027 06:09:50.188   13 Jun 2027 06:10:12.733            22.545         11272.500
       348   13 Jun 2027 07:31:33.482   13 Jun 2027 07:32:53.303            79.821         39910.500
       349   13 Jun 2027 07:33:41.935   13 Jun 2027 07:34:10.328            28.393         14196.500
       350   13 Jun 2027 09:06:26.061   13 Jun 2027 09:06:49.165            23.104         10586.531
       351   13 Jun 2027 09:07:13.683   13 Jun 2027 09:07:13.683             0.000             0.000
       352   13 Jun 2027 09:08:21.530   13 Jun 2027 09:08:25.491             3.961          1980.500
       353   13 Jun 2027 09:09:19.609   13 Jun 2027 09:09:29.646            10.037          2078.656
       354   13 Jun 2027 09:10:34.025   13 Jun 2027 09:10:34.025             0.000             0.000
       355   13 Jun 2027 09:12:05.586   13 Jun 2027 09:12:13.422             7.836          3918.000
       356   13 Jun 2027 09:13:14.042   13 Jun 2027 09:13:16.943             2.901          1450.500
       357   13 Jun 2027 09:15:22.600   13 Jun 2027 09:15:34.756            12.156          5157.031
       358   13 Jun 2027 10:44:19.918   13 Jun 2027 10:44:21.775             1.857           928.500
       359   13 Jun 2027 10:46:08.376   13 Jun 2027 10:46:24.667            16.291          7537.781
       360   13 Jun 2027 10:47:18.037   13 Jun 2027 10:47:19.972             1.935           967.500
       361   13 Jun 2027 10:49:53.617   13 Jun 2027 10:50:06.006            12.389          5328.187
       362   13 Jun 2027 10:50:24.845   13 Jun 2027 10:50:27.648             2.803           588.719
       363   13 Jun 2027 10:50:41.627   13 Jun 2027 10:50:43.809             2.182           436.844
       364   13 Jun 2027 10:50:54.201   13 Jun 2027 10:50:55.467             1.266           199.844
       365   13 Jun 2027 10:51:03.058   13 Jun 2027 10:51:03.058             0.000             0.000
       366   13 Jun 2027 10:51:10.047   13 Jun 2027 10:51:12.801             2.754           369.250
       367   13 Jun 2027 10:51:19.341   13 Jun 2027 10:51:19.900             0.559            73.531
