uniorb/output/strategy_1/Camera/Camera_KinoSat_111506.txt

KinoSat_111506
-------------------------
    Access    *     Start Time (UTCG)     *     Stop Time (UTCG)  *   Duration (s) *   Data (Mbytes)
         1   01 Jun 2027 03:08:47.024   01 Jun 2027 03:09:43.412            56.388         28194.000
         2   01 Jun 2027 03:09:49.132   01 Jun 2027 03:10:14.907            25.775         12887.500
         3   01 Jun 2027 03:10:31.949   01 Jun 2027 03:10:36.989             5.040          2520.000
         4   01 Jun 2027 03:11:38.048   01 Jun 2027 03:11:48.417            10.369          5184.500
         5   01 Jun 2027 03:12:53.762   01 Jun 2027 03:13:15.174            21.412         10706.000
         6   01 Jun 2027 04:47:15.235   01 Jun 2027 04:48:54.442            99.207         49603.500
         7   01 Jun 2027 04:49:13.247   01 Jun 2027 04:49:15.883             2.636          1318.000
         8   01 Jun 2027 04:50:40.111   01 Jun 2027 04:50:41.264             1.153           576.500
         9   01 Jun 2027 06:10:13.832   01 Jun 2027 06:11:26.676            72.844         36422.000
        10   01 Jun 2027 06:12:41.550   01 Jun 2027 06:12:41.550             0.000             0.000
        11   01 Jun 2027 07:46:40.596   01 Jun 2027 07:48:44.326           123.730         61865.000
        12   01 Jun 2027 07:50:05.024   01 Jun 2027 07:50:13.716             8.692          4346.000
        13   01 Jun 2027 09:21:49.191   01 Jun 2027 09:23:22.257            93.066         46533.000
        14   01 Jun 2027 09:24:07.433   01 Jun 2027 09:24:43.781            36.348         18174.000
        15   01 Jun 2027 09:25:41.871   01 Jun 2027 09:25:43.766             1.895           947.500
        16   01 Jun 2027 09:28:31.183   01 Jun 2027 09:28:36.590             5.407          2703.500
        17   01 Jun 2027 10:58:09.691   01 Jun 2027 11:00:10.517           120.826         60413.000
        18   01 Jun 2027 11:00:22.254   01 Jun 2027 11:00:53.188            30.934         15467.000
        19   01 Jun 2027 11:04:10.368   01 Jun 2027 11:04:12.775             2.407          1203.500
        20   02 Jun 2027 03:20:37.885   02 Jun 2027 03:21:36.462            58.577         29288.500
        21   02 Jun 2027 03:21:45.205   02 Jun 2027 03:22:16.656            31.451         15725.500
        22   02 Jun 2027 03:22:32.712   02 Jun 2027 03:22:41.778             9.066          4533.000
        23   02 Jun 2027 03:22:55.018   02 Jun 2027 03:23:02.583             7.565          3782.500
        24   02 Jun 2027 03:23:23.071   02 Jun 2027 03:23:23.391             0.320           160.000
        25   02 Jun 2027 03:24:36.912   02 Jun 2027 03:24:40.098             3.186          1593.000
        26   02 Jun 2027 03:25:06.457   02 Jun 2027 03:25:29.856            23.399         11699.500
        27   02 Jun 2027 04:58:54.684   02 Jun 2027 05:00:13.890            79.206         39603.000
        28   02 Jun 2027 05:01:10.049   02 Jun 2027 05:01:38.094            28.045         14022.500
        29   02 Jun 2027 06:22:15.222   02 Jun 2027 06:23:09.475            54.253         27126.500
        30   02 Jun 2027 06:23:43.962   02 Jun 2027 06:23:43.962             0.000             0.000
        31   02 Jun 2027 06:23:50.295   02 Jun 2027 06:24:04.726            14.431          7215.500
        32   02 Jun 2027 07:58:51.160   02 Jun 2027 08:00:24.130            92.970         46485.000
        33   02 Jun 2027 08:00:34.416   02 Jun 2027 08:00:48.019            13.603          6801.500
        34   02 Jun 2027 08:00:51.198   02 Jun 2027 08:00:54.492             3.294          1647.000
        35   02 Jun 2027 08:01:10.368   02 Jun 2027 08:01:17.953             7.585          3792.500
        36   02 Jun 2027 09:34:01.369   02 Jun 2027 09:35:11.529            70.160         35080.000
        37   02 Jun 2027 09:35:24.589   02 Jun 2027 09:35:28.733             4.144          2072.000
        38   02 Jun 2027 09:36:19.152   02 Jun 2027 09:36:43.434            24.282         12141.000
        39   02 Jun 2027 09:37:47.161   02 Jun 2027 09:38:21.841            34.680         17340.000
        40   02 Jun 2027 09:38:46.203   02 Jun 2027 09:38:53.403             7.200          3600.000
        41   02 Jun 2027 09:40:36.714   02 Jun 2027 09:40:37.076             0.362           181.000
        42   02 Jun 2027 11:10:19.578   02 Jun 2027 11:12:24.889           125.311         62655.500
        43   02 Jun 2027 11:13:16.822   02 Jun 2027 11:13:24.375             7.553          3776.500
        44   02 Jun 2027 11:14:12.046   02 Jun 2027 11:14:18.703             6.657          3328.500
        45   02 Jun 2027 11:14:55.407   02 Jun 2027 11:15:02.878             7.471          3735.500
        46   03 Jun 2027 03:33:44.168   03 Jun 2027 03:35:17.256            93.088         46544.000
        47   03 Jun 2027 03:36:50.951   03 Jun 2027 03:36:57.040             6.089          3044.500
        48   03 Jun 2027 03:37:41.941   03 Jun 2027 03:37:52.884            10.943          5471.500
        49   03 Jun 2027 03:40:37.925   03 Jun 2027 03:41:33.190            55.265         27632.500
        50   03 Jun 2027 05:00:08.161   03 Jun 2027 05:00:10.049             1.888           944.000
        51   03 Jun 2027 05:10:50.964   03 Jun 2027 05:11:32.554            41.590         20795.000
        52   03 Jun 2027 05:13:03.105   03 Jun 2027 05:13:13.377            10.272          5136.000
        53   03 Jun 2027 06:34:49.606   03 Jun 2027 06:36:23.113            93.507         46753.500
        54   03 Jun 2027 08:10:36.999   03 Jun 2027 08:12:41.143           124.144         62072.000
        55   03 Jun 2027 08:14:16.792   03 Jun 2027 08:14:16.792             0.000             0.000
        56   03 Jun 2027 09:45:30.388   03 Jun 2027 09:47:15.735           105.347         52673.500
        57   03 Jun 2027 09:49:47.673   03 Jun 2027 09:50:07.399            19.726          9863.000
        58   03 Jun 2027 09:52:42.328   03 Jun 2027 09:52:43.525             1.197           598.500
        59   03 Jun 2027 11:22:01.064   03 Jun 2027 11:22:36.829            35.765         17673.156
        60   03 Jun 2027 11:24:00.117   03 Jun 2027 11:24:05.274             5.157          2387.719
        61   03 Jun 2027 11:24:27.590   03 Jun 2027 11:24:29.205             1.615           697.375
        62   03 Jun 2027 11:25:17.383   03 Jun 2027 11:25:21.189             3.806          1185.594
        63   03 Jun 2027 11:25:47.801   03 Jun 2027 11:25:47.801             0.000             0.000
        64   03 Jun 2027 11:26:04.932   03 Jun 2027 11:26:06.963             2.031          1015.500
        65   03 Jun 2027 11:26:11.328   03 Jun 2027 11:26:11.804             0.476           212.281
        66   03 Jun 2027 11:27:04.592   03 Jun 2027 11:27:05.646             1.054           527.000
        67   03 Jun 2027 11:27:32.038   03 Jun 2027 11:27:34.118             2.080          1040.000
        68   04 Jun 2027 03:45:49.045   04 Jun 2027 03:47:20.155            91.110         45555.000
        69   04 Jun 2027 03:48:16.356   04 Jun 2027 03:48:20.661             4.305          2152.500
        70   04 Jun 2027 03:50:41.319   04 Jun 2027 03:50:41.319             0.000             0.000
        71   04 Jun 2027 03:51:09.723   04 Jun 2027 03:51:24.880            15.157          7578.500
        72   04 Jun 2027 03:52:52.444   04 Jun 2027 03:53:26.937            34.493         17246.500
        73   04 Jun 2027 05:11:26.261   04 Jun 2027 05:12:00.750            34.489         17244.500
        74   04 Jun 2027 05:12:12.622   04 Jun 2027 05:12:33.894            21.272         10636.000
        75   04 Jun 2027 05:22:48.560   04 Jun 2027 05:23:13.660            25.100         12550.000
        76   04 Jun 2027 05:23:41.323   04 Jun 2027 05:23:47.872             6.549          3274.500
        77   04 Jun 2027 06:45:24.502   04 Jun 2027 06:46:27.154            62.652         31326.000
        78   04 Jun 2027 06:46:58.764   04 Jun 2027 06:47:32.735            33.971         16985.500
        79   04 Jun 2027 08:20:54.310   04 Jun 2027 08:21:43.306            48.996         24080.407
        80   04 Jun 2027 08:22:40.560   04 Jun 2027 08:22:48.317             7.757          1710.500
        81   04 Jun 2027 08:23:28.743   04 Jun 2027 08:23:28.743             0.000             0.000
        82   04 Jun 2027 08:24:01.299   04 Jun 2027 08:24:06.401             5.102          1717.969
        83   04 Jun 2027 08:25:20.366   04 Jun 2027 08:25:22.402             2.036          1018.000
        84   04 Jun 2027 08:26:25.910   04 Jun 2027 08:26:33.292             7.382          3278.031
        85   04 Jun 2027 08:26:41.038   04 Jun 2027 08:26:41.038             0.000             0.000
        86   04 Jun 2027 08:26:43.402   04 Jun 2027 08:26:44.037             0.635           315.937
        87   04 Jun 2027 09:57:15.390   04 Jun 2027 09:57:24.587             9.197          4409.250
        88   04 Jun 2027 09:59:25.035   04 Jun 2027 09:59:33.080             8.045          3356.219
        89   04 Jun 2027 10:00:39.421   04 Jun 2027 10:00:42.964             3.543           908.063
        90   04 Jun 2027 10:00:51.765   04 Jun 2027 10:00:52.432             0.667           181.781
        91   04 Jun 2027 10:01:15.786   04 Jun 2027 10:01:21.414             5.628           693.219
        92   04 Jun 2027 10:01:27.467   04 Jun 2027 10:01:33.077             5.610           101.906
        93   04 Jun 2027 10:01:52.836   04 Jun 2027 10:01:55.193             2.357           515.000
        94   04 Jun 2027 10:02:28.830   04 Jun 2027 10:02:31.036             2.206          1044.344
        95   04 Jun 2027 10:02:49.787   04 Jun 2027 10:02:52.822             3.035            98.687
        96   04 Jun 2027 10:03:09.016   04 Jun 2027 10:03:10.411             1.395           414.469
        97   04 Jun 2027 10:04:02.010   04 Jun 2027 10:04:07.199             5.189          1612.469
        98   04 Jun 2027 10:04:34.438   04 Jun 2027 10:04:37.991             3.553           786.281
        99   04 Jun 2027 11:34:21.359   04 Jun 2027 11:34:36.819            15.460          6409.844
       100   04 Jun 2027 11:35:39.602   04 Jun 2027 11:35:46.264             6.662          1932.219
       101   04 Jun 2027 11:35:51.066   04 Jun 2027 11:35:53.715             2.649           150.063
       102   04 Jun 2027 11:37:29.694   04 Jun 2027 11:37:39.932            10.238          2999.344
       103   04 Jun 2027 11:38:29.964   04 Jun 2027 11:38:32.085             2.121          1060.500
       104   04 Jun 2027 11:39:05.789   04 Jun 2027 11:39:07.934             2.145          1072.500
       105   04 Jun 2027 11:39:53.856   04 Jun 2027 11:39:58.162             4.306          1796.250
       106   04 Jun 2027 11:40:03.392   04 Jun 2027 11:40:07.984             4.592           163.438
       107   05 Jun 2027 03:58:18.383   05 Jun 2027 03:59:56.801            98.418         49209.000
       108   05 Jun 2027 04:00:45.507   05 Jun 2027 04:00:49.416             3.909          1954.500
       109   05 Jun 2027 04:01:42.156   05 Jun 2027 04:01:51.896             9.740          4870.000
       110   05 Jun 2027 04:02:22.228   05 Jun 2027 04:02:22.228             0.000             0.000
       111   05 Jun 2027 04:02:58.538   05 Jun 2027 04:03:19.770            21.232         10616.000
       112   05 Jun 2027 04:05:06.888   05 Jun 2027 04:05:25.882            18.994          9497.000
       113   05 Jun 2027 05:23:07.916   05 Jun 2027 05:24:09.215            61.299         30649.500
       114   05 Jun 2027 05:24:37.758   05 Jun 2027 05:24:43.560             5.802          2901.000
       115   05 Jun 2027 05:34:48.050   05 Jun 2027 05:35:14.796            26.746         13373.000
       116   05 Jun 2027 06:57:05.978   05 Jun 2027 06:58:12.302            66.324         33162.000
       117   05 Jun 2027 06:58:59.788   05 Jun 2027 06:59:32.191            32.403         16201.500
       118   05 Jun 2027 06:59:55.493   05 Jun 2027 07:00:11.988            16.495          7728.063
       119   05 Jun 2027 07:01:56.511   05 Jun 2027 07:01:58.217             1.706           853.000
       120   05 Jun 2027 08:32:01.438   05 Jun 2027 08:32:22.106            20.668          9701.750
       121   05 Jun 2027 08:33:06.291   05 Jun 2027 08:33:08.945             2.654          1049.031
       122   05 Jun 2027 08:33:22.537   05 Jun 2027 08:33:26.463             3.926            77.781
       123   05 Jun 2027 08:35:31.487   05 Jun 2027 08:35:39.127             7.640          3580.875
       124   05 Jun 2027 08:36:05.203   05 Jun 2027 08:36:10.400             5.197           691.719
       125   05 Jun 2027 08:36:17.475   05 Jun 2027 08:36:20.303             2.828           182.188
       126   05 Jun 2027 08:36:47.800   05 Jun 2027 08:36:48.301             0.501           232.625
       127   05 Jun 2027 08:36:53.946   05 Jun 2027 08:36:56.315             2.369            62.781
       128   05 Jun 2027 08:37:30.644   05 Jun 2027 08:37:31.265             0.621           310.500
       129   05 Jun 2027 08:38:01.142   05 Jun 2027 08:38:04.818             3.676          1555.969
       130   05 Jun 2027 08:38:05.958   05 Jun 2027 08:38:06.102             0.144            35.625
       131   05 Jun 2027 08:38:29.520   05 Jun 2027 08:38:31.626             2.106           220.875
       132   05 Jun 2027 10:09:32.201   05 Jun 2027 10:09:41.034             8.833          4339.094
       133   05 Jun 2027 10:10:21.400   05 Jun 2027 10:10:23.535             2.135           627.812
       134   05 Jun 2027 10:10:50.007   05 Jun 2027 10:10:54.057             4.050           649.313
       135   05 Jun 2027 10:11:02.326   05 Jun 2027 10:11:04.879             2.553            34.250
       136   05 Jun 2027 10:13:09.956   05 Jun 2027 10:13:26.997            17.041          3282.656
       137   05 Jun 2027 10:13:51.588   05 Jun 2027 10:13:56.570             4.982           145.344
       138   05 Jun 2027 10:14:27.969   05 Jun 2027 10:14:29.996             2.027           964.250
       139   05 Jun 2027 10:14:50.307   05 Jun 2027 10:14:58.329             8.022           419.500
       140   05 Jun 2027 10:15:44.174   05 Jun 2027 10:15:49.228             5.054          1121.156
       141   05 Jun 2027 10:16:09.122   05 Jun 2027 10:16:13.695             4.573           289.406
       142   05 Jun 2027 10:16:24.535   05 Jun 2027 10:16:24.698             0.163            81.500
       143   05 Jun 2027 10:16:32.323   05 Jun 2027 10:16:37.212             4.889           495.531
       144   05 Jun 2027 10:16:51.177   05 Jun 2027 10:16:51.651             0.474            69.719
       145   05 Jun 2027 11:46:17.444   05 Jun 2027 11:46:30.798            13.354          5880.344
       146   05 Jun 2027 11:47:22.584   05 Jun 2027 11:47:30.661             8.077          1244.719
       147   05 Jun 2027 11:47:46.641   05 Jun 2027 11:47:50.448             3.807           313.156
       148   05 Jun 2027 11:50:10.326   05 Jun 2027 11:50:16.495             6.169          3084.500
       149   05 Jun 2027 11:50:22.776   05 Jun 2027 11:50:27.606             4.830          1482.969
       150   05 Jun 2027 11:51:01.221   05 Jun 2027 11:51:04.740             3.519          1050.469
       151   05 Jun 2027 11:51:41.514   05 Jun 2027 11:51:45.417             3.903          1149.188
       152   05 Jun 2027 11:52:13.834   05 Jun 2027 11:52:14.210             0.376           188.000
       153   05 Jun 2027 11:52:24.544   05 Jun 2027 11:52:26.754             2.210          1022.969
       154   05 Jun 2027 11:52:35.843   05 Jun 2027 11:52:35.843             0.000             0.000
       155   06 Jun 2027 04:10:21.538   06 Jun 2027 04:11:54.879            93.341         46670.500
       156   06 Jun 2027 04:12:01.196   06 Jun 2027 04:12:10.679             9.483          4741.500
       157   06 Jun 2027 04:15:02.608   06 Jun 2027 04:15:11.563             8.955          4477.500
       158   06 Jun 2027 04:16:35.799   06 Jun 2027 04:16:35.799             0.000             0.000
       159   06 Jun 2027 05:34:41.523   06 Jun 2027 05:35:44.391            62.868         31434.000
       160   06 Jun 2027 05:35:51.876   06 Jun 2027 05:36:42.233            50.357         25178.500
       161   06 Jun 2027 05:46:57.118   06 Jun 2027 05:47:16.996            19.878          9939.000
       162   06 Jun 2027 07:08:38.190   06 Jun 2027 07:09:57.870            79.680         39840.000
       163   06 Jun 2027 07:10:46.122   06 Jun 2027 07:11:08.088            21.966          9500.406
       164   06 Jun 2027 07:12:33.415   06 Jun 2027 07:12:42.793             9.378          2666.469
       165   06 Jun 2027 07:14:29.918   06 Jun 2027 07:14:32.589             2.671          1335.500
       166   06 Jun 2027 08:43:31.359   06 Jun 2027 08:43:48.653            17.294          5852.656
       167   06 Jun 2027 08:44:27.185   06 Jun 2027 08:44:29.903             2.718           593.031
       168   06 Jun 2027 08:45:17.451   06 Jun 2027 08:45:19.301             1.850           572.000
       169   06 Jun 2027 08:45:38.105   06 Jun 2027 08:45:39.670             1.565           234.187
       170   06 Jun 2027 08:46:42.634   06 Jun 2027 08:46:48.071             5.437          1885.750
       171   06 Jun 2027 08:47:16.034   06 Jun 2027 08:47:17.493             1.459           475.219
       172   06 Jun 2027 08:48:00.431   06 Jun 2027 08:48:06.450             6.019           957.813
       173   06 Jun 2027 08:50:13.809   06 Jun 2027 08:50:21.826             8.017          3979.969
       174   06 Jun 2027 08:51:35.701   06 Jun 2027 08:51:36.207             0.506           253.000
       175   06 Jun 2027 08:51:56.494   06 Jun 2027 08:52:01.495             5.001          2055.594
       176   06 Jun 2027 10:21:26.904   06 Jun 2027 10:21:39.641            12.737          6085.656
       177   06 Jun 2027 10:22:18.310   06 Jun 2027 10:22:23.081             4.771          1208.406
       178   06 Jun 2027 10:23:05.605   06 Jun 2027 10:23:08.930             3.325          1040.125
       179   06 Jun 2027 10:24:25.653   06 Jun 2027 10:24:25.994             0.341           170.500
       180   06 Jun 2027 10:25:55.613   06 Jun 2027 10:26:08.370            12.757          5027.687
       181   06 Jun 2027 10:27:17.677   06 Jun 2027 10:27:23.802             6.125          2045.812
       182   06 Jun 2027 10:27:31.019   06 Jun 2027 10:27:34.634             3.615           225.531
       183   06 Jun 2027 10:28:17.626   06 Jun 2027 10:28:19.579             1.953           976.500
       184   06 Jun 2027 10:28:32.806   06 Jun 2027 10:28:34.919             2.113           500.125
       185   06 Jun 2027 11:58:14.139   06 Jun 2027 11:58:29.919            15.780          7276.281
       186   06 Jun 2027 11:58:58.725   06 Jun 2027 11:59:04.015             5.290           359.000
       187   06 Jun 2027 11:59:14.856   06 Jun 2027 11:59:22.336             7.480           309.750
       188   07 Jun 2027 04:22:47.642   07 Jun 2027 04:24:06.727            79.085         39542.500
       189   07 Jun 2027 04:24:35.920   07 Jun 2027 04:24:55.687            19.767          9883.500
       190   07 Jun 2027 04:26:17.928   07 Jun 2027 04:26:26.223             8.295          4147.500
       191   07 Jun 2027 04:26:35.114   07 Jun 2027 04:27:01.519            26.405         13202.500
       192   07 Jun 2027 05:46:37.244   07 Jun 2027 05:47:45.767            68.523         34261.500
       193   07 Jun 2027 05:48:03.219   07 Jun 2027 05:48:15.962            12.743          6371.500
       194   07 Jun 2027 05:48:21.103   07 Jun 2027 05:48:31.114            10.011          5005.500
       195   07 Jun 2027 07:22:37.025   07 Jun 2027 07:24:40.987           123.962         61981.000
       196   07 Jun 2027 07:25:45.649   07 Jun 2027 07:25:45.649             0.000             0.000
       197   07 Jun 2027 08:56:24.901   07 Jun 2027 08:56:47.760            22.859         10619.969
       198   07 Jun 2027 08:57:05.492   07 Jun 2027 08:57:08.715             3.223            34.875
       199   07 Jun 2027 08:58:50.425   07 Jun 2027 08:58:56.241             5.816          2908.000
       200   07 Jun 2027 08:59:36.338   07 Jun 2027 08:59:46.685            10.347          1447.531
       201   07 Jun 2027 09:02:50.693   07 Jun 2027 09:03:06.744            16.051          5644.594
       202   07 Jun 2027 09:03:10.819   07 Jun 2027 09:03:12.851             2.032           127.344
       203   07 Jun 2027 09:04:14.043   07 Jun 2027 09:04:14.043             0.000             0.000
       204   07 Jun 2027 10:33:38.433   07 Jun 2027 10:33:58.688            20.255          7555.000
       205   07 Jun 2027 10:34:25.975   07 Jun 2027 10:34:27.775             1.800           535.781
       206   07 Jun 2027 10:36:12.342   07 Jun 2027 10:36:18.646             6.304          2756.812
       207   07 Jun 2027 10:36:41.139   07 Jun 2027 10:36:42.932             1.793           702.906
       208   07 Jun 2027 10:38:00.874   07 Jun 2027 10:38:03.505             2.631           724.406
       209   07 Jun 2027 10:38:26.266   07 Jun 2027 10:38:26.266             0.000             0.000
       210   07 Jun 2027 10:38:31.072   07 Jun 2027 10:38:33.057             1.985           744.844
       211   07 Jun 2027 10:38:55.068   07 Jun 2027 10:38:55.516             0.448           224.000
       212   07 Jun 2027 10:39:14.724   07 Jun 2027 10:39:16.516             1.792           658.563
       213   07 Jun 2027 10:39:22.053   07 Jun 2027 10:39:27.256             5.203           173.031
       214   07 Jun 2027 10:39:40.091   07 Jun 2027 10:39:42.041             1.950           126.750
       215   07 Jun 2027 10:40:18.855   07 Jun 2027 10:40:21.069             2.214           722.937
       216   07 Jun 2027 10:40:21.789   07 Jun 2027 10:40:22.565             0.776            22.500
       217   07 Jun 2027 10:40:33.156   07 Jun 2027 10:40:33.544             0.388           138.719
       218   08 Jun 2027 03:00:00.000   08 Jun 2027 03:00:09.016             9.016          4508.000
       219   08 Jun 2027 03:00:24.985   08 Jun 2027 03:00:28.086             3.101          1550.500
       220   08 Jun 2027 03:01:13.763   08 Jun 2027 03:01:38.757            24.994         12497.000
       221   08 Jun 2027 03:02:30.973   08 Jun 2027 03:02:44.434            13.461          6730.500
       222   08 Jun 2027 04:35:07.685   08 Jun 2027 04:36:16.788            69.103         34551.500
       223   08 Jun 2027 04:36:39.611   08 Jun 2027 04:36:43.306             3.695          1847.500
       224   08 Jun 2027 04:37:24.825   08 Jun 2027 04:37:31.548             6.723          3361.500
       225   08 Jun 2027 04:37:40.921   08 Jun 2027 04:38:16.314            35.393         17696.500
       226   08 Jun 2027 05:58:29.393   08 Jun 2027 05:59:28.396            59.003         29501.500
       227   08 Jun 2027 06:00:00.774   08 Jun 2027 06:00:04.568             3.794          1897.000
       228   08 Jun 2027 07:34:50.795   08 Jun 2027 07:36:41.575           110.780         55390.000
       229   08 Jun 2027 07:38:00.934   08 Jun 2027 07:38:09.030             8.096          3890.438
       230   08 Jun 2027 09:08:56.250   08 Jun 2027 09:09:17.230            20.980          6109.938
       231   08 Jun 2027 09:10:31.912   08 Jun 2027 09:10:41.273             9.361          1648.656
       232   08 Jun 2027 09:11:38.369   08 Jun 2027 09:11:38.369             0.000             0.000
       233   08 Jun 2027 09:11:44.133   08 Jun 2027 09:11:49.409             5.276          1691.406
       234   08 Jun 2027 09:12:36.747   08 Jun 2027 09:12:42.825             6.078          1116.563
       235   08 Jun 2027 09:15:22.715   08 Jun 2027 09:15:28.793             6.078          3039.000
       236   08 Jun 2027 09:15:37.047   08 Jun 2027 09:15:42.687             5.640          1926.219
       237   08 Jun 2027 09:16:52.620   08 Jun 2027 09:16:55.224             2.604          1302.000
       238   08 Jun 2027 10:46:00.486   08 Jun 2027 10:46:14.447            13.961          6785.719
       239   08 Jun 2027 10:46:28.621   08 Jun 2027 10:46:29.788             1.167           160.094
       240   08 Jun 2027 10:46:54.171   08 Jun 2027 10:46:55.866             1.695           331.563
       241   08 Jun 2027 10:48:04.213   08 Jun 2027 10:48:09.304             5.091          2135.844
       242   08 Jun 2027 10:48:54.034   08 Jun 2027 10:48:58.475             4.441          1325.781
       243   08 Jun 2027 10:50:26.133   08 Jun 2027 10:50:32.201             6.068          2467.656
       244   08 Jun 2027 10:50:51.516   08 Jun 2027 10:50:54.316             2.800           603.594
       245   08 Jun 2027 10:51:06.467   08 Jun 2027 10:51:07.675             1.208           300.469
       246   08 Jun 2027 10:51:13.838   08 Jun 2027 10:51:13.838             0.000             0.000
       247   08 Jun 2027 10:51:17.837   08 Jun 2027 10:51:19.693             1.856           250.625
       248   08 Jun 2027 10:51:52.383   08 Jun 2027 10:51:58.680             6.297           636.281
       249   08 Jun 2027 10:52:14.370   08 Jun 2027 10:52:18.794             4.424           314.313
       250   08 Jun 2027 10:52:32.615   08 Jun 2027 10:52:33.404             0.789           374.500
       251   09 Jun 2027 03:08:59.251   09 Jun 2027 03:09:59.850            60.599         30299.500
       252   09 Jun 2027 03:10:05.613   09 Jun 2027 03:10:22.512            16.899          8449.500
       253   09 Jun 2027 03:10:48.896   09 Jun 2027 03:10:55.332             6.436          3218.000
       254   09 Jun 2027 03:11:08.644   09 Jun 2027 03:11:12.224             3.580          1790.000
       255   09 Jun 2027 03:12:17.712   09 Jun 2027 03:12:23.100             5.388          2694.000
       256   09 Jun 2027 03:13:32.497   09 Jun 2027 03:14:09.530            37.033         18516.500
       257   09 Jun 2027 04:47:35.089   09 Jun 2027 04:48:33.406            58.317         29158.500
       258   09 Jun 2027 04:48:42.818   09 Jun 2027 04:48:45.063             2.245          1122.500
       259   09 Jun 2027 04:49:12.820   09 Jun 2027 04:49:12.820             0.000             0.000
       260   09 Jun 2027 04:49:31.158   09 Jun 2027 04:49:33.671             2.513          1256.500
       261   09 Jun 2027 04:50:20.325   09 Jun 2027 04:50:30.244             9.919          4959.500
       262   09 Jun 2027 06:10:32.205   09 Jun 2027 06:11:26.830            54.625         27312.500
       263   09 Jun 2027 06:11:29.480   09 Jun 2027 06:11:42.360            12.880          6440.000
       264   09 Jun 2027 07:46:57.623   09 Jun 2027 07:48:22.435            84.812         42154.656
       265   09 Jun 2027 07:48:43.477   09 Jun 2027 07:48:44.873             1.396           625.875
       266   09 Jun 2027 09:22:05.793   09 Jun 2027 09:22:23.455            17.662          7943.031
       267   09 Jun 2027 09:23:22.427   09 Jun 2027 09:23:25.874             3.447          1275.125
       268   09 Jun 2027 09:24:25.722   09 Jun 2027 09:24:28.814             3.092          1426.281
       269   09 Jun 2027 09:24:59.220   09 Jun 2027 09:25:03.404             4.184           367.750
       270   09 Jun 2027 09:25:49.272   09 Jun 2027 09:25:49.272             0.000             0.000
       271   09 Jun 2027 09:26:01.619   09 Jun 2027 09:26:05.342             3.723          1402.906
       272   09 Jun 2027 09:26:07.032   09 Jun 2027 09:26:12.123             5.091            52.813
       273   09 Jun 2027 09:26:51.286   09 Jun 2027 09:26:54.778             3.492           500.031
       274   09 Jun 2027 09:26:55.451   09 Jun 2027 09:26:55.926             0.475             3.781
       275   09 Jun 2027 09:27:27.444   09 Jun 2027 09:27:29.429             1.985           759.375
       276   09 Jun 2027 09:28:07.543   09 Jun 2027 09:28:13.151             5.608          1191.063
       277   09 Jun 2027 09:28:16.396   09 Jun 2027 09:28:17.670             1.274            89.344
       278   09 Jun 2027 09:28:41.470   09 Jun 2027 09:28:43.275             1.805           436.281
       279   09 Jun 2027 09:28:47.367   09 Jun 2027 09:28:48.211             0.844           127.875
       280   09 Jun 2027 10:58:26.868   09 Jun 2027 10:58:38.438            11.570          5379.250
       281   09 Jun 2027 10:59:03.255   09 Jun 2027 10:59:04.386             1.131           565.500
       282   09 Jun 2027 11:00:27.440   09 Jun 2027 11:00:32.908             5.468          2625.500
       283   09 Jun 2027 11:01:10.225   09 Jun 2027 11:01:14.900             4.675          1002.500
       284   09 Jun 2027 11:01:49.204   09 Jun 2027 11:01:54.007             4.803          1072.000
       285   09 Jun 2027 11:02:03.880   09 Jun 2027 11:02:04.938             1.058           244.594
       286   09 Jun 2027 11:02:28.388   09 Jun 2027 11:02:31.865             3.477           732.812
       287   09 Jun 2027 11:02:59.443   09 Jun 2027 11:03:04.013             4.570           861.812
       288   09 Jun 2027 11:03:18.959   09 Jun 2027 11:03:19.820             0.861           372.844
       289   09 Jun 2027 11:04:06.121   09 Jun 2027 11:04:08.241             2.120          1060.000
       290   09 Jun 2027 11:04:35.631   09 Jun 2027 11:04:38.782             3.151          1242.844
       291   10 Jun 2027 03:20:55.107   10 Jun 2027 03:21:50.438            55.331         27665.500
       292   10 Jun 2027 03:22:01.988   10 Jun 2027 03:22:49.684            47.696         23848.000
       293   10 Jun 2027 03:24:00.320   10 Jun 2027 03:24:14.152            13.832          6916.000
       294   10 Jun 2027 03:24:28.620   10 Jun 2027 03:24:28.674             0.054            27.000
       295   10 Jun 2027 03:24:51.830   10 Jun 2027 03:24:57.481             5.651          2825.500
       296   10 Jun 2027 03:26:27.873   10 Jun 2027 03:26:33.593             5.720          2860.000
       297   10 Jun 2027 03:26:39.158   10 Jun 2027 03:26:45.954             6.796          3398.000
       298   10 Jun 2027 04:59:10.819   10 Jun 2027 04:59:46.750            35.931         17965.500
       299   10 Jun 2027 04:59:59.630   10 Jun 2027 05:00:36.816            37.186         18593.000
       300   10 Jun 2027 05:02:49.131   10 Jun 2027 05:02:56.385             7.254          3627.000
       301   10 Jun 2027 06:22:30.771   10 Jun 2027 06:23:24.401            53.630         26815.000
       302   10 Jun 2027 07:59:07.705   10 Jun 2027 08:00:17.629            69.924         34209.500
       303   10 Jun 2027 08:01:17.319   10 Jun 2027 08:01:20.819             3.500          1505.594
       304   10 Jun 2027 09:34:17.687   10 Jun 2027 09:34:30.306            12.619          5139.750
       305   10 Jun 2027 09:35:41.414   10 Jun 2027 09:35:46.527             5.113          2222.125
       306   10 Jun 2027 09:35:55.086   10 Jun 2027 09:35:55.824             0.738           238.844
       307   10 Jun 2027 09:37:00.647   10 Jun 2027 09:37:07.278             6.631           864.969
       308   10 Jun 2027 09:39:29.529   10 Jun 2027 09:39:48.046            18.517          4254.375
       309   10 Jun 2027 09:40:43.153   10 Jun 2027 09:40:47.381             4.228          1580.406
       310   10 Jun 2027 11:10:34.978   10 Jun 2027 11:10:50.263            15.285          7008.063
       311   10 Jun 2027 11:11:11.828   10 Jun 2027 11:11:14.035             2.207           275.812
       312   10 Jun 2027 11:11:33.213   10 Jun 2027 11:11:35.389             2.176           316.312
       313   10 Jun 2027 11:12:26.175   10 Jun 2027 11:12:29.405             3.230          1470.031
       314   10 Jun 2027 11:12:41.328   10 Jun 2027 11:12:45.587             4.259           372.594
       315   10 Jun 2027 11:13:45.909   10 Jun 2027 11:13:52.295             6.386          1885.062
       316   10 Jun 2027 11:14:34.372   10 Jun 2027 11:14:38.975             4.603          1314.906
       317   10 Jun 2027 11:14:45.840   10 Jun 2027 11:14:48.734             2.894           214.531
       318   10 Jun 2027 11:14:53.770   10 Jun 2027 11:14:54.345             0.575           142.156
       319   10 Jun 2027 11:15:19.826   10 Jun 2027 11:15:28.212             8.386           533.219
       320   10 Jun 2027 11:16:08.064   10 Jun 2027 11:16:10.247             2.183          1032.562
       321   10 Jun 2027 11:16:25.228   10 Jun 2027 11:16:28.341             3.113           397.500
       322   11 Jun 2027 03:34:00.849   11 Jun 2027 03:35:34.198            93.349         46674.500
       323   11 Jun 2027 03:36:30.290   11 Jun 2027 03:36:43.533            13.243          6621.500
       324   11 Jun 2027 03:40:39.435   11 Jun 2027 03:40:41.469             2.034          1017.000
       325   11 Jun 2027 03:40:53.601   11 Jun 2027 03:41:48.494            54.893         27446.500
       326   11 Jun 2027 05:00:22.379   11 Jun 2027 05:00:29.673             7.294          3647.000
       327   11 Jun 2027 05:11:07.203   11 Jun 2027 05:11:55.892            48.689         24344.500
       328   11 Jun 2027 05:12:53.715   11 Jun 2027 05:13:01.422             7.707          3853.500
       329   11 Jun 2027 05:13:18.456   11 Jun 2027 05:13:28.306             9.850          4925.000
       330   11 Jun 2027 06:35:07.027   11 Jun 2027 06:35:59.135            52.108         26054.000
       331   11 Jun 2027 06:37:35.069   11 Jun 2027 06:37:49.038            13.969          6984.500
       332   11 Jun 2027 08:10:51.778   11 Jun 2027 08:11:52.615            60.837         29642.969
       333   11 Jun 2027 08:13:14.523   11 Jun 2027 08:13:20.704             6.181          2152.937
       334   11 Jun 2027 08:15:00.613   11 Jun 2027 08:15:02.874             2.261          1130.500
       335   11 Jun 2027 09:45:44.610   11 Jun 2027 09:45:56.610            12.000          5448.406
       336   11 Jun 2027 09:48:16.569   11 Jun 2027 09:48:25.119             8.550          3806.562
       337   11 Jun 2027 09:48:48.858   11 Jun 2027 09:48:48.858             0.000             0.000
       338   11 Jun 2027 09:48:52.656   11 Jun 2027 09:48:54.289             1.633           437.750
       339   11 Jun 2027 09:49:04.146   11 Jun 2027 09:49:07.272             3.126           211.063
       340   11 Jun 2027 09:49:59.428   11 Jun 2027 09:50:04.002             4.574          1591.969
       341   11 Jun 2027 09:50:27.371   11 Jun 2027 09:50:29.506             2.135           703.625
       342   11 Jun 2027 09:50:39.671   11 Jun 2027 09:50:40.905             1.234           185.563
       343   11 Jun 2027 09:50:47.218   11 Jun 2027 09:50:50.382             3.164           197.281
       344   11 Jun 2027 09:51:04.513   11 Jun 2027 09:51:05.031             0.518           171.625
       345   11 Jun 2027 09:51:44.686   11 Jun 2027 09:51:48.800             4.114          1036.813
       346   11 Jun 2027 09:52:02.452   11 Jun 2027 09:52:02.452             0.000             0.000
       347   11 Jun 2027 09:52:17.990   11 Jun 2027 09:52:20.282             2.292           902.750
       348   11 Jun 2027 09:52:51.692   11 Jun 2027 09:52:59.230             7.538           971.750
       349   11 Jun 2027 11:22:18.462   11 Jun 2027 11:22:33.209            14.747          6626.375
       350   11 Jun 2027 11:23:13.482   11 Jun 2027 11:23:18.133             4.651           938.219
       351   11 Jun 2027 11:25:13.543   11 Jun 2027 11:25:21.445             7.902          3600.313
       352   11 Jun 2027 11:26:03.008   11 Jun 2027 11:26:09.100             6.092          1009.500
       353   11 Jun 2027 11:26:30.463   11 Jun 2027 11:26:36.049             5.586           667.594
       354   11 Jun 2027 11:27:18.928   11 Jun 2027 11:27:20.366             1.438           719.000
       355   11 Jun 2027 11:27:46.673   11 Jun 2027 11:27:51.258             4.585          1204.594
       356   12 Jun 2027 03:46:09.143   12 Jun 2027 03:47:58.005           108.862         54431.000
       357   12 Jun 2027 03:49:27.348   12 Jun 2027 03:49:45.815            18.467          9233.500
       358   12 Jun 2027 03:52:23.914   12 Jun 2027 03:52:32.978             9.064          4532.000
       359   12 Jun 2027 05:11:39.925   12 Jun 2027 05:12:48.941            69.016         34508.000
       360   12 Jun 2027 05:23:05.187   12 Jun 2027 05:23:55.944            50.757         25378.500
       361   12 Jun 2027 05:24:24.031   12 Jun 2027 05:24:28.699             4.668          2334.000
       362   12 Jun 2027 06:45:43.600   12 Jun 2027 06:46:43.625            60.025         30012.500
       363   12 Jun 2027 06:47:03.425   12 Jun 2027 06:47:14.673            11.248          5624.000
       364   12 Jun 2027 06:48:00.866   12 Jun 2027 06:48:11.452            10.586          5293.000
       365   12 Jun 2027 08:21:06.021   12 Jun 2027 08:21:23.393            17.372          8176.781
       366   12 Jun 2027 08:24:06.702   12 Jun 2027 08:24:16.198             9.496          4748.000
       367   12 Jun 2027 08:24:23.649   12 Jun 2027 08:24:25.721             2.072           588.250
       368   12 Jun 2027 08:25:39.000   12 Jun 2027 08:25:40.726             1.726           216.406
       369   12 Jun 2027 08:26:43.832   12 Jun 2027 08:26:44.790             0.958           479.000
       370   12 Jun 2027 09:57:33.218   12 Jun 2027 09:57:43.603            10.385          4714.906
       371   12 Jun 2027 09:59:42.726   12 Jun 2027 09:59:42.726             0.000             0.000
       372   12 Jun 2027 10:00:50.387   12 Jun 2027 10:01:02.293            11.906          5561.344
       373   12 Jun 2027 10:01:10.818   12 Jun 2027 10:01:10.818             0.000             0.000
       374   12 Jun 2027 10:02:11.405   12 Jun 2027 10:02:16.194             4.789          2159.750
       375   12 Jun 2027 10:02:36.009   12 Jun 2027 10:02:38.840             2.831           471.406
       376   12 Jun 2027 10:03:02.667   12 Jun 2027 10:03:03.886             1.219           592.719
       377   12 Jun 2027 10:03:33.349   12 Jun 2027 10:03:35.669             2.320           920.719
       378   12 Jun 2027 10:04:31.212   12 Jun 2027 10:04:35.059             3.847          1508.062
       379   12 Jun 2027 10:04:57.502   12 Jun 2027 10:05:03.989             6.487           588.125
       380   12 Jun 2027 11:34:40.035   12 Jun 2027 11:34:54.968            14.933          7466.500
       381   12 Jun 2027 11:35:23.978   12 Jun 2027 11:35:28.181             4.203          1213.000
       382   12 Jun 2027 11:36:20.928   12 Jun 2027 11:36:26.846             5.918          1249.625
       383   12 Jun 2027 11:36:40.483   12 Jun 2027 11:36:43.851             3.368           256.344
       384   12 Jun 2027 11:38:11.147   12 Jun 2027 11:38:16.853             5.706          2108.313
       385   12 Jun 2027 11:38:18.474   12 Jun 2027 11:38:19.380             0.906            50.656
       386   12 Jun 2027 11:39:14.596   12 Jun 2027 11:39:20.358             5.762          1720.844
       387   12 Jun 2027 11:39:48.247   12 Jun 2027 11:39:51.233             2.986           867.000
       388   12 Jun 2027 11:40:08.363   12 Jun 2027 11:40:09.511             1.148           535.313
       389   12 Jun 2027 11:40:18.372   12 Jun 2027 11:40:18.839             0.467           223.531
       390   12 Jun 2027 11:40:36.595   12 Jun 2027 11:40:39.882             3.287           197.906
       391   13 Jun 2027 03:58:35.091   13 Jun 2027 04:00:04.657            89.566         44783.000
       392   13 Jun 2027 04:01:00.308   13 Jun 2027 04:01:07.501             7.193          3596.500
       393   13 Jun 2027 04:01:24.599   13 Jun 2027 04:01:36.944            12.345          6172.500
       394   13 Jun 2027 04:02:07.721   13 Jun 2027 04:02:28.505            20.784         10392.000
       395   13 Jun 2027 04:02:39.931   13 Jun 2027 04:02:41.924             1.993           996.500
       396   13 Jun 2027 04:03:52.026   13 Jun 2027 04:04:22.147            30.121         15060.500
       397   13 Jun 2027 04:05:24.261   13 Jun 2027 04:05:41.762            17.501          8750.500
       398   13 Jun 2027 05:22:53.551   13 Jun 2027 05:23:32.486            38.935         19467.500
       399   13 Jun 2027 05:35:04.565   13 Jun 2027 05:35:29.302            24.737         12368.500
       400   13 Jun 2027 05:36:02.618   13 Jun 2027 05:36:02.618             0.000             0.000
       401   13 Jun 2027 06:57:21.461   13 Jun 2027 06:58:28.090            66.629         33314.500
       402   13 Jun 2027 06:59:16.381   13 Jun 2027 07:00:05.111            48.730         24365.000
       403   13 Jun 2027 07:02:24.843   13 Jun 2027 07:02:24.843             0.000             0.000
       404   13 Jun 2027 08:32:15.269   13 Jun 2027 08:32:38.386            23.117         11262.969
       405   13 Jun 2027 08:33:23.766   13 Jun 2027 08:33:23.766             0.000             0.000
       406   13 Jun 2027 08:33:54.163   13 Jun 2027 08:33:59.594             5.431          1167.594
       407   13 Jun 2027 08:36:07.457   13 Jun 2027 08:36:18.356            10.899          3943.969
       408   13 Jun 2027 08:37:37.805   13 Jun 2027 08:37:45.870             8.065          2348.687
       409   13 Jun 2027 08:38:24.735   13 Jun 2027 08:38:29.550             4.815          1214.531
       410   13 Jun 2027 08:38:35.336   13 Jun 2027 08:38:36.196             0.860           180.813
       411   13 Jun 2027 10:09:48.270   13 Jun 2027 10:09:57.464             9.194          4306.156
       412   13 Jun 2027 10:10:19.408   13 Jun 2027 10:10:20.647             1.239           254.687
       413   13 Jun 2027 10:10:52.422   13 Jun 2027 10:10:54.058             1.636           818.000
       414   13 Jun 2027 10:11:21.798   13 Jun 2027 10:11:27.514             5.716           892.594
       415   13 Jun 2027 10:13:29.714   13 Jun 2027 10:13:41.630            11.916          3349.094
       416   13 Jun 2027 10:14:06.681   13 Jun 2027 10:14:12.875             6.194           407.000
       417   13 Jun 2027 10:15:59.389   13 Jun 2027 10:16:06.439             7.050          3107.656
       418   13 Jun 2027 10:16:24.149   13 Jun 2027 10:16:26.491             2.342           248.375
       419   13 Jun 2027 10:16:39.931   13 Jun 2027 10:16:40.207             0.276           138.000
       420   13 Jun 2027 10:16:47.044   13 Jun 2027 10:16:52.739             5.695           389.969
       421   13 Jun 2027 11:46:31.056   13 Jun 2027 11:46:48.293            17.237          7723.781
       422   13 Jun 2027 11:48:07.756   13 Jun 2027 11:48:18.921            11.165          2483.219
       423   13 Jun 2027 11:48:28.904   13 Jun 2027 11:48:29.982             1.078           213.469
       424   13 Jun 2027 11:48:47.694   13 Jun 2027 11:48:49.657             1.963           549.969
       425   13 Jun 2027 11:49:24.894   13 Jun 2027 11:49:24.894             0.000             0.000
       426   13 Jun 2027 11:49:51.484   13 Jun 2027 11:49:56.944             5.460          1448.406
       427   13 Jun 2027 11:50:28.374   13 Jun 2027 11:50:28.431             0.057            28.500
       428   13 Jun 2027 11:50:31.234   13 Jun 2027 11:50:31.858             0.624           312.000
       429   13 Jun 2027 11:50:44.114   13 Jun 2027 11:50:46.809             2.695           909.500
       430   13 Jun 2027 11:51:22.125   13 Jun 2027 11:51:24.181             2.056           953.313
       431   13 Jun 2027 11:51:57.386   13 Jun 2027 11:52:01.094             3.708          1037.656
       432   13 Jun 2027 11:52:41.491   13 Jun 2027 11:52:45.021             3.530          1262.406
       433   13 Jun 2027 11:52:51.586   13 Jun 2027 11:53:01.325             9.739            49.469
