uniorb/output/strategy_1/Camera/Camera_KinoSat_110702.txt

KinoSat_110702
-------------------------
    Access    *     Start Time (UTCG)     *     Stop Time (UTCG)  *   Duration (s) *   Data (Mbytes)
         1   01 Jun 2027 04:08:33.420   01 Jun 2027 04:10:23.040           109.620         54810.000
         2   01 Jun 2027 05:43:41.984   01 Jun 2027 05:45:15.502            93.518         46759.000
         3   01 Jun 2027 05:45:40.724   01 Jun 2027 05:46:09.922            29.198         14599.000
         4   01 Jun 2027 05:47:19.736   01 Jun 2027 05:47:29.728             9.992          4996.000
         5   01 Jun 2027 05:47:38.634   01 Jun 2027 05:47:46.847             8.213          4106.500
         6   01 Jun 2027 05:49:30.861   01 Jun 2027 05:49:39.095             8.234          4117.000
         7   01 Jun 2027 05:50:23.507   01 Jun 2027 05:50:30.714             7.207          3603.500
         8   01 Jun 2027 07:20:01.992   01 Jun 2027 07:22:08.622           126.630         63315.000
         9   01 Jun 2027 07:22:13.162   01 Jun 2027 07:22:31.324            18.162          9081.000
        10   01 Jun 2027 07:22:41.154   01 Jun 2027 07:22:49.137             7.983          3991.500
        11   01 Jun 2027 07:24:27.515   01 Jun 2027 07:24:39.211            11.696          5848.000
        12   01 Jun 2027 07:24:44.823   01 Jun 2027 07:24:45.387             0.564           282.000
        13   01 Jun 2027 07:26:03.897   01 Jun 2027 07:26:09.793             5.896          2948.000
        14   01 Jun 2027 08:57:36.972   01 Jun 2027 08:59:53.702           136.730         68365.000
        15   01 Jun 2027 10:33:39.475   01 Jun 2027 10:35:38.415           118.940         59470.000
        16   01 Jun 2027 10:37:16.113   01 Jun 2027 10:37:30.385            14.272          7136.000
        17   02 Jun 2027 04:20:43.965   02 Jun 2027 04:21:37.523            53.558         26779.000
        18   02 Jun 2027 04:22:15.195   02 Jun 2027 04:22:36.786            21.591         10795.500
        19   02 Jun 2027 04:23:03.983   02 Jun 2027 04:23:05.503             1.520           760.000
        20   02 Jun 2027 05:55:53.754   02 Jun 2027 05:58:01.291           127.537         63768.500
        21   02 Jun 2027 05:58:34.128   02 Jun 2027 05:58:36.416             2.288          1144.000
        22   02 Jun 2027 06:01:18.932   02 Jun 2027 06:01:31.012            12.080          6040.000
        23   02 Jun 2027 06:02:11.465   02 Jun 2027 06:02:11.465             0.000             0.000
        24   02 Jun 2027 06:02:13.329   02 Jun 2027 06:02:22.858             9.529          4764.500
        25   02 Jun 2027 07:32:14.933   02 Jun 2027 07:34:26.467           131.534         65767.000
        26   02 Jun 2027 07:34:38.851   02 Jun 2027 07:34:51.679            12.828          6414.000
        27   02 Jun 2027 07:35:07.681   02 Jun 2027 07:35:19.707            12.026          6013.000
        28   02 Jun 2027 07:36:20.241   02 Jun 2027 07:36:38.337            18.096          9048.000
        29   02 Jun 2027 09:09:31.977   02 Jun 2027 09:11:36.658           124.681         62340.500
        30   02 Jun 2027 09:11:50.689   02 Jun 2027 09:11:57.966             7.277          3638.500
        31   02 Jun 2027 09:11:59.745   02 Jun 2027 09:12:05.032             5.287          2643.500
        32   02 Jun 2027 09:12:21.793   02 Jun 2027 09:12:33.474            11.681          5840.500
        33   02 Jun 2027 09:13:07.544   02 Jun 2027 09:13:08.866             1.322           661.000
        34   02 Jun 2027 10:45:44.179   02 Jun 2027 10:47:43.345           119.166         59583.000
        35   02 Jun 2027 10:48:17.802   02 Jun 2027 10:48:24.114             6.312          3156.000
        36   03 Jun 2027 04:32:32.307   03 Jun 2027 04:32:45.477            13.170          6585.000
        37   03 Jun 2027 04:33:37.548   03 Jun 2027 04:34:11.848            34.300         17150.000
        38   03 Jun 2027 04:35:12.195   03 Jun 2027 04:35:52.639            40.444         20222.000
        39   03 Jun 2027 06:07:26.417   03 Jun 2027 06:08:48.245            81.828         40914.000
        40   03 Jun 2027 06:10:32.551   03 Jun 2027 06:10:53.739            21.188         10594.000
        41   03 Jun 2027 06:12:53.778   03 Jun 2027 06:13:04.047            10.269          5134.500
        42   03 Jun 2027 06:13:56.103   03 Jun 2027 06:13:57.416             1.313           656.500
        43   03 Jun 2027 07:43:52.321   03 Jun 2027 07:46:27.889           155.568         77784.000
        44   03 Jun 2027 07:47:37.233   03 Jun 2027 07:47:51.986            14.753          7376.500
        45   03 Jun 2027 07:49:20.030   03 Jun 2027 07:49:32.199            12.169          6084.500
        46   03 Jun 2027 09:22:10.789   03 Jun 2027 09:24:34.473           143.684         71842.000
        47   03 Jun 2027 10:57:37.134   03 Jun 2027 10:58:39.187            62.053         30063.092
        48   03 Jun 2027 10:59:31.002   03 Jun 2027 10:59:33.013             2.011          1005.500
        49   03 Jun 2027 11:01:17.851   03 Jun 2027 11:01:24.337             6.486          3243.000
        50   03 Jun 2027 11:02:10.827   03 Jun 2027 11:02:22.675            11.848          2086.031
        51   04 Jun 2027 03:07:15.950   04 Jun 2027 03:07:42.156            26.206         13103.000
        52   04 Jun 2027 04:42:48.742   04 Jun 2027 04:43:38.656            49.914         24957.000
        53   04 Jun 2027 04:44:16.753   04 Jun 2027 04:44:51.868            35.115         17557.500
        54   04 Jun 2027 04:46:05.499   04 Jun 2027 04:46:15.514            10.015          5007.500
        55   04 Jun 2027 04:47:37.199   04 Jun 2027 04:47:42.779             5.580          2790.000
        56   04 Jun 2027 04:47:52.194   04 Jun 2027 04:48:04.637            12.443          6221.500
        57   04 Jun 2027 04:48:17.029   04 Jun 2027 04:48:20.151             3.122          1561.000
        58   04 Jun 2027 06:19:06.133   04 Jun 2027 06:20:26.966            80.833         40416.500
        59   04 Jun 2027 06:20:36.850   04 Jun 2027 06:21:00.905            24.055         12027.500
        60   04 Jun 2027 06:21:13.234   04 Jun 2027 06:21:24.723            11.489          5744.500
        61   04 Jun 2027 06:24:53.341   04 Jun 2027 06:24:53.341             0.000             0.000
        62   04 Jun 2027 06:25:52.554   04 Jun 2027 06:26:21.249            28.695         14347.500
        63   04 Jun 2027 07:56:11.872   04 Jun 2027 07:57:55.369           103.497         51748.500
        64   04 Jun 2027 07:58:01.508   04 Jun 2027 07:58:04.037             2.529          1156.719
        65   04 Jun 2027 07:58:44.385   04 Jun 2027 07:58:53.316             8.931           893.875
        66   04 Jun 2027 07:58:58.322   04 Jun 2027 07:58:58.846             0.524            97.094
        67   04 Jun 2027 07:59:41.548   04 Jun 2027 07:59:44.795             3.247           615.750
        68   04 Jun 2027 07:59:56.350   04 Jun 2027 07:59:56.866             0.516           160.094
        69   04 Jun 2027 08:00:35.521   04 Jun 2027 08:00:37.702             2.181           971.625
        70   04 Jun 2027 08:00:42.889   04 Jun 2027 08:00:43.152             0.263           101.281
        71   04 Jun 2027 08:02:27.688   04 Jun 2027 08:02:27.688             0.000             0.000
        72   04 Jun 2027 08:02:29.267   04 Jun 2027 08:02:32.853             3.586          1793.000
        73   04 Jun 2027 09:34:09.218   04 Jun 2027 09:34:47.966            38.748         11836.594
        74   04 Jun 2027 09:35:20.585   04 Jun 2027 09:35:24.770             4.185           973.281
        75   04 Jun 2027 09:35:51.479   04 Jun 2027 09:35:53.335             1.856           708.094
        76   04 Jun 2027 09:36:47.533   04 Jun 2027 09:36:51.656             4.123          1278.750
        77   04 Jun 2027 09:37:14.699   04 Jun 2027 09:37:16.198             1.499           720.094
        78   04 Jun 2027 09:37:50.716   04 Jun 2027 09:37:55.449             4.733           979.188
        79   04 Jun 2027 09:38:00.773   04 Jun 2027 09:38:05.124             4.351           166.375
        80   04 Jun 2027 11:07:14.101   04 Jun 2027 11:07:27.793            13.692          6010.656
        81   04 Jun 2027 11:08:47.996   04 Jun 2027 11:08:53.624             5.628           976.500
        82   04 Jun 2027 11:09:57.278   04 Jun 2027 11:10:01.334             4.056          1639.187
        83   04 Jun 2027 11:10:06.228   04 Jun 2027 11:10:06.854             0.626           102.562
        84   04 Jun 2027 11:10:46.131   04 Jun 2027 11:10:46.131             0.000             0.000
        85   04 Jun 2027 11:10:56.607   04 Jun 2027 11:11:00.916             4.309          1106.313
        86   04 Jun 2027 11:11:28.567   04 Jun 2027 11:11:30.432             1.865           864.094
        87   04 Jun 2027 11:11:47.243   04 Jun 2027 11:11:50.685             3.442           286.469
        88   04 Jun 2027 11:12:26.707   04 Jun 2027 11:12:30.863             4.156          1125.687
        89   04 Jun 2027 11:12:45.178   04 Jun 2027 11:12:45.178             0.000             0.000
        90   04 Jun 2027 11:12:55.020   04 Jun 2027 11:12:57.711             2.691           488.312
        91   04 Jun 2027 11:13:13.695   04 Jun 2027 11:13:17.221             3.526           459.156
        92   04 Jun 2027 11:14:50.045   04 Jun 2027 11:14:55.319             5.274          2405.906
        93   05 Jun 2027 03:18:59.143   05 Jun 2027 03:19:57.230            58.087         29043.500
        94   05 Jun 2027 03:22:48.990   05 Jun 2027 03:22:58.997            10.007          5003.500
        95   05 Jun 2027 03:23:14.752   05 Jun 2027 03:23:19.658             4.906          2453.000
        96   05 Jun 2027 04:53:57.302   05 Jun 2027 04:55:37.124            99.822         49911.000
        97   05 Jun 2027 04:56:22.517   05 Jun 2027 04:56:26.433             3.916          1958.000
        98   05 Jun 2027 04:57:25.368   05 Jun 2027 04:57:32.957             7.589          3794.500
        99   05 Jun 2027 05:00:46.869   05 Jun 2027 05:00:59.456            12.587          6293.500
       100   05 Jun 2027 05:02:05.628   05 Jun 2027 05:02:14.474             8.846          4423.000
       101   05 Jun 2027 06:31:25.471   05 Jun 2027 06:32:48.903            83.432         41716.000
       102   05 Jun 2027 06:33:27.650   05 Jun 2027 06:33:57.356            29.706         14853.000
       103   05 Jun 2027 06:38:14.497   05 Jun 2027 06:38:22.202             7.705          3852.500
       104   05 Jun 2027 06:38:43.126   05 Jun 2027 06:38:43.543             0.417           208.500
       105   05 Jun 2027 08:08:10.662   05 Jun 2027 08:09:19.916            69.254         32016.063
       106   05 Jun 2027 08:09:46.942   05 Jun 2027 08:09:50.755             3.813           757.531
       107   05 Jun 2027 08:10:56.055   05 Jun 2027 08:11:01.560             5.505          1856.031
       108   05 Jun 2027 08:12:21.574   05 Jun 2027 08:12:26.670             5.096          2395.969
       109   05 Jun 2027 08:12:57.973   05 Jun 2027 08:13:03.020             5.047           873.781
       110   05 Jun 2027 08:13:12.631   05 Jun 2027 08:13:13.032             0.401           131.906
       111   05 Jun 2027 08:14:38.466   05 Jun 2027 08:14:42.509             4.043          2021.500
       112   05 Jun 2027 09:46:08.744   05 Jun 2027 09:46:32.007            23.263         10580.781
       113   05 Jun 2027 09:46:41.264   05 Jun 2027 09:46:44.601             3.337           289.281
       114   05 Jun 2027 09:47:14.634   05 Jun 2027 09:47:16.807             2.173           938.531
       115   05 Jun 2027 09:47:54.031   05 Jun 2027 09:47:56.614             2.583          1090.875
       116   05 Jun 2027 09:48:53.281   05 Jun 2027 09:48:58.052             4.771          1770.844
       117   05 Jun 2027 09:49:02.416   05 Jun 2027 09:49:02.751             0.335            51.500
       118   05 Jun 2027 09:49:23.861   05 Jun 2027 09:49:26.631             2.770           606.781
       119   05 Jun 2027 09:49:49.336   05 Jun 2027 09:49:54.595             5.259           625.594
       120   05 Jun 2027 11:19:46.500   05 Jun 2027 11:19:52.884             6.384          1398.125
       121   05 Jun 2027 11:20:02.595   05 Jun 2027 11:20:05.260             2.665           141.375
       122   05 Jun 2027 11:21:14.065   05 Jun 2027 11:21:18.096             4.031          1992.719
       123   05 Jun 2027 11:22:07.593   05 Jun 2027 11:22:15.537             7.944          1469.781
       124   05 Jun 2027 11:23:05.461   05 Jun 2027 11:23:09.811             4.350          1361.656
       125   05 Jun 2027 11:23:59.678   05 Jun 2027 11:23:59.678             0.000             0.000
       126   05 Jun 2027 11:24:12.245   05 Jun 2027 11:24:16.804             4.559          1024.781
       127   05 Jun 2027 11:25:32.252   05 Jun 2027 11:25:39.119             6.867          2037.469
       128   05 Jun 2027 11:25:43.831   05 Jun 2027 11:25:44.516             0.685           124.812
       129   05 Jun 2027 11:26:48.968   05 Jun 2027 11:26:50.032             1.064           532.000
       130   05 Jun 2027 11:26:54.111   05 Jun 2027 11:26:59.428             5.317          1609.594
       131   06 Jun 2027 03:30:34.066   06 Jun 2027 03:31:40.569            66.503         33251.500
       132   06 Jun 2027 05:05:25.170   06 Jun 2027 05:07:35.534           130.364         65182.000
       133   06 Jun 2027 05:08:40.601   06 Jun 2027 05:08:40.601             0.000             0.000
       134   06 Jun 2027 05:11:06.610   06 Jun 2027 05:11:07.592             0.982           491.000
       135   06 Jun 2027 05:11:41.989   06 Jun 2027 05:12:00.983            18.994          9497.000
       136   06 Jun 2027 05:13:01.505   06 Jun 2027 05:13:03.407             1.902           951.000
       137   06 Jun 2027 05:14:16.927   06 Jun 2027 05:14:34.233            17.306          8653.000
       138   06 Jun 2027 06:43:18.475   06 Jun 2027 06:45:06.842           108.367         54183.500
       139   06 Jun 2027 06:46:09.644   06 Jun 2027 06:46:20.441            10.797          5398.500
       140   06 Jun 2027 06:48:18.489   06 Jun 2027 06:48:24.014             5.525          2762.500
       141   06 Jun 2027 08:20:02.342   06 Jun 2027 08:20:27.797            25.455         12727.500
       142   06 Jun 2027 08:20:36.382   06 Jun 2027 08:20:48.354            11.972          5528.532
       143   06 Jun 2027 08:20:57.777   06 Jun 2027 08:21:00.976             3.199           294.469
       144   06 Jun 2027 08:21:13.637   06 Jun 2027 08:21:15.238             1.601           395.656
       145   06 Jun 2027 08:21:21.944   06 Jun 2027 08:21:23.185             1.241           209.562
       146   06 Jun 2027 08:22:38.259   06 Jun 2027 08:22:52.672            14.413          1504.594
       147   06 Jun 2027 08:23:07.835   06 Jun 2027 08:23:10.793             2.958           473.844
       148   06 Jun 2027 08:24:16.339   06 Jun 2027 08:24:22.827             6.488          1666.219
       149   06 Jun 2027 08:25:06.534   06 Jun 2027 08:25:10.759             4.225          1254.500
       150   06 Jun 2027 08:25:34.603   06 Jun 2027 08:25:36.425             1.822           611.188
       151   06 Jun 2027 09:58:09.041   06 Jun 2027 09:58:28.687            19.646          9823.000
       152   06 Jun 2027 09:58:51.574   06 Jun 2027 09:58:55.316             3.742          1105.219
       153   06 Jun 2027 09:59:12.183   06 Jun 2027 09:59:13.406             1.223           527.094
       154   06 Jun 2027 09:59:22.930   06 Jun 2027 09:59:24.239             1.309           237.094
       155   06 Jun 2027 09:59:51.986   06 Jun 2027 09:59:54.148             2.162           867.094
       156   06 Jun 2027 09:59:56.424   06 Jun 2027 09:59:58.437             2.013            71.125
       157   06 Jun 2027 10:00:49.236   06 Jun 2027 10:00:53.834             4.598          1334.125
       158   06 Jun 2027 10:01:00.068   06 Jun 2027 10:01:02.561             2.493           152.344
       159   06 Jun 2027 10:01:19.205   06 Jun 2027 10:01:19.891             0.686           343.000
       160   06 Jun 2027 10:01:43.416   06 Jun 2027 10:01:43.416             0.000             0.000
       161   06 Jun 2027 10:01:48.125   06 Jun 2027 10:01:54.067             5.942          1059.437
       162   06 Jun 2027 10:02:02.922   06 Jun 2027 10:02:05.636             2.714           276.719
       163   06 Jun 2027 11:33:52.577   06 Jun 2027 11:34:02.659            10.082          2115.156
       164   06 Jun 2027 11:34:26.409   06 Jun 2027 11:34:27.910             1.501           659.219
       165   06 Jun 2027 11:36:11.785   06 Jun 2027 11:36:18.479             6.694          2883.781
       166   06 Jun 2027 11:37:00.563   06 Jun 2027 11:37:07.980             7.417          1315.125
       167   06 Jun 2027 11:37:35.084   06 Jun 2027 11:37:39.309             4.225           847.000
       168   06 Jun 2027 11:37:51.897   06 Jun 2027 11:37:52.616             0.719           243.312
       169   07 Jun 2027 03:44:29.687   07 Jun 2027 03:44:53.092            23.405         11702.500
       170   07 Jun 2027 03:45:47.380   07 Jun 2027 03:45:49.712             2.332          1166.000
       171   07 Jun 2027 03:46:37.917   07 Jun 2027 03:47:10.699            32.782         16391.000
       172   07 Jun 2027 05:18:17.027   07 Jun 2027 05:20:33.242           136.215         68107.500
       173   07 Jun 2027 05:23:07.212   07 Jun 2027 05:23:12.922             5.710          2855.000
       174   07 Jun 2027 05:23:34.392   07 Jun 2027 05:23:43.564             9.172          4586.000
       175   07 Jun 2027 05:25:58.415   07 Jun 2027 05:26:10.868            12.453          6226.500
       176   07 Jun 2027 05:26:47.520   07 Jun 2027 05:26:47.612             0.092            46.000
       177   07 Jun 2027 06:55:25.813   07 Jun 2027 06:56:18.223            52.410         26205.000
       178   07 Jun 2027 06:57:29.266   07 Jun 2027 06:58:35.712            66.446         33223.000
       179   07 Jun 2027 06:59:05.761   07 Jun 2027 06:59:05.761             0.000             0.000
       180   07 Jun 2027 06:59:34.987   07 Jun 2027 06:59:45.339            10.352          5176.000
       181   07 Jun 2027 07:00:22.332   07 Jun 2027 07:00:29.534             7.202          3601.000
       182   07 Jun 2027 07:01:31.463   07 Jun 2027 07:01:41.219             9.756          4520.811
       183   07 Jun 2027 08:32:40.114   07 Jun 2027 08:33:16.035            35.921         14787.500
       184   07 Jun 2027 08:33:21.575   07 Jun 2027 08:33:25.090             3.515           146.094
       185   07 Jun 2027 08:34:50.121   07 Jun 2027 08:34:53.198             3.077          1538.500
       186   07 Jun 2027 08:35:13.235   07 Jun 2027 08:35:18.897             5.662          1234.812
       187   07 Jun 2027 08:36:02.696   07 Jun 2027 08:36:04.840             2.144          1072.000
       188   07 Jun 2027 08:36:58.753   07 Jun 2027 08:37:02.580             3.827          1872.000
       189   07 Jun 2027 08:37:08.920   07 Jun 2027 08:37:09.965             1.045            83.500
       190   07 Jun 2027 08:37:25.531   07 Jun 2027 08:37:27.712             2.181           486.438
       191   07 Jun 2027 08:37:47.518   07 Jun 2027 08:37:48.307             0.789           394.500
       192   07 Jun 2027 08:38:26.831   07 Jun 2027 08:38:33.029             6.198          1373.937
       193   07 Jun 2027 10:09:22.705   07 Jun 2027 10:09:40.621            17.916          8072.188
       194   07 Jun 2027 10:10:42.553   07 Jun 2027 10:10:48.719             6.166          1935.375
       195   07 Jun 2027 10:11:43.598   07 Jun 2027 10:11:48.195             4.597          1584.938
       196   07 Jun 2027 10:12:46.477   07 Jun 2027 10:13:00.959            14.482          1807.969
       197   07 Jun 2027 10:13:26.572   07 Jun 2027 10:13:28.639             2.067           454.000
       198   07 Jun 2027 10:13:35.364   07 Jun 2027 10:13:37.470             2.106           114.844
       199   07 Jun 2027 10:13:59.471   07 Jun 2027 10:14:01.459             1.988           547.250
       200   07 Jun 2027 11:44:34.072   07 Jun 2027 11:44:39.375             5.303          1467.500
       201   07 Jun 2027 11:46:22.047   07 Jun 2027 11:46:22.047             0.000             0.000
       202   07 Jun 2027 11:46:50.903   07 Jun 2027 11:46:54.822             3.919          1843.469
       203   07 Jun 2027 11:47:27.079   07 Jun 2027 11:47:30.983             3.904           974.156
       204   07 Jun 2027 11:48:20.035   07 Jun 2027 11:48:23.833             3.798          1391.062
       205   07 Jun 2027 11:48:43.724   07 Jun 2027 11:48:47.819             4.095           571.156
       206   08 Jun 2027 03:56:43.340   08 Jun 2027 03:57:45.598            62.258         31129.000
       207   08 Jun 2027 05:30:40.272   08 Jun 2027 05:33:04.909           144.637         72318.500
       208   08 Jun 2027 05:33:19.729   08 Jun 2027 05:33:19.729             0.000             0.000
       209   08 Jun 2027 05:36:20.710   08 Jun 2027 05:36:23.553             2.843          1421.500
       210   08 Jun 2027 05:37:19.203   08 Jun 2027 05:37:24.754             5.551          2775.500
       211   08 Jun 2027 05:38:43.527   08 Jun 2027 05:38:46.322             2.795          1397.500
       212   08 Jun 2027 07:07:51.281   08 Jun 2027 07:10:06.875           135.594         66232.000
       213   08 Jun 2027 07:10:36.158   08 Jun 2027 07:10:38.292             2.134           515.875
       214   08 Jun 2027 07:12:16.083   08 Jun 2027 07:12:22.698             6.615          2996.187
       215   08 Jun 2027 07:13:01.911   08 Jun 2027 07:13:07.798             5.887          1198.938
       216   08 Jun 2027 07:13:33.281   08 Jun 2027 07:13:33.281             0.000             0.000
       217   08 Jun 2027 08:44:51.984   08 Jun 2027 08:45:21.565            29.581         14404.906
       218   08 Jun 2027 08:45:55.450   08 Jun 2027 08:45:57.751             2.301           907.719
       219   08 Jun 2027 08:46:21.002   08 Jun 2027 08:46:29.283             8.281           496.062
       220   08 Jun 2027 08:46:35.881   08 Jun 2027 08:46:35.881             0.000             0.000
       221   08 Jun 2027 08:47:02.574   08 Jun 2027 08:47:07.796             5.222           926.594
       222   08 Jun 2027 08:48:21.864   08 Jun 2027 08:48:23.388             1.524           762.000
       223   08 Jun 2027 08:48:57.467   08 Jun 2027 08:49:01.853             4.386          1753.812
       224   08 Jun 2027 08:49:30.124   08 Jun 2027 08:49:31.933             1.809           831.187
       225   08 Jun 2027 10:21:37.677   08 Jun 2027 10:21:56.384            18.707          9240.875
       226   08 Jun 2027 10:22:29.076   08 Jun 2027 10:22:29.865             0.789           394.500
       227   08 Jun 2027 10:22:30.854   08 Jun 2027 10:22:33.175             2.321           310.281
       228   08 Jun 2027 10:22:51.616   08 Jun 2027 10:22:54.318             2.702           234.469
       229   08 Jun 2027 10:23:38.200   08 Jun 2027 10:23:41.141             2.941          1371.313
       230   08 Jun 2027 10:24:06.240   08 Jun 2027 10:24:09.466             3.226           684.188
       231   08 Jun 2027 10:24:19.089   08 Jun 2027 10:24:20.440             1.351           152.375
       232   08 Jun 2027 10:24:45.065   08 Jun 2027 10:24:51.913             6.848           769.531
       233   08 Jun 2027 10:25:01.182   08 Jun 2027 10:25:02.249             1.067           111.500
       234   08 Jun 2027 10:25:37.959   08 Jun 2027 10:25:41.181             3.222           665.875
       235   08 Jun 2027 11:59:47.452   08 Jun 2027 11:59:54.995             7.543          3456.625
       236   09 Jun 2027 04:08:48.217   09 Jun 2027 04:09:39.950            51.733         25866.500
       237   09 Jun 2027 04:10:38.205   09 Jun 2027 04:10:50.368            12.163          6081.500
       238   09 Jun 2027 04:11:44.640   09 Jun 2027 04:11:44.640             0.000             0.000
       239   09 Jun 2027 05:43:57.062   09 Jun 2027 05:46:17.996           140.934         70467.000
       240   09 Jun 2027 05:46:24.514   09 Jun 2027 05:46:25.491             0.977           488.500
       241   09 Jun 2027 05:48:03.369   09 Jun 2027 05:48:21.113            17.744          8872.000
       242   09 Jun 2027 05:50:38.125   09 Jun 2027 05:50:45.635             7.510          3755.000
       243   09 Jun 2027 07:20:17.005   09 Jun 2027 07:22:23.247           126.242         63121.000
       244   09 Jun 2027 07:23:03.818   09 Jun 2027 07:23:11.643             7.825          3912.500
       245   09 Jun 2027 07:24:10.504   09 Jun 2027 07:24:11.658             1.154           577.000
       246   09 Jun 2027 07:24:41.481   09 Jun 2027 07:24:44.511             3.030          1515.000
       247   09 Jun 2027 07:25:16.315   09 Jun 2027 07:25:23.035             6.720          2045.249
       248   09 Jun 2027 08:57:51.644   09 Jun 2027 08:58:25.844            34.200         15346.625
       249   09 Jun 2027 08:59:02.524   09 Jun 2027 08:59:07.387             4.863           882.625
       250   09 Jun 2027 08:59:09.562   09 Jun 2027 08:59:11.180             1.618            67.969
       251   09 Jun 2027 08:59:31.320   09 Jun 2027 08:59:32.633             1.313            87.031
       252   09 Jun 2027 09:01:17.939   09 Jun 2027 09:01:22.744             4.805          2233.625
       253   09 Jun 2027 10:33:54.360   09 Jun 2027 10:34:11.352            16.992          7860.687
       254   09 Jun 2027 10:34:28.458   09 Jun 2027 10:34:30.648             2.190           346.375
       255   09 Jun 2027 10:35:01.092   09 Jun 2027 10:35:03.552             2.460           951.375
       256   09 Jun 2027 10:35:36.596   09 Jun 2027 10:35:37.055             0.459           229.500
       257   09 Jun 2027 10:35:42.573   09 Jun 2027 10:35:44.326             1.753           815.781
       258   09 Jun 2027 10:36:10.657   09 Jun 2027 10:36:13.042             2.385           775.562
       259   09 Jun 2027 10:37:07.060   09 Jun 2027 10:37:07.060             0.000             0.000
       260   09 Jun 2027 10:37:15.709   09 Jun 2027 10:37:20.414             4.705          1428.406
       261   09 Jun 2027 10:37:52.527   09 Jun 2027 10:37:55.421             2.894           786.281
       262   09 Jun 2027 10:38:04.697   09 Jun 2027 10:38:05.372             0.675           119.656
       263   10 Jun 2027 04:21:51.701   10 Jun 2027 04:22:29.836            38.135         19067.500
       264   10 Jun 2027 04:23:06.296   10 Jun 2027 04:24:09.430            63.134         31567.000
       265   10 Jun 2027 04:24:22.818   10 Jun 2027 04:24:26.314             3.496          1748.000
       266   10 Jun 2027 05:56:08.693   10 Jun 2027 05:58:02.163           113.470         56735.000
       267   10 Jun 2027 05:59:07.619   10 Jun 2027 05:59:11.551             3.932          1966.000
       268   10 Jun 2027 05:59:51.914   10 Jun 2027 06:00:00.056             8.142          4071.000
       269   10 Jun 2027 06:01:56.257   10 Jun 2027 06:02:03.219             6.962          3481.000
       270   10 Jun 2027 07:32:29.625   10 Jun 2027 07:34:16.066           106.441         53220.500
       271   10 Jun 2027 07:34:21.902   10 Jun 2027 07:34:36.803            14.901          7450.500
       272   10 Jun 2027 07:35:16.854   10 Jun 2027 07:35:21.811             4.957          2478.500
       273   10 Jun 2027 07:36:01.313   10 Jun 2027 07:36:05.593             4.280          2140.000
       274   10 Jun 2027 07:36:19.647   10 Jun 2027 07:36:20.742             1.095           534.187
       275   10 Jun 2027 07:37:43.461   10 Jun 2027 07:37:45.730             2.269          1134.500
       276   10 Jun 2027 07:37:56.026   10 Jun 2027 07:37:59.132             3.106          1256.656
       277   10 Jun 2027 09:09:46.471   10 Jun 2027 09:10:25.893            39.422         13950.750
       278   10 Jun 2027 09:12:01.222   10 Jun 2027 09:12:06.496             5.274          2637.000
       279   10 Jun 2027 09:12:12.595   10 Jun 2027 09:12:15.589             2.994           224.281
       280   10 Jun 2027 09:12:37.152   10 Jun 2027 09:12:39.300             2.148           673.844
       281   10 Jun 2027 09:13:22.448   10 Jun 2027 09:13:23.608             1.160           580.000
       282   10 Jun 2027 10:45:58.828   10 Jun 2027 10:46:15.060            16.232          7975.406
       283   10 Jun 2027 10:46:33.750   10 Jun 2027 10:46:33.868             0.118            59.000
       284   10 Jun 2027 10:46:57.451   10 Jun 2027 10:47:03.864             6.413           914.875
       285   10 Jun 2027 10:47:24.994   10 Jun 2027 10:47:27.084             2.090           420.312
       286   10 Jun 2027 10:47:50.505   10 Jun 2027 10:47:50.925             0.420           210.000
       287   10 Jun 2027 10:48:22.406   10 Jun 2027 10:48:27.340             4.934          1430.656
       288   10 Jun 2027 10:49:31.662   10 Jun 2027 10:49:35.803             4.141          1851.469
       289   10 Jun 2027 10:50:37.976   10 Jun 2027 10:50:45.162             7.186          1920.281
       290   11 Jun 2027 04:32:46.460   11 Jun 2027 04:33:00.275            13.815          6907.500
       291   11 Jun 2027 04:33:17.476   11 Jun 2027 04:34:24.950            67.474         33737.000
       292   11 Jun 2027 04:35:00.290   11 Jun 2027 04:35:07.358             7.068          3534.000
       293   11 Jun 2027 06:07:39.954   11 Jun 2027 06:09:02.676            82.722         41361.000
       294   11 Jun 2027 06:09:37.905   11 Jun 2027 06:10:24.417            46.512         23256.000
       295   11 Jun 2027 06:14:49.680   11 Jun 2027 06:14:53.459             3.779          1889.500
       296   11 Jun 2027 07:44:07.708   11 Jun 2027 07:46:05.730           118.022         56878.625
       297   11 Jun 2027 07:46:15.167   11 Jun 2027 07:46:15.789             0.622           294.906
       298   11 Jun 2027 07:46:31.868   11 Jun 2027 07:46:38.617             6.749           502.469
       299   11 Jun 2027 07:47:52.127   11 Jun 2027 07:48:01.320             9.193          2168.250
       300   11 Jun 2027 07:48:21.895   11 Jun 2027 07:48:23.031             1.136           497.906
       301   11 Jun 2027 07:49:00.688   11 Jun 2027 07:49:02.985             2.297           440.875
       302   11 Jun 2027 07:49:43.286   11 Jun 2027 07:49:49.008             5.722          1259.406
       303   11 Jun 2027 07:49:57.760   11 Jun 2027 07:49:58.508             0.748           273.500
       304   11 Jun 2027 09:22:25.856   11 Jun 2027 09:22:50.102            24.246         10470.281
       305   11 Jun 2027 09:23:25.265   11 Jun 2027 09:23:29.679             4.414           939.531
       306   11 Jun 2027 09:23:38.137   11 Jun 2027 09:23:40.462             2.325           187.188
       307   11 Jun 2027 09:23:59.135   11 Jun 2027 09:24:01.533             2.398           306.719
       308   11 Jun 2027 09:24:28.249   11 Jun 2027 09:24:30.651             2.402           758.469
       309   11 Jun 2027 09:25:19.485   11 Jun 2027 09:25:27.391             7.906          1526.063
       310   11 Jun 2027 09:26:19.369   11 Jun 2027 09:26:20.262             0.893           446.500
       311   11 Jun 2027 10:57:52.618   11 Jun 2027 10:58:08.452            15.834          7917.000
       312   11 Jun 2027 10:58:42.245   11 Jun 2027 10:58:52.075             9.830          1380.938
       313   11 Jun 2027 10:59:22.294   11 Jun 2027 10:59:26.107             3.813           857.437
       314   11 Jun 2027 10:59:50.463   11 Jun 2027 10:59:50.463             0.000             0.000
       315   11 Jun 2027 11:00:41.655   11 Jun 2027 11:00:47.663             6.008          2360.875
       316   11 Jun 2027 11:00:49.528   11 Jun 2027 11:00:49.528             0.000             0.000
       317   11 Jun 2027 11:00:54.641   11 Jun 2027 11:00:57.375             2.734           218.063
       318   11 Jun 2027 11:01:14.982   11 Jun 2027 11:01:16.229             1.247           109.875
       319   11 Jun 2027 11:01:41.197   11 Jun 2027 11:01:43.424             2.227           369.375
       320   11 Jun 2027 11:02:14.940   11 Jun 2027 11:02:18.276             3.336           427.344
       321   11 Jun 2027 11:02:48.340   11 Jun 2027 11:02:50.140             1.800           837.500
       322   12 Jun 2027 03:07:30.673   12 Jun 2027 03:08:16.671            45.998         22999.000
       323   12 Jun 2027 03:11:23.724   12 Jun 2027 03:11:23.724             0.000             0.000
       324   12 Jun 2027 04:43:02.679   12 Jun 2027 04:43:53.275            50.596         25298.000
       325   12 Jun 2027 04:44:31.340   12 Jun 2027 04:45:17.820            46.480         23240.000
       326   12 Jun 2027 04:45:22.635   12 Jun 2027 04:45:22.635             0.000             0.000
       327   12 Jun 2027 04:46:31.918   12 Jun 2027 04:46:37.815             5.897          2948.500
       328   12 Jun 2027 04:47:51.599   12 Jun 2027 04:47:57.618             6.019          3009.500
       329   12 Jun 2027 04:48:19.552   12 Jun 2027 04:48:27.714             8.162          4081.000
       330   12 Jun 2027 04:48:36.483   12 Jun 2027 04:48:48.981            12.498          6249.000
       331   12 Jun 2027 06:19:21.290   12 Jun 2027 06:20:41.453            80.163         40081.500
       332   12 Jun 2027 06:21:40.617   12 Jun 2027 06:22:15.062            34.445         17222.500
       333   12 Jun 2027 06:23:34.949   12 Jun 2027 06:23:55.054            20.105         10052.500
       334   12 Jun 2027 06:25:51.460   12 Jun 2027 06:25:54.146             2.686          1343.000
       335   12 Jun 2027 07:56:27.421   12 Jun 2027 07:57:35.011            67.590         33755.125
       336   12 Jun 2027 07:58:16.095   12 Jun 2027 07:58:20.223             4.128          1236.719
       337   12 Jun 2027 07:59:09.842   12 Jun 2027 07:59:13.118             3.276          1520.812
       338   12 Jun 2027 07:59:21.127   12 Jun 2027 07:59:21.127             0.000             0.000
       339   12 Jun 2027 08:00:06.688   12 Jun 2027 08:00:10.118             3.430          1669.469
       340   12 Jun 2027 08:00:19.554   12 Jun 2027 08:00:20.710             1.156           294.875
       341   12 Jun 2027 08:00:24.669   12 Jun 2027 08:00:27.661             2.992            76.781
       342   12 Jun 2027 08:00:54.929   12 Jun 2027 08:00:56.324             1.395           432.031
       343   12 Jun 2027 08:01:44.403   12 Jun 2027 08:01:46.894             2.491          1245.500
       344   12 Jun 2027 08:02:42.517   12 Jun 2027 08:02:47.525             5.008          1947.188
       345   12 Jun 2027 09:34:23.964   12 Jun 2027 09:34:44.880            20.916          9719.906
       346   12 Jun 2027 09:35:37.027   12 Jun 2027 09:35:39.412             2.385          1030.000
       347   12 Jun 2027 09:36:06.143   12 Jun 2027 09:36:08.301             2.158           704.625
       348   12 Jun 2027 09:36:29.737   12 Jun 2027 09:36:33.327             3.590           669.875
       349   12 Jun 2027 09:37:42.220   12 Jun 2027 09:37:46.663             4.443          2152.906
       350   12 Jun 2027 09:38:10.007   12 Jun 2027 09:38:12.787             2.780           465.344
       351   12 Jun 2027 11:07:28.830   12 Jun 2027 11:07:42.646            13.816          6060.406
       352   12 Jun 2027 11:09:03.022   12 Jun 2027 11:09:05.264             2.242           985.906
       353   12 Jun 2027 11:09:20.021   12 Jun 2027 11:09:22.919             2.898           461.156
       354   12 Jun 2027 11:09:30.971   12 Jun 2027 11:09:35.427             4.456           228.969
       355   12 Jun 2027 11:09:54.122   12 Jun 2027 11:09:55.746             1.624           380.625
       356   12 Jun 2027 11:10:50.903   12 Jun 2027 11:10:57.745             6.842          1723.656
       357   12 Jun 2027 11:11:15.347   12 Jun 2027 11:11:17.205             1.858           550.063
       358   12 Jun 2027 11:11:52.812   12 Jun 2027 11:11:55.209             2.397           921.469
       359   12 Jun 2027 11:13:43.840   12 Jun 2027 11:13:49.184             5.344          2672.000
       360   12 Jun 2027 11:14:31.317   12 Jun 2027 11:14:43.983            12.666           773.907
       361   12 Jun 2027 11:14:59.637   12 Jun 2027 11:15:02.948             3.311           489.188
       362   12 Jun 2027 11:15:16.665   12 Jun 2027 11:15:16.665             0.000             0.000
       363   12 Jun 2027 11:15:24.501   12 Jun 2027 11:15:27.928             3.427           595.250
       364   13 Jun 2027 03:19:13.679   13 Jun 2027 03:20:11.830            58.151         29075.500
       365   13 Jun 2027 04:54:11.569   13 Jun 2027 04:55:38.202            86.633         43316.500
       366   13 Jun 2027 04:56:42.784   13 Jun 2027 04:56:57.849            15.065          7532.500
       367   13 Jun 2027 04:59:37.247   13 Jun 2027 04:59:53.347            16.100          8050.000
       368   13 Jun 2027 05:00:21.478   13 Jun 2027 05:00:26.265             4.787          2393.500
       369   13 Jun 2027 06:31:40.062   13 Jun 2027 06:33:28.480           108.418         54209.000
       370   13 Jun 2027 06:33:42.290   13 Jun 2027 06:33:47.221             4.931          2465.500
       371   13 Jun 2027 06:33:56.420   13 Jun 2027 06:34:12.126            15.706          7853.000
       372   13 Jun 2027 06:36:05.234   13 Jun 2027 06:36:10.292             5.058          2529.000
       373   13 Jun 2027 06:38:57.894   13 Jun 2027 06:38:58.263             0.369           184.500
       374   13 Jun 2027 08:08:24.813   13 Jun 2027 08:09:37.156            72.343         33316.250
       375   13 Jun 2027 08:10:11.230   13 Jun 2027 08:10:14.762             3.532          1027.781
       376   13 Jun 2027 08:10:24.248   13 Jun 2027 08:10:25.352             1.104           180.094
       377   13 Jun 2027 08:12:01.122   13 Jun 2027 08:12:06.753             5.631          2444.937
       378   13 Jun 2027 08:12:15.247   13 Jun 2027 08:12:21.157             5.910           265.438
       379   13 Jun 2027 08:12:32.203   13 Jun 2027 08:12:35.342             3.139           345.187
       380   13 Jun 2027 08:12:47.406   13 Jun 2027 08:12:54.893             7.487           349.062
       381   13 Jun 2027 08:14:01.572   13 Jun 2027 08:14:06.838             5.266          2083.719
       382   13 Jun 2027 08:14:54.596   13 Jun 2027 08:14:57.310             2.714          1357.000
       383   13 Jun 2027 09:46:23.174   13 Jun 2027 09:46:40.645            17.471          8735.500
       384   13 Jun 2027 09:47:05.047   13 Jun 2027 09:47:08.403             3.356          1065.250
       385   13 Jun 2027 09:47:35.368   13 Jun 2027 09:47:39.300             3.932           617.125
       386   13 Jun 2027 09:48:03.486   13 Jun 2027 09:48:07.766             4.280           755.813
       387   13 Jun 2027 09:48:56.414   13 Jun 2027 09:48:57.559             1.145           572.500
       388   13 Jun 2027 09:49:07.863   13 Jun 2027 09:49:15.230             7.367          1236.406
       389   13 Jun 2027 09:49:17.536   13 Jun 2027 09:49:19.938             2.402            40.000
       390   13 Jun 2027 09:50:04.659   13 Jun 2027 09:50:08.321             3.662          1358.937
       391   13 Jun 2027 11:20:01.065   13 Jun 2027 11:20:03.507             2.442          1128.062
       392   13 Jun 2027 11:20:16.912   13 Jun 2027 11:20:18.899             1.987           211.375
       393   13 Jun 2027 11:21:28.792   13 Jun 2027 11:21:34.509             5.717          1992.125
       394   13 Jun 2027 11:22:22.598   13 Jun 2027 11:22:33.335            10.737          1466.625
       395   13 Jun 2027 11:23:02.414   13 Jun 2027 11:23:07.460             5.046           806.406
       396   13 Jun 2027 11:23:21.099   13 Jun 2027 11:23:21.099             0.000             0.000
       397   13 Jun 2027 11:23:54.189   13 Jun 2027 11:23:59.665             5.476          1460.281
       398   13 Jun 2027 11:24:52.579   13 Jun 2027 11:25:00.332             7.753          1129.000
       399   13 Jun 2027 11:25:27.114   13 Jun 2027 11:25:27.114             0.000             0.000
       400   13 Jun 2027 11:25:42.060   13 Jun 2027 11:25:44.895             2.835          1304.000
       401   13 Jun 2027 11:26:28.530   13 Jun 2027 11:26:31.978             3.448          1293.219
