uniorb/output/strategy_1/Camera/Camera_KinoSat_111509.txt

KinoSat_111509
-------------------------
    Access    *     Start Time (UTCG)     *     Stop Time (UTCG)  *   Duration (s) *   Data (Mbytes)
         1   01 Jun 2027 04:17:36.339   01 Jun 2027 04:19:51.911           135.572         67786.000
         2   01 Jun 2027 04:21:20.732   01 Jun 2027 04:21:32.252            11.520          5760.000
         3   01 Jun 2027 04:21:42.107   01 Jun 2027 04:21:43.728             1.621           810.500
         4   01 Jun 2027 04:23:09.819   01 Jun 2027 04:23:29.032            19.213          9606.500
         5   01 Jun 2027 05:41:40.023   01 Jun 2027 05:42:45.793            65.770         32885.000
         6   01 Jun 2027 05:43:02.277   01 Jun 2027 05:43:15.714            13.437          6718.500
         7   01 Jun 2027 07:17:37.194   01 Jun 2027 07:20:09.308           152.114         76057.000
         8   01 Jun 2027 08:51:26.986   01 Jun 2027 08:53:14.107           107.121         53560.500
         9   01 Jun 2027 08:53:54.050   01 Jun 2027 08:53:59.050             5.000          2500.000
        10   01 Jun 2027 08:57:09.574   01 Jun 2027 08:57:24.745            15.171          7585.500
        11   01 Jun 2027 08:59:09.069   01 Jun 2027 08:59:09.069             0.000             0.000
        12   01 Jun 2027 10:28:30.188   01 Jun 2027 10:30:05.679            95.491         47745.500
        13   01 Jun 2027 10:32:40.611   01 Jun 2027 10:32:53.153            12.542          6271.000
        14   01 Jun 2027 10:33:18.807   01 Jun 2027 10:33:18.807             0.000             0.000
        15   01 Jun 2027 10:33:56.325   01 Jun 2027 10:34:13.476            17.151          8575.500
        16   01 Jun 2027 10:34:23.946   01 Jun 2027 10:34:26.300             2.354          1177.000
        17   01 Jun 2027 10:34:41.210   01 Jun 2027 10:34:47.256             6.046          3023.000
        18   01 Jun 2027 10:35:00.128   01 Jun 2027 10:35:02.576             2.448          1224.000
        19   02 Jun 2027 04:30:10.283   02 Jun 2027 04:31:55.583           105.300         52650.000
        20   02 Jun 2027 04:32:53.502   02 Jun 2027 04:33:17.648            24.146         12073.000
        21   02 Jun 2027 05:53:34.566   02 Jun 2027 05:54:30.331            55.765         27882.500
        22   02 Jun 2027 07:29:55.044   02 Jun 2027 07:32:30.395           155.351         77675.500
        23   02 Jun 2027 09:03:25.239   02 Jun 2027 09:04:39.087            73.848         36924.000
        24   02 Jun 2027 09:06:14.203   02 Jun 2027 09:06:14.203             0.000             0.000
        25   02 Jun 2027 09:07:13.150   02 Jun 2027 09:07:58.124            44.974         22487.000
        26   02 Jun 2027 09:10:50.986   02 Jun 2027 09:11:20.815            29.829         14914.500
        27   02 Jun 2027 09:11:54.872   02 Jun 2027 09:11:54.963             0.091            45.500
        28   02 Jun 2027 10:40:56.334   02 Jun 2027 10:43:14.845           138.511         69255.500
        29   02 Jun 2027 10:45:25.169   02 Jun 2027 10:45:25.384             0.215           107.500
        30   03 Jun 2027 03:03:45.643   03 Jun 2027 03:04:12.312            26.669         13334.500
        31   03 Jun 2027 03:04:48.165   03 Jun 2027 03:05:02.666            14.501          7250.500
        32   03 Jun 2027 03:06:31.326   03 Jun 2027 03:06:39.441             8.115          4057.500
        33   03 Jun 2027 03:07:20.175   03 Jun 2027 03:07:24.013             3.838          1919.000
        34   03 Jun 2027 03:07:34.279   03 Jun 2027 03:07:50.633            16.354          8177.000
        35   03 Jun 2027 03:09:38.588   03 Jun 2027 03:09:39.149             0.561           280.500
        36   03 Jun 2027 03:09:52.295   03 Jun 2027 03:10:01.114             8.819          4409.500
        37   03 Jun 2027 04:41:49.062   03 Jun 2027 04:43:02.511            73.449         36724.500
        38   03 Jun 2027 04:43:17.732   03 Jun 2027 04:43:25.265             7.533          3766.500
        39   03 Jun 2027 04:43:44.014   03 Jun 2027 04:43:44.014             0.000             0.000
        40   03 Jun 2027 04:45:25.423   03 Jun 2027 04:45:25.423             0.000             0.000
        41   03 Jun 2027 04:45:29.755   03 Jun 2027 04:45:45.717            15.962          7981.000
        42   03 Jun 2027 06:05:25.453   03 Jun 2027 06:06:06.988            41.535         20767.500
        43   03 Jun 2027 07:41:57.089   03 Jun 2027 07:43:46.013           108.924         54462.000
        44   03 Jun 2027 07:45:04.669   03 Jun 2027 07:45:30.877            26.208         13104.000
        45   03 Jun 2027 09:16:24.656   03 Jun 2027 09:17:46.222            81.566         40783.000
        46   03 Jun 2027 09:19:21.005   03 Jun 2027 09:20:13.655            52.650         26325.000
        47   03 Jun 2027 09:21:47.921   03 Jun 2027 09:21:54.640             6.719          3359.500
        48   03 Jun 2027 09:23:44.495   03 Jun 2027 09:23:50.793             6.298          3149.000
        49   03 Jun 2027 10:53:04.422   03 Jun 2027 10:54:06.000            61.578         28774.531
        50   03 Jun 2027 10:55:27.622   03 Jun 2027 10:55:34.894             7.272          2149.781
        51   03 Jun 2027 10:56:12.233   03 Jun 2027 10:56:14.433             2.200          1094.875
        52   03 Jun 2027 10:56:42.822   03 Jun 2027 10:56:45.637             2.815           887.156
        53   03 Jun 2027 10:57:05.614   03 Jun 2027 10:57:06.159             0.545           114.594
        54   03 Jun 2027 10:58:42.897   03 Jun 2027 10:58:44.463             1.566           783.000
        55   03 Jun 2027 10:59:10.509   03 Jun 2027 10:59:15.718             5.209          2394.156
        56   03 Jun 2027 10:59:26.189   03 Jun 2027 10:59:26.278             0.089            44.500
        57   04 Jun 2027 03:15:54.001   04 Jun 2027 03:16:53.667            59.666         29833.000
        58   04 Jun 2027 03:17:03.242   04 Jun 2027 03:17:19.908            16.666          8333.000
        59   04 Jun 2027 03:17:32.614   04 Jun 2027 03:17:33.519             0.905           452.500
        60   04 Jun 2027 03:18:21.020   04 Jun 2027 03:18:27.381             6.361          3180.500
        61   04 Jun 2027 03:21:27.264   04 Jun 2027 03:21:36.353             9.089          4544.500
        62   04 Jun 2027 04:54:13.055   04 Jun 2027 04:54:41.861            28.806         14403.000
        63   04 Jun 2027 04:55:01.596   04 Jun 2027 04:55:45.869            44.273         22136.500
        64   04 Jun 2027 06:17:35.633   04 Jun 2027 06:18:27.033            51.400         25700.000
        65   04 Jun 2027 07:54:06.812   04 Jun 2027 07:56:03.964           117.152         58428.563
        66   04 Jun 2027 07:56:09.961   04 Jun 2027 07:56:10.189             0.228           114.000
        67   04 Jun 2027 09:29:16.357   04 Jun 2027 09:29:29.715            13.358          6406.406
        68   04 Jun 2027 09:30:24.081   04 Jun 2027 09:30:27.576             3.495          1632.219
        69   04 Jun 2027 09:30:40.467   04 Jun 2027 09:30:43.047             2.580           166.656
        70   04 Jun 2027 09:32:15.236   04 Jun 2027 09:32:22.636             7.400          1362.312
        71   04 Jun 2027 09:33:01.158   04 Jun 2027 09:33:03.535             2.377           761.406
        72   04 Jun 2027 09:33:08.699   04 Jun 2027 09:33:11.188             2.489            45.344
        73   04 Jun 2027 09:33:26.671   04 Jun 2027 09:33:28.499             1.828           453.562
        74   04 Jun 2027 09:33:45.502   04 Jun 2027 09:33:49.933             4.431           531.344
        75   04 Jun 2027 09:33:58.170   04 Jun 2027 09:34:01.954             3.784           207.812
        76   04 Jun 2027 09:34:53.237   04 Jun 2027 09:34:58.112             4.875           963.437
        77   04 Jun 2027 09:35:19.023   04 Jun 2027 09:35:19.984             0.961           149.906
        78   04 Jun 2027 09:35:28.841   04 Jun 2027 09:35:32.154             3.313           258.000
        79   04 Jun 2027 09:35:40.535   04 Jun 2027 09:35:43.374             2.839           169.531
        80   04 Jun 2027 11:05:39.407   04 Jun 2027 11:05:51.281            11.874          5862.344
        81   04 Jun 2027 11:06:08.122   04 Jun 2027 11:06:08.791             0.669           109.906
        82   04 Jun 2027 11:07:08.827   04 Jun 2027 11:07:13.881             5.054          1786.594
        83   04 Jun 2027 11:07:22.704   04 Jun 2027 11:07:23.638             0.934           129.250
        84   04 Jun 2027 11:07:56.758   04 Jun 2027 11:08:00.042             3.284           797.562
        85   04 Jun 2027 11:08:44.523   04 Jun 2027 11:08:47.284             2.761          1283.906
        86   04 Jun 2027 11:09:00.872   04 Jun 2027 11:09:02.492             1.620           424.625
        87   04 Jun 2027 11:09:25.556   04 Jun 2027 11:09:26.552             0.996           498.000
        88   04 Jun 2027 11:09:36.878   04 Jun 2027 11:09:39.851             2.973           472.563
        89   04 Jun 2027 11:09:54.199   04 Jun 2027 11:09:57.273             3.074            78.156
        90   04 Jun 2027 11:10:06.228   04 Jun 2027 11:10:06.854             0.626           102.562
        91   04 Jun 2027 11:10:29.557   04 Jun 2027 11:10:33.177             3.620           623.250
        92   04 Jun 2027 11:10:50.389   04 Jun 2027 11:10:54.029             3.640           173.469
        93   04 Jun 2027 11:11:36.394   04 Jun 2027 11:11:41.128             4.734          1296.625
        94   05 Jun 2027 03:27:58.842   05 Jun 2027 03:28:11.245            12.403          6201.500
        95   05 Jun 2027 03:29:00.946   05 Jun 2027 03:30:24.029            83.083         41541.500
        96   05 Jun 2027 03:31:02.384   05 Jun 2027 03:31:07.537             5.153          2576.500
        97   05 Jun 2027 03:31:32.926   05 Jun 2027 03:31:46.542            13.616          6808.000
        98   05 Jun 2027 03:32:34.646   05 Jun 2027 03:32:51.088            16.442          8221.000
        99   05 Jun 2027 05:06:09.637   05 Jun 2027 05:06:48.005            38.368         19184.000
       100   05 Jun 2027 05:07:16.422   05 Jun 2027 05:07:47.866            31.444         15722.000
       101   05 Jun 2027 05:08:22.576   05 Jun 2027 05:08:29.941             7.365          3682.500
       102   05 Jun 2027 05:09:00.863   05 Jun 2027 05:09:10.080             9.217          4608.500
       103   05 Jun 2027 05:09:33.643   05 Jun 2027 05:09:33.643             0.000             0.000
       104   05 Jun 2027 05:09:36.403   05 Jun 2027 05:09:38.647             2.244          1122.000
       105   05 Jun 2027 06:30:15.637   05 Jun 2027 06:31:40.301            84.664         42332.000
       106   05 Jun 2027 08:06:00.843   05 Jun 2027 08:06:51.258            50.415         24857.000
       107   05 Jun 2027 08:08:26.013   05 Jun 2027 08:08:35.399             9.386          2542.063
       108   05 Jun 2027 08:09:14.162   05 Jun 2027 08:09:14.162             0.000             0.000
       109   05 Jun 2027 09:40:58.458   05 Jun 2027 09:41:12.632            14.174          4730.969
       110   05 Jun 2027 09:42:41.583   05 Jun 2027 09:42:47.569             5.986          2460.875
       111   05 Jun 2027 09:43:22.758   05 Jun 2027 09:43:24.628             1.870           935.000
       112   05 Jun 2027 09:45:03.212   05 Jun 2027 09:45:10.002             6.790          3245.406
       113   05 Jun 2027 09:45:40.424   05 Jun 2027 09:45:42.583             2.159           950.687
       114   05 Jun 2027 09:46:03.587   05 Jun 2027 09:46:04.882             1.295           489.281
       115   05 Jun 2027 09:47:01.312   05 Jun 2027 09:47:04.593             3.281          1501.656
       116   05 Jun 2027 09:47:48.770   05 Jun 2027 09:47:53.110             4.340          1273.031
       117   05 Jun 2027 11:17:11.382   05 Jun 2027 11:17:25.127            13.745          6623.531
       118   05 Jun 2027 11:18:14.481   05 Jun 2027 11:18:16.542             2.061           880.375
       119   05 Jun 2027 11:18:22.009   05 Jun 2027 11:18:23.796             1.787           103.656
       120   05 Jun 2027 11:19:12.761   05 Jun 2027 11:19:19.103             6.342           939.531
       121   05 Jun 2027 11:19:43.499   05 Jun 2027 11:19:46.500             3.001           762.375
       122   05 Jun 2027 11:20:18.315   05 Jun 2027 11:20:20.807             2.492           521.844
       123   05 Jun 2027 11:20:51.012   05 Jun 2027 11:20:55.619             4.607           445.000
       124   05 Jun 2027 11:20:58.473   05 Jun 2027 11:21:01.145             2.672            89.188
       125   05 Jun 2027 11:21:11.417   05 Jun 2027 11:21:11.417             0.000             0.000
       126   05 Jun 2027 11:21:51.913   05 Jun 2027 11:21:55.145             3.232          1484.125
       127   05 Jun 2027 11:22:00.839   05 Jun 2027 11:22:07.593             6.754           129.656
       128   05 Jun 2027 11:22:23.662   05 Jun 2027 11:22:28.486             4.824           253.906
       129   05 Jun 2027 11:23:25.800   05 Jun 2027 11:23:29.964             4.164          1717.750
       130   06 Jun 2027 03:41:04.151   06 Jun 2027 03:43:03.562           119.411         59705.500
       131   06 Jun 2027 03:44:30.389   06 Jun 2027 03:44:43.227            12.838          6419.000
       132   06 Jun 2027 03:48:03.367   06 Jun 2027 03:48:43.189            39.822         19911.000
       133   06 Jun 2027 05:07:00.638   06 Jun 2027 05:07:43.226            42.588         21294.000
       134   06 Jun 2027 05:18:05.935   06 Jun 2027 05:18:48.018            42.083         21041.500
       135   06 Jun 2027 05:19:04.924   06 Jun 2027 05:19:04.924             0.000             0.000
       136   06 Jun 2027 05:19:24.590   06 Jun 2027 05:19:29.115             4.525          2262.500
       137   06 Jun 2027 05:19:41.875   06 Jun 2027 05:19:47.637             5.762          2881.000
       138   06 Jun 2027 05:20:12.421   06 Jun 2027 05:20:28.661            16.240          8120.000
       139   06 Jun 2027 06:41:03.571   06 Jun 2027 06:42:19.825            76.254         38127.000
       140   06 Jun 2027 06:43:16.070   06 Jun 2027 06:43:16.070             0.000             0.000
       141   06 Jun 2027 06:45:17.169   06 Jun 2027 06:45:17.292             0.123            61.500
       142   06 Jun 2027 08:16:30.273   06 Jun 2027 08:16:47.981            17.708          8854.000
       143   06 Jun 2027 08:18:02.287   06 Jun 2027 08:18:11.427             9.140          4004.812
       144   06 Jun 2027 08:19:23.530   06 Jun 2027 08:19:27.517             3.987          1865.969
       145   06 Jun 2027 08:21:39.633   06 Jun 2027 08:21:48.238             8.605          2567.719
       146   06 Jun 2027 09:52:31.515   06 Jun 2027 09:52:34.491             2.976          1488.000
       147   06 Jun 2027 09:53:03.933   06 Jun 2027 09:53:12.156             8.223          3997.531
       148   06 Jun 2027 09:54:40.166   06 Jun 2027 09:54:40.166             0.000             0.000
       149   06 Jun 2027 09:55:34.808   06 Jun 2027 09:55:43.629             8.821          4327.062
       150   06 Jun 2027 09:56:08.180   06 Jun 2027 09:56:09.382             1.202           342.344
       151   06 Jun 2027 09:57:07.823   06 Jun 2027 09:57:11.239             3.416          1328.000
       152   06 Jun 2027 09:57:44.829   06 Jun 2027 09:57:49.856             5.027          1041.719
       153   06 Jun 2027 09:57:57.809   06 Jun 2027 09:57:58.578             0.769            70.094
       154   06 Jun 2027 09:58:30.687   06 Jun 2027 09:58:33.172             2.485           910.062
       155   06 Jun 2027 09:58:55.316   06 Jun 2027 09:58:55.316             0.000             0.000
       156   06 Jun 2027 09:59:05.264   06 Jun 2027 09:59:11.460             6.196           427.813
       157   06 Jun 2027 09:59:37.565   06 Jun 2027 09:59:39.633             2.068           793.187
       158   06 Jun 2027 09:59:58.603   06 Jun 2027 10:00:02.375             3.772           592.812
       159   06 Jun 2027 11:29:33.571   06 Jun 2027 11:29:51.171            17.600          8339.656
       160   06 Jun 2027 11:29:57.891   06 Jun 2027 11:30:03.539             5.648           138.906
       161   06 Jun 2027 11:30:35.587   06 Jun 2027 11:30:44.057             8.470           718.625
       162   06 Jun 2027 11:31:01.497   06 Jun 2027 11:31:02.590             1.093            48.906
       163   06 Jun 2027 11:32:18.938   06 Jun 2027 11:32:23.201             4.263          2060.969
       164   06 Jun 2027 11:33:04.371   06 Jun 2027 11:33:08.655             4.284          1262.656
       165   06 Jun 2027 11:33:18.034   06 Jun 2027 11:33:22.238             4.204           210.406
       166   06 Jun 2027 11:33:46.247   06 Jun 2027 11:33:47.753             1.506           750.281
       167   06 Jun 2027 11:34:22.200   06 Jun 2027 11:34:24.471             2.271          1076.469
       168   06 Jun 2027 11:34:27.910   06 Jun 2027 11:34:28.641             0.731           107.469
       169   07 Jun 2027 03:53:30.923   07 Jun 2027 03:54:52.465            81.542         40771.000
       170   07 Jun 2027 03:55:32.969   07 Jun 2027 03:55:52.485            19.516          9758.000
       171   07 Jun 2027 03:56:32.356   07 Jun 2027 03:56:40.556             8.200          4100.000
       172   07 Jun 2027 03:57:39.483   07 Jun 2027 03:57:48.393             8.910          4455.000
       173   07 Jun 2027 03:59:06.871   07 Jun 2027 03:59:22.455            15.584          7792.000
       174   07 Jun 2027 04:00:18.572   07 Jun 2027 04:00:41.495            22.923         11461.500
       175   07 Jun 2027 05:18:25.619   07 Jun 2027 05:19:33.972            68.353         34176.500
       176   07 Jun 2027 05:30:08.688   07 Jun 2027 05:30:31.034            22.346         11173.000
       177   07 Jun 2027 05:31:23.470   07 Jun 2027 05:31:25.518             2.048          1024.000
       178   07 Jun 2027 06:52:21.091   07 Jun 2027 06:53:34.200            73.109         36554.500
       179   07 Jun 2027 06:54:23.032   07 Jun 2027 06:54:36.380            13.348          6674.000
       180   07 Jun 2027 06:57:16.892   07 Jun 2027 06:57:16.892             0.000             0.000
       181   07 Jun 2027 08:27:27.740   07 Jun 2027 08:27:52.975            25.235         12617.500
       182   07 Jun 2027 08:28:00.787   07 Jun 2027 08:28:06.605             5.818          1674.843
       183   07 Jun 2027 08:29:30.190   07 Jun 2027 08:29:36.096             5.906          2355.031
       184   07 Jun 2027 08:31:06.786   07 Jun 2027 08:31:06.786             0.000             0.000
       185   07 Jun 2027 08:31:47.140   07 Jun 2027 08:31:54.839             7.699          3723.469
       186   07 Jun 2027 08:32:51.622   07 Jun 2027 08:32:55.214             3.592          1701.469
       187   07 Jun 2027 08:33:20.585   07 Jun 2027 08:33:25.090             4.505           753.125
       188   07 Jun 2027 08:33:58.502   07 Jun 2027 08:34:01.954             3.452           989.281
       189   07 Jun 2027 08:34:24.042   07 Jun 2027 08:34:25.451             1.409           690.250
       190   07 Jun 2027 08:35:26.408   07 Jun 2027 08:35:30.565             4.157          1871.969
       191   07 Jun 2027 10:04:42.582   07 Jun 2027 10:04:53.287            10.705          5016.188
       192   07 Jun 2027 10:05:54.986   07 Jun 2027 10:05:58.072             3.086            92.375
       193   07 Jun 2027 10:06:18.230   07 Jun 2027 10:06:23.819             5.589           609.781
       194   07 Jun 2027 10:08:11.537   07 Jun 2027 10:08:21.139             9.602          2787.469
       195   07 Jun 2027 10:11:08.703   07 Jun 2027 10:11:18.844            10.141          5070.500
       196   07 Jun 2027 10:11:28.842   07 Jun 2027 10:11:35.265             6.423           455.000
       197   07 Jun 2027 10:11:48.622   07 Jun 2027 10:11:48.622             0.000             0.000
       198   07 Jun 2027 11:41:37.421   07 Jun 2027 11:41:52.088            14.667          7318.406
       199   07 Jun 2027 11:44:18.582   07 Jun 2027 11:44:25.198             6.616          3308.000
       200   07 Jun 2027 11:44:30.004   07 Jun 2027 11:44:34.072             4.068          1420.125
       201   07 Jun 2027 11:45:40.469   07 Jun 2027 11:45:43.788             3.319          1411.156
       202   07 Jun 2027 11:46:05.644   07 Jun 2027 11:46:07.788             2.144           649.063
       203   07 Jun 2027 11:46:50.903   07 Jun 2027 11:46:50.903             0.000             0.000
       204   07 Jun 2027 11:47:02.494   07 Jun 2027 11:47:08.956             6.462          1263.969
       205   07 Jun 2027 11:47:19.955   07 Jun 2027 11:47:22.820             2.865           184.844
       206   07 Jun 2027 11:47:31.008   07 Jun 2027 11:47:33.392             2.384           207.781
       207   08 Jun 2027 04:05:43.309   08 Jun 2027 04:06:59.512            76.203         38101.500
       208   08 Jun 2027 04:08:01.283   08 Jun 2027 04:08:17.359            16.076          8038.000
       209   08 Jun 2027 04:08:45.225   08 Jun 2027 04:08:58.502            13.277          6638.500
       210   08 Jun 2027 04:09:40.420   08 Jun 2027 04:09:44.548             4.128          2064.000
       211   08 Jun 2027 04:10:33.274   08 Jun 2027 04:10:53.665            20.391         10195.500
       212   08 Jun 2027 04:12:31.816   08 Jun 2027 04:12:38.590             6.774          3387.000
       213   08 Jun 2027 05:29:54.106   08 Jun 2027 05:31:19.062            84.956         42478.000
       214   08 Jun 2027 05:42:09.820   08 Jun 2027 05:42:24.198            14.378          7189.000
       215   08 Jun 2027 07:04:06.848   08 Jun 2027 07:05:27.563            80.715         40357.500
       216   08 Jun 2027 07:06:09.612   08 Jun 2027 07:06:34.672            25.060         11640.438
       217   08 Jun 2027 08:38:57.104   08 Jun 2027 08:39:14.065            16.961          8311.219
       218   08 Jun 2027 08:39:30.735   08 Jun 2027 08:39:31.833             1.098           311.063
       219   08 Jun 2027 08:39:42.930   08 Jun 2027 08:39:42.930             0.000             0.000
       220   08 Jun 2027 08:40:42.505   08 Jun 2027 08:40:46.028             3.523          1761.500
       221   08 Jun 2027 08:40:59.986   08 Jun 2027 08:40:59.986             0.000             0.000
       222   08 Jun 2027 08:44:31.765   08 Jun 2027 08:44:46.927            15.162          7262.375
       223   08 Jun 2027 08:45:18.217   08 Jun 2027 08:45:20.625             2.408           932.781
       224   08 Jun 2027 08:45:54.897   08 Jun 2027 08:45:57.751             2.854          1041.625
       225   08 Jun 2027 08:46:42.782   08 Jun 2027 08:46:49.504             6.722          1406.125
       226   08 Jun 2027 10:16:43.622   08 Jun 2027 10:17:02.270            18.648          5901.375
       227   08 Jun 2027 10:17:39.781   08 Jun 2027 10:17:42.096             2.315          1069.438
       228   08 Jun 2027 10:17:47.891   08 Jun 2027 10:17:50.564             2.673           168.250
       229   08 Jun 2027 10:18:20.530   08 Jun 2027 10:18:22.127             1.597           798.500
       230   08 Jun 2027 10:19:40.619   08 Jun 2027 10:19:47.829             7.210          2590.812
       231   08 Jun 2027 10:20:45.477   08 Jun 2027 10:20:49.136             3.659          1801.500
       232   08 Jun 2027 10:21:23.344   08 Jun 2027 10:21:25.121             1.777           888.500
       233   08 Jun 2027 10:22:46.165   08 Jun 2027 10:22:51.616             5.451          2682.844
       234   08 Jun 2027 10:23:38.200   08 Jun 2027 10:23:41.141             2.941          1455.750
       235   08 Jun 2027 10:23:53.024   08 Jun 2027 10:23:54.196             1.172           371.344
       236   08 Jun 2027 11:53:28.928   08 Jun 2027 11:53:42.472            13.544          6568.750
       237   08 Jun 2027 11:56:17.128   08 Jun 2027 11:56:30.640            13.512          4780.156
       238   08 Jun 2027 11:57:09.160   08 Jun 2027 11:57:12.820             3.660          1162.531
       239   08 Jun 2027 11:57:44.590   08 Jun 2027 11:57:48.583             3.993           992.812
       240   08 Jun 2027 11:58:20.616   08 Jun 2027 11:58:21.286             0.670           335.000
       241   08 Jun 2027 11:58:52.308   08 Jun 2027 11:58:57.064             4.756          1635.469
       242   09 Jun 2027 04:17:53.541   09 Jun 2027 04:19:32.347            98.806         49403.000
       243   09 Jun 2027 04:19:50.780   09 Jun 2027 04:19:52.538             1.758           879.000
       244   09 Jun 2027 04:20:56.912   09 Jun 2027 04:21:11.026            14.114          7057.000
       245   09 Jun 2027 04:21:24.507   09 Jun 2027 04:21:26.962             2.455          1227.500
       246   09 Jun 2027 05:41:56.413   09 Jun 2027 05:43:20.081            83.668         41834.000
       247   09 Jun 2027 05:43:31.593   09 Jun 2027 05:43:36.294             4.701          2350.500
       248   09 Jun 2027 07:17:53.980   09 Jun 2027 07:19:55.121           121.141         60570.500
       249   09 Jun 2027 08:51:43.349   09 Jun 2027 08:52:05.601            22.252         11038.563
       250   09 Jun 2027 08:52:27.043   09 Jun 2027 08:52:30.087             3.044           266.344
       251   09 Jun 2027 08:52:57.069   09 Jun 2027 08:52:58.618             1.549           651.031
       252   09 Jun 2027 08:53:31.926   09 Jun 2027 08:53:34.077             2.151           858.312
       253   09 Jun 2027 08:56:24.436   09 Jun 2027 08:56:35.800            11.364          5108.187
       254   09 Jun 2027 08:57:26.899   09 Jun 2027 08:57:31.867             4.968          1537.375
       255   09 Jun 2027 08:58:18.809   09 Jun 2027 08:58:25.844             7.035          1204.781
       256   09 Jun 2027 10:28:47.749   09 Jun 2027 10:29:09.053            21.304          7333.969
       257   09 Jun 2027 10:29:26.189   09 Jun 2027 10:29:28.738             2.549           270.531
       258   09 Jun 2027 10:29:45.032   09 Jun 2027 10:29:46.959             1.927           509.187
       259   09 Jun 2027 10:29:59.336   09 Jun 2027 10:29:59.683             0.347           158.406
       260   09 Jun 2027 10:30:01.676   09 Jun 2027 10:30:04.117             2.441            21.344
       261   09 Jun 2027 10:31:41.890   09 Jun 2027 10:31:50.570             8.680          2496.187
       262   09 Jun 2027 10:32:40.041   09 Jun 2027 10:32:45.428             5.387          1545.969
       263   09 Jun 2027 10:32:56.589   09 Jun 2027 10:32:57.068             0.479           142.000
       264   09 Jun 2027 10:34:03.427   09 Jun 2027 10:34:07.871             4.444          2073.719
       265   09 Jun 2027 10:34:18.889   09 Jun 2027 10:34:19.666             0.777           344.312
       266   09 Jun 2027 10:34:30.648   09 Jun 2027 10:34:32.364             1.716           245.750
       267   09 Jun 2027 10:34:34.688   09 Jun 2027 10:34:37.855             3.167            72.625
       268   09 Jun 2027 10:34:55.846   09 Jun 2027 10:34:55.846             0.000             0.000
       269   09 Jun 2027 10:35:33.507   09 Jun 2027 10:35:37.055             3.548          1685.187
       270   09 Jun 2027 10:35:45.839   09 Jun 2027 10:35:49.641             3.802           237.375
       271   10 Jun 2027 04:30:27.945   10 Jun 2027 04:32:13.978           106.033         53016.500
       272   10 Jun 2027 04:32:36.142   10 Jun 2027 04:32:45.864             9.722          4861.000
       273   10 Jun 2027 04:34:11.530   10 Jun 2027 04:34:43.453            31.923         15961.500
       274   10 Jun 2027 05:53:50.537   10 Jun 2027 05:55:03.417            72.880         36440.000
       275   10 Jun 2027 05:56:06.156   10 Jun 2027 05:56:14.001             7.845          3922.500
       276   10 Jun 2027 07:30:13.054   10 Jun 2027 07:32:04.064           111.010         55505.000
       277   10 Jun 2027 07:33:02.773   10 Jun 2027 07:33:11.412             8.639          3958.938
       278   10 Jun 2027 09:03:41.623   10 Jun 2027 09:03:55.668            14.045          5690.250
       279   10 Jun 2027 09:06:32.585   10 Jun 2027 09:06:32.585             0.000             0.000
       280   10 Jun 2027 09:06:54.952   10 Jun 2027 09:07:04.341             9.389          3709.094
       281   10 Jun 2027 09:08:14.121   10 Jun 2027 09:08:14.121             0.000             0.000
       282   10 Jun 2027 09:09:58.238   10 Jun 2027 09:10:10.383            12.145          5350.219
       283   10 Jun 2027 09:11:05.251   10 Jun 2027 09:11:13.497             8.246          1180.125
       284   10 Jun 2027 09:12:07.606   10 Jun 2027 09:12:09.813             2.207          1103.500
       285   10 Jun 2027 10:41:15.075   10 Jun 2027 10:41:30.517            15.442          7374.063
       286   10 Jun 2027 10:41:43.940   10 Jun 2027 10:41:45.868             1.928           231.156
       287   10 Jun 2027 10:42:07.799   10 Jun 2027 10:42:09.682             1.883           213.719
       288   10 Jun 2027 10:42:48.488   10 Jun 2027 10:42:51.490             3.002           808.844
       289   10 Jun 2027 10:43:01.183   10 Jun 2027 10:43:03.527             2.344            66.844
       290   10 Jun 2027 10:43:32.629   10 Jun 2027 10:43:36.382             3.753           551.219
       291   10 Jun 2027 10:43:54.016   10 Jun 2027 10:43:55.087             1.071           131.438
       292   10 Jun 2027 10:44:03.425   10 Jun 2027 10:44:16.924            13.499           144.750
       293   10 Jun 2027 10:44:28.410   10 Jun 2027 10:44:32.610             4.200           328.531
       294   10 Jun 2027 10:44:32.682   10 Jun 2027 10:44:33.200             0.518             2.250
       295   10 Jun 2027 10:46:01.503   10 Jun 2027 10:46:05.183             3.680          1840.000
       296   10 Jun 2027 10:46:26.169   10 Jun 2027 10:46:32.253             6.084           839.562
       297   10 Jun 2027 10:46:57.451   10 Jun 2027 10:47:03.864             6.413           740.656
       298   10 Jun 2027 10:47:29.485   10 Jun 2027 10:47:29.485             0.000             0.000
       299   10 Jun 2027 10:47:50.505   10 Jun 2027 10:47:57.756             7.251          1160.000
       300   11 Jun 2027 03:04:02.168   11 Jun 2027 03:04:08.408             6.240          3120.000
       301   11 Jun 2027 03:04:32.149   11 Jun 2027 03:04:42.660            10.511          5255.500
       302   11 Jun 2027 03:04:49.098   11 Jun 2027 03:04:59.455            10.357          5178.500
       303   11 Jun 2027 03:05:26.517   11 Jun 2027 03:05:41.606            15.089          7544.500
       304   11 Jun 2027 03:07:42.863   11 Jun 2027 03:07:51.780             8.917          4458.500
       305   11 Jun 2027 03:08:34.591   11 Jun 2027 03:08:56.930            22.339         11169.500
       306   11 Jun 2027 04:42:06.057   11 Jun 2027 04:43:23.675            77.618         38809.000
       307   11 Jun 2027 04:43:50.075   11 Jun 2027 04:43:58.057             7.982          3991.000
       308   11 Jun 2027 04:44:30.889   11 Jun 2027 04:44:31.424             0.535           267.500
       309   11 Jun 2027 04:45:02.653   11 Jun 2027 04:45:08.401             5.748          2874.000
       310   11 Jun 2027 04:46:16.714   11 Jun 2027 04:46:21.774             5.060          2530.000
       311   11 Jun 2027 06:05:40.576   11 Jun 2027 06:07:04.493            83.917         41958.500
       312   11 Jun 2027 07:42:14.949   11 Jun 2027 07:43:50.188            95.239         47520.249
       313   11 Jun 2027 07:44:23.441   11 Jun 2027 07:44:27.669             4.228          1039.156
       314   11 Jun 2027 09:16:48.931   11 Jun 2027 09:16:56.171             7.240          3620.000
       315   11 Jun 2027 09:18:11.677   11 Jun 2027 09:18:21.598             9.921          4294.656
       316   11 Jun 2027 09:18:56.788   11 Jun 2027 09:19:05.934             9.146           806.281
       317   11 Jun 2027 09:20:00.784   11 Jun 2027 09:20:02.548             1.764           788.625
       318   11 Jun 2027 09:22:46.478   11 Jun 2027 09:22:55.200             8.722          4116.406
       319   11 Jun 2027 09:23:03.302   11 Jun 2027 09:23:06.100             2.798           253.188
       320   11 Jun 2027 09:23:37.740   11 Jun 2027 09:23:37.740             0.000             0.000
       321   11 Jun 2027 09:23:45.076   11 Jun 2027 09:23:48.687             3.611          1023.219
       322   11 Jun 2027 09:23:59.135   11 Jun 2027 09:24:01.533             2.398           306.719
       323   11 Jun 2027 10:53:21.520   11 Jun 2027 10:53:32.424            10.904          5156.625
       324   11 Jun 2027 10:55:20.294   11 Jun 2027 10:55:26.899             6.605          1814.719
       325   11 Jun 2027 10:56:01.199   11 Jun 2027 10:56:01.218             0.019             9.500
       326   11 Jun 2027 10:56:31.501   11 Jun 2027 10:56:37.771             6.270          1668.532
       327   11 Jun 2027 10:57:09.632   11 Jun 2027 10:57:14.149             4.517           995.656
       328   11 Jun 2027 10:57:53.399   11 Jun 2027 10:57:58.265             4.866          1113.813
       329   11 Jun 2027 10:58:23.108   11 Jun 2027 10:58:24.775             1.667           776.344
       330   11 Jun 2027 10:58:59.099   11 Jun 2027 10:58:59.099             0.000             0.000
       331   11 Jun 2027 10:59:26.107   11 Jun 2027 10:59:30.857             4.750          1916.625
       332   11 Jun 2027 10:59:45.150   11 Jun 2027 10:59:46.804             1.654           446.656
       333   11 Jun 2027 10:59:54.261   11 Jun 2027 10:59:59.947             5.686           175.656
       334   12 Jun 2027 03:16:10.739   12 Jun 2027 03:17:10.523            59.784         29892.000
       335   12 Jun 2027 03:17:19.950   12 Jun 2027 03:17:48.105            28.155         14077.500
       336   12 Jun 2027 03:17:58.262   12 Jun 2027 03:18:06.407             8.145          4072.500
       337   12 Jun 2027 03:18:19.033   12 Jun 2027 03:18:30.712            11.679          5839.500
       338   12 Jun 2027 03:18:33.843   12 Jun 2027 03:18:36.020             2.177          1088.500
       339   12 Jun 2027 03:18:43.726   12 Jun 2027 03:18:47.191             3.465          1732.500
       340   12 Jun 2027 03:19:40.106   12 Jun 2027 03:19:44.541             4.435          2217.500
       341   12 Jun 2027 03:20:28.664   12 Jun 2027 03:20:41.063            12.399          6199.500
       342   12 Jun 2027 04:54:29.240   12 Jun 2027 04:54:59.735            30.495         15247.500
       343   12 Jun 2027 04:55:18.253   12 Jun 2027 04:56:03.487            45.234         22617.000
       344   12 Jun 2027 04:57:09.234   12 Jun 2027 04:57:16.099             6.865          3432.500
       345   12 Jun 2027 04:58:09.507   12 Jun 2027 04:58:21.481            11.974          5987.000
       346   12 Jun 2027 06:17:52.078   12 Jun 2027 06:18:41.966            49.888         24944.000
       347   12 Jun 2027 06:19:33.077   12 Jun 2027 06:19:52.377            19.300          9650.000
       348   12 Jun 2027 07:54:23.872   12 Jun 2027 07:55:21.046            57.174         28587.000
       349   12 Jun 2027 07:55:30.145   12 Jun 2027 07:55:33.912             3.767           905.281
       350   12 Jun 2027 07:57:01.572   12 Jun 2027 07:57:01.572             0.000             0.000
       351   12 Jun 2027 07:57:43.592   12 Jun 2027 07:57:51.756             8.164          3900.781
       352   12 Jun 2027 09:29:33.186   12 Jun 2027 09:29:44.483            11.297          4783.875
       353   12 Jun 2027 09:30:54.551   12 Jun 2027 09:30:58.265             3.714          1857.000
       354   12 Jun 2027 09:32:51.494   12 Jun 2027 09:32:51.494             0.000             0.000
       355   12 Jun 2027 09:33:19.152   12 Jun 2027 09:33:30.123            10.971          4502.469
       356   12 Jun 2027 09:34:01.024   12 Jun 2027 09:34:03.407             2.383           561.906
       357   12 Jun 2027 09:34:16.686   12 Jun 2027 09:34:22.024             5.338           304.312
       358   12 Jun 2027 09:35:30.527   12 Jun 2027 09:35:34.058             3.531          1608.000
       359   12 Jun 2027 09:35:50.994   12 Jun 2027 09:35:54.654             3.660           436.469
       360   12 Jun 2027 11:05:57.592   12 Jun 2027 11:06:09.249            11.657          5713.563
       361   12 Jun 2027 11:07:33.799   12 Jun 2027 11:07:38.234             4.435          2107.781
       362   12 Jun 2027 11:07:46.600   12 Jun 2027 11:07:47.186             0.586           225.563
       363   12 Jun 2027 11:08:13.891   12 Jun 2027 11:08:17.618             3.727           819.125
       364   12 Jun 2027 11:09:01.521   12 Jun 2027 11:09:04.356             2.835          1369.531
       365   12 Jun 2027 11:09:53.485   12 Jun 2027 11:09:57.430             3.945          1485.563
       366   12 Jun 2027 11:10:11.021   12 Jun 2027 11:10:11.926             0.905           145.406
       367   12 Jun 2027 11:10:19.151   12 Jun 2027 11:10:21.149             1.998           218.906
       368   12 Jun 2027 11:11:00.766   12 Jun 2027 11:11:03.414             2.648          1238.031
       369   12 Jun 2027 11:11:11.714   12 Jun 2027 11:11:12.624             0.910           259.375
       370   12 Jun 2027 11:11:30.471   12 Jun 2027 11:11:33.057             2.586           387.906
       371   12 Jun 2027 11:11:48.099   12 Jun 2027 11:11:52.812             4.713           470.062
       372   13 Jun 2027 03:28:15.826   13 Jun 2027 03:28:25.646             9.820          4910.000
       373   13 Jun 2027 03:29:17.461   13 Jun 2027 03:30:48.277            90.816         45408.000
       374   13 Jun 2027 03:30:53.558   13 Jun 2027 03:30:58.916             5.358          2679.000
       375   13 Jun 2027 03:31:58.365   13 Jun 2027 03:32:01.461             3.096          1548.000
       376   13 Jun 2027 03:32:23.784   13 Jun 2027 03:32:29.711             5.927          2963.500
       377   13 Jun 2027 03:33:03.725   13 Jun 2027 03:33:08.549             4.824          2412.000
       378   13 Jun 2027 03:35:58.341   13 Jun 2027 03:36:07.181             8.840          4420.000
       379   13 Jun 2027 05:06:26.073   13 Jun 2027 05:07:04.956            38.883         19441.500
       380   13 Jun 2027 05:07:29.764   13 Jun 2027 05:08:05.483            35.719         17859.500
       381   13 Jun 2027 06:30:28.508   13 Jun 2027 06:31:57.719            89.211         44605.500
       382   13 Jun 2027 08:06:16.926   13 Jun 2027 08:07:07.746            50.820         24965.968
       383   13 Jun 2027 08:08:13.240   13 Jun 2027 08:08:16.959             3.719          1586.875
       384   13 Jun 2027 08:08:52.893   13 Jun 2027 08:08:59.917             7.024           990.313
       385   13 Jun 2027 09:41:14.097   13 Jun 2027 09:41:26.344            12.247          4284.344
       386   13 Jun 2027 09:42:59.340   13 Jun 2027 09:42:59.340             0.000             0.000
       387   13 Jun 2027 09:43:22.061   13 Jun 2027 09:43:29.079             7.018          3245.062
       388   13 Jun 2027 09:43:49.793   13 Jun 2027 09:43:55.294             5.501           446.094
       389   13 Jun 2027 09:45:21.443   13 Jun 2027 09:45:24.827             3.384          1692.000
       390   13 Jun 2027 09:45:45.328   13 Jun 2027 09:45:48.340             3.012          1371.906
       391   13 Jun 2027 09:45:51.410   13 Jun 2027 09:45:55.674             4.264            86.563
       392   13 Jun 2027 09:46:04.981   13 Jun 2027 09:46:05.934             0.953           281.344
       393   13 Jun 2027 09:46:27.793   13 Jun 2027 09:46:30.781             2.988           683.094
       394   13 Jun 2027 09:47:24.457   13 Jun 2027 09:47:30.950             6.493          1426.562
       395   13 Jun 2027 09:47:36.004   13 Jun 2027 09:47:39.300             3.296           157.938
       396   13 Jun 2027 09:47:57.059   13 Jun 2027 09:48:03.486             6.427           554.969
       397   13 Jun 2027 09:48:12.056   13 Jun 2027 09:48:14.179             2.123           267.812
       398   13 Jun 2027 11:17:30.265   13 Jun 2027 11:17:45.284            15.019          6983.906
       399   13 Jun 2027 11:18:31.456   13 Jun 2027 11:18:33.318             1.862           931.000
       400   13 Jun 2027 11:19:37.253   13 Jun 2027 11:19:41.150             3.897          1948.500
       401   13 Jun 2027 11:19:58.303   13 Jun 2027 11:19:59.918             1.615           601.688
       402   13 Jun 2027 11:20:27.257   13 Jun 2027 11:20:32.772             5.515           854.344
       403   13 Jun 2027 11:20:54.266   13 Jun 2027 11:20:55.780             1.514           565.687
       404   13 Jun 2027 11:21:19.625   13 Jun 2027 11:21:24.997             5.372           417.469
       405   13 Jun 2027 11:21:47.141   13 Jun 2027 11:21:59.017            11.876           692.000
       406   13 Jun 2027 11:22:45.232   13 Jun 2027 11:22:50.726             5.494          1444.219
       407   13 Jun 2027 11:23:01.851   13 Jun 2027 11:23:02.414             0.563           281.500
       408   13 Jun 2027 11:23:07.460   13 Jun 2027 11:23:07.460             0.000             0.000
       409   13 Jun 2027 11:23:21.099   13 Jun 2027 11:23:26.184             5.085           650.063
       410   13 Jun 2027 11:23:34.069   13 Jun 2027 11:23:36.953             2.884           246.406
       411   13 Jun 2027 11:23:44.766   13 Jun 2027 11:23:45.998             1.232            96.156
