uniorb/output/strategy_1/Camera/Camera_KinoSat_110102.txt

KinoSat_110102
-------------------------
    Access    *     Start Time (UTCG)     *     Stop Time (UTCG)  *   Duration (s) *   Data (Mbytes)
         1   01 Jun 2027 03:00:00.000   01 Jun 2027 03:00:34.495            34.495         17247.500
         2   01 Jun 2027 03:02:13.812   01 Jun 2027 03:02:26.641            12.829          6414.500
         3   01 Jun 2027 03:03:11.353   01 Jun 2027 03:03:28.455            17.102          8551.000
         4   01 Jun 2027 03:03:34.709   01 Jun 2027 03:03:53.053            18.344          9172.000
         5   01 Jun 2027 03:04:28.110   01 Jun 2027 03:04:44.506            16.396          8198.000
         6   01 Jun 2027 03:05:06.727   01 Jun 2027 03:05:27.290            20.563         10281.500
         7   01 Jun 2027 03:05:39.879   01 Jun 2027 03:05:47.471             7.592          3796.000
         8   01 Jun 2027 03:05:49.161   01 Jun 2027 03:05:50.583             1.422           711.000
         9   01 Jun 2027 04:35:36.601   01 Jun 2027 04:38:05.490           148.889         74444.500
        10   01 Jun 2027 04:38:33.429   01 Jun 2027 04:38:40.415             6.986          3493.000
        11   01 Jun 2027 04:38:51.801   01 Jun 2027 04:38:55.919             4.118          2059.000
        12   01 Jun 2027 04:38:58.142   01 Jun 2027 04:39:13.276            15.134          7567.000
        13   01 Jun 2027 04:40:05.731   01 Jun 2027 04:40:18.169            12.438          6219.000
        14   01 Jun 2027 04:40:21.701   01 Jun 2027 04:40:27.388             5.687          2843.500
        15   01 Jun 2027 06:13:26.937   01 Jun 2027 06:16:23.576           176.639         88319.500
        16   01 Jun 2027 06:17:26.981   01 Jun 2027 06:17:48.264            21.283         10641.500
        17   01 Jun 2027 07:49:25.614   01 Jun 2027 07:51:46.616           141.002         70501.000
        18   01 Jun 2027 07:52:35.665   01 Jun 2027 07:52:38.067             2.402          1201.000
        19   01 Jun 2027 07:52:55.619   01 Jun 2027 07:53:13.320            17.701          8850.500
        20   02 Jun 2027 03:11:01.003   02 Jun 2027 03:17:43.680           402.677        201338.500
        21   02 Jun 2027 04:48:13.297   02 Jun 2027 04:50:53.585           160.288         80144.000
        22   02 Jun 2027 04:51:40.336   02 Jun 2027 04:51:48.774             8.438          4219.000
        23   02 Jun 2027 04:52:10.937   02 Jun 2027 04:52:13.969             3.032          1516.000
        24   02 Jun 2027 04:52:33.521   02 Jun 2027 04:52:41.787             8.266          4133.000
        25   02 Jun 2027 04:52:57.945   02 Jun 2027 04:53:09.618            11.673          5836.500
        26   02 Jun 2027 04:53:55.596   02 Jun 2027 04:54:03.103             7.507          3753.500
        27   02 Jun 2027 06:24:56.123   02 Jun 2027 06:27:27.618           151.495         75747.500
        28   02 Jun 2027 06:27:49.864   02 Jun 2027 06:28:07.203            17.339          8669.500
        29   02 Jun 2027 06:28:25.456   02 Jun 2027 06:28:29.128             3.672          1836.000
        30   02 Jun 2027 08:00:09.174   02 Jun 2027 08:00:21.042            11.868          5934.000
        31   02 Jun 2027 08:01:53.329   02 Jun 2027 08:04:18.649           145.320         72660.000
        32   03 Jun 2027 03:23:22.159   03 Jun 2027 03:30:04.586           402.427        201213.500
        33   03 Jun 2027 05:00:19.997   03 Jun 2027 05:02:56.644           156.647         78323.500
        34   03 Jun 2027 05:03:42.170   03 Jun 2027 05:03:43.594             1.424           712.000
        35   03 Jun 2027 05:04:52.331   03 Jun 2027 05:05:07.606            15.275          7637.500
        36   03 Jun 2027 06:37:05.731   03 Jun 2027 06:39:12.345           126.614         63307.000
        37   03 Jun 2027 06:40:12.434   03 Jun 2027 06:40:41.797            29.363         14681.500
        38   03 Jun 2027 08:15:17.329   03 Jun 2027 08:16:17.422            60.093         30046.500
        39   04 Jun 2027 03:35:48.742   04 Jun 2027 03:42:10.697           381.955        190977.500
        40   04 Jun 2027 05:13:21.528   04 Jun 2027 05:16:09.168           167.640         83820.000
        41   04 Jun 2027 05:17:19.152   04 Jun 2027 05:17:45.739            26.587         13293.500
        42   04 Jun 2027 06:49:25.491   04 Jun 2027 06:52:18.162           172.671         86335.500
        43   04 Jun 2027 06:53:15.509   04 Jun 2027 06:53:39.585            24.076         12038.000
        44   05 Jun 2027 03:47:56.334   05 Jun 2027 03:53:43.370           347.036        173518.000
        45   05 Jun 2027 03:53:51.712   05 Jun 2027 03:54:01.718            10.006          5003.000
        46   05 Jun 2027 05:25:27.887   05 Jun 2027 05:28:44.900           197.013         98506.500
        47   05 Jun 2027 07:01:28.590   05 Jun 2027 07:03:42.326           133.736         66868.000
        48   05 Jun 2027 07:04:30.203   05 Jun 2027 07:04:46.284            16.081          8040.500
        49   05 Jun 2027 07:05:56.453   05 Jun 2027 07:06:13.818            17.365          8682.500
        50   06 Jun 2027 03:59:39.634   06 Jun 2027 04:06:00.411           380.777        190388.500
        51   06 Jun 2027 05:37:57.027   06 Jun 2027 05:41:40.718           223.691        111845.500
        52   06 Jun 2027 07:11:58.245   06 Jun 2027 07:12:42.793            44.548         22274.000
        53   06 Jun 2027 07:13:17.837   06 Jun 2027 07:14:55.260            97.423         48711.500
        54   06 Jun 2027 07:15:18.915   06 Jun 2027 07:15:22.267             3.352          1676.000
        55   06 Jun 2027 07:15:28.648   06 Jun 2027 07:15:37.990             9.342          4671.000
        56   06 Jun 2027 07:16:14.514   06 Jun 2027 07:16:14.950             0.436           218.000
        57   06 Jun 2027 07:16:34.659   06 Jun 2027 07:16:43.308             8.649          4324.500
        58   06 Jun 2027 07:17:05.980   06 Jun 2027 07:17:14.731             8.751          4375.500
        59   06 Jun 2027 07:18:18.143   06 Jun 2027 07:18:33.567            15.424          7712.000
        60   07 Jun 2027 04:12:00.679   07 Jun 2027 04:17:49.804           349.125        174562.500
        61   07 Jun 2027 04:17:51.169   07 Jun 2027 04:18:14.075            22.906         11453.000
        62   07 Jun 2027 05:49:54.754   07 Jun 2027 05:53:28.467           213.713        106856.500
        63   07 Jun 2027 05:53:52.459   07 Jun 2027 05:53:53.642             1.183           591.500
        64   07 Jun 2027 07:23:01.200   07 Jun 2027 07:25:27.587           146.387         73193.500
        65   07 Jun 2027 07:27:03.096   07 Jun 2027 07:27:23.569            20.473         10236.500
        66   07 Jun 2027 07:27:39.691   07 Jun 2027 07:27:48.491             8.800          4400.000
        67   07 Jun 2027 07:28:41.797   07 Jun 2027 07:28:50.490             8.693          4346.500
        68   07 Jun 2027 07:30:02.868   07 Jun 2027 07:30:14.191            11.323          5661.500
        69   07 Jun 2027 07:30:31.434   07 Jun 2027 07:30:38.540             7.106          3553.000
        70   08 Jun 2027 04:23:52.040   08 Jun 2027 04:29:05.707           313.667        156833.500
        71   08 Jun 2027 04:29:08.128   08 Jun 2027 04:30:05.501            57.373         28686.500
        72   08 Jun 2027 04:30:10.028   08 Jun 2027 04:30:28.885            18.857          9428.500
        73   08 Jun 2027 06:01:54.788   08 Jun 2027 06:04:35.733           160.945         80472.500
        74   08 Jun 2027 06:05:51.265   08 Jun 2027 06:06:04.152            12.887          6443.500
        75   08 Jun 2027 07:35:31.160   08 Jun 2027 07:37:21.211           110.051         55025.500
        76   08 Jun 2027 07:38:36.220   08 Jun 2027 07:39:01.957            25.737         12868.500
        77   08 Jun 2027 07:39:25.018   08 Jun 2027 07:39:29.327             4.309          2154.500
        78   08 Jun 2027 07:39:51.879   08 Jun 2027 07:40:00.056             8.177          4088.500
        79   08 Jun 2027 07:40:35.839   08 Jun 2027 07:40:46.988            11.149          5574.500
        80   08 Jun 2027 07:41:02.710   08 Jun 2027 07:41:33.972            31.262         15631.000
        81   09 Jun 2027 03:00:00.000   09 Jun 2027 03:04:15.143           255.143        127571.500
        82   09 Jun 2027 03:04:35.851   09 Jun 2027 03:04:44.485             8.634          4317.000
        83   09 Jun 2027 03:04:51.340   09 Jun 2027 03:04:54.610             3.270          1635.000
        84   09 Jun 2027 03:05:06.734   09 Jun 2027 03:05:22.694            15.960          7980.000
        85   09 Jun 2027 03:06:17.654   09 Jun 2027 03:06:30.309            12.655          6327.500
        86   09 Jun 2027 04:35:52.090   09 Jun 2027 04:38:45.824           173.734         86867.000
        87   09 Jun 2027 04:39:01.391   09 Jun 2027 04:39:02.790             1.399           699.500
        88   09 Jun 2027 04:39:58.719   09 Jun 2027 04:40:21.333            22.614         11307.000
        89   09 Jun 2027 04:40:23.296   09 Jun 2027 04:40:35.228            11.932          5966.000
        90   09 Jun 2027 04:42:01.323   09 Jun 2027 04:42:06.199             4.876          2438.000
        91   09 Jun 2027 06:13:42.274   09 Jun 2027 06:16:13.924           151.650         75825.000
        92   09 Jun 2027 06:17:28.641   09 Jun 2027 06:17:49.445            20.804         10402.000
        93   09 Jun 2027 07:49:41.158   09 Jun 2027 07:51:21.364           100.206         50103.000
        94   09 Jun 2027 07:52:54.205   09 Jun 2027 07:53:02.383             8.178          4089.000
        95   09 Jun 2027 07:53:08.863   09 Jun 2027 07:53:13.279             4.416          2208.000
        96   10 Jun 2027 03:11:16.570   10 Jun 2027 03:16:51.771           335.201        167600.500
        97   10 Jun 2027 03:16:56.746   10 Jun 2027 03:16:58.089             1.343           671.500
        98   10 Jun 2027 03:17:38.459   10 Jun 2027 03:18:06.404            27.945         13972.500
        99   10 Jun 2027 04:48:28.524   10 Jun 2027 04:51:00.133           151.609         75804.500
       100   10 Jun 2027 04:52:44.685   10 Jun 2027 04:52:56.768            12.083          6041.500
       101   10 Jun 2027 04:53:06.205   10 Jun 2027 04:53:32.921            26.716         13358.000
       102   10 Jun 2027 04:54:14.990   10 Jun 2027 04:54:18.038             3.048          1524.000
       103   10 Jun 2027 06:25:11.520   10 Jun 2027 06:27:18.177           126.657         63328.500
       104   10 Jun 2027 06:27:44.200   10 Jun 2027 06:27:48.680             4.480          2240.000
       105   10 Jun 2027 06:28:07.920   10 Jun 2027 06:28:20.998            13.078          6539.000
       106   10 Jun 2027 06:29:07.006   10 Jun 2027 06:29:30.961            23.955         11977.500
       107   10 Jun 2027 08:00:26.662   10 Jun 2027 08:00:36.497             9.835          4917.500
       108   10 Jun 2027 08:02:08.380   10 Jun 2027 08:03:03.113            54.733         27366.500
       109   10 Jun 2027 08:03:52.557   10 Jun 2027 08:03:57.152             4.595          2297.500
       110   10 Jun 2027 08:04:33.471   10 Jun 2027 08:04:41.771             8.300          4150.000
       111   11 Jun 2027 03:23:36.905   11 Jun 2027 03:29:34.001           357.096        178548.000
       112   11 Jun 2027 03:29:41.573   11 Jun 2027 03:30:11.114            29.541         14770.500
       113   11 Jun 2027 05:00:34.825   11 Jun 2027 05:03:05.263           150.438         75219.000
       114   11 Jun 2027 06:37:20.379   11 Jun 2027 06:40:20.767           180.388         90194.000
       115   11 Jun 2027 06:41:31.834   11 Jun 2027 06:41:46.343            14.509          7254.500
       116   11 Jun 2027 08:15:32.035   11 Jun 2027 08:16:31.721            59.686         29843.000
       117   12 Jun 2027 03:36:04.753   12 Jun 2027 03:42:25.805           381.052        190526.000
       118   12 Jun 2027 05:13:36.381   12 Jun 2027 05:16:23.278           166.897         83448.500
       119   12 Jun 2027 05:17:33.820   12 Jun 2027 05:18:01.102            27.282         13641.000
       120   12 Jun 2027 06:49:40.996   12 Jun 2027 06:52:29.308           168.312         84156.000
       121   12 Jun 2027 06:53:04.628   12 Jun 2027 06:53:09.561             4.933          2466.500
       122   12 Jun 2027 06:53:25.558   12 Jun 2027 06:53:28.021             2.463          1231.500
       123   13 Jun 2027 03:48:11.490   13 Jun 2027 03:53:58.401           346.911        173455.500
       124   13 Jun 2027 03:54:06.875   13 Jun 2027 03:54:16.573             9.698          4849.000
       125   13 Jun 2027 05:25:42.015   13 Jun 2027 05:28:59.508           197.493         98746.500
       126   13 Jun 2027 05:29:09.971   13 Jun 2027 05:29:34.256            24.285         12142.500
       127   13 Jun 2027 05:30:05.363   13 Jun 2027 05:30:12.535             7.172          3586.000
       128   13 Jun 2027 07:01:43.163   13 Jun 2027 07:04:33.736           170.573         85286.500
       129   13 Jun 2027 07:05:04.399   13 Jun 2027 07:05:06.178             1.779           889.500
       130   13 Jun 2027 07:05:19.053   13 Jun 2027 07:05:25.941             6.888          3444.000
       131   13 Jun 2027 07:06:29.192   13 Jun 2027 07:06:41.705            12.513          6256.500
