uniorb/output/strategy_1/Camera/Camera_KinoSat_111708.txt

KinoSat_111708
-------------------------
    Access    *     Start Time (UTCG)     *     Stop Time (UTCG)  *   Duration (s) *   Data (Mbytes)
         1   01 Jun 2027 04:17:54.068   01 Jun 2027 04:18:01.645             7.577          3788.500
         2   01 Jun 2027 04:18:55.190   01 Jun 2027 04:21:08.546           133.356         66678.000
         3   01 Jun 2027 04:22:20.287   01 Jun 2027 04:22:27.516             7.229          3614.500
         4   01 Jun 2027 04:22:37.954   01 Jun 2027 04:22:42.073             4.119          2059.500
         5   01 Jun 2027 04:25:41.597   01 Jun 2027 04:25:46.047             4.450          2225.000
         6   01 Jun 2027 05:56:03.849   01 Jun 2027 05:56:42.865            39.016         19508.000
         7   01 Jun 2027 05:57:06.157   01 Jun 2027 05:58:11.129            64.972         32486.000
         8   01 Jun 2027 05:58:50.997   01 Jun 2027 05:59:00.090             9.093          4546.500
         9   01 Jun 2027 07:20:07.703   01 Jun 2027 07:22:04.552           116.849         58424.500
        10   01 Jun 2027 08:55:54.942   01 Jun 2027 08:57:37.037           102.095         51047.500
        11   01 Jun 2027 10:30:52.243   01 Jun 2027 10:31:18.119            25.876         12938.000
        12   01 Jun 2027 10:32:53.153   01 Jun 2027 10:33:56.325            63.172         31586.000
        13   01 Jun 2027 10:36:07.849   01 Jun 2027 10:36:07.849             0.000             0.000
        14   01 Jun 2027 10:37:30.150   01 Jun 2027 10:37:55.066            24.916         12458.000
        15   02 Jun 2027 04:30:58.985   02 Jun 2027 04:32:57.816           118.831         59415.500
        16   02 Jun 2027 04:34:23.336   02 Jun 2027 04:34:36.610            13.274          6637.000
        17   02 Jun 2027 04:35:47.397   02 Jun 2027 04:36:07.036            19.639          9819.500
        18   02 Jun 2027 05:56:53.863   02 Jun 2027 05:57:38.075            44.212         22106.000
        19   02 Jun 2027 06:08:00.311   02 Jun 2027 06:09:00.406            60.095         30047.500
        20   02 Jun 2027 07:30:57.507   02 Jun 2027 07:32:56.095           118.588         59294.000
        21   02 Jun 2027 09:06:14.413   02 Jun 2027 09:06:43.714            29.301         14650.500
        22   02 Jun 2027 09:07:39.810   02 Jun 2027 09:07:58.124            18.314          9157.000
        23   02 Jun 2027 09:09:44.971   02 Jun 2027 09:10:07.384            22.413         11206.500
        24   02 Jun 2027 09:10:49.299   02 Jun 2027 09:10:50.986             1.687           843.500
        25   02 Jun 2027 10:42:25.333   02 Jun 2027 10:44:23.419           118.086         59043.000
        26   02 Jun 2027 10:45:24.748   02 Jun 2027 10:45:24.748             0.000             0.000
        27   02 Jun 2027 10:45:34.511   02 Jun 2027 10:45:45.647            11.136          5568.000
        28   02 Jun 2027 10:46:27.634   02 Jun 2027 10:46:46.389            18.755          9377.500
        29   02 Jun 2027 10:48:07.260   02 Jun 2027 10:48:07.260             0.000             0.000
        30   02 Jun 2027 10:49:18.763   02 Jun 2027 10:50:01.056            42.293         21146.500
        31   03 Jun 2027 03:04:22.299   03 Jun 2027 03:04:48.165            25.866         12933.000
        32   03 Jun 2027 03:05:02.666   03 Jun 2027 03:05:07.086             4.420          2210.000
        33   03 Jun 2027 03:06:08.198   03 Jun 2027 03:06:18.171             9.973          4986.500
        34   03 Jun 2027 03:07:10.662   03 Jun 2027 03:07:16.189             5.527          2763.500
        35   03 Jun 2027 03:07:30.785   03 Jun 2027 03:07:36.939             6.154          3077.000
        36   03 Jun 2027 03:08:50.256   03 Jun 2027 03:08:58.930             8.674          4337.000
        37   03 Jun 2027 03:09:39.644   03 Jun 2027 03:09:52.295            12.651          6325.500
        38   03 Jun 2027 04:43:28.707   03 Jun 2027 04:44:41.494            72.787         36393.500
        39   03 Jun 2027 04:45:25.423   03 Jun 2027 04:45:34.566             9.143          4571.500
        40   03 Jun 2027 04:45:45.717   03 Jun 2027 04:45:50.309             4.592          2296.000
        41   03 Jun 2027 04:49:39.166   03 Jun 2027 04:50:35.181            56.015         28007.500
        42   03 Jun 2027 06:08:20.489   03 Jun 2027 06:08:55.362            34.873         17436.500
        43   03 Jun 2027 06:20:03.042   03 Jun 2027 06:20:44.587            41.545         20772.500
        44   03 Jun 2027 07:42:16.211   03 Jun 2027 07:43:28.145            71.934         35967.000
        45   03 Jun 2027 07:44:17.492   03 Jun 2027 07:44:45.658            28.166         14083.000
        46   03 Jun 2027 07:46:52.290   03 Jun 2027 07:46:52.290             0.000             0.000
        47   03 Jun 2027 09:17:21.519   03 Jun 2027 09:18:48.400            86.881         43440.500
        48   03 Jun 2027 09:20:13.655   03 Jun 2027 09:20:54.667            41.012         20506.000
        49   03 Jun 2027 10:54:39.200   03 Jun 2027 10:56:01.074            81.874         39633.437
        50   03 Jun 2027 10:57:27.274   03 Jun 2027 10:57:35.564             8.290          2345.031
        51   03 Jun 2027 10:57:59.868   03 Jun 2027 10:58:01.420             1.552           543.406
        52   03 Jun 2027 11:01:03.020   03 Jun 2027 11:01:12.358             9.338          4669.000
        53   03 Jun 2027 11:01:35.184   03 Jun 2027 11:01:35.908             0.724           362.000
        54   03 Jun 2027 11:01:49.449   03 Jun 2027 11:01:56.185             6.736          1780.469
        55   03 Jun 2027 11:01:58.843   03 Jun 2027 11:02:00.052             1.209            70.375
        56   04 Jun 2027 03:16:41.366   04 Jun 2027 03:17:59.290            77.924         38962.000
        57   04 Jun 2027 03:18:13.005   04 Jun 2027 03:18:17.798             4.793          2396.500
        58   04 Jun 2027 03:18:27.757   04 Jun 2027 03:18:32.188             4.431          2215.500
        59   04 Jun 2027 03:18:42.333   04 Jun 2027 03:18:52.271             9.938          4969.000
        60   04 Jun 2027 04:55:29.311   04 Jun 2027 04:56:35.402            66.091         33045.500
        61   04 Jun 2027 04:57:58.485   04 Jun 2027 04:58:13.036            14.551          7275.500
        62   04 Jun 2027 04:58:30.227   04 Jun 2027 04:58:32.796             2.569          1284.500
        63   04 Jun 2027 04:58:52.858   04 Jun 2027 04:59:06.970            14.112          7056.000
        64   04 Jun 2027 05:00:17.960   04 Jun 2027 05:00:18.655             0.695           347.500
        65   04 Jun 2027 05:00:44.898   04 Jun 2027 05:00:47.999             3.101          1550.500
        66   04 Jun 2027 05:01:21.725   04 Jun 2027 05:01:26.602             4.877          2438.500
        67   04 Jun 2027 06:19:49.653   04 Jun 2027 06:20:57.006            67.353         33676.500
        68   04 Jun 2027 06:32:04.563   04 Jun 2027 06:32:36.189            31.626         15813.000
        69   04 Jun 2027 07:54:01.301   04 Jun 2027 07:55:17.366            76.065         37617.781
        70   04 Jun 2027 07:56:44.805   04 Jun 2027 07:56:52.060             7.255          2645.344
        71   04 Jun 2027 07:58:04.970   04 Jun 2027 07:58:08.870             3.900          1859.031
        72   04 Jun 2027 09:28:49.927   04 Jun 2027 09:29:02.004            12.077          5420.781
        73   04 Jun 2027 09:30:35.134   04 Jun 2027 09:30:40.467             5.333          1838.062
        74   04 Jun 2027 09:31:31.642   04 Jun 2027 09:31:35.197             3.555          1599.219
        75   04 Jun 2027 09:32:11.933   04 Jun 2027 09:32:13.513             1.580           536.625
        76   04 Jun 2027 09:32:36.793   04 Jun 2027 09:32:41.523             4.730           673.656
        77   04 Jun 2027 09:34:29.357   04 Jun 2027 09:34:29.357             0.000             0.000
        78   04 Jun 2027 09:35:27.023   04 Jun 2027 09:35:40.441            13.418          4558.281
        79   04 Jun 2027 09:36:20.780   04 Jun 2027 09:36:20.780             0.000             0.000
        80   04 Jun 2027 09:36:32.730   04 Jun 2027 09:36:35.563             2.833          1416.500
        81   04 Jun 2027 11:06:38.026   04 Jun 2027 11:07:08.827            30.801          7104.063
        82   04 Jun 2027 11:07:37.110   04 Jun 2027 11:07:39.759             2.649           495.594
        83   04 Jun 2027 11:08:48.893   04 Jun 2027 11:08:53.624             4.731          1003.281
        84   04 Jun 2027 11:09:28.830   04 Jun 2027 11:09:36.878             8.048           677.469
        85   04 Jun 2027 11:10:47.936   04 Jun 2027 11:10:54.029             6.093          2192.437
        86   04 Jun 2027 11:11:18.052   04 Jun 2027 11:11:19.200             1.148           320.125
        87   04 Jun 2027 11:11:45.393   04 Jun 2027 11:11:47.243             1.850           467.531
        88   04 Jun 2027 11:12:30.863   04 Jun 2027 11:12:39.394             8.531           971.125
        89   04 Jun 2027 11:12:45.178   04 Jun 2027 11:12:45.987             0.809           180.750
        90   04 Jun 2027 11:13:00.112   04 Jun 2027 11:13:01.104             0.992           159.125
        91   04 Jun 2027 11:13:43.308   04 Jun 2027 11:13:46.317             3.009          1299.844
        92   05 Jun 2027 03:29:25.933   05 Jun 2027 03:31:05.730            99.797         49898.500
        93   05 Jun 2027 03:31:27.958   05 Jun 2027 03:31:32.926             4.968          2484.000
        94   05 Jun 2027 03:31:56.720   05 Jun 2027 03:31:56.720             0.000             0.000
        95   05 Jun 2027 03:32:15.524   05 Jun 2027 03:32:48.201            32.677         16338.500
        96   05 Jun 2027 05:07:49.117   05 Jun 2027 05:09:00.192            71.075         35537.500
        97   05 Jun 2027 05:09:10.080   05 Jun 2027 05:09:12.556             2.476          1238.000
        98   05 Jun 2027 05:09:38.647   05 Jun 2027 05:09:52.553            13.906          6953.000
        99   05 Jun 2027 05:11:18.242   05 Jun 2027 05:11:27.231             8.989          4494.500
       100   05 Jun 2027 05:11:47.790   05 Jun 2027 05:11:52.007             4.217          2108.500
       101   05 Jun 2027 06:31:50.551   05 Jun 2027 06:32:48.178            57.627         28813.500
       102   05 Jun 2027 06:33:51.026   05 Jun 2027 06:33:53.521             2.495          1247.500
       103   05 Jun 2027 08:07:48.337   05 Jun 2027 08:08:50.138            61.801         30037.312
       104   05 Jun 2027 08:09:13.461   05 Jun 2027 08:09:14.162             0.701           142.625
       105   05 Jun 2027 08:10:02.724   05 Jun 2027 08:10:07.238             4.514          1517.562
       106   05 Jun 2027 09:41:37.915   05 Jun 2027 09:41:49.489            11.574          5611.219
       107   05 Jun 2027 09:44:02.650   05 Jun 2027 09:44:10.098             7.448          2533.344
       108   05 Jun 2027 09:47:35.687   05 Jun 2027 09:47:48.576            12.889          6390.563
       109   05 Jun 2027 09:48:14.805   05 Jun 2027 09:48:22.615             7.810           289.281
       110   05 Jun 2027 11:18:44.455   05 Jun 2027 11:19:01.688            17.233          7044.406
       111   05 Jun 2027 11:19:24.466   05 Jun 2027 11:19:27.751             3.285           583.469
       112   05 Jun 2027 11:21:26.131   05 Jun 2027 11:21:26.131             0.000             0.000
       113   05 Jun 2027 11:22:42.225   05 Jun 2027 11:22:54.204            11.979          5839.656
       114   05 Jun 2027 11:23:30.264   05 Jun 2027 11:23:34.436             4.172           349.656
       115   05 Jun 2027 11:24:03.137   05 Jun 2027 11:24:06.129             2.992           879.219
       116   05 Jun 2027 11:24:42.662   05 Jun 2027 11:24:45.599             2.937          1041.844
       117   05 Jun 2027 11:25:25.987   05 Jun 2027 11:25:27.399             1.412           706.000
       118   06 Jun 2027 03:42:03.580   06 Jun 2027 03:42:46.587            43.007         21503.500
       119   06 Jun 2027 03:42:52.154   06 Jun 2027 03:43:39.201            47.047         23523.500
       120   06 Jun 2027 03:43:41.294   06 Jun 2027 03:44:30.389            49.095         24547.500
       121   06 Jun 2027 05:20:22.930   06 Jun 2027 05:22:10.553           107.623         53811.500
       122   06 Jun 2027 05:23:06.813   06 Jun 2027 05:23:21.344            14.531          7265.500
       123   06 Jun 2027 06:43:45.399   06 Jun 2027 06:45:12.644            87.245         43622.500
       124   06 Jun 2027 08:20:08.701   06 Jun 2027 08:20:28.329            19.628          9814.000
       125   06 Jun 2027 08:20:37.094   06 Jun 2027 08:20:39.065             1.971           983.344
       126   06 Jun 2027 08:21:39.633   06 Jun 2027 08:21:39.633             0.000             0.000
       127   06 Jun 2027 08:22:54.338   06 Jun 2027 08:23:03.726             9.388          4176.125
       128   06 Jun 2027 09:53:36.588   06 Jun 2027 09:53:47.859            11.271          3854.625
       129   06 Jun 2027 09:54:44.685   06 Jun 2027 09:54:48.614             3.929           923.219
       130   06 Jun 2027 09:56:01.893   06 Jun 2027 09:56:05.609             3.716           846.406
       131   06 Jun 2027 09:56:25.327   06 Jun 2027 09:56:25.327             0.000             0.000
       132   06 Jun 2027 09:57:07.823   06 Jun 2027 09:57:13.818             5.995          1944.188
       133   06 Jun 2027 09:57:18.254   06 Jun 2027 09:57:21.169             2.915            87.094
       134   06 Jun 2027 09:57:55.566   06 Jun 2027 09:57:57.809             2.243           475.531
       135   06 Jun 2027 09:59:35.733   06 Jun 2027 09:59:45.176             9.443          3060.125
       136   06 Jun 2027 10:01:02.561   06 Jun 2027 10:01:07.232             4.671          1998.688
       137   06 Jun 2027 10:01:32.111   06 Jun 2027 10:01:34.891             2.780           620.125
       138   06 Jun 2027 11:31:10.584   06 Jun 2027 11:31:22.715            12.131          5826.062
       139   06 Jun 2027 11:32:15.001   06 Jun 2027 11:32:18.938             3.937           910.031
       140   06 Jun 2027 11:33:11.752   06 Jun 2027 11:33:17.229             5.477          1217.969
       141   06 Jun 2027 11:34:02.737   06 Jun 2027 11:34:05.314             2.577          1261.125
       142   06 Jun 2027 11:34:19.541   06 Jun 2027 11:34:19.719             0.178            76.187
       143   06 Jun 2027 11:35:30.889   06 Jun 2027 11:35:35.144             4.255          1968.094
       144   06 Jun 2027 11:36:03.314   06 Jun 2027 11:36:03.314             0.000             0.000
       145   06 Jun 2027 11:36:27.656   06 Jun 2027 11:36:37.532             9.876          1459.781
       146   06 Jun 2027 11:37:22.062   06 Jun 2027 11:37:25.002             2.940           892.406
       147   06 Jun 2027 11:37:44.383   06 Jun 2027 11:37:51.897             7.514           484.063
       148   07 Jun 2027 03:53:56.911   07 Jun 2027 03:54:01.875             4.964          2482.000
       149   07 Jun 2027 03:54:26.658   07 Jun 2027 03:56:22.443           115.785         57892.500
       150   07 Jun 2027 03:57:26.243   07 Jun 2027 03:57:38.469            12.226          6113.000
       151   07 Jun 2027 03:59:22.455   07 Jun 2027 03:59:22.455             0.000             0.000
       152   07 Jun 2027 05:32:45.428   07 Jun 2027 05:34:24.965            99.537         49768.500
       153   07 Jun 2027 05:35:02.845   07 Jun 2027 05:35:14.587            11.742          5871.000
       154   07 Jun 2027 06:55:33.246   07 Jun 2027 06:56:39.770            66.524         33262.000
       155   07 Jun 2027 06:57:16.892   07 Jun 2027 06:57:40.296            23.404         11702.000
       156   07 Jun 2027 08:32:10.200   07 Jun 2027 08:32:37.003            26.803         13401.500
       157   07 Jun 2027 08:33:05.565   07 Jun 2027 08:33:16.035            10.470          1762.063
       158   07 Jun 2027 08:33:40.149   07 Jun 2027 08:33:41.412             1.263           611.375
       159   07 Jun 2027 08:33:45.738   07 Jun 2027 08:33:45.738             0.000             0.000
       160   07 Jun 2027 08:35:11.505   07 Jun 2027 08:35:18.897             7.392          2747.000
       161   07 Jun 2027 10:07:05.562   07 Jun 2027 10:07:23.494            17.932          8666.219
       162   07 Jun 2027 10:08:21.885   07 Jun 2027 10:08:26.112             4.227           744.937
       163   07 Jun 2027 10:09:27.559   07 Jun 2027 10:09:31.767             4.208           637.750
       164   07 Jun 2027 10:10:15.944   07 Jun 2027 10:10:19.542             3.598           718.375
       165   07 Jun 2027 10:10:50.494   07 Jun 2027 10:10:52.880             2.386           804.375
       166   07 Jun 2027 10:12:25.142   07 Jun 2027 10:12:30.880             5.738          2388.719
       167   07 Jun 2027 10:13:46.475   07 Jun 2027 10:13:53.646             7.171          2160.469
       168   07 Jun 2027 11:43:18.142   07 Jun 2027 11:43:29.809            11.667          5802.531
       169   07 Jun 2027 11:43:47.693   07 Jun 2027 11:43:50.160             2.467           363.469
       170   07 Jun 2027 11:45:13.316   07 Jun 2027 11:45:16.160             2.844          1422.000
       171   07 Jun 2027 11:45:50.196   07 Jun 2027 11:45:54.678             4.482          1642.375
       172   07 Jun 2027 11:46:31.664   07 Jun 2027 11:46:35.097             3.433          1057.375
       173   07 Jun 2027 11:47:53.910   07 Jun 2027 11:47:59.759             5.849          1846.500
       174   07 Jun 2027 11:49:04.982   07 Jun 2027 11:49:12.472             7.490          2038.219
       175   07 Jun 2027 11:49:45.153   07 Jun 2027 11:49:49.059             3.906           824.406
       176   08 Jun 2027 04:06:05.712   08 Jun 2027 04:07:07.895            62.183         31091.500
       177   08 Jun 2027 04:07:14.474   08 Jun 2027 04:08:01.283            46.809         23404.500
       178   08 Jun 2027 04:08:41.134   08 Jun 2027 04:08:45.225             4.091          2045.500
       179   08 Jun 2027 04:08:58.502   08 Jun 2027 04:08:58.502             0.000             0.000
       180   08 Jun 2027 04:09:32.015   08 Jun 2027 04:09:40.420             8.405          4202.500
       181   08 Jun 2027 04:10:08.481   08 Jun 2027 04:10:08.481             0.000             0.000
       182   08 Jun 2027 04:10:53.665   08 Jun 2027 04:10:55.948             2.283          1141.500
       183   08 Jun 2027 04:11:21.500   08 Jun 2027 04:11:22.849             1.349           674.500
       184   08 Jun 2027 05:44:24.173   08 Jun 2027 05:44:55.889            31.716         15858.000
       185   08 Jun 2027 05:45:13.769   08 Jun 2027 05:46:33.205            79.436         39718.000
       186   08 Jun 2027 07:07:46.789   08 Jun 2027 07:09:28.666           101.877         50938.500
       187   08 Jun 2027 07:10:49.534   08 Jun 2027 07:10:53.779             4.245          2122.500
       188   08 Jun 2027 08:44:18.716   08 Jun 2027 08:44:31.765            13.049          6189.093
       189   08 Jun 2027 08:46:03.035   08 Jun 2027 08:46:09.305             6.270          2852.188
       190   08 Jun 2027 08:47:17.906   08 Jun 2027 08:47:21.801             3.895          1097.625
       191   08 Jun 2027 10:19:47.829   08 Jun 2027 10:20:08.395            20.566          6884.938
       192   08 Jun 2027 10:22:23.669   08 Jun 2027 10:22:29.865             6.196          3068.500
       193   08 Jun 2027 10:25:55.122   08 Jun 2027 10:26:04.864             9.742          4871.000
       194   08 Jun 2027 11:55:54.137   08 Jun 2027 11:56:13.497            19.360          6273.188
       195   08 Jun 2027 11:57:15.255   08 Jun 2027 11:57:19.798             4.543          1742.406
       196   08 Jun 2027 11:59:01.407   08 Jun 2027 11:59:10.893             9.486          2839.562
       197   08 Jun 2027 11:59:31.863   08 Jun 2027 11:59:33.012             1.149           488.656
       198   09 Jun 2027 04:19:12.423   09 Jun 2027 04:20:56.912           104.489         52244.500
       199   09 Jun 2027 04:22:58.222   09 Jun 2027 04:23:11.983            13.761          6880.500
       200   09 Jun 2027 04:26:12.828   09 Jun 2027 04:26:44.182            31.354         15677.000
       201   09 Jun 2027 05:56:21.017   09 Jun 2027 05:57:00.210            39.193         19596.500
       202   09 Jun 2027 05:57:21.995   09 Jun 2027 05:58:26.803            64.808         32404.000
       203   09 Jun 2027 07:20:22.466   09 Jun 2027 07:22:03.910           101.444         50250.719
       204   09 Jun 2027 08:56:11.871   09 Jun 2027 08:56:24.436            12.565          6157.063
       205   09 Jun 2027 08:58:14.118   09 Jun 2027 08:58:18.333             4.215          2107.500
       206   09 Jun 2027 08:59:33.117   09 Jun 2027 08:59:44.077            10.960          3657.062
       207   09 Jun 2027 10:31:33.845   09 Jun 2027 10:31:50.570            16.725          5898.656
       208   09 Jun 2027 10:34:09.935   09 Jun 2027 10:34:17.374             7.439          1778.594
       209   09 Jun 2027 10:37:46.541   09 Jun 2027 10:38:00.868            14.327          6464.844
       210   09 Jun 2027 10:38:04.697   09 Jun 2027 10:38:05.372             0.675           119.656
       211   10 Jun 2027 04:31:16.203   10 Jun 2027 04:33:13.754           117.551         58775.500
       212   10 Jun 2027 04:35:24.140   10 Jun 2027 04:35:26.915             2.775          1387.500
       213   10 Jun 2027 04:36:31.441   10 Jun 2027 04:36:36.124             4.683          2341.500
       214   10 Jun 2027 04:37:27.274   10 Jun 2027 04:37:43.960            16.686          8343.000
       215   10 Jun 2027 04:38:17.336   10 Jun 2027 04:38:48.565            31.229         15614.500
       216   10 Jun 2027 05:57:07.639   10 Jun 2027 05:57:55.994            48.355         24177.500
       217   10 Jun 2027 06:08:17.149   10 Jun 2027 06:08:44.408            27.259         13629.500
       218   10 Jun 2027 06:09:17.662   10 Jun 2027 06:09:28.340            10.678          5339.000
       219   10 Jun 2027 06:10:38.028   10 Jun 2027 06:10:45.847             7.819          3909.500
       220   10 Jun 2027 07:30:55.909   10 Jun 2027 07:32:37.105           101.196         49189.157
       221   10 Jun 2027 07:33:12.806   10 Jun 2027 07:33:15.634             2.828           793.031
       222   10 Jun 2027 09:06:30.738   10 Jun 2027 09:06:46.462            15.724          7643.063
       223   10 Jun 2027 09:07:56.044   10 Jun 2027 09:07:58.404             2.360          1130.594
       224   10 Jun 2027 09:08:42.618   10 Jun 2027 09:08:45.244             2.626          1153.844
       225   10 Jun 2027 09:10:06.550   10 Jun 2027 09:10:12.519             5.969          2293.750
       226   10 Jun 2027 09:12:21.971   10 Jun 2027 09:12:21.971             0.000             0.000
       227   10 Jun 2027 10:42:41.461   10 Jun 2027 10:42:59.044            17.583          7314.938
       228   10 Jun 2027 10:43:47.215   10 Jun 2027 10:43:50.450             3.235          1438.500
       229   10 Jun 2027 10:45:42.657   10 Jun 2027 10:45:45.002             2.345          1172.500
       230   10 Jun 2027 10:46:48.339   10 Jun 2027 10:46:54.653             6.314          2993.500
       231   10 Jun 2027 10:49:34.880   10 Jun 2027 10:49:49.904            15.024          4719.250
       232   10 Jun 2027 10:50:08.596   10 Jun 2027 10:50:14.479             5.883           333.406
       233   11 Jun 2027 03:04:40.027   11 Jun 2027 03:05:03.255            23.228         11614.000
       234   11 Jun 2027 03:05:18.564   11 Jun 2027 03:05:20.923             2.359          1179.500
       235   11 Jun 2027 03:06:09.805   11 Jun 2027 03:06:23.105            13.300          6650.000
       236   11 Jun 2027 03:07:38.875   11 Jun 2027 03:07:42.863             3.988          1994.000
       237   11 Jun 2027 03:08:08.677   11 Jun 2027 03:08:24.378            15.701          7850.500
       238   11 Jun 2027 03:09:21.847   11 Jun 2027 03:09:29.784             7.937          3968.500
       239   11 Jun 2027 03:10:21.546   11 Jun 2027 03:10:32.384            10.838          5419.000
       240   11 Jun 2027 04:43:45.633   11 Jun 2027 04:45:02.653            77.020         38510.000
       241   11 Jun 2027 04:46:19.955   11 Jun 2027 04:46:25.414             5.459          2729.500
       242   11 Jun 2027 04:47:46.432   11 Jun 2027 04:47:50.213             3.781          1890.500
       243   11 Jun 2027 04:48:24.263   11 Jun 2027 04:48:31.265             7.002          3501.000
       244   11 Jun 2027 04:48:39.419   11 Jun 2027 04:48:40.930             1.511           755.500
       245   11 Jun 2027 04:49:13.651   11 Jun 2027 04:49:22.893             9.242          4621.000
       246   11 Jun 2027 06:08:37.702   11 Jun 2027 06:09:46.997            69.295         34647.500
       247   11 Jun 2027 06:20:19.899   11 Jun 2027 06:20:56.762            36.863         18431.500
       248   11 Jun 2027 07:42:33.567   11 Jun 2027 07:43:44.256            70.689         35344.500
       249   11 Jun 2027 07:44:34.304   11 Jun 2027 07:44:43.602             9.298          4649.000
       250   11 Jun 2027 07:46:22.272   11 Jun 2027 07:46:31.868             9.596          4699.813
       251   11 Jun 2027 07:46:58.853   11 Jun 2027 07:46:59.548             0.695           330.687
       252   11 Jun 2027 07:47:28.310   11 Jun 2027 07:47:32.710             4.400           614.406
       253   11 Jun 2027 09:17:37.021   11 Jun 2027 09:17:51.297            14.276          6077.812
       254   11 Jun 2027 09:18:11.677   11 Jun 2027 09:18:11.677             0.000             0.000
       255   11 Jun 2027 09:18:30.987   11 Jun 2027 09:18:33.741             2.754           905.562
       256   11 Jun 2027 09:19:40.736   11 Jun 2027 09:19:48.047             7.311          1325.688
       257   11 Jun 2027 09:20:34.753   11 Jun 2027 09:20:38.759             4.006          1233.750
       258   11 Jun 2027 09:21:21.544   11 Jun 2027 09:21:23.339             1.795           847.625
       259   11 Jun 2027 09:22:45.790   11 Jun 2027 09:22:45.790             0.000             0.000
       260   11 Jun 2027 09:25:36.968   11 Jun 2027 09:25:48.896            11.928          5520.875
       261   11 Jun 2027 10:55:00.310   11 Jun 2027 10:55:15.654            15.344          5215.719
       262   11 Jun 2027 10:56:11.358   11 Jun 2027 10:56:20.124             8.766           902.125
       263   11 Jun 2027 10:57:58.265   11 Jun 2027 10:58:05.652             7.387          1831.094
       264   11 Jun 2027 10:58:22.131   11 Jun 2027 10:58:23.108             0.977           487.031
       265   11 Jun 2027 10:59:17.842   11 Jun 2027 10:59:22.294             4.452          1710.438
       266   11 Jun 2027 10:59:32.586   11 Jun 2027 10:59:34.456             1.870           112.188
       267   11 Jun 2027 10:59:59.947   11 Jun 2027 11:00:02.439             2.492           549.250
       268   11 Jun 2027 11:00:30.204   11 Jun 2027 11:00:31.118             0.914           457.000
       269   11 Jun 2027 11:01:18.712   11 Jun 2027 11:01:22.763             4.051          1597.531
       270   11 Jun 2027 11:01:46.359   11 Jun 2027 11:01:51.818             5.459           603.250
       271   11 Jun 2027 11:02:12.035   11 Jun 2027 11:02:13.402             1.367           631.781
       272   12 Jun 2027 03:16:59.564   12 Jun 2027 03:18:08.415            68.851         34425.500
       273   12 Jun 2027 03:18:11.030   12 Jun 2027 03:19:09.936            58.906         29453.000
       274   12 Jun 2027 04:55:47.273   12 Jun 2027 04:57:09.234            81.961         40980.500
       275   12 Jun 2027 04:58:27.172   12 Jun 2027 04:58:27.172             0.000             0.000
       276   12 Jun 2027 04:59:02.581   12 Jun 2027 04:59:27.370            24.789         12394.500
       277   12 Jun 2027 04:59:44.964   12 Jun 2027 04:59:52.284             7.320          3660.000
       278   12 Jun 2027 05:02:45.398   12 Jun 2027 05:02:48.462             3.064          1532.000
       279   12 Jun 2027 06:20:08.317   12 Jun 2027 06:20:43.564            35.247         17623.500
       280   12 Jun 2027 06:21:56.556   12 Jun 2027 06:22:18.929            22.373         11186.500
       281   12 Jun 2027 06:32:22.014   12 Jun 2027 06:32:25.726             3.712          1856.000
       282   12 Jun 2027 07:54:17.486   12 Jun 2027 07:55:10.969            53.483         26278.718
       283   12 Jun 2027 07:57:01.572   12 Jun 2027 07:57:12.932            11.360          3141.437
       284   12 Jun 2027 07:58:04.974   12 Jun 2027 07:58:08.047             3.073          1327.094
       285   12 Jun 2027 07:58:30.979   12 Jun 2027 07:58:32.075             1.096           513.219
       286   12 Jun 2027 07:59:20.325   12 Jun 2027 07:59:22.822             2.497          1223.188
       287   12 Jun 2027 09:29:05.409   12 Jun 2027 09:29:16.251            10.842          4852.500
       288   12 Jun 2027 09:31:50.080   12 Jun 2027 09:31:57.611             7.531          1757.500
       289   12 Jun 2027 09:32:27.904   12 Jun 2027 09:32:29.327             1.423           567.438
       290   12 Jun 2027 09:32:46.959   12 Jun 2027 09:32:49.771             2.812           551.000
       291   12 Jun 2027 09:34:46.788   12 Jun 2027 09:35:02.547            15.759          3602.937
       292   12 Jun 2027 09:36:28.314   12 Jun 2027 09:36:28.314             0.000             0.000
       293   12 Jun 2027 11:06:55.051   12 Jun 2027 11:07:03.746             8.695          4347.500
       294   12 Jun 2027 11:07:47.679   12 Jun 2027 11:07:52.805             5.126          2563.000
       295   12 Jun 2027 11:07:57.048   12 Jun 2027 11:07:58.433             1.385           554.906
       296   12 Jun 2027 11:08:17.696   12 Jun 2027 11:08:20.989             3.293           394.469
       297   12 Jun 2027 11:09:05.947   12 Jun 2027 11:09:16.356            10.409          1004.781
       298   12 Jun 2027 11:09:46.071   12 Jun 2027 11:09:53.269             7.198           723.500
       299   12 Jun 2027 11:10:28.620   12 Jun 2027 11:10:33.137             4.517          1097.969
       300   12 Jun 2027 11:12:21.177   12 Jun 2027 11:12:21.177             0.000             0.000
       301   12 Jun 2027 11:12:55.160   12 Jun 2027 11:13:01.662             6.502          3251.000
       302   12 Jun 2027 11:13:09.861   12 Jun 2027 11:13:13.483             3.622          1349.625
       303   12 Jun 2027 11:13:30.670   12 Jun 2027 11:13:33.390             2.720           505.719
       304   12 Jun 2027 11:13:45.376   12 Jun 2027 11:13:46.633             1.257           197.375
       305   12 Jun 2027 11:14:01.109   12 Jun 2027 11:14:01.109             0.000             0.000
       306   13 Jun 2027 03:29:43.657   13 Jun 2027 03:31:21.995            98.338         49169.000
       307   13 Jun 2027 03:31:46.605   13 Jun 2027 03:32:09.520            22.915         11457.500
       308   13 Jun 2027 03:35:12.026   13 Jun 2027 03:35:17.515             5.489          2744.500
       309   13 Jun 2027 05:08:09.752   13 Jun 2027 05:09:17.569            67.817         33908.500
       310   13 Jun 2027 05:10:42.999   13 Jun 2027 05:10:55.803            12.804          6402.000
       311   13 Jun 2027 05:11:18.405   13 Jun 2027 05:11:18.405             0.000             0.000
       312   13 Jun 2027 06:32:07.323   13 Jun 2027 06:33:47.221            99.898         49949.000
       313   13 Jun 2027 08:08:04.002   13 Jun 2027 08:08:59.917            55.915         25374.250
       314   13 Jun 2027 08:09:49.931   13 Jun 2027 08:09:53.362             3.431          1562.938
       315   13 Jun 2027 08:10:18.485   13 Jun 2027 08:10:18.558             0.073            36.500
       316   13 Jun 2027 08:10:53.771   13 Jun 2027 08:10:53.771             0.000             0.000
       317   13 Jun 2027 08:11:23.629   13 Jun 2027 08:11:37.841            14.212          2453.000
       318   13 Jun 2027 09:41:54.141   13 Jun 2027 09:42:04.277            10.136          4874.813
       319   13 Jun 2027 09:44:03.899   13 Jun 2027 09:44:08.380             4.481          2017.469
       320   13 Jun 2027 09:44:33.920   13 Jun 2027 09:44:39.255             5.335           600.062
       321   13 Jun 2027 09:48:24.667   13 Jun 2027 09:48:33.722             9.055          4527.500
       322   13 Jun 2027 09:48:40.674   13 Jun 2027 09:48:46.128             5.454          1415.500
       323   13 Jun 2027 09:49:43.223   13 Jun 2027 09:49:47.306             4.083          1784.219
       324   13 Jun 2027 11:19:02.008   13 Jun 2027 11:19:17.803            15.795          6208.094
       325   13 Jun 2027 11:19:35.471   13 Jun 2027 11:19:36.938             1.467           552.125
       326   13 Jun 2027 11:19:59.918   13 Jun 2027 11:20:03.507             3.589           718.125
       327   13 Jun 2027 11:20:36.164   13 Jun 2027 11:20:41.872             5.708           802.906
       328   13 Jun 2027 11:21:24.997   13 Jun 2027 11:21:28.785             3.788           960.344
       329   13 Jun 2027 11:21:59.017   13 Jun 2027 11:22:00.705             1.688           585.594
       330   13 Jun 2027 11:22:10.935   13 Jun 2027 11:22:12.939             2.004           212.219
       331   13 Jun 2027 11:22:39.462   13 Jun 2027 11:22:40.007             0.545           191.469
       332   13 Jun 2027 11:22:51.079   13 Jun 2027 11:22:57.667             6.588           182.719
       333   13 Jun 2027 11:24:16.318   13 Jun 2027 11:24:22.791             6.473          2297.000
       334   13 Jun 2027 11:25:01.806   13 Jun 2027 11:25:03.430             1.624           812.000
       335   13 Jun 2027 11:25:29.002   13 Jun 2027 11:25:32.218             3.216          1124.844
       336   13 Jun 2027 11:25:56.644   13 Jun 2027 11:25:58.294             1.650           763.312
