uniorb/output/strategy_1/Camera/Camera_KinoSat_110908.txt

KinoSat_110908
-------------------------
    Access    *     Start Time (UTCG)     *     Stop Time (UTCG)  *   Duration (s) *   Data (Mbytes)
         1   01 Jun 2027 03:02:26.704   01 Jun 2027 03:02:47.840            21.136         10568.000
         2   01 Jun 2027 03:03:27.938   01 Jun 2027 03:03:51.803            23.865         11932.500
         3   01 Jun 2027 03:04:13.851   01 Jun 2027 03:04:13.851             0.000             0.000
         4   01 Jun 2027 03:14:56.145   01 Jun 2027 03:15:06.979            10.834          5417.000
         5   01 Jun 2027 04:36:16.670   01 Jun 2027 04:37:57.811           101.141         50570.500
         6   01 Jun 2027 04:38:02.266   01 Jun 2027 04:38:13.295            11.029          5514.500
         7   01 Jun 2027 04:40:40.623   01 Jun 2027 04:40:52.644            12.021          6010.500
         8   01 Jun 2027 04:40:59.121   01 Jun 2027 04:41:05.519             6.398          3199.000
         9   01 Jun 2027 06:11:10.603   01 Jun 2027 06:12:41.550            90.947         45473.500
        10   01 Jun 2027 06:14:58.854   01 Jun 2027 06:15:03.252             4.398          2199.000
        11   01 Jun 2027 06:15:27.437   01 Jun 2027 06:15:39.793            12.356          6178.000
        12   01 Jun 2027 06:16:07.617   01 Jun 2027 06:16:07.617             0.000             0.000
        13   01 Jun 2027 06:17:23.410   01 Jun 2027 06:17:26.981             3.571          1785.500
        14   01 Jun 2027 06:17:52.109   01 Jun 2027 06:17:58.414             6.305          3152.500
        15   01 Jun 2027 06:18:20.760   01 Jun 2027 06:18:24.744             3.984          1992.000
        16   01 Jun 2027 06:20:07.179   01 Jun 2027 06:20:09.030             1.851           925.500
        17   01 Jun 2027 06:20:28.780   01 Jun 2027 06:20:34.120             5.340          2670.000
        18   01 Jun 2027 07:49:13.522   01 Jun 2027 07:50:31.349            77.827         38913.500
        19   01 Jun 2027 07:52:25.893   01 Jun 2027 07:53:24.212            58.319         29159.500
        20   01 Jun 2027 07:53:45.997   01 Jun 2027 07:53:47.791             1.794           897.000
        21   01 Jun 2027 07:54:33.379   01 Jun 2027 07:54:57.863            24.484         12242.000
        22   01 Jun 2027 09:26:06.901   01 Jun 2027 09:28:19.840           132.939         66469.500
        23   01 Jun 2027 09:30:53.981   01 Jun 2027 09:30:53.981             0.000             0.000
        24   01 Jun 2027 09:32:21.030   01 Jun 2027 09:32:33.824            12.794          6397.000
        25   01 Jun 2027 11:03:17.231   01 Jun 2027 11:05:29.215           131.984         65992.000
        26   01 Jun 2027 11:06:16.888   01 Jun 2027 11:06:31.606            14.718          7359.000
        27   02 Jun 2027 03:14:24.413   02 Jun 2027 03:14:28.251             3.838          1919.000
        28   02 Jun 2027 03:15:13.663   02 Jun 2027 03:15:28.659            14.996          7498.000
        29   02 Jun 2027 04:50:35.204   02 Jun 2027 04:52:47.502           132.298         66149.000
        30   02 Jun 2027 04:53:28.884   02 Jun 2027 04:53:41.781            12.897          6448.500
        31   02 Jun 2027 06:25:02.988   02 Jun 2027 06:26:39.133            96.145         48072.500
        32   02 Jun 2027 06:26:51.509   02 Jun 2027 06:26:57.183             5.674          2837.000
        33   02 Jun 2027 06:28:52.195   02 Jun 2027 06:29:02.935            10.740          5370.000
        34   02 Jun 2027 06:31:34.531   02 Jun 2027 06:31:34.531             0.000             0.000
        35   02 Jun 2027 06:32:32.703   02 Jun 2027 06:32:42.411             9.708          4854.000
        36   02 Jun 2027 08:01:35.469   02 Jun 2027 08:03:18.593           103.124         51562.000
        37   02 Jun 2027 08:04:41.292   02 Jun 2027 08:05:00.129            18.837          9418.500
        38   02 Jun 2027 08:05:01.521   02 Jun 2027 08:05:04.525             3.004          1502.000
        39   02 Jun 2027 08:05:22.363   02 Jun 2027 08:05:43.543            21.180         10590.000
        40   02 Jun 2027 09:38:36.030   02 Jun 2027 09:40:32.664           116.634         58317.000
        41   02 Jun 2027 09:40:43.774   02 Jun 2027 09:40:43.774             0.000             0.000
        42   02 Jun 2027 09:41:17.091   02 Jun 2027 09:41:32.982            15.891          7945.500
        43   02 Jun 2027 09:43:55.123   02 Jun 2027 09:44:04.782             9.659          4829.500
        44   02 Jun 2027 09:44:14.763   02 Jun 2027 09:44:25.909            11.146          5573.000
        45   02 Jun 2027 11:15:30.143   02 Jun 2027 11:17:25.258           115.115         57557.500
        46   02 Jun 2027 11:18:11.852   02 Jun 2027 11:18:13.054             1.202           601.000
        47   02 Jun 2027 11:19:58.208   02 Jun 2027 11:20:05.325             7.117          3558.500
        48   03 Jun 2027 03:26:13.995   03 Jun 2027 03:26:29.581            15.586          7793.000
        49   03 Jun 2027 05:02:40.972   03 Jun 2027 05:04:52.331           131.359         65679.500
        50   03 Jun 2027 05:05:07.606   03 Jun 2027 05:05:16.988             9.382          4691.000
        51   03 Jun 2027 05:05:30.532   03 Jun 2027 05:05:33.032             2.500          1250.000
        52   03 Jun 2027 05:06:14.158   03 Jun 2027 05:06:15.660             1.502           751.000
        53   03 Jun 2027 06:34:52.034   03 Jun 2027 06:35:00.024             7.990          3995.000
        54   03 Jun 2027 06:36:47.540   03 Jun 2027 06:38:10.818            83.278         41639.000
        55   03 Jun 2027 06:38:49.109   03 Jun 2027 06:38:52.944             3.835          1917.500
        56   03 Jun 2027 06:39:22.601   03 Jun 2027 06:39:34.257            11.656          5828.000
        57   03 Jun 2027 06:40:44.407   03 Jun 2027 06:40:50.105             5.698          2849.000
        58   03 Jun 2027 06:42:31.365   03 Jun 2027 06:42:31.681             0.316           158.000
        59   03 Jun 2027 06:42:56.484   03 Jun 2027 06:43:05.238             8.754          4377.000
        60   03 Jun 2027 06:43:30.864   03 Jun 2027 06:43:30.864             0.000             0.000
        61   03 Jun 2027 06:44:19.807   03 Jun 2027 06:44:36.628            16.821          8410.500
        62   03 Jun 2027 08:13:45.375   03 Jun 2027 08:15:39.825           114.450         57225.000
        63   03 Jun 2027 08:16:41.302   03 Jun 2027 08:16:50.396             9.094          4547.000
        64   03 Jun 2027 08:17:01.150   03 Jun 2027 08:17:09.889             8.739          4369.500
        65   03 Jun 2027 08:18:29.181   03 Jun 2027 08:18:31.939             2.758          1379.000
        66   03 Jun 2027 08:19:25.542   03 Jun 2027 08:19:32.996             7.454          3727.000
        67   03 Jun 2027 09:51:00.247   03 Jun 2027 09:52:23.677            83.430         41715.000
        68   03 Jun 2027 09:53:08.464   03 Jun 2027 09:53:26.072            17.608          8804.000
        69   03 Jun 2027 09:54:26.061   03 Jun 2027 09:54:31.255             5.194          2597.000
        70   03 Jun 2027 11:27:30.410   03 Jun 2027 11:27:57.266            26.856         12388.187
        71   03 Jun 2027 11:28:54.376   03 Jun 2027 11:29:04.060             9.684          1604.531
        72   03 Jun 2027 11:30:16.977   03 Jun 2027 11:30:22.205             5.228          2074.281
        73   03 Jun 2027 11:31:13.644   03 Jun 2027 11:31:21.848             8.204          1599.562
        74   03 Jun 2027 11:31:57.772   03 Jun 2027 11:31:58.579             0.807           403.500
        75   03 Jun 2027 11:32:22.753   03 Jun 2027 11:32:26.139             3.386          1283.812
        76   04 Jun 2027 03:38:21.717   04 Jun 2027 03:38:30.571             8.854          4427.000
        77   04 Jun 2027 03:39:22.314   04 Jun 2027 03:39:35.826            13.512          6756.000
        78   04 Jun 2027 03:40:30.361   04 Jun 2027 03:41:00.087            29.726         14863.000
        79   04 Jun 2027 05:14:49.764   04 Jun 2027 05:16:58.323           128.559         64279.500
        80   04 Jun 2027 05:17:30.404   04 Jun 2027 05:17:32.218             1.814           907.000
        81   04 Jun 2027 06:50:00.181   04 Jun 2027 06:51:48.884           108.703         54351.500
        82   04 Jun 2027 06:56:01.275   04 Jun 2027 06:56:25.971            24.696         12348.000
        83   04 Jun 2027 06:56:37.055   04 Jun 2027 06:56:37.055             0.000             0.000
        84   04 Jun 2027 06:56:38.798   04 Jun 2027 06:56:38.833             0.035            17.500
        85   04 Jun 2027 08:26:19.529   04 Jun 2027 08:27:07.311            47.782         23742.750
        86   04 Jun 2027 08:28:08.007   04 Jun 2027 08:28:11.578             3.571          1759.000
        87   04 Jun 2027 08:28:47.141   04 Jun 2027 08:28:50.380             3.239          1075.969
        88   04 Jun 2027 08:29:32.412   04 Jun 2027 08:29:34.124             1.712           562.031
        89   04 Jun 2027 08:29:43.192   04 Jun 2027 08:29:44.739             1.547           283.375
        90   04 Jun 2027 08:30:52.076   04 Jun 2027 08:31:02.514            10.438          2104.281
        91   04 Jun 2027 08:31:23.771   04 Jun 2027 08:31:25.757             1.986           664.281
        92   04 Jun 2027 08:31:34.427   04 Jun 2027 08:31:36.838             2.411             7.313
        93   04 Jun 2027 08:32:06.045   04 Jun 2027 08:32:11.230             5.185           834.062
        94   04 Jun 2027 10:03:43.482   04 Jun 2027 10:04:00.443            16.961          8480.500
        95   04 Jun 2027 10:04:37.991   04 Jun 2027 10:04:47.138             9.147          1499.031
        96   04 Jun 2027 10:05:31.593   04 Jun 2027 10:05:37.274             5.681          1225.750
        97   04 Jun 2027 10:06:01.466   04 Jun 2027 10:06:02.597             1.131           462.719
        98   04 Jun 2027 10:06:21.733   04 Jun 2027 10:06:26.496             4.763           598.000
        99   04 Jun 2027 10:07:17.940   04 Jun 2027 10:07:23.787             5.847          1476.844
       100   04 Jun 2027 10:07:33.107   04 Jun 2027 10:07:36.943             3.836           277.313
       101   04 Jun 2027 10:08:10.321   04 Jun 2027 10:08:13.384             3.063           838.625
       102   04 Jun 2027 11:39:55.511   04 Jun 2027 11:40:13.323            17.812          7391.719
       103   04 Jun 2027 11:40:25.555   04 Jun 2027 11:40:27.605             2.050           377.062
       104   04 Jun 2027 11:41:40.731   04 Jun 2027 11:41:45.062             4.331          1790.125
       105   04 Jun 2027 11:42:03.836   04 Jun 2027 11:42:06.166             2.330           586.688
       106   04 Jun 2027 11:42:19.607   04 Jun 2027 11:42:22.090             2.483           385.031
       107   04 Jun 2027 11:42:57.784   04 Jun 2027 11:43:01.661             3.877          1072.563
       108   04 Jun 2027 11:43:17.965   04 Jun 2027 11:43:25.929             7.964           130.687
       109   04 Jun 2027 11:43:40.582   04 Jun 2027 11:43:42.676             2.094           457.906
       110   04 Jun 2027 11:44:02.423   04 Jun 2027 11:44:05.147             2.724           617.094
       111   05 Jun 2027 03:50:23.206   05 Jun 2027 03:51:16.271            53.065         26532.500
       112   05 Jun 2027 03:51:32.116   05 Jun 2027 03:51:32.116             0.000             0.000
       113   05 Jun 2027 03:53:28.845   05 Jun 2027 03:53:32.380             3.535          1767.500
       114   05 Jun 2027 05:26:51.329   05 Jun 2027 05:29:04.642           133.313         66656.500
       115   05 Jun 2027 07:02:03.970   05 Jun 2027 07:04:07.041           123.071         61535.500
       116   05 Jun 2027 07:05:35.583   05 Jun 2027 07:05:47.169            11.586          5035.594
       117   05 Jun 2027 07:07:28.454   05 Jun 2027 07:07:32.557             4.103          2051.500
       118   05 Jun 2027 07:08:41.652   05 Jun 2027 07:08:43.695             2.043          1021.500
       119   05 Jun 2027 08:37:58.924   05 Jun 2027 08:38:27.595            28.671         12302.469
       120   05 Jun 2027 08:38:34.824   05 Jun 2027 08:38:35.863             1.039           225.906
       121   05 Jun 2027 08:40:09.440   05 Jun 2027 08:40:16.379             6.939          2784.781
       122   05 Jun 2027 08:40:39.846   05 Jun 2027 08:40:42.166             2.320           733.344
       123   05 Jun 2027 08:41:39.544   05 Jun 2027 08:41:43.205             3.661          1744.219
       124   05 Jun 2027 08:42:00.069   05 Jun 2027 08:42:01.582             1.513           506.344
       125   05 Jun 2027 08:43:23.395   05 Jun 2027 08:43:33.336             9.941          2267.781
       126   05 Jun 2027 08:43:42.257   05 Jun 2027 08:43:42.539             0.282           141.000
       127   05 Jun 2027 08:44:01.399   05 Jun 2027 08:44:07.978             6.579           698.219
       128   05 Jun 2027 10:15:56.029   05 Jun 2027 10:16:13.695            17.666          8083.281
       129   05 Jun 2027 10:16:32.323   05 Jun 2027 10:16:32.323             0.000             0.000
       130   05 Jun 2027 10:16:59.135   05 Jun 2027 10:16:59.872             0.737           368.500
       131   05 Jun 2027 10:17:15.784   05 Jun 2027 10:17:20.241             4.457          1204.906
       132   05 Jun 2027 10:17:29.947   05 Jun 2027 10:17:42.869            12.922            18.344
       133   05 Jun 2027 10:17:50.815   05 Jun 2027 10:17:57.129             6.314            69.781
       134   05 Jun 2027 10:19:00.360   05 Jun 2027 10:19:04.960             4.600          1857.063
       135   05 Jun 2027 10:20:09.947   05 Jun 2027 10:20:14.324             4.377          1991.156
       136   05 Jun 2027 10:20:15.005   05 Jun 2027 10:20:15.321             0.316            21.281
       137   05 Jun 2027 11:51:49.309   05 Jun 2027 11:52:01.306            11.997          5670.344
       138   05 Jun 2027 11:52:26.754   05 Jun 2027 11:52:27.978             1.224           403.750
       139   05 Jun 2027 11:53:06.286   05 Jun 2027 11:53:08.316             2.030          1015.000
       140   05 Jun 2027 11:53:15.649   05 Jun 2027 11:53:15.987             0.338           169.000
       141   05 Jun 2027 11:53:48.444   05 Jun 2027 11:53:50.386             1.942           971.000
       142   05 Jun 2027 11:54:22.148   05 Jun 2027 11:54:29.254             7.106          1228.781
       143   05 Jun 2027 11:54:34.532   05 Jun 2027 11:54:35.622             1.090           125.438
       144   05 Jun 2027 11:55:44.802   05 Jun 2027 11:55:50.166             5.364          2142.406
       145   05 Jun 2027 11:56:43.655   05 Jun 2027 11:56:47.485             3.830          1628.188
       146   06 Jun 2027 04:02:49.603   06 Jun 2027 04:03:33.561            43.958         21979.000
       147   06 Jun 2027 04:03:54.076   06 Jun 2027 04:04:01.155             7.079          3539.500
       148   06 Jun 2027 04:05:30.016   06 Jun 2027 04:05:40.152            10.136          5068.000
       149   06 Jun 2027 05:38:34.551   06 Jun 2027 05:41:03.336           148.785         74392.500
       150   06 Jun 2027 05:42:37.889   06 Jun 2027 05:42:37.889             0.000             0.000
       151   06 Jun 2027 07:13:18.385   06 Jun 2027 07:14:54.741            96.356         48178.000
       152   06 Jun 2027 07:15:39.154   06 Jun 2027 07:15:54.522            15.368          7483.156
       153   06 Jun 2027 07:16:30.559   06 Jun 2027 07:16:30.559             0.000             0.000
       154   06 Jun 2027 07:17:04.790   06 Jun 2027 07:17:10.179             5.389          1807.500
       155   06 Jun 2027 07:17:42.976   06 Jun 2027 07:17:42.976             0.000             0.000
       156   06 Jun 2027 07:19:14.435   06 Jun 2027 07:19:25.476            11.041          3803.781
       157   06 Jun 2027 07:20:32.132   06 Jun 2027 07:20:38.601             6.469          1958.969
       158   06 Jun 2027 08:50:06.292   06 Jun 2027 08:50:28.887            22.595         10242.875
       159   06 Jun 2027 08:51:40.909   06 Jun 2027 08:51:46.130             5.221          1865.281
       160   06 Jun 2027 08:51:47.596   06 Jun 2027 08:51:55.082             7.486            22.938
       161   06 Jun 2027 08:52:21.671   06 Jun 2027 08:52:23.245             1.574           430.781
       162   06 Jun 2027 08:52:44.503   06 Jun 2027 08:52:49.797             5.294           372.688
       163   06 Jun 2027 08:53:31.926   06 Jun 2027 08:53:36.600             4.674          1316.531
       164   06 Jun 2027 08:54:24.531   06 Jun 2027 08:54:29.055             4.524          1497.844
       165   06 Jun 2027 08:54:32.591   06 Jun 2027 08:54:35.151             2.560            94.031
       166   06 Jun 2027 08:54:42.711   06 Jun 2027 08:54:46.106             3.395           178.969
       167   06 Jun 2027 08:56:23.283   06 Jun 2027 08:56:27.229             3.946          1973.000
       168   06 Jun 2027 10:28:21.389   06 Jun 2027 10:28:37.020            15.631          7674.313
       169   06 Jun 2027 10:29:18.725   06 Jun 2027 10:29:21.852             3.127          1289.875
       170   06 Jun 2027 10:29:50.569   06 Jun 2027 10:29:53.497             2.928           309.844
       171   06 Jun 2027 10:30:23.041   06 Jun 2027 10:30:25.318             2.277           796.906
       172   06 Jun 2027 10:30:48.574   06 Jun 2027 10:30:50.180             1.606           706.344
       173   06 Jun 2027 10:31:01.635   06 Jun 2027 10:31:02.991             1.356           290.031
       174   06 Jun 2027 10:31:04.598   06 Jun 2027 10:31:08.084             3.486            14.469
       175   06 Jun 2027 10:31:16.203   06 Jun 2027 10:31:20.008             3.805            94.750
       176   06 Jun 2027 10:31:41.044   06 Jun 2027 10:31:44.849             3.805            67.938
       177   07 Jun 2027 04:13:25.280   07 Jun 2027 04:14:20.788            55.508         27754.000
       178   07 Jun 2027 04:17:31.019   07 Jun 2027 04:17:55.159            24.140         12070.000
       179   07 Jun 2027 05:48:28.985   07 Jun 2027 05:49:46.685            77.700         38850.000
       180   07 Jun 2027 05:50:18.968   07 Jun 2027 05:50:47.561            28.593         14296.500
       181   07 Jun 2027 05:51:29.867   07 Jun 2027 05:51:53.477            23.610         11805.000
       182   07 Jun 2027 05:54:45.901   07 Jun 2027 05:55:09.752            23.851         11925.500
       183   07 Jun 2027 07:25:26.621   07 Jun 2027 07:27:06.291            99.670         49835.000
       184   07 Jun 2027 07:28:14.396   07 Jun 2027 07:28:33.217            18.821          9353.657
       185   07 Jun 2027 07:31:50.054   07 Jun 2027 07:32:06.770            16.716          6151.156
       186   07 Jun 2027 09:02:24.993   07 Jun 2027 09:02:50.693            25.700         12487.594
       187   07 Jun 2027 09:03:33.326   07 Jun 2027 09:03:34.259             0.933           466.500
       188   07 Jun 2027 09:03:48.384   07 Jun 2027 09:03:51.668             3.284          1165.844
       189   07 Jun 2027 09:04:01.967   07 Jun 2027 09:04:07.305             5.338           212.406
       190   07 Jun 2027 09:04:14.143   07 Jun 2027 09:04:15.030             0.887            44.594
       191   07 Jun 2027 09:04:49.787   07 Jun 2027 09:04:51.168             1.381           630.562
       192   07 Jun 2027 09:05:25.327   07 Jun 2027 09:05:26.363             1.036           518.000
       193   07 Jun 2027 09:06:15.537   07 Jun 2027 09:06:19.140             3.603          1801.500
       194   07 Jun 2027 09:06:58.335   07 Jun 2027 09:07:03.569             5.234          1459.094
       195   07 Jun 2027 09:08:00.862   07 Jun 2027 09:08:04.765             3.903          1452.844
       196   07 Jun 2027 10:40:19.550   07 Jun 2027 10:40:39.621            20.071          9317.094
       197   07 Jun 2027 10:40:56.917   07 Jun 2027 10:41:02.941             6.024           345.656
       198   07 Jun 2027 10:41:44.986   07 Jun 2027 10:41:49.341             4.355           846.594
       199   07 Jun 2027 10:41:58.945   07 Jun 2027 10:41:58.945             0.000             0.000
       200   07 Jun 2027 10:42:11.619   07 Jun 2027 10:42:16.002             4.383           696.187
       201   07 Jun 2027 10:42:16.407   07 Jun 2027 10:42:16.533             0.126            12.656
       202   07 Jun 2027 10:42:30.686   07 Jun 2027 10:42:35.015             4.329           442.281
       203   07 Jun 2027 10:43:02.431   07 Jun 2027 10:43:07.941             5.510           856.750
       204   07 Jun 2027 10:43:18.956   07 Jun 2027 10:43:20.940             1.984           128.313
       205   07 Jun 2027 10:43:50.586   07 Jun 2027 10:43:53.648             3.062           804.531
       206   07 Jun 2027 10:44:00.598   07 Jun 2027 10:44:00.598             0.000             0.000
       207   07 Jun 2027 10:44:12.883   07 Jun 2027 10:44:17.661             4.778           594.844
       208   07 Jun 2027 10:44:17.901   07 Jun 2027 10:44:18.916             1.015             7.500
       209   08 Jun 2027 03:02:50.455   08 Jun 2027 03:03:40.515            50.060         25030.000
       210   08 Jun 2027 03:03:43.806   08 Jun 2027 03:03:46.210             2.404          1202.000
       211   08 Jun 2027 04:24:55.134   08 Jun 2027 04:25:38.658            43.524         21762.000
       212   08 Jun 2027 04:28:23.584   08 Jun 2027 04:28:36.264            12.680          6340.000
       213   08 Jun 2027 04:29:39.333   08 Jun 2027 04:29:40.171             0.838           419.000
       214   08 Jun 2027 05:59:53.947   08 Jun 2027 06:01:39.174           105.227         52613.500
       215   08 Jun 2027 06:02:25.197   08 Jun 2027 06:02:28.091             2.894          1447.000
       216   08 Jun 2027 06:03:07.884   08 Jun 2027 06:03:17.254             9.370          4685.000
       217   08 Jun 2027 06:03:20.096   08 Jun 2027 06:03:22.524             2.428          1214.000
       218   08 Jun 2027 06:06:13.780   08 Jun 2027 06:06:25.597            11.817          5908.500
       219   08 Jun 2027 06:07:11.051   08 Jun 2027 06:07:13.588             2.537          1268.500
       220   08 Jun 2027 07:37:30.207   08 Jun 2027 07:39:21.302           111.095         54879.250
       221   08 Jun 2027 07:40:29.051   08 Jun 2027 07:40:35.839             6.788          2117.156
       222   08 Jun 2027 07:41:16.146   08 Jun 2027 07:41:23.996             7.850          1024.688
       223   08 Jun 2027 07:41:46.456   08 Jun 2027 07:41:50.862             4.406           509.125
       224   08 Jun 2027 07:43:19.910   08 Jun 2027 07:43:19.910             0.000             0.000
       225   08 Jun 2027 07:43:37.406   08 Jun 2027 07:43:41.175             3.769          1884.500
       226   08 Jun 2027 07:44:29.200   08 Jun 2027 07:44:29.200             0.000             0.000
       227   08 Jun 2027 09:14:14.368   08 Jun 2027 09:14:38.342            23.974         10242.969
       228   08 Jun 2027 09:15:16.166   08 Jun 2027 09:15:19.961             3.795           771.281
       229   08 Jun 2027 09:16:39.880   08 Jun 2027 09:16:46.035             6.155          2220.563
       230   08 Jun 2027 09:17:07.553   08 Jun 2027 09:17:09.584             2.031           637.063
       231   08 Jun 2027 09:17:14.960   08 Jun 2027 09:17:15.707             0.747           168.000
       232   08 Jun 2027 09:18:07.472   08 Jun 2027 09:18:08.925             1.453           726.500
       233   08 Jun 2027 09:18:11.351   08 Jun 2027 09:18:13.394             2.043           932.469
       234   08 Jun 2027 09:18:43.419   08 Jun 2027 09:18:46.866             3.447           484.813
       235   08 Jun 2027 09:19:55.654   08 Jun 2027 09:20:01.242             5.588          1768.281
       236   08 Jun 2027 10:52:18.997   08 Jun 2027 10:52:33.404            14.407          7203.500
       237   08 Jun 2027 10:52:51.719   08 Jun 2027 10:52:58.140             6.421          1350.750
       238   08 Jun 2027 10:53:32.280   08 Jun 2027 10:53:35.694             3.414           902.125
       239   08 Jun 2027 10:54:21.089   08 Jun 2027 10:54:34.006            12.917          1418.594
       240   08 Jun 2027 10:54:50.272   08 Jun 2027 10:54:56.608             6.336           363.625
       241   08 Jun 2027 10:55:35.195   08 Jun 2027 10:55:38.267             3.072          1114.375
       242   08 Jun 2027 10:55:50.392   08 Jun 2027 10:55:51.425             1.033           297.000
       243   08 Jun 2027 10:56:00.869   08 Jun 2027 10:56:02.911             2.042           292.562
       244   08 Jun 2027 10:56:12.616   08 Jun 2027 10:56:14.500             1.884            81.937
       245   08 Jun 2027 10:56:20.040   08 Jun 2027 10:56:21.229             1.189           173.125
       246   09 Jun 2027 03:02:41.704   09 Jun 2027 03:02:54.635            12.931          6465.500
       247   09 Jun 2027 03:04:06.654   09 Jun 2027 03:04:29.423            22.769         11384.500
       248   09 Jun 2027 03:15:11.360   09 Jun 2027 03:15:17.501             6.141          3070.500
       249   09 Jun 2027 04:36:31.331   09 Jun 2027 04:38:14.386           103.055         51527.500
       250   09 Jun 2027 04:39:38.246   09 Jun 2027 04:39:44.244             5.998          2999.000
       251   09 Jun 2027 04:40:55.513   09 Jun 2027 04:41:21.699            26.186         13093.000
       252   09 Jun 2027 06:11:24.470   09 Jun 2027 06:12:11.940            47.470         23735.000
       253   09 Jun 2027 06:13:36.991   09 Jun 2027 06:13:59.522            22.531         11265.500
       254   09 Jun 2027 06:15:10.862   09 Jun 2027 06:15:24.291            13.429          6714.500
       255   09 Jun 2027 06:17:06.674   09 Jun 2027 06:17:08.240             1.566           783.000
       256   09 Jun 2027 06:17:16.844   09 Jun 2027 06:17:35.616            18.772          9386.000
       257   09 Jun 2027 06:19:35.134   09 Jun 2027 06:19:39.136             4.002          2001.000
       258   09 Jun 2027 06:20:09.854   09 Jun 2027 06:20:15.309             5.455          2727.500
       259   09 Jun 2027 06:20:21.727   09 Jun 2027 06:20:23.829             2.102          1051.000
       260   09 Jun 2027 06:20:32.440   09 Jun 2027 06:20:36.258             3.818          1909.000
       261   09 Jun 2027 06:20:40.064   09 Jun 2027 06:20:44.092             4.028          2014.000
       262   09 Jun 2027 07:49:29.052   09 Jun 2027 07:50:44.512            75.460         37227.188
       263   09 Jun 2027 07:50:59.370   09 Jun 2027 07:51:01.958             2.588           464.313
       264   09 Jun 2027 07:51:13.698   09 Jun 2027 07:51:15.717             2.019           366.875
       265   09 Jun 2027 07:51:48.537   09 Jun 2027 07:51:50.780             2.243           926.000
       266   09 Jun 2027 07:52:40.814   09 Jun 2027 07:52:44.154             3.340          1563.562
       267   09 Jun 2027 07:54:03.206   09 Jun 2027 07:54:07.769             4.563          2249.938
       268   09 Jun 2027 07:54:26.587   09 Jun 2027 07:54:27.867             1.280           588.063
       269   09 Jun 2027 07:54:42.023   09 Jun 2027 07:54:43.849             1.826           441.469
       270   09 Jun 2027 07:55:06.301   09 Jun 2027 07:55:08.290             1.989           627.250
       271   09 Jun 2027 07:55:19.317   09 Jun 2027 07:55:22.367             3.050           184.562
       272   09 Jun 2027 07:56:15.512   09 Jun 2027 07:56:17.612             2.100          1050.000
       273   09 Jun 2027 07:56:23.721   09 Jun 2027 07:56:26.541             2.820           526.000
       274   09 Jun 2027 09:26:22.260   09 Jun 2027 09:26:51.286            29.026         10290.813
       275   09 Jun 2027 09:27:03.144   09 Jun 2027 09:27:09.225             6.081           240.406
       276   09 Jun 2027 09:28:13.537   09 Jun 2027 09:28:16.396             2.859           481.750
       277   09 Jun 2027 09:28:46.624   09 Jun 2027 09:28:48.211             1.587           394.563
       278   09 Jun 2027 09:29:13.932   09 Jun 2027 09:29:17.675             3.743           479.406
       279   09 Jun 2027 09:29:59.856   09 Jun 2027 09:30:02.577             2.721           676.875
       280   09 Jun 2027 09:31:02.601   09 Jun 2027 09:31:07.330             4.729          1834.750
       281   09 Jun 2027 09:32:06.379   09 Jun 2027 09:32:08.139             1.760           880.000
       282   09 Jun 2027 09:32:18.018   09 Jun 2027 09:32:21.339             3.321          1272.938
       283   09 Jun 2027 11:03:32.185   09 Jun 2027 11:03:48.426            16.241          6822.250
       284   09 Jun 2027 11:04:17.880   09 Jun 2027 11:04:20.088             2.208           920.437
       285   09 Jun 2027 11:04:38.930   09 Jun 2027 11:04:39.533             0.603           289.188
       286   09 Jun 2027 11:05:19.546   09 Jun 2027 11:05:19.546             0.000             0.000
       287   09 Jun 2027 11:05:26.842   09 Jun 2027 11:05:31.221             4.379          1164.719
       288   09 Jun 2027 11:05:44.037   09 Jun 2027 11:05:44.037             0.000             0.000
       289   09 Jun 2027 11:05:50.527   09 Jun 2027 11:05:51.901             1.374           492.906
       290   09 Jun 2027 11:06:32.910   09 Jun 2027 11:06:35.324             2.414          1075.469
       291   09 Jun 2027 11:07:34.034   09 Jun 2027 11:07:37.592             3.558          1489.000
       292   09 Jun 2027 11:08:16.038   09 Jun 2027 11:08:17.793             1.755           837.000
       293   10 Jun 2027 03:14:38.212   10 Jun 2027 03:15:07.618            29.406         14703.000
       294   10 Jun 2027 03:15:31.544   10 Jun 2027 03:15:44.694            13.150          6575.000
       295   10 Jun 2027 04:50:50.287   10 Jun 2027 04:52:44.932           114.645         57322.500
       296   10 Jun 2027 04:53:12.286   10 Jun 2027 04:53:15.305             3.019          1509.500
       297   10 Jun 2027 04:53:45.566   10 Jun 2027 04:53:56.809            11.243          5621.500
       298   10 Jun 2027 06:24:23.666   10 Jun 2027 06:25:32.025            68.359         34179.500
       299   10 Jun 2027 06:26:29.690   10 Jun 2027 06:26:45.016            15.326          7663.000
       300   10 Jun 2027 06:26:50.634   10 Jun 2027 06:26:52.979             2.345          1172.500
       301   10 Jun 2027 06:27:17.535   10 Jun 2027 06:27:30.026            12.491          6245.500
       302   10 Jun 2027 06:28:37.801   10 Jun 2027 06:28:41.792             3.991          1995.500
       303   10 Jun 2027 06:29:30.961   10 Jun 2027 06:29:40.833             9.872          4936.000
       304   10 Jun 2027 06:32:02.134   10 Jun 2027 06:32:10.642             8.508          4254.000
       305   10 Jun 2027 06:32:18.273   10 Jun 2027 06:32:22.871             4.598          2299.000
       306   10 Jun 2027 08:01:51.263   10 Jun 2027 08:02:52.589            61.326         29669.969
       307   10 Jun 2027 08:03:11.610   10 Jun 2027 08:03:12.573             0.963           330.844
       308   10 Jun 2027 08:05:18.126   10 Jun 2027 08:05:20.091             1.965           982.500
       309   10 Jun 2027 08:05:58.200   10 Jun 2027 08:06:07.319             9.119          3394.250
       310   10 Jun 2027 08:07:01.865   10 Jun 2027 08:07:05.895             4.030          1624.875
       311   10 Jun 2027 08:07:50.711   10 Jun 2027 08:07:59.715             9.004          1317.781
       312   10 Jun 2027 08:08:00.259   10 Jun 2027 08:08:04.227             3.968            17.000
       313   10 Jun 2027 09:38:50.847   10 Jun 2027 09:39:10.415            19.568          9421.969
       314   10 Jun 2027 09:40:15.180   10 Jun 2027 09:40:21.944             6.764          1816.031
       315   10 Jun 2027 09:40:59.904   10 Jun 2027 09:41:01.029             1.125           391.344
       316   10 Jun 2027 09:41:51.830   10 Jun 2027 09:41:58.595             6.765          1465.500
       317   10 Jun 2027 09:42:14.349   10 Jun 2027 09:42:15.903             1.554           492.313
       318   10 Jun 2027 09:42:34.199   10 Jun 2027 09:42:35.807             1.608           571.750
       319   10 Jun 2027 09:43:00.858   10 Jun 2027 09:43:04.071             3.213           463.375
       320   10 Jun 2027 09:43:44.540   10 Jun 2027 09:43:51.278             6.738          1166.062
       321   10 Jun 2027 09:44:19.440   10 Jun 2027 09:44:22.400             2.960           880.063
       322   10 Jun 2027 09:44:24.646   10 Jun 2027 09:44:26.375             1.729            70.187
       323   10 Jun 2027 11:15:44.838   10 Jun 2027 11:15:59.667            14.829          6467.562
       324   10 Jun 2027 11:16:36.923   10 Jun 2027 11:16:40.401             3.478           976.344
       325   10 Jun 2027 11:18:28.754   10 Jun 2027 11:18:34.635             5.881          2864.750
       326   10 Jun 2027 11:18:47.947   10 Jun 2027 11:18:50.248             2.301           324.563
       327   10 Jun 2027 11:19:04.558   10 Jun 2027 11:19:06.404             1.846           447.188
       328   10 Jun 2027 11:19:45.400   10 Jun 2027 11:19:48.347             2.947           587.250
       329   10 Jun 2027 11:19:56.289   10 Jun 2027 11:19:56.289             0.000             0.000
       330   10 Jun 2027 11:19:59.799   10 Jun 2027 11:20:02.520             2.721           357.875
       331   10 Jun 2027 11:20:19.162   10 Jun 2027 11:20:20.769             1.607           174.125
       332   11 Jun 2027 03:26:28.806   11 Jun 2027 03:26:44.239            15.433          7716.500
       333   11 Jun 2027 03:27:48.381   11 Jun 2027 03:28:03.846            15.465          7732.500
       334   11 Jun 2027 03:28:37.133   11 Jun 2027 03:28:40.374             3.241          1620.500
       335   11 Jun 2027 05:02:55.714   11 Jun 2027 05:05:05.646           129.932         64966.000
       336   11 Jun 2027 05:05:32.162   11 Jun 2027 05:05:47.215            15.053          7526.500
       337   11 Jun 2027 06:35:08.453   11 Jun 2027 06:35:15.020             6.567          3283.500
       338   11 Jun 2027 06:37:02.607   11 Jun 2027 06:38:26.879            84.272         42136.000
       339   11 Jun 2027 06:38:47.052   11 Jun 2027 06:38:54.175             7.123          3561.500
       340   11 Jun 2027 06:40:28.240   11 Jun 2027 06:40:30.827             2.587          1293.500
       341   11 Jun 2027 06:40:52.644   11 Jun 2027 06:41:05.737            13.093          6546.500
       342   11 Jun 2027 06:43:46.500   11 Jun 2027 06:43:50.408             3.908          1954.000
       343   11 Jun 2027 06:43:53.557   11 Jun 2027 06:44:02.284             8.727          4363.500
       344   11 Jun 2027 08:14:00.658   11 Jun 2027 08:14:49.298            48.640         23978.031
       345   11 Jun 2027 08:16:21.783   11 Jun 2027 08:16:30.178             8.395          2391.531
       346   11 Jun 2027 08:16:36.684   11 Jun 2027 08:16:37.086             0.402           201.000
       347   11 Jun 2027 08:16:59.883   11 Jun 2027 08:17:04.645             4.762           714.719
       348   11 Jun 2027 08:17:16.184   11 Jun 2027 08:17:18.075             1.891           360.594
       349   11 Jun 2027 08:18:08.294   11 Jun 2027 08:18:08.827             0.533           266.500
       350   11 Jun 2027 08:18:13.403   11 Jun 2027 08:18:15.466             2.063           676.562
       351   11 Jun 2027 08:18:46.403   11 Jun 2027 08:18:50.440             4.037           954.313
       352   11 Jun 2027 08:19:22.094   11 Jun 2027 08:19:23.469             1.375           583.937
       353   11 Jun 2027 08:19:48.084   11 Jun 2027 08:19:55.304             7.220           769.219
       354   11 Jun 2027 08:20:11.282   11 Jun 2027 08:20:12.039             0.757           280.000
       355   11 Jun 2027 08:20:23.960   11 Jun 2027 08:20:26.276             2.316           365.969
       356   11 Jun 2027 08:20:32.975   11 Jun 2027 08:20:35.801             2.826           198.625
       357   11 Jun 2027 09:51:18.337   11 Jun 2027 09:51:37.070            18.733          8688.406
       358   11 Jun 2027 09:52:21.263   11 Jun 2027 09:52:26.941             5.678          1381.031
       359   11 Jun 2027 09:53:01.964   11 Jun 2027 09:53:03.007             1.043           469.750
       360   11 Jun 2027 09:54:07.641   11 Jun 2027 09:54:10.423             2.782          1023.531
       361   11 Jun 2027 09:54:22.133   11 Jun 2027 09:54:22.827             0.694           347.000
       362   11 Jun 2027 09:54:26.739   11 Jun 2027 09:54:29.899             3.160           141.187
       363   11 Jun 2027 09:55:10.850   11 Jun 2027 09:55:16.040             5.190          1279.719
       364   11 Jun 2027 09:55:37.959   11 Jun 2027 09:55:39.623             1.664           670.656
       365   11 Jun 2027 11:27:45.953   11 Jun 2027 11:28:03.313            17.360          8520.781
       366   11 Jun 2027 11:28:38.350   11 Jun 2027 11:28:41.604             3.254          1083.875
       367   11 Jun 2027 11:29:07.159   11 Jun 2027 11:29:08.575             1.416           396.125
       368   11 Jun 2027 11:30:00.518   11 Jun 2027 11:30:07.046             6.528          1623.219
       369   11 Jun 2027 11:31:19.492   11 Jun 2027 11:31:24.512             5.020          2165.125
       370   11 Jun 2027 11:31:36.005   11 Jun 2027 11:31:41.496             5.491           308.187
       371   11 Jun 2027 11:31:54.343   11 Jun 2027 11:31:55.115             0.772           215.375
       372   11 Jun 2027 11:32:35.895   11 Jun 2027 11:32:37.784             1.889           944.500
       373   12 Jun 2027 03:38:36.799   12 Jun 2027 03:39:11.585            34.786         17393.000
       374   12 Jun 2027 03:39:29.779   12 Jun 2027 03:39:50.708            20.929         10464.500
       375   12 Jun 2027 03:40:20.641   12 Jun 2027 03:40:21.002             0.361           180.500
       376   12 Jun 2027 05:15:04.963   12 Jun 2027 05:17:20.234           135.271         67635.500
       377   12 Jun 2027 05:17:23.365   12 Jun 2027 05:17:31.359             7.994          3997.000
       378   12 Jun 2027 06:50:15.673   12 Jun 2027 06:51:53.228            97.555         48777.500
       379   12 Jun 2027 06:52:29.308   12 Jun 2027 06:52:51.057            21.749         10461.594
       380   12 Jun 2027 06:53:09.561   12 Jun 2027 06:53:11.729             2.168           578.250
       381   12 Jun 2027 06:53:24.951   12 Jun 2027 06:53:25.558             0.607           303.500
       382   12 Jun 2027 06:54:00.247   12 Jun 2027 06:54:03.221             2.974          1193.719
       383   12 Jun 2027 06:56:25.605   12 Jun 2027 06:56:30.641             5.036          2518.000
       384   12 Jun 2027 06:56:45.706   12 Jun 2027 06:56:49.963             4.257          1148.938
       385   12 Jun 2027 06:56:50.951   12 Jun 2027 06:56:51.656             0.705            30.875
       386   12 Jun 2027 08:26:34.699   12 Jun 2027 08:26:59.300            24.601         11466.062
       387   12 Jun 2027 08:28:14.266   12 Jun 2027 08:28:20.393             6.127          1567.531
       388   12 Jun 2027 08:28:26.735   12 Jun 2027 08:28:27.706             0.971           198.188
       389   12 Jun 2027 08:28:40.685   12 Jun 2027 08:28:42.688             2.003           197.031
       390   12 Jun 2027 08:29:31.819   12 Jun 2027 08:29:35.051             3.232          1535.344
       391   12 Jun 2027 08:29:47.552   12 Jun 2027 08:29:48.144             0.592           217.875
       392   12 Jun 2027 08:30:00.168   12 Jun 2027 08:30:00.574             0.406           203.000
       393   12 Jun 2027 08:30:59.483   12 Jun 2027 08:31:06.942             7.459          1984.406
       394   12 Jun 2027 08:31:38.958   12 Jun 2027 08:31:43.377             4.419           682.625
       395   12 Jun 2027 08:32:08.104   12 Jun 2027 08:32:12.555             4.451           599.219
       396   12 Jun 2027 08:32:28.277   12 Jun 2027 08:32:29.280             1.003           491.312
       397   12 Jun 2027 10:03:58.211   12 Jun 2027 10:04:15.158            16.947          8473.500
       398   12 Jun 2027 10:04:32.424   12 Jun 2027 10:04:37.087             4.663          1692.656
       399   12 Jun 2027 10:05:07.083   12 Jun 2027 10:05:11.317             4.234           658.063
       400   12 Jun 2027 10:05:25.074   12 Jun 2027 10:05:25.650             0.576           259.594
       401   12 Jun 2027 10:05:43.009   12 Jun 2027 10:05:45.783             2.774           222.562
       402   12 Jun 2027 10:06:38.565   12 Jun 2027 10:06:41.458             2.893          1446.500
       403   12 Jun 2027 10:07:09.997   12 Jun 2027 10:07:14.676             4.679          1081.812
       404   12 Jun 2027 10:07:59.531   12 Jun 2027 10:08:02.323             2.792          1265.500
       405   12 Jun 2027 10:08:19.716   12 Jun 2027 10:08:19.716             0.000             0.000
       406   12 Jun 2027 11:40:10.057   12 Jun 2027 11:40:29.095            19.038          8932.656
       407   12 Jun 2027 11:40:42.373   12 Jun 2027 11:40:50.985             8.612            77.844
       408   12 Jun 2027 11:41:55.496   12 Jun 2027 11:41:59.755             4.259          1777.656
       409   12 Jun 2027 11:42:14.932   12 Jun 2027 11:42:17.594             2.662           474.281
       410   12 Jun 2027 11:42:46.483   12 Jun 2027 11:42:49.273             2.790           893.250
       411   12 Jun 2027 11:43:28.555   12 Jun 2027 11:43:31.187             2.632           935.781
       412   13 Jun 2027 03:50:37.966   13 Jun 2027 03:51:26.044            48.078         24039.000
       413   13 Jun 2027 03:53:15.078   13 Jun 2027 03:53:17.602             2.524          1262.000
       414   13 Jun 2027 03:53:34.715   13 Jun 2027 03:53:44.074             9.359          4679.500
       415   13 Jun 2027 05:27:05.742   13 Jun 2027 05:29:14.976           129.234         64617.000
       416   13 Jun 2027 07:02:18.511   13 Jun 2027 07:04:29.340           130.829         65414.500
       417   13 Jun 2027 07:04:43.559   13 Jun 2027 07:04:45.169             1.610           805.000
       418   13 Jun 2027 07:05:41.903   13 Jun 2027 07:05:49.054             7.151          3030.187
       419   13 Jun 2027 07:08:56.777   13 Jun 2027 07:08:59.087             2.310          1155.000
       420   13 Jun 2027 08:38:13.708   13 Jun 2027 08:38:39.451            25.743         12863.781
       421   13 Jun 2027 08:38:51.133   13 Jun 2027 08:38:55.639             4.506           302.938
       422   13 Jun 2027 08:39:06.480   13 Jun 2027 08:39:10.480             4.000           338.781
       423   13 Jun 2027 08:41:02.283   13 Jun 2027 08:41:06.691             4.408          2149.875
       424   13 Jun 2027 08:41:23.651   13 Jun 2027 08:41:25.012             1.361           265.625
       425   13 Jun 2027 08:42:02.765   13 Jun 2027 08:42:02.765             0.000             0.000
       426   13 Jun 2027 08:42:48.892   13 Jun 2027 08:42:53.811             4.919          2138.500
       427   13 Jun 2027 08:43:25.826   13 Jun 2027 08:43:27.836             2.010           960.719
       428   13 Jun 2027 08:43:32.906   13 Jun 2027 08:43:33.597             0.691           157.438
       429   13 Jun 2027 08:43:58.271   13 Jun 2027 08:43:59.907             1.636           294.094
       430   13 Jun 2027 08:44:16.254   13 Jun 2027 08:44:17.929             1.675           510.844
       431   13 Jun 2027 10:16:12.526   13 Jun 2027 10:16:29.873            17.347          8278.344
       432   13 Jun 2027 10:16:45.534   13 Jun 2027 10:16:47.044             1.510           175.094
       433   13 Jun 2027 10:17:43.982   13 Jun 2027 10:17:52.501             8.519          1779.313
       434   13 Jun 2027 10:18:26.451   13 Jun 2027 10:18:28.819             2.368           661.500
       435   13 Jun 2027 10:19:38.222   13 Jun 2027 10:19:43.475             5.253          2071.187
       436   13 Jun 2027 10:19:45.394   13 Jun 2027 10:19:50.735             5.341            59.969
       437   13 Jun 2027 10:20:29.854   13 Jun 2027 10:20:31.676             1.822           900.438
       438   13 Jun 2027 11:52:04.325   13 Jun 2027 11:52:21.010            16.685          7280.031
       439   13 Jun 2027 11:52:51.044   13 Jun 2027 11:53:01.325            10.281           635.875
       440   13 Jun 2027 11:53:32.084   13 Jun 2027 11:53:36.094             4.010           286.125
       441   13 Jun 2027 11:54:36.593   13 Jun 2027 11:54:44.294             7.701          1890.594
       442   13 Jun 2027 11:54:52.479   13 Jun 2027 11:54:53.279             0.800           255.781
       443   13 Jun 2027 11:56:00.862   13 Jun 2027 11:56:06.508             5.646          2111.969
       444   13 Jun 2027 11:56:58.342   13 Jun 2027 11:57:02.324             3.982          1619.813
