uniorb/output/strategy_1/Camera/Camera_KinoSat_110505.txt

KinoSat_110505
-------------------------
    Access    *     Start Time (UTCG)     *     Stop Time (UTCG)  *   Duration (s) *   Data (Mbytes)
         1   01 Jun 2027 03:45:47.450   01 Jun 2027 03:47:39.106           111.656         55828.000
         2   01 Jun 2027 03:49:20.654   01 Jun 2027 03:49:48.915            28.261         14130.500
         3   01 Jun 2027 03:51:08.349   01 Jun 2027 03:51:24.088            15.739          7869.500
         4   01 Jun 2027 03:52:00.395   01 Jun 2027 03:52:00.395             0.000             0.000
         5   01 Jun 2027 03:53:44.295   01 Jun 2027 03:54:08.984            24.689         12344.500
         6   01 Jun 2027 05:23:15.721   01 Jun 2027 05:25:24.651           128.930         64465.000
         7   01 Jun 2027 05:25:32.118   01 Jun 2027 05:25:33.401             1.283           641.500
         8   01 Jun 2027 05:26:28.945   01 Jun 2027 05:26:52.894            23.949         11974.500
         9   01 Jun 2027 05:28:20.883   01 Jun 2027 05:28:37.598            16.715          8357.500
        10   01 Jun 2027 05:29:16.148   01 Jun 2027 05:29:25.874             9.726          4863.000
        11   01 Jun 2027 05:29:41.158   01 Jun 2027 05:29:44.935             3.777          1888.500
        12   01 Jun 2027 05:30:28.346   01 Jun 2027 05:30:33.813             5.467          2733.500
        13   01 Jun 2027 07:00:00.664   01 Jun 2027 07:02:46.881           166.217         83108.500
        14   01 Jun 2027 07:03:34.756   01 Jun 2027 07:03:34.982             0.226           113.000
        15   01 Jun 2027 07:03:41.125   01 Jun 2027 07:03:45.937             4.812          2406.000
        16   01 Jun 2027 07:04:11.886   01 Jun 2027 07:04:19.346             7.460          3730.000
        17   01 Jun 2027 07:04:37.219   01 Jun 2027 07:04:43.844             6.625          3312.500
        18   01 Jun 2027 07:04:44.148   01 Jun 2027 07:04:48.240             4.092          2046.000
        19   01 Jun 2027 07:05:18.531   01 Jun 2027 07:05:27.386             8.855          4427.500
        20   01 Jun 2027 07:06:17.479   01 Jun 2027 07:06:27.467             9.988          4994.000
        21   01 Jun 2027 08:37:58.910   01 Jun 2027 08:40:24.481           145.571         72785.500
        22   01 Jun 2027 08:42:03.518   01 Jun 2027 08:42:09.497             5.979          2989.500
        23   01 Jun 2027 10:11:36.726   01 Jun 2027 10:13:19.678           102.952         51476.000
        24   01 Jun 2027 10:14:27.113   01 Jun 2027 10:14:51.083            23.970         11985.000
        25   01 Jun 2027 10:15:26.333   01 Jun 2027 10:15:29.735             3.402          1701.000
        26   01 Jun 2027 10:16:24.959   01 Jun 2027 10:16:51.767            26.808         13404.000
        27   01 Jun 2027 10:17:53.442   01 Jun 2027 10:18:01.180             7.738          3869.000
        28   01 Jun 2027 10:18:26.804   01 Jun 2027 10:18:43.289            16.485          8242.500
        29   02 Jun 2027 03:57:15.330   02 Jun 2027 04:02:52.525           337.195        168597.500
        30   02 Jun 2027 04:03:28.989   02 Jun 2027 04:03:32.505             3.516          1758.000
        31   02 Jun 2027 04:04:25.328   02 Jun 2027 04:04:40.333            15.005          7502.500
        32   02 Jun 2027 04:04:54.014   02 Jun 2027 04:04:59.272             5.258          2629.000
        33   02 Jun 2027 04:05:38.425   02 Jun 2027 04:05:50.035            11.610          5805.000
        34   02 Jun 2027 05:35:08.717   02 Jun 2027 05:37:56.794           168.077         84038.500
        35   02 Jun 2027 05:38:59.562   02 Jun 2027 05:39:20.708            21.146         10573.000
        36   02 Jun 2027 05:40:54.326   02 Jun 2027 05:40:59.360             5.034          2517.000
        37   02 Jun 2027 05:41:00.520   02 Jun 2027 05:41:28.244            27.724         13862.000
        38   02 Jun 2027 05:42:25.605   02 Jun 2027 05:42:33.658             8.053          4026.500
        39   02 Jun 2027 07:11:52.603   02 Jun 2027 07:14:47.415           174.812         87406.000
        40   02 Jun 2027 07:15:33.297   02 Jun 2027 07:15:38.309             5.012          2506.000
        41   02 Jun 2027 07:16:28.822   02 Jun 2027 07:16:48.970            20.148         10074.000
        42   02 Jun 2027 07:17:35.626   02 Jun 2027 07:17:40.899             5.273          2636.500
        43   02 Jun 2027 07:18:05.904   02 Jun 2027 07:18:16.693            10.789          5394.500
        44   02 Jun 2027 08:49:59.165   02 Jun 2027 08:52:24.926           145.761         72880.500
        45   02 Jun 2027 08:52:32.269   02 Jun 2027 08:52:32.896             0.627           313.500
        46   02 Jun 2027 08:52:51.959   02 Jun 2027 08:52:59.313             7.354          3677.000
        47   02 Jun 2027 08:53:42.428   02 Jun 2027 08:54:08.535            26.107         13053.500
        48   02 Jun 2027 10:25:42.940   02 Jun 2027 10:27:16.406            93.466         46733.000
        49   02 Jun 2027 10:27:31.208   02 Jun 2027 10:28:04.966            33.758         16879.000
        50   02 Jun 2027 10:29:00.245   02 Jun 2027 10:29:11.384            11.139          5569.500
        51   03 Jun 2027 04:10:07.341   03 Jun 2027 04:16:56.011           408.670        204335.000
        52   03 Jun 2027 04:17:01.791   03 Jun 2027 04:17:23.409            21.618         10809.000
        53   03 Jun 2027 04:17:48.408   03 Jun 2027 04:17:56.366             7.958          3979.000
        54   03 Jun 2027 04:18:37.721   03 Jun 2027 04:18:37.916             0.195            97.500
        55   03 Jun 2027 05:47:16.121   03 Jun 2027 05:50:08.230           172.109         86054.500
        56   03 Jun 2027 05:50:46.807   03 Jun 2027 05:51:09.846            23.039         11519.500
        57   03 Jun 2027 05:51:59.490   03 Jun 2027 05:52:28.662            29.172         14586.000
        58   03 Jun 2027 05:53:43.090   03 Jun 2027 05:53:57.188            14.098          7049.000
        59   03 Jun 2027 07:24:30.490   03 Jun 2027 07:26:02.024            91.534         45767.000
        60   03 Jun 2027 07:26:14.449   03 Jun 2027 07:26:28.282            13.833          6916.500
        61   03 Jun 2027 07:27:16.208   03 Jun 2027 07:28:34.424            78.216         39108.000
        62   03 Jun 2027 07:29:47.781   03 Jun 2027 07:29:55.050             7.269          3634.500
        63   03 Jun 2027 07:30:04.258   03 Jun 2027 07:30:15.328            11.070          5535.000
        64   03 Jun 2027 09:01:12.967   03 Jun 2027 09:03:40.706           147.739         73869.500
        65   03 Jun 2027 09:03:46.982   03 Jun 2027 09:03:54.651             7.669          3834.500
        66   03 Jun 2027 09:04:45.352   03 Jun 2027 09:04:50.529             5.177          2588.500
        67   03 Jun 2027 09:04:52.619   03 Jun 2027 09:04:55.174             2.555          1277.500
        68   03 Jun 2027 09:05:20.910   03 Jun 2027 09:05:46.601            25.691         12845.500
        69   03 Jun 2027 10:36:24.387   03 Jun 2027 10:36:38.424            14.037          7018.500
        70   03 Jun 2027 10:37:58.932   03 Jun 2027 10:38:47.282            48.350         24175.000
        71   03 Jun 2027 10:39:14.010   03 Jun 2027 10:39:19.976             5.966          2983.000
        72   03 Jun 2027 10:40:11.608   03 Jun 2027 10:40:26.177            14.569          7284.500
        73   04 Jun 2027 04:22:30.706   04 Jun 2027 04:29:00.702           389.996        194998.000
        74   04 Jun 2027 04:30:04.510   04 Jun 2027 04:30:12.323             7.813          3906.500
        75   04 Jun 2027 04:30:21.533   04 Jun 2027 04:30:36.535            15.002          7501.000
        76   04 Jun 2027 05:59:41.531   04 Jun 2027 06:02:12.158           150.627         75313.500
        77   04 Jun 2027 06:02:19.624   04 Jun 2027 06:02:26.871             7.247          3623.500
        78   04 Jun 2027 06:03:05.599   04 Jun 2027 06:03:21.804            16.205          8102.500
        79   04 Jun 2027 06:05:51.117   04 Jun 2027 06:06:10.248            19.131          9565.500
        80   04 Jun 2027 07:36:41.732   04 Jun 2027 07:39:14.184           152.452         76226.000
        81   04 Jun 2027 07:39:18.106   04 Jun 2027 07:39:19.482             1.376           688.000
        82   04 Jun 2027 07:39:48.286   04 Jun 2027 07:39:52.575             4.289          2144.500
        83   04 Jun 2027 07:40:06.036   04 Jun 2027 07:40:15.545             9.509          4754.500
        84   04 Jun 2027 07:40:28.400   04 Jun 2027 07:40:28.934             0.534           267.000
        85   04 Jun 2027 07:40:52.994   04 Jun 2027 07:41:22.636            29.642         14821.000
        86   04 Jun 2027 07:41:54.128   04 Jun 2027 07:41:59.150             5.022          2511.000
        87   04 Jun 2027 09:13:27.817   04 Jun 2027 09:14:26.879            59.062         29531.000
        88   04 Jun 2027 09:14:50.049   04 Jun 2027 09:15:12.595            22.546         11273.000
        89   04 Jun 2027 09:16:45.891   04 Jun 2027 09:16:46.193             0.302           151.000
        90   04 Jun 2027 09:16:46.550   04 Jun 2027 09:17:00.054            13.504          6752.000
        91   04 Jun 2027 10:51:37.729   04 Jun 2027 10:51:55.046            17.317          8658.500
        92   04 Jun 2027 10:52:02.650   04 Jun 2027 10:52:26.103            23.453         11726.500
        93   05 Jun 2027 03:00:38.474   05 Jun 2027 03:04:11.358           212.884        106442.000
        94   05 Jun 2027 04:35:47.319   05 Jun 2027 04:37:09.492            82.173         41086.500
        95   05 Jun 2027 04:37:13.936   05 Jun 2027 04:37:26.621            12.685          6342.500
        96   05 Jun 2027 04:38:42.361   05 Jun 2027 04:39:01.228            18.867          9433.500
        97   05 Jun 2027 04:39:17.185   05 Jun 2027 04:39:30.362            13.177          6588.500
        98   05 Jun 2027 04:40:26.699   05 Jun 2027 04:40:39.364            12.665          6332.500
        99   05 Jun 2027 04:41:28.559   05 Jun 2027 04:41:32.307             3.748          1874.000
       100   05 Jun 2027 04:41:33.175   05 Jun 2027 04:41:39.185             6.010          3005.000
       101   05 Jun 2027 04:41:49.297   05 Jun 2027 04:41:58.716             9.419          4709.500
       102   05 Jun 2027 04:42:20.005   05 Jun 2027 04:42:32.310            12.305          6152.500
       103   05 Jun 2027 06:12:07.309   05 Jun 2027 06:14:15.337           128.028         64014.000
       104   05 Jun 2027 06:15:03.375   05 Jun 2027 06:15:25.255            21.880         10940.000
       105   05 Jun 2027 06:16:38.485   05 Jun 2027 06:17:15.451            36.966         18483.000
       106   05 Jun 2027 07:49:41.840   05 Jun 2027 07:51:39.453           117.613         58806.500
       107   05 Jun 2027 07:52:22.258   05 Jun 2027 07:52:31.613             9.355          4677.500
       108   05 Jun 2027 07:52:33.493   05 Jun 2027 07:52:34.907             1.414           707.000
       109   05 Jun 2027 07:52:54.962   05 Jun 2027 07:53:01.638             6.676          3338.000
       110   05 Jun 2027 07:53:37.691   05 Jun 2027 07:53:46.770             9.079          4539.500
       111   05 Jun 2027 09:25:44.643   05 Jun 2027 09:26:18.400            33.757         16878.500
       112   05 Jun 2027 09:27:01.781   05 Jun 2027 09:27:14.193            12.412          6206.000
       113   05 Jun 2027 09:28:19.280   05 Jun 2027 09:28:32.606            13.326          6663.000
       114   05 Jun 2027 09:29:11.395   05 Jun 2027 09:29:30.494            19.099          9549.500
       115   06 Jun 2027 03:12:48.852   06 Jun 2027 03:16:02.455           193.603         96801.500
       116   06 Jun 2027 04:47:58.971   06 Jun 2027 04:50:14.798           135.827         67913.500
       117   06 Jun 2027 04:50:39.358   06 Jun 2027 04:51:01.456            22.098         11049.000
       118   06 Jun 2027 04:52:37.155   06 Jun 2027 04:52:37.362             0.207           103.500
       119   06 Jun 2027 04:53:25.631   06 Jun 2027 04:53:40.441            14.810          7405.000
       120   06 Jun 2027 04:53:48.999   06 Jun 2027 04:54:13.959            24.960         12480.000
       121   06 Jun 2027 04:54:29.659   06 Jun 2027 04:54:34.529             4.870          2435.000
       122   06 Jun 2027 06:24:19.835   06 Jun 2027 06:26:46.056           146.221         73110.500
       123   06 Jun 2027 06:29:13.380   06 Jun 2027 06:30:00.636            47.256         23628.000
       124   06 Jun 2027 08:01:36.625   06 Jun 2027 08:03:02.902            86.277         43138.500
       125   06 Jun 2027 08:03:45.084   06 Jun 2027 08:03:50.611             5.527          2763.500
       126   06 Jun 2027 08:04:26.060   06 Jun 2027 08:04:42.952            16.892          8446.000
       127   06 Jun 2027 08:05:15.350   06 Jun 2027 08:05:15.350             0.000             0.000
       128   06 Jun 2027 08:05:28.165   06 Jun 2027 08:05:42.590            14.425          7212.500
       129   06 Jun 2027 08:06:09.649   06 Jun 2027 08:06:11.815             2.166          1083.000
       130   06 Jun 2027 09:37:49.037   06 Jun 2027 09:38:21.083            32.046         16023.000
       131   06 Jun 2027 09:39:09.805   06 Jun 2027 09:39:15.848             6.043          3021.500
       132   06 Jun 2027 09:39:40.732   06 Jun 2027 09:39:55.044            14.312          7156.000
       133   06 Jun 2027 09:40:43.129   06 Jun 2027 09:40:52.192             9.063          4531.500
       134   06 Jun 2027 09:41:24.622   06 Jun 2027 09:41:40.547            15.925          7962.500
       135   06 Jun 2027 09:42:39.460   06 Jun 2027 09:42:40.444             0.984           492.000
       136   07 Jun 2027 03:24:36.521   07 Jun 2027 03:27:37.649           181.128         90564.000
       137   07 Jun 2027 03:28:00.996   07 Jun 2027 03:28:00.996             0.000             0.000
       138   07 Jun 2027 03:28:05.915   07 Jun 2027 03:28:17.975            12.060          6030.000
       139   07 Jun 2027 04:59:29.957   07 Jun 2027 05:01:15.487           105.530         52765.000
       140   07 Jun 2027 05:01:18.551   07 Jun 2027 05:01:33.796            15.245          7622.500
       141   07 Jun 2027 05:01:58.189   07 Jun 2027 05:01:59.071             0.882           441.000
       142   07 Jun 2027 05:03:07.710   07 Jun 2027 05:03:17.857            10.147          5073.500
       143   07 Jun 2027 05:03:48.923   07 Jun 2027 05:03:49.866             0.943           471.500
       144   07 Jun 2027 05:03:54.422   07 Jun 2027 05:04:06.080            11.658          5829.000
       145   07 Jun 2027 05:04:59.336   07 Jun 2027 05:05:06.867             7.531          3765.500
       146   07 Jun 2027 05:05:51.751   07 Jun 2027 05:06:21.512            29.761         14880.500
       147   07 Jun 2027 05:06:39.921   07 Jun 2027 05:06:41.917             1.996           998.000
       148   07 Jun 2027 06:35:58.125   07 Jun 2027 06:38:15.077           136.952         68476.000
       149   07 Jun 2027 06:38:51.283   07 Jun 2027 06:39:00.308             9.025          4512.500
       150   07 Jun 2027 06:39:55.908   07 Jun 2027 06:40:17.269            21.361         10680.500
       151   07 Jun 2027 06:41:17.579   07 Jun 2027 06:41:55.777            38.198         19099.000
       152   07 Jun 2027 08:14:16.102   07 Jun 2027 08:15:21.081            64.979         32489.500
       153   07 Jun 2027 08:15:22.401   07 Jun 2027 08:15:22.401             0.000             0.000
       154   07 Jun 2027 08:15:34.971   07 Jun 2027 08:15:49.021            14.050          7025.000
       155   07 Jun 2027 08:16:29.595   07 Jun 2027 08:16:33.730             4.135          2067.500
       156   07 Jun 2027 08:17:36.324   07 Jun 2027 08:17:59.501            23.177         11588.500
       157   07 Jun 2027 09:49:42.989   07 Jun 2027 09:50:19.803            36.814         18407.000
       158   07 Jun 2027 09:51:37.485   07 Jun 2027 09:51:41.787             4.302          2151.000
       159   07 Jun 2027 09:51:54.242   07 Jun 2027 09:52:06.151            11.909          5954.500
       160   07 Jun 2027 09:52:52.216   07 Jun 2027 09:53:15.815            23.599         11799.500
       161   07 Jun 2027 09:54:38.529   07 Jun 2027 09:54:39.892             1.363           681.500
       162   07 Jun 2027 09:54:42.409   07 Jun 2027 09:54:47.556             5.147          2573.500
       163   08 Jun 2027 03:34:52.778   08 Jun 2027 03:35:43.436            50.658         25329.000
       164   08 Jun 2027 03:36:21.521   08 Jun 2027 03:38:37.897           136.376         68188.000
       165   08 Jun 2027 03:39:03.520   08 Jun 2027 03:39:20.990            17.470          8735.000
       166   08 Jun 2027 03:39:29.789   08 Jun 2027 03:39:36.806             7.017          3508.500
       167   08 Jun 2027 03:39:47.178   08 Jun 2027 03:40:01.508            14.330          7165.000
       168   08 Jun 2027 05:11:11.571   08 Jun 2027 05:13:53.216           161.645         80822.500
       169   08 Jun 2027 05:14:14.032   08 Jun 2027 05:14:24.551            10.519          5259.500
       170   08 Jun 2027 05:14:36.114   08 Jun 2027 05:15:04.005            27.891         13945.500
       171   08 Jun 2027 05:17:00.702   08 Jun 2027 05:17:09.935             9.233          4616.500
       172   08 Jun 2027 05:17:58.576   08 Jun 2027 05:18:20.870            22.294         11147.000
       173   08 Jun 2027 05:18:44.385   08 Jun 2027 05:18:44.511             0.126            63.000
       174   08 Jun 2027 06:48:17.932   08 Jun 2027 06:50:59.875           161.943         80971.500
       175   08 Jun 2027 06:51:27.684   08 Jun 2027 06:51:37.295             9.611          4805.500
       176   08 Jun 2027 06:52:08.033   08 Jun 2027 06:52:22.142            14.109          7054.500
       177   08 Jun 2027 06:52:30.912   08 Jun 2027 06:52:34.621             3.709          1854.500
       178   08 Jun 2027 06:52:57.176   08 Jun 2027 06:52:58.008             0.832           416.000
       179   08 Jun 2027 06:54:36.042   08 Jun 2027 06:54:37.687             1.645           822.500
       180   08 Jun 2027 08:26:14.094   08 Jun 2027 08:27:15.510            61.416         30708.000
       181   08 Jun 2027 08:28:47.167   08 Jun 2027 08:28:47.354             0.187            93.500
       182   08 Jun 2027 08:29:27.768   08 Jun 2027 08:29:45.353            17.585          8792.500
       183   08 Jun 2027 09:59:19.025   08 Jun 2027 09:59:51.190            32.165         16082.500
       184   08 Jun 2027 10:00:04.489   08 Jun 2027 10:00:21.665            17.176          8588.000
       185   08 Jun 2027 10:02:16.080   08 Jun 2027 10:02:20.655             4.575          2287.500
       186   08 Jun 2027 10:02:38.282   08 Jun 2027 10:02:46.731             8.449          4224.500
       187   08 Jun 2027 10:03:18.739   08 Jun 2027 10:03:21.096             2.357          1178.500
       188   08 Jun 2027 10:03:25.154   08 Jun 2027 10:03:39.852            14.698          7349.000
       189   08 Jun 2027 10:04:41.827   08 Jun 2027 10:04:45.314             3.487          1743.500
       190   08 Jun 2027 10:05:19.705   08 Jun 2027 10:05:31.565            11.860          5930.000
       191   08 Jun 2027 10:06:21.493   08 Jun 2027 10:06:30.151             8.658          4329.000
       192   08 Jun 2027 10:06:55.364   08 Jun 2027 10:07:02.199             6.835          3417.500
       193   09 Jun 2027 03:46:01.667   09 Jun 2027 03:47:56.574           114.907         57453.500
       194   09 Jun 2027 03:48:05.460   09 Jun 2027 03:50:21.023           135.563         67781.500
       195   09 Jun 2027 03:51:24.194   09 Jun 2027 03:51:45.420            21.226         10613.000
       196   09 Jun 2027 03:51:55.770   09 Jun 2027 03:52:01.699             5.929          2964.500
       197   09 Jun 2027 03:52:10.213   09 Jun 2027 03:52:17.693             7.480          3740.000
       198   09 Jun 2027 03:53:58.828   09 Jun 2027 03:54:23.645            24.817         12408.500
       199   09 Jun 2027 05:23:30.228   09 Jun 2027 05:25:46.774           136.546         68273.000
       200   09 Jun 2027 05:29:07.707   09 Jun 2027 05:30:15.779            68.072         34036.000
       201   09 Jun 2027 05:30:48.093   09 Jun 2027 05:30:48.436             0.343           171.500
       202   09 Jun 2027 07:00:14.919   09 Jun 2027 07:02:35.538           140.619         70309.500
       203   09 Jun 2027 07:02:43.616   09 Jun 2027 07:03:06.994            23.378         11689.000
       204   09 Jun 2027 07:04:02.406   09 Jun 2027 07:04:04.407             2.001          1000.500
       205   09 Jun 2027 07:04:30.780   09 Jun 2027 07:04:43.484            12.704          6352.000
       206   09 Jun 2027 07:04:55.343   09 Jun 2027 07:04:58.736             3.393          1696.500
       207   09 Jun 2027 07:05:11.689   09 Jun 2027 07:05:18.565             6.876          3438.000
       208   09 Jun 2027 07:05:25.311   09 Jun 2027 07:05:34.113             8.802          4401.000
       209   09 Jun 2027 08:38:13.302   09 Jun 2027 08:39:14.754            61.452         30726.000
       210   09 Jun 2027 08:40:16.956   09 Jun 2027 08:40:39.320            22.364         11182.000
       211   09 Jun 2027 08:42:18.158   09 Jun 2027 08:42:24.102             5.944          2972.000
       212   09 Jun 2027 10:11:51.221   09 Jun 2027 10:12:00.850             9.629          4814.500
       213   09 Jun 2027 10:12:57.320   09 Jun 2027 10:13:34.314            36.994         18497.000
       214   09 Jun 2027 10:15:41.111   09 Jun 2027 10:15:44.368             3.257          1628.500
       215   09 Jun 2027 10:15:48.708   09 Jun 2027 10:15:59.669            10.961          5480.500
       216   09 Jun 2027 10:16:45.421   09 Jun 2027 10:17:06.501            21.080         10540.000
       217   09 Jun 2027 10:18:43.091   09 Jun 2027 10:18:58.284            15.193          7596.500
       218   10 Jun 2027 03:57:29.701   10 Jun 2027 04:02:28.112           298.411        149205.500
       219   10 Jun 2027 04:05:53.057   10 Jun 2027 04:06:51.332            58.275         29137.500
       220   10 Jun 2027 05:35:23.311   10 Jun 2027 05:38:11.635           168.324         84162.000
       221   10 Jun 2027 05:39:35.508   10 Jun 2027 05:39:43.137             7.629          3814.500
       222   10 Jun 2027 05:40:43.075   10 Jun 2027 05:41:12.343            29.268         14634.000
       223   10 Jun 2027 05:41:14.740   10 Jun 2027 05:41:52.170            37.430         18715.000
       224   10 Jun 2027 05:42:41.155   10 Jun 2027 05:42:44.913             3.758          1879.000
       225   10 Jun 2027 07:12:07.244   10 Jun 2027 07:13:31.307            84.063         42031.500
       226   10 Jun 2027 07:14:18.895   10 Jun 2027 07:15:44.539            85.644         42822.000
       227   10 Jun 2027 07:16:43.313   10 Jun 2027 07:16:52.001             8.688          4344.000
       228   10 Jun 2027 07:17:14.309   10 Jun 2027 07:17:21.839             7.530          3765.000
       229   10 Jun 2027 07:18:25.579   10 Jun 2027 07:18:34.562             8.983          4491.500
       230   10 Jun 2027 08:50:13.479   10 Jun 2027 08:50:51.348            37.869         18934.500
       231   10 Jun 2027 08:51:08.917   10 Jun 2027 08:51:24.392            15.475          7737.500
       232   10 Jun 2027 08:52:50.841   10 Jun 2027 08:53:00.722             9.881          4940.500
       233   10 Jun 2027 08:53:06.562   10 Jun 2027 08:53:08.511             1.949           974.500
       234   10 Jun 2027 08:53:14.657   10 Jun 2027 08:53:17.179             2.522          1261.000
       235   10 Jun 2027 08:53:57.256   10 Jun 2027 08:54:22.885            25.629         12814.500
       236   10 Jun 2027 10:25:57.918   10 Jun 2027 10:26:15.948            18.030          9015.000
       237   10 Jun 2027 10:27:11.861   10 Jun 2027 10:27:16.128             4.267          2133.500
       238   10 Jun 2027 10:27:31.196   10 Jun 2027 10:27:39.041             7.845          3922.500
       239   10 Jun 2027 10:28:27.346   10 Jun 2027 10:28:34.092             6.746          3373.000
       240   10 Jun 2027 10:28:44.762   10 Jun 2027 10:29:15.002            30.240         15120.000
       241   11 Jun 2027 04:10:22.092   11 Jun 2027 04:15:24.222           302.130        151065.000
       242   11 Jun 2027 04:15:46.639   11 Jun 2027 04:16:00.776            14.137          7068.500
       243   11 Jun 2027 04:16:09.642   11 Jun 2027 04:16:14.814             5.172          2586.000
       244   11 Jun 2027 04:17:38.627   11 Jun 2027 04:17:41.116             2.489          1244.500
       245   11 Jun 2027 04:17:44.053   11 Jun 2027 04:18:00.615            16.562          8281.000
       246   11 Jun 2027 04:18:02.709   11 Jun 2027 04:18:29.074            26.365         13182.500
       247   11 Jun 2027 04:18:52.295   11 Jun 2027 04:18:52.582             0.287           143.500
       248   11 Jun 2027 05:47:30.896   11 Jun 2027 05:49:47.548           136.652         68326.000
       249   11 Jun 2027 05:50:34.328   11 Jun 2027 05:51:01.830            27.502         13751.000
       250   11 Jun 2027 05:51:26.243   11 Jun 2027 05:51:52.943            26.700         13350.000
       251   11 Jun 2027 05:52:30.149   11 Jun 2027 05:52:43.348            13.199          6599.500
       252   11 Jun 2027 05:53:36.174   11 Jun 2027 05:53:55.133            18.959          9479.500
       253   11 Jun 2027 05:54:46.294   11 Jun 2027 05:54:48.609             2.315          1157.500
       254   11 Jun 2027 07:24:45.479   11 Jun 2027 07:27:10.337           144.858         72429.000
       255   11 Jun 2027 07:27:13.742   11 Jun 2027 07:27:31.075            17.333          8666.500
       256   11 Jun 2027 07:28:33.923   11 Jun 2027 07:28:39.590             5.667          2833.500
       257   11 Jun 2027 07:30:21.652   11 Jun 2027 07:30:29.866             8.214          4107.000
       258   11 Jun 2027 09:01:27.405   11 Jun 2027 09:02:03.063            35.658         17829.000
       259   11 Jun 2027 09:02:40.019   11 Jun 2027 09:02:50.623            10.604          5302.000
       260   11 Jun 2027 09:03:25.806   11 Jun 2027 09:03:29.191             3.385          1692.500
       261   11 Jun 2027 09:03:53.515   11 Jun 2027 09:04:03.350             9.835          4917.500
       262   11 Jun 2027 09:05:00.209   11 Jun 2027 09:05:14.345            14.136          7068.000
       263   11 Jun 2027 09:05:34.033   11 Jun 2027 09:05:34.100             0.067            33.500
       264   11 Jun 2027 09:06:06.382   11 Jun 2027 09:06:13.689             7.307          3653.500
       265   11 Jun 2027 10:36:39.179   11 Jun 2027 10:36:53.176            13.997          6998.500
       266   11 Jun 2027 10:38:13.978   11 Jun 2027 10:39:03.748            49.770         24885.000
       267   12 Jun 2027 04:22:45.844   12 Jun 2027 04:27:19.075           273.231        136615.500
       268   12 Jun 2027 04:28:05.385   12 Jun 2027 04:29:19.672            74.287         37143.500
       269   12 Jun 2027 04:29:36.469   12 Jun 2027 04:29:38.710             2.241          1120.500
       270   12 Jun 2027 04:30:17.019   12 Jun 2027 04:30:27.384            10.365          5182.500
       271   12 Jun 2027 04:30:36.244   12 Jun 2027 04:30:43.126             6.882          3441.000
       272   12 Jun 2027 05:59:56.227   12 Jun 2027 06:01:46.483           110.256         55128.000
       273   12 Jun 2027 06:02:07.843   12 Jun 2027 06:03:15.241            67.398         33699.000
       274   12 Jun 2027 06:03:24.977   12 Jun 2027 06:03:27.437             2.460          1230.000
       275   12 Jun 2027 06:04:04.224   12 Jun 2027 06:04:08.023             3.799          1899.500
       276   12 Jun 2027 06:05:59.016   12 Jun 2027 06:06:03.134             4.118          2059.000
       277   12 Jun 2027 06:06:21.989   12 Jun 2027 06:06:38.411            16.422          8211.000
       278   12 Jun 2027 07:36:55.612   12 Jun 2027 07:38:27.084            91.472         45736.000
       279   12 Jun 2027 07:38:39.208   12 Jun 2027 07:39:23.661            44.453         22226.500
       280   12 Jun 2027 07:40:04.851   12 Jun 2027 07:40:10.320             5.469          2734.500
       281   12 Jun 2027 07:40:55.021   12 Jun 2027 07:40:59.381             4.360          2180.000
       282   12 Jun 2027 07:41:41.290   12 Jun 2027 07:41:59.869            18.579          9289.500
       283   12 Jun 2027 09:13:42.168   12 Jun 2027 09:14:12.066            29.898         14949.000
       284   12 Jun 2027 09:14:36.435   12 Jun 2027 09:14:42.315             5.880          2940.000
       285   12 Jun 2027 09:15:02.612   12 Jun 2027 09:15:04.785             2.173          1086.500
       286   12 Jun 2027 09:16:15.906   12 Jun 2027 09:16:38.359            22.453         11226.500
       287   12 Jun 2027 09:16:53.372   12 Jun 2027 09:16:54.522             1.150           575.000
       288   12 Jun 2027 09:17:15.054   12 Jun 2027 09:17:16.676             1.622           811.000
       289   12 Jun 2027 09:17:23.564   12 Jun 2027 09:17:24.495             0.931           465.500
       290   12 Jun 2027 10:51:52.459   12 Jun 2027 10:52:09.612            17.153          8576.500
       291   12 Jun 2027 10:52:40.703   12 Jun 2027 10:52:55.638            14.935          7467.500
       292   13 Jun 2027 03:00:53.149   13 Jun 2027 03:04:25.969           212.820        106410.000
       293   13 Jun 2027 04:36:01.976   13 Jun 2027 04:37:45.800           103.824         51912.000
       294   13 Jun 2027 04:38:05.333   13 Jun 2027 04:38:20.319            14.986          7493.000
       295   13 Jun 2027 04:39:17.369   13 Jun 2027 04:39:17.369             0.000             0.000
       296   13 Jun 2027 04:39:34.648   13 Jun 2027 04:39:45.030            10.382          5191.000
       297   13 Jun 2027 04:40:23.901   13 Jun 2027 04:40:44.645            20.744         10372.000
       298   13 Jun 2027 04:41:39.240   13 Jun 2027 04:41:47.053             7.813          3906.500
       299   13 Jun 2027 04:41:47.692   13 Jun 2027 04:41:53.504             5.812          2906.000
       300   13 Jun 2027 04:41:59.630   13 Jun 2027 04:42:04.270             4.640          2320.000
       301   13 Jun 2027 04:42:42.820   13 Jun 2027 04:42:50.692             7.872          3936.000
       302   13 Jun 2027 06:12:22.137   13 Jun 2027 06:15:07.252           165.115         82557.500
       303   13 Jun 2027 06:16:45.728   13 Jun 2027 06:17:01.632            15.904          7952.000
       304   13 Jun 2027 07:49:56.407   13 Jun 2027 07:51:58.722           122.315         61157.500
       305   13 Jun 2027 07:52:48.272   13 Jun 2027 07:53:03.235            14.963          7481.500
       306   13 Jun 2027 07:53:35.285   13 Jun 2027 07:53:49.669            14.384          7192.000
       307   13 Jun 2027 09:25:59.399   13 Jun 2027 09:26:33.975            34.576         17288.000
       308   13 Jun 2027 09:27:16.669   13 Jun 2027 09:27:25.311             8.642          4321.000
       309   13 Jun 2027 09:28:17.332   13 Jun 2027 09:28:23.912             6.580          3290.000
       310   13 Jun 2027 09:28:52.413   13 Jun 2027 09:29:01.182             8.769          4384.500
       311   13 Jun 2027 09:29:58.393   13 Jun 2027 09:30:09.701            11.308          5654.000
