uniorb/output/strategy_1/Camera/Camera_KinoSat_110304.txt

KinoSat_110304
-------------------------
    Access    *     Start Time (UTCG)     *     Stop Time (UTCG)  *   Duration (s) *   Data (Mbytes)
         1   01 Jun 2027 04:06:04.457   01 Jun 2027 04:07:54.083           109.626         54813.000
         2   01 Jun 2027 04:08:11.720   01 Jun 2027 04:08:28.362            16.642          8321.000
         3   01 Jun 2027 04:10:33.298   01 Jun 2027 04:10:42.595             9.297          4648.500
         4   01 Jun 2027 04:11:30.003   01 Jun 2027 04:11:49.704            19.701          9850.500
         5   01 Jun 2027 04:12:19.489   01 Jun 2027 04:12:41.173            21.684         10842.000
         6   01 Jun 2027 04:13:18.886   01 Jun 2027 04:13:23.415             4.529          2264.500
         7   01 Jun 2027 05:42:52.317   01 Jun 2027 05:45:40.724           168.407         84203.500
         8   01 Jun 2027 05:46:06.713   01 Jun 2027 05:46:31.458            24.745         12372.500
         9   01 Jun 2027 05:48:34.774   01 Jun 2027 05:49:15.976            41.202         20601.000
        10   01 Jun 2027 07:20:49.375   01 Jun 2027 07:23:32.897           163.522         81761.000
        11   01 Jun 2027 07:23:49.007   01 Jun 2027 07:23:54.480             5.473          2736.500
        12   01 Jun 2027 07:24:06.969   01 Jun 2027 07:24:27.515            20.546         10273.000
        13   01 Jun 2027 07:24:39.211   01 Jun 2027 07:24:44.823             5.612          2806.000
        14   01 Jun 2027 08:54:25.072   01 Jun 2027 08:56:24.667           119.595         59797.500
        15   01 Jun 2027 08:58:07.235   01 Jun 2027 08:58:29.286            22.051         11025.500
        16   01 Jun 2027 08:58:56.451   01 Jun 2027 08:59:13.495            17.044          8522.000
        17   01 Jun 2027 09:00:23.609   01 Jun 2027 09:00:31.644             8.035          4017.500
        18   01 Jun 2027 09:01:20.854   01 Jun 2027 09:01:33.760            12.906          6453.000
        19   01 Jun 2027 09:01:49.634   01 Jun 2027 09:01:52.582             2.948          1474.000
        20   02 Jun 2027 04:17:58.399   02 Jun 2027 04:24:44.135           405.736        202868.000
        21   02 Jun 2027 04:24:52.335   02 Jun 2027 04:25:03.570            11.235          5617.500
        22   02 Jun 2027 05:54:42.825   02 Jun 2027 05:58:09.849           207.024        103512.000
        23   02 Jun 2027 05:58:20.558   02 Jun 2027 05:58:34.128            13.570          6785.000
        24   02 Jun 2027 06:00:16.537   02 Jun 2027 06:00:36.399            19.862          9931.000
        25   02 Jun 2027 06:01:03.450   02 Jun 2027 06:01:16.395            12.945          6472.500
        26   02 Jun 2027 07:32:51.437   02 Jun 2027 07:35:46.378           174.941         87470.500
        27   02 Jun 2027 07:36:00.588   02 Jun 2027 07:36:38.337            37.749         18874.500
        28   02 Jun 2027 09:06:42.107   02 Jun 2027 09:08:45.271           123.164         61582.000
        29   02 Jun 2027 09:09:49.069   02 Jun 2027 09:09:51.715             2.646          1323.000
        30   02 Jun 2027 09:10:21.028   02 Jun 2027 09:10:48.151            27.123         13561.500
        31   02 Jun 2027 09:11:44.716   02 Jun 2027 09:11:44.716             0.000             0.000
        32   02 Jun 2027 09:11:57.966   02 Jun 2027 09:12:07.903             9.937          4968.500
        33   03 Jun 2027 03:00:00.000   03 Jun 2027 03:00:15.454            15.454          7727.000
        34   03 Jun 2027 03:00:27.920   03 Jun 2027 03:01:28.165            60.245         30122.500
        35   03 Jun 2027 04:30:05.129   03 Jun 2027 04:36:48.022           402.893        201446.500
        36   03 Jun 2027 06:07:08.117   03 Jun 2027 06:10:02.111           173.994         86997.000
        37   03 Jun 2027 06:11:09.280   03 Jun 2027 06:11:10.111             0.831           415.500
        38   03 Jun 2027 06:11:42.332   03 Jun 2027 06:11:53.486            11.154          5577.000
        39   03 Jun 2027 06:12:29.197   03 Jun 2027 06:12:48.802            19.605          9802.500
        40   03 Jun 2027 07:44:05.141   03 Jun 2027 07:47:08.649           183.508         91754.000
        41   03 Jun 2027 07:47:31.596   03 Jun 2027 07:47:51.038            19.442          9721.000
        42   03 Jun 2027 07:48:07.180   03 Jun 2027 07:48:08.109             0.929           464.500
        43   03 Jun 2027 09:19:09.135   03 Jun 2027 09:19:33.544            24.409         12204.500
        44   03 Jun 2027 09:20:48.843   03 Jun 2027 09:22:33.895           105.052         52526.000
        45   03 Jun 2027 09:23:49.308   03 Jun 2027 09:24:00.277            10.969          5484.500
        46   04 Jun 2027 03:03:38.615   04 Jun 2027 03:04:19.305            40.690         20345.000
        47   04 Jun 2027 03:05:02.415   04 Jun 2027 03:09:17.339           254.924        127462.000
        48   04 Jun 2027 03:09:55.922   04 Jun 2027 03:10:07.772            11.850          5925.000
        49   04 Jun 2027 03:10:54.693   04 Jun 2027 03:11:08.875            14.182          7091.000
        50   04 Jun 2027 03:12:10.748   04 Jun 2027 03:12:19.789             9.041          4520.500
        51   04 Jun 2027 03:13:24.465   04 Jun 2027 03:13:26.935             2.470          1235.000
        52   04 Jun 2027 04:42:31.428   04 Jun 2027 04:44:46.979           135.551         67775.500
        53   04 Jun 2027 04:46:15.514   04 Jun 2027 04:46:57.423            41.909         20954.500
        54   04 Jun 2027 04:48:29.202   04 Jun 2027 04:48:43.070            13.868          6934.000
        55   04 Jun 2027 04:48:59.108   04 Jun 2027 04:49:03.321             4.213          2106.500
        56   04 Jun 2027 06:19:28.159   04 Jun 2027 06:21:32.307           124.148         62074.000
        57   04 Jun 2027 06:21:40.008   04 Jun 2027 06:22:09.101            29.093         14546.500
        58   04 Jun 2027 06:23:23.470   04 Jun 2027 06:23:42.985            19.515          9757.500
        59   04 Jun 2027 06:24:26.466   04 Jun 2027 06:24:35.876             9.410          4705.000
        60   04 Jun 2027 07:56:18.524   04 Jun 2027 07:58:29.034           130.510         65255.000
        61   04 Jun 2027 07:58:55.215   04 Jun 2027 07:59:06.531            11.316          5658.000
        62   04 Jun 2027 07:59:29.327   04 Jun 2027 07:59:29.774             0.447           223.500
        63   04 Jun 2027 08:00:20.863   04 Jun 2027 08:00:26.453             5.590          2795.000
        64   04 Jun 2027 08:00:40.391   04 Jun 2027 08:00:46.598             6.207          3103.500
        65   04 Jun 2027 09:34:16.786   04 Jun 2027 09:34:49.440            32.654         16327.000
        66   05 Jun 2027 03:18:30.929   05 Jun 2027 03:22:48.990           258.061        129030.500
        67   05 Jun 2027 03:22:58.997   05 Jun 2027 03:23:14.752            15.755          7877.500
        68   05 Jun 2027 03:25:19.282   05 Jun 2027 03:25:23.827             4.545          2272.500
        69   05 Jun 2027 04:54:39.469   05 Jun 2027 04:57:08.741           149.272         74636.000
        70   05 Jun 2027 04:57:23.499   05 Jun 2027 04:57:31.868             8.369          4184.500
        71   05 Jun 2027 04:58:53.317   05 Jun 2027 04:59:19.318            26.001         13000.500
        72   05 Jun 2027 04:59:57.047   05 Jun 2027 05:00:01.274             4.227          2113.500
        73   05 Jun 2027 05:00:12.363   05 Jun 2027 05:00:16.560             4.197          2098.500
        74   05 Jun 2027 05:00:51.861   05 Jun 2027 05:00:52.323             0.462           231.000
        75   05 Jun 2027 06:32:23.537   05 Jun 2027 06:34:35.742           132.205         66102.500
        76   05 Jun 2027 06:34:48.983   05 Jun 2027 06:35:03.968            14.985          7492.500
        77   05 Jun 2027 06:35:21.704   05 Jun 2027 06:35:22.543             0.839           419.500
        78   05 Jun 2027 06:35:58.328   05 Jun 2027 06:36:06.677             8.349          4174.500
        79   05 Jun 2027 06:36:36.854   05 Jun 2027 06:36:38.056             1.202           601.000
        80   05 Jun 2027 08:08:28.872   05 Jun 2027 08:09:46.942            78.070         39035.000
        81   05 Jun 2027 08:10:03.746   05 Jun 2027 08:10:05.122             1.376           688.000
        82   05 Jun 2027 08:10:18.472   05 Jun 2027 08:10:21.032             2.560          1280.000
        83   05 Jun 2027 08:10:44.277   05 Jun 2027 08:10:56.055            11.778          5889.000
        84   05 Jun 2027 08:11:58.902   05 Jun 2027 08:12:17.284            18.382          9191.000
        85   05 Jun 2027 08:12:45.636   05 Jun 2027 08:12:48.003             2.367          1183.500
        86   06 Jun 2027 03:30:48.418   06 Jun 2027 03:34:51.375           242.957        121478.500
        87   06 Jun 2027 03:35:13.666   06 Jun 2027 03:35:33.993            20.327         10163.500
        88   06 Jun 2027 03:35:47.457   06 Jun 2027 03:36:16.900            29.443         14721.500
        89   06 Jun 2027 03:37:12.365   06 Jun 2027 03:37:24.461            12.096          6048.000
        90   06 Jun 2027 05:07:11.226   06 Jun 2027 05:09:48.949           157.723         78861.500
        91   06 Jun 2027 05:10:21.586   06 Jun 2027 05:10:21.665             0.079            39.500
        92   06 Jun 2027 05:11:07.592   06 Jun 2027 05:11:27.409            19.817          9908.500
        93   06 Jun 2027 05:11:34.171   06 Jun 2027 05:11:41.989             7.818          3909.000
        94   06 Jun 2027 06:44:28.558   06 Jun 2027 06:46:53.290           144.732         72366.000
        95   06 Jun 2027 06:47:03.882   06 Jun 2027 06:47:10.153             6.271          3135.500
        96   06 Jun 2027 06:47:32.339   06 Jun 2027 06:47:42.566            10.227          5113.500
        97   06 Jun 2027 06:47:52.311   06 Jun 2027 06:47:55.816             3.505          1752.500
        98   06 Jun 2027 06:48:02.189   06 Jun 2027 06:48:17.997            15.808          7904.000
        99   06 Jun 2027 08:20:41.458   06 Jun 2027 08:21:36.646            55.188         27594.000
       100   06 Jun 2027 08:22:31.081   06 Jun 2027 08:22:38.238             7.157          3578.500
       101   06 Jun 2027 08:23:03.726   06 Jun 2027 08:23:23.020            19.294          9647.000
       102   06 Jun 2027 08:24:26.390   06 Jun 2027 08:24:40.648            14.258          7129.000
       103   07 Jun 2027 03:42:25.881   07 Jun 2027 03:46:53.608           267.727        133863.500
       104   07 Jun 2027 03:47:09.638   07 Jun 2027 03:47:27.461            17.823          8911.500
       105   07 Jun 2027 03:48:17.481   07 Jun 2027 03:48:47.599            30.118         15059.000
       106   07 Jun 2027 03:49:08.691   07 Jun 2027 03:49:33.422            24.731         12365.500
       107   07 Jun 2027 05:18:45.596   07 Jun 2027 05:22:22.762           217.166        108583.000
       108   07 Jun 2027 05:23:01.703   07 Jun 2027 05:23:02.006             0.303           151.500
       109   07 Jun 2027 06:57:01.779   07 Jun 2027 06:59:33.107           151.328         75664.000
       110   07 Jun 2027 06:59:37.797   07 Jun 2027 06:59:44.070             6.273          3136.500
       111   07 Jun 2027 07:00:13.100   07 Jun 2027 07:00:22.332             9.232          4616.000
       112   07 Jun 2027 07:00:29.534   07 Jun 2027 07:00:36.884             7.350          3675.000
       113   07 Jun 2027 08:32:22.369   07 Jun 2027 08:33:20.355            57.986         28993.000
       114   07 Jun 2027 08:33:41.412   07 Jun 2027 08:33:50.429             9.017          4508.500
       115   07 Jun 2027 08:34:06.460   07 Jun 2027 08:34:07.408             0.948           474.000
       116   07 Jun 2027 08:34:25.451   07 Jun 2027 08:34:29.253             3.802          1901.000
       117   07 Jun 2027 08:35:02.960   07 Jun 2027 08:35:25.354            22.394         11197.000
       118   07 Jun 2027 08:36:27.898   07 Jun 2027 08:36:32.959             5.061          2530.500
       119   07 Jun 2027 08:37:08.570   07 Jun 2027 08:37:18.162             9.592          4796.000
       120   07 Jun 2027 08:37:42.358   07 Jun 2027 08:37:47.518             5.160          2580.000
       121   08 Jun 2027 03:53:59.612   08 Jun 2027 03:58:58.003           298.391        149195.500
       122   08 Jun 2027 03:59:44.363   08 Jun 2027 04:00:17.006            32.643         16321.500
       123   08 Jun 2027 04:00:50.851   08 Jun 2027 04:01:33.990            43.139         21569.500
       124   08 Jun 2027 05:31:05.625   08 Jun 2027 05:33:55.720           170.095         85047.500
       125   08 Jun 2027 05:34:18.312   08 Jun 2027 05:34:26.538             8.226          4113.000
       126   08 Jun 2027 05:36:02.193   08 Jun 2027 05:36:19.879            17.686          8843.000
       127   08 Jun 2027 05:36:36.728   08 Jun 2027 05:37:03.079            26.351         13175.500
       128   08 Jun 2027 07:09:03.840   08 Jun 2027 07:11:32.932           149.092         74546.000
       129   08 Jun 2027 07:11:36.716   08 Jun 2027 07:11:50.426            13.710          6855.000
       130   08 Jun 2027 07:12:32.656   08 Jun 2027 07:12:44.712            12.056          6028.000
       131   08 Jun 2027 08:42:12.708   08 Jun 2027 08:42:57.829            45.121         22560.500
       132   08 Jun 2027 08:43:02.781   08 Jun 2027 08:43:11.160             8.379          4189.500
       133   08 Jun 2027 08:44:32.918   08 Jun 2027 08:44:50.820            17.902          8951.000
       134   08 Jun 2027 08:45:26.403   08 Jun 2027 08:45:29.527             3.124          1562.000
       135   08 Jun 2027 08:46:01.367   08 Jun 2027 08:46:09.305             7.938          3969.000
       136   08 Jun 2027 08:46:20.498   08 Jun 2027 08:46:21.002             0.504           252.000
       137   08 Jun 2027 08:46:32.923   08 Jun 2027 08:46:35.881             2.958          1479.000
       138   08 Jun 2027 08:47:02.574   08 Jun 2027 08:47:26.880            24.306         12153.000
       139   08 Jun 2027 08:48:47.716   08 Jun 2027 08:48:57.467             9.751          4875.500
       140   08 Jun 2027 08:49:44.732   08 Jun 2027 08:49:53.395             8.663          4331.500
       141   09 Jun 2027 04:06:19.363   09 Jun 2027 04:11:44.640           325.277        162638.500
       142   09 Jun 2027 04:12:25.086   09 Jun 2027 04:12:56.510            31.424         15712.000
       143   09 Jun 2027 04:13:33.628   09 Jun 2027 04:13:38.177             4.549          2274.500
       144   09 Jun 2027 05:43:06.954   09 Jun 2027 05:46:46.047           219.093        109546.500
       145   09 Jun 2027 05:47:01.783   09 Jun 2027 05:47:17.135            15.352          7676.000
       146   09 Jun 2027 05:48:33.854   09 Jun 2027 05:48:37.121             3.267          1633.500
       147   09 Jun 2027 07:21:04.079   09 Jun 2027 07:23:24.654           140.575         70287.500
       148   09 Jun 2027 07:23:47.797   09 Jun 2027 07:23:56.149             8.352          4176.000
       149   09 Jun 2027 07:24:11.658   09 Jun 2027 07:24:21.755            10.097          5048.500
       150   09 Jun 2027 07:24:44.511   09 Jun 2027 07:25:00.008            15.497          7748.500
       151   09 Jun 2027 08:54:39.926   09 Jun 2027 08:54:55.039            15.113          7556.500
       152   09 Jun 2027 08:55:16.508   09 Jun 2027 08:55:37.911            21.403         10701.500
       153   09 Jun 2027 08:57:08.890   09 Jun 2027 08:57:16.945             8.055          4027.500
       154   09 Jun 2027 08:57:53.568   09 Jun 2027 08:57:59.903             6.335          3167.500
       155   09 Jun 2027 08:58:34.280   09 Jun 2027 08:58:44.558            10.278          5139.000
       156   09 Jun 2027 08:59:28.535   09 Jun 2027 08:59:44.077            15.542          7771.000
       157   09 Jun 2027 09:00:20.111   09 Jun 2027 09:00:25.430             5.319          2659.500
       158   09 Jun 2027 09:00:59.397   09 Jun 2027 09:01:10.540            11.143          5571.500
       159   09 Jun 2027 09:01:42.814   09 Jun 2027 09:01:48.988             6.174          3087.000
       160   10 Jun 2027 04:18:13.133   10 Jun 2027 04:24:45.453           392.320        196160.000
       161   10 Jun 2027 04:25:24.554   10 Jun 2027 04:25:33.090             8.536          4268.000
       162   10 Jun 2027 05:54:57.672   10 Jun 2027 05:58:16.297           198.625         99312.500
       163   10 Jun 2027 05:58:45.032   10 Jun 2027 05:59:07.619            22.587         11293.500
       164   10 Jun 2027 05:59:28.851   10 Jun 2027 05:59:43.163            14.312          7156.000
       165   10 Jun 2027 06:00:25.020   10 Jun 2027 06:00:31.010             5.990          2995.000
       166   10 Jun 2027 06:01:17.472   10 Jun 2027 06:01:31.290            13.818          6909.000
       167   10 Jun 2027 07:33:06.211   10 Jun 2027 07:35:34.551           148.340         74170.000
       168   10 Jun 2027 07:35:35.663   10 Jun 2027 07:35:36.428             0.765           382.500
       169   10 Jun 2027 07:35:50.882   10 Jun 2027 07:36:00.569             9.687          4843.500
       170   10 Jun 2027 09:06:56.976   10 Jun 2027 09:07:15.398            18.422          9211.000
       171   10 Jun 2027 09:07:56.172   10 Jun 2027 09:08:06.574            10.402          5201.000
       172   10 Jun 2027 09:08:10.952   10 Jun 2027 09:08:32.114            21.162         10581.000
       173   10 Jun 2027 09:10:02.290   10 Jun 2027 09:10:06.769             4.479          2239.500
       174   10 Jun 2027 09:10:35.760   10 Jun 2027 09:10:39.120             3.360          1680.000
       175   10 Jun 2027 09:11:02.774   10 Jun 2027 09:11:19.315            16.541          8270.500
       176   10 Jun 2027 09:12:22.625   10 Jun 2027 09:12:34.447            11.822          5911.000
       177   10 Jun 2027 09:13:11.703   10 Jun 2027 09:13:13.734             2.031          1015.500
       178   11 Jun 2027 03:00:00.000   11 Jun 2027 03:00:30.228            30.228         15114.000
       179   11 Jun 2027 03:00:42.626   11 Jun 2027 03:01:42.854            60.228         30114.000
       180   11 Jun 2027 04:30:20.129   11 Jun 2027 04:34:46.450           266.321        133160.500
       181   11 Jun 2027 04:35:32.681   11 Jun 2027 04:35:52.820            20.139         10069.500
       182   11 Jun 2027 04:35:57.984   11 Jun 2027 04:36:10.519            12.535          6267.500
       183   11 Jun 2027 04:36:34.812   11 Jun 2027 04:36:51.197            16.385          8192.500
       184   11 Jun 2027 06:07:22.916   11 Jun 2027 06:10:24.010           181.094         90547.000
       185   11 Jun 2027 06:11:09.927   11 Jun 2027 06:11:22.161            12.234          6117.000
       186   11 Jun 2027 06:12:17.904   11 Jun 2027 06:12:43.279            25.375         12687.500
       187   11 Jun 2027 07:44:19.323   11 Jun 2027 07:46:38.617           139.294         69647.000
       188   11 Jun 2027 07:47:08.649   11 Jun 2027 07:47:13.207             4.558          2279.000
       189   11 Jun 2027 07:47:43.053   11 Jun 2027 07:47:51.759             8.706          4353.000
       190   11 Jun 2027 07:48:18.802   11 Jun 2027 07:48:21.895             3.093          1546.500
       191   11 Jun 2027 07:49:12.368   11 Jun 2027 07:49:12.499             0.131            65.500
       192   11 Jun 2027 09:19:24.149   11 Jun 2027 09:19:48.047            23.898         11949.000
       193   11 Jun 2027 09:21:07.152   11 Jun 2027 09:21:32.377            25.225         12612.500
       194   11 Jun 2027 09:22:55.200   11 Jun 2027 09:23:03.302             8.102          4051.000
       195   11 Jun 2027 09:23:49.320   11 Jun 2027 09:23:59.135             9.815          4907.500
       196   11 Jun 2027 09:24:12.505   11 Jun 2027 09:24:13.912             1.407           703.500
       197   12 Jun 2027 03:03:52.913   12 Jun 2027 03:07:56.771           243.858        121929.000
       198   12 Jun 2027 03:09:02.395   12 Jun 2027 03:09:14.391            11.996          5998.000
       199   12 Jun 2027 03:09:53.657   12 Jun 2027 03:09:53.657             0.000             0.000
       200   12 Jun 2027 03:10:22.808   12 Jun 2027 03:10:22.808             0.000             0.000
       201   12 Jun 2027 03:10:48.655   12 Jun 2027 03:11:09.392            20.737         10368.500
       202   12 Jun 2027 03:11:42.684   12 Jun 2027 03:11:42.684             0.000             0.000
       203   12 Jun 2027 03:11:51.138   12 Jun 2027 03:12:11.036            19.898          9949.000
       204   12 Jun 2027 03:13:39.116   12 Jun 2027 03:13:41.569             2.453          1226.500
       205   12 Jun 2027 04:42:46.342   12 Jun 2027 04:45:01.667           135.325         67662.500
       206   12 Jun 2027 04:46:37.815   12 Jun 2027 04:47:12.165            34.350         17175.000
       207   12 Jun 2027 04:47:51.493   12 Jun 2027 04:47:51.599             0.106            53.000
       208   12 Jun 2027 04:48:24.995   12 Jun 2027 04:48:44.072            19.077          9538.500
       209   12 Jun 2027 04:49:16.694   12 Jun 2027 04:49:18.149             1.455           727.500
       210   12 Jun 2027 06:19:46.980   12 Jun 2027 06:21:59.594           132.614         66307.000
       211   12 Jun 2027 06:22:08.863   12 Jun 2027 06:22:26.871            18.008          9004.000
       212   12 Jun 2027 06:23:06.140   12 Jun 2027 06:23:21.722            15.582          7791.000
       213   12 Jun 2027 06:23:38.586   12 Jun 2027 06:23:41.900             3.314          1657.000
       214   12 Jun 2027 06:24:34.629   12 Jun 2027 06:24:40.913             6.284          3142.000
       215   12 Jun 2027 07:56:32.784   12 Jun 2027 07:58:02.926            90.142         45071.000
       216   12 Jun 2027 07:58:48.275   12 Jun 2027 07:59:01.028            12.753          6376.500
       217   12 Jun 2027 07:59:32.037   12 Jun 2027 07:59:44.616            12.579          6289.500
       218   12 Jun 2027 07:59:49.726   12 Jun 2027 07:59:57.665             7.939          3969.500
       219   12 Jun 2027 08:00:51.603   12 Jun 2027 08:00:54.929             3.326          1663.000
       220   12 Jun 2027 09:34:39.898   12 Jun 2027 09:35:04.067            24.169         12084.500
       221   13 Jun 2027 03:18:45.786   13 Jun 2027 03:22:48.954           243.168        121584.000
       222   13 Jun 2027 03:24:02.729   13 Jun 2027 03:24:18.378            15.649          7824.500
       223   13 Jun 2027 03:25:33.910   13 Jun 2027 03:25:38.645             4.735          2367.500
       224   13 Jun 2027 04:54:55.602   13 Jun 2027 04:57:20.927           145.325         72662.500
       225   13 Jun 2027 04:58:29.404   13 Jun 2027 04:59:00.696            31.292         15646.000
       226   13 Jun 2027 04:59:36.597   13 Jun 2027 04:59:55.912            19.315          9657.500
       227   13 Jun 2027 05:00:56.376   13 Jun 2027 05:01:08.768            12.392          6196.000
       228   13 Jun 2027 06:32:38.704   13 Jun 2027 06:35:19.964           161.260         80630.000
       229   13 Jun 2027 06:35:56.970   13 Jun 2027 06:36:01.060             4.090          2045.000
       230   13 Jun 2027 08:08:43.820   13 Jun 2027 08:10:09.496            85.676         42838.000
       231   13 Jun 2027 08:10:33.391   13 Jun 2027 08:10:33.890             0.499           249.500
       232   13 Jun 2027 08:11:02.903   13 Jun 2027 08:11:10.703             7.800          3900.000
       233   13 Jun 2027 08:12:13.805   13 Jun 2027 08:12:32.203            18.398          9199.000
       234   13 Jun 2027 08:13:01.169   13 Jun 2027 08:13:02.606             1.437           718.500
