uniorb/output/strategy_1/Camera/Camera_KinoSat_111705.txt

KinoSat_111705
-------------------------
    Access    *     Start Time (UTCG)     *     Stop Time (UTCG)  *   Duration (s) *   Data (Mbytes)
         1   01 Jun 2027 03:09:08.997   01 Jun 2027 03:10:34.036            85.039         42519.500
         2   01 Jun 2027 03:11:18.661   01 Jun 2027 03:11:22.595             3.934          1967.000
         3   01 Jun 2027 03:11:58.720   01 Jun 2027 03:12:02.781             4.061          2030.500
         4   01 Jun 2027 03:14:08.060   01 Jun 2027 03:14:25.796            17.736          8868.000
         5   01 Jun 2027 04:48:13.158   01 Jun 2027 04:49:45.213            92.055         46027.500
         6   01 Jun 2027 04:50:30.644   01 Jun 2027 04:50:40.111             9.467          4733.500
         7   01 Jun 2027 04:54:11.507   01 Jun 2027 04:54:20.563             9.056          4528.000
         8   01 Jun 2027 04:55:02.198   01 Jun 2027 04:55:19.440            17.242          8621.000
         9   01 Jun 2027 06:13:02.703   01 Jun 2027 06:13:58.128            55.425         27712.500
        10   01 Jun 2027 06:14:32.247   01 Jun 2027 06:14:38.406             6.159          3079.500
        11   01 Jun 2027 06:24:42.328   01 Jun 2027 06:25:28.257            45.929         22964.500
        12   01 Jun 2027 07:46:59.732   01 Jun 2027 07:48:06.228            66.496         33248.000
        13   01 Jun 2027 07:48:54.044   01 Jun 2027 07:49:28.354            34.310         17155.000
        14   01 Jun 2027 07:51:35.482   01 Jun 2027 07:51:52.422            16.940          8470.000
        15   01 Jun 2027 09:21:53.552   01 Jun 2027 09:22:55.620            62.068         31034.000
        16   01 Jun 2027 09:23:30.517   01 Jun 2027 09:23:55.141            24.624         12312.000
        17   01 Jun 2027 09:24:01.920   01 Jun 2027 09:24:07.433             5.513          2756.500
        18   01 Jun 2027 09:25:05.410   01 Jun 2027 09:25:26.894            21.484         10742.000
        19   01 Jun 2027 09:28:52.152   01 Jun 2027 09:29:02.093             9.941          4970.500
        20   01 Jun 2027 11:02:59.464   01 Jun 2027 11:04:47.770           108.306         54153.000
        21   01 Jun 2027 11:05:25.908   01 Jun 2027 11:05:51.463            25.555         12777.500
        22   01 Jun 2027 11:06:45.670   01 Jun 2027 11:06:46.144             0.474           237.000
        23   02 Jun 2027 03:21:36.371   02 Jun 2027 03:21:54.367            17.996          8998.000
        24   02 Jun 2027 03:22:01.879   02 Jun 2027 03:22:31.655            29.776         14888.000
        25   02 Jun 2027 03:22:36.572   02 Jun 2027 03:23:30.701            54.129         27064.500
        26   02 Jun 2027 03:23:32.839   02 Jun 2027 03:23:44.882            12.043          6021.500
        27   02 Jun 2027 03:27:06.213   02 Jun 2027 03:27:06.213             0.000             0.000
        28   02 Jun 2027 05:00:18.074   02 Jun 2027 05:01:49.471            91.397         45698.500
        29   02 Jun 2027 05:04:07.552   02 Jun 2027 05:04:18.591            11.039          5519.500
        30   02 Jun 2027 05:07:06.591   02 Jun 2027 05:07:06.591             0.000             0.000
        31   02 Jun 2027 06:24:36.099   02 Jun 2027 06:25:40.537            64.438         32219.000
        32   02 Jun 2027 06:36:57.919   02 Jun 2027 06:37:15.578            17.659          8829.500
        33   02 Jun 2027 07:58:30.910   02 Jun 2027 07:59:52.029            81.119         40559.500
        34   02 Jun 2027 08:00:40.369   02 Jun 2027 08:00:58.600            18.231          9115.500
        35   02 Jun 2027 08:03:36.399   02 Jun 2027 08:03:36.399             0.000             0.000
        36   02 Jun 2027 09:33:24.489   02 Jun 2027 09:35:23.629           119.140         59570.000
        37   02 Jun 2027 09:40:24.061   02 Jun 2027 09:40:24.061             0.000             0.000
        38   02 Jun 2027 11:11:21.063   02 Jun 2027 11:11:29.144             8.081          4040.500
        39   02 Jun 2027 11:15:07.864   02 Jun 2027 11:15:44.976            37.112         18556.000
        40   02 Jun 2027 11:17:11.482   02 Jun 2027 11:18:45.976            94.494         47247.000
        41   03 Jun 2027 03:34:12.315   03 Jun 2027 03:34:24.945            12.630          6315.000
        42   03 Jun 2027 03:34:35.307   03 Jun 2027 03:35:35.833            60.526         30263.000
        43   03 Jun 2027 03:35:44.062   03 Jun 2027 03:36:11.930            27.868         13934.000
        44   03 Jun 2027 03:36:28.278   03 Jun 2027 03:36:39.250            10.972          5486.000
        45   03 Jun 2027 03:39:17.018   03 Jun 2027 03:39:17.018             0.000             0.000
        46   03 Jun 2027 05:12:43.461   03 Jun 2027 05:13:57.905            74.444         37222.000
        47   03 Jun 2027 05:14:23.755   03 Jun 2027 05:14:33.893            10.138          5069.000
        48   03 Jun 2027 05:15:05.856   03 Jun 2027 05:15:12.611             6.755          3377.500
        49   03 Jun 2027 05:16:20.723   03 Jun 2027 05:16:31.642            10.919          5459.500
        50   03 Jun 2027 06:36:32.124   03 Jun 2027 06:38:10.818            98.694         49347.000
        51   03 Jun 2027 08:12:31.667   03 Jun 2027 08:14:25.681           114.014         57007.000
        52   03 Jun 2027 08:14:48.034   03 Jun 2027 08:14:50.007             1.973           986.500
        53   03 Jun 2027 08:16:06.756   03 Jun 2027 08:16:25.134            18.378          9189.000
        54   03 Jun 2027 09:46:18.682   03 Jun 2027 09:47:24.580            65.898         32949.000
        55   03 Jun 2027 09:47:57.565   03 Jun 2027 09:47:57.565             0.000             0.000
        56   03 Jun 2027 09:52:14.796   03 Jun 2027 09:52:14.796             0.000             0.000
        57   03 Jun 2027 09:53:04.938   03 Jun 2027 09:53:13.404             8.466          4233.000
        58   03 Jun 2027 09:54:01.787   03 Jun 2027 09:54:51.062            49.275         24637.500
        59   03 Jun 2027 11:23:34.563   03 Jun 2027 11:24:00.117            25.554         12489.874
        60   03 Jun 2027 11:24:08.203   03 Jun 2027 11:24:08.920             0.717           121.844
        61   03 Jun 2027 11:24:39.444   03 Jun 2027 11:24:41.406             1.962           521.563
        62   03 Jun 2027 11:28:23.539   03 Jun 2027 11:28:37.699            14.160          6500.313
        63   03 Jun 2027 11:28:52.021   03 Jun 2027 11:28:54.120             2.099           447.562
        64   03 Jun 2027 11:29:29.850   03 Jun 2027 11:29:32.130             2.280          1038.406
        65   03 Jun 2027 11:29:44.276   03 Jun 2027 11:29:45.039             0.763           379.563
        66   03 Jun 2027 11:30:22.458   03 Jun 2027 11:30:27.737             5.279          1169.344
        67   04 Jun 2027 03:46:45.527   04 Jun 2027 03:47:04.959            19.432          9716.000
        68   04 Jun 2027 03:48:46.250   04 Jun 2027 03:50:11.978            85.728         42864.000
        69   04 Jun 2027 03:50:53.909   04 Jun 2027 03:50:59.293             5.384          2692.000
        70   04 Jun 2027 03:51:39.043   04 Jun 2027 03:51:42.163             3.120          1560.000
        71   04 Jun 2027 05:25:02.083   04 Jun 2027 05:26:26.601            84.518         42259.000
        72   04 Jun 2027 05:26:57.271   04 Jun 2027 05:27:09.749            12.478          6239.000
        73   04 Jun 2027 05:27:24.282   04 Jun 2027 05:27:25.877             1.595           797.500
        74   04 Jun 2027 05:29:16.790   04 Jun 2027 05:29:34.756            17.966          8983.000
        75   04 Jun 2027 06:48:24.222   04 Jun 2027 06:49:52.515            88.293         44146.500
        76   04 Jun 2027 08:24:46.364   04 Jun 2027 08:25:41.585            55.221         27201.093
        77   04 Jun 2027 08:26:13.861   04 Jun 2027 08:26:15.560             1.699           593.469
        78   04 Jun 2027 08:27:37.109   04 Jun 2027 08:27:37.109             0.000             0.000
        79   04 Jun 2027 09:57:03.561   04 Jun 2027 09:57:16.163            12.602          5986.875
        80   04 Jun 2027 09:58:50.651   04 Jun 2027 09:58:53.175             2.524           671.031
        81   04 Jun 2027 10:00:31.041   04 Jun 2027 10:00:35.343             4.302          2062.688
        82   04 Jun 2027 10:00:51.765   04 Jun 2027 10:00:51.765             0.000             0.000
        83   04 Jun 2027 10:01:36.356   04 Jun 2027 10:01:41.961             5.605          1575.250
        84   04 Jun 2027 10:03:10.411   04 Jun 2027 10:03:16.958             6.547          2424.219
        85   04 Jun 2027 10:04:07.199   04 Jun 2027 10:04:09.277             2.078           262.594
        86   04 Jun 2027 10:04:40.070   04 Jun 2027 10:04:47.138             7.068           542.656
        87   04 Jun 2027 10:05:25.371   04 Jun 2027 10:05:28.024             2.653          1095.687
        88   04 Jun 2027 10:06:10.660   04 Jun 2027 10:06:14.199             3.539          1170.281
        89   04 Jun 2027 10:06:47.233   04 Jun 2027 10:06:49.946             2.713           796.875
        90   04 Jun 2027 11:35:54.733   04 Jun 2027 11:36:10.148            15.415          6791.844
        91   04 Jun 2027 11:36:22.139   04 Jun 2027 11:36:24.477             2.338           374.719
        92   04 Jun 2027 11:36:29.760   04 Jun 2027 11:36:39.598             9.838           165.094
        93   04 Jun 2027 11:37:11.344   04 Jun 2027 11:37:19.416             8.072           762.094
        94   04 Jun 2027 11:38:00.876   04 Jun 2027 11:38:04.231             3.355           974.437
        95   04 Jun 2027 11:38:58.931   04 Jun 2027 11:39:02.948             4.017          1709.375
        96   04 Jun 2027 11:39:35.281   04 Jun 2027 11:39:37.370             2.089           989.719
        97   04 Jun 2027 11:41:53.354   04 Jun 2027 11:42:00.594             7.240          3620.000
        98   04 Jun 2027 11:42:03.632   04 Jun 2027 11:42:03.836             0.204           102.000
        99   04 Jun 2027 11:42:27.895   04 Jun 2027 11:42:32.578             4.683          1071.312
       100   05 Jun 2027 03:58:51.980   05 Jun 2027 03:59:53.487            61.507         30753.500
       101   05 Jun 2027 03:59:59.454   05 Jun 2027 04:01:01.689            62.235         31117.500
       102   05 Jun 2027 04:01:34.440   05 Jun 2027 04:01:35.768             1.328           664.000
       103   05 Jun 2027 04:02:11.348   05 Jun 2027 04:02:22.228            10.880          5440.000
       104   05 Jun 2027 04:02:58.538   05 Jun 2027 04:02:58.538             0.000             0.000
       105   05 Jun 2027 04:03:19.770   05 Jun 2027 04:03:19.771             0.001             0.500
       106   05 Jun 2027 05:37:55.017   05 Jun 2027 05:39:37.240           102.223         51111.500
       107   05 Jun 2027 07:00:27.700   05 Jun 2027 07:01:44.403            76.703         38351.500
       108   05 Jun 2027 07:02:22.841   05 Jun 2027 07:02:57.662            34.821         16891.531
       109   05 Jun 2027 08:36:57.113   05 Jun 2027 08:37:09.085            11.972          5986.000
       110   05 Jun 2027 08:37:48.626   05 Jun 2027 08:37:51.741             3.115          1557.500
       111   05 Jun 2027 08:38:22.452   05 Jun 2027 08:38:29.520             7.068          3534.000
       112   05 Jun 2027 08:38:35.863   05 Jun 2027 08:38:37.298             1.435           351.562
       113   05 Jun 2027 08:39:36.728   05 Jun 2027 08:39:46.380             9.652          1857.188
       114   05 Jun 2027 08:40:10.289   05 Jun 2027 08:40:12.325             2.036           585.219
       115   05 Jun 2027 10:12:37.479   05 Jun 2027 10:12:49.915            12.436          6087.156
       116   05 Jun 2027 10:15:08.297   05 Jun 2027 10:15:08.297             0.000             0.000
       117   05 Jun 2027 10:15:44.174   05 Jun 2027 10:15:56.029            11.855          4819.312
       118   05 Jun 2027 10:16:37.212   05 Jun 2027 10:16:38.103             0.891           434.937
       119   05 Jun 2027 10:17:20.331   05 Jun 2027 10:17:24.860             4.529           911.063
       120   05 Jun 2027 10:18:00.934   05 Jun 2027 10:18:04.074             3.140           968.344
       121   05 Jun 2027 10:18:42.151   05 Jun 2027 10:18:49.148             6.997          1189.906
       122   05 Jun 2027 11:48:23.308   05 Jun 2027 11:48:35.065            11.757          5448.312
       123   05 Jun 2027 11:49:57.377   05 Jun 2027 11:49:59.729             2.352          1176.000
       124   05 Jun 2027 11:50:34.500   05 Jun 2027 11:50:38.428             3.928          1824.656
       125   05 Jun 2027 11:51:05.660   05 Jun 2027 11:51:06.539             0.879           439.500
       126   05 Jun 2027 11:52:35.307   05 Jun 2027 11:52:35.750             0.443           221.500
       127   06 Jun 2027 04:10:50.619   06 Jun 2027 04:11:36.276            45.657         22828.500
       128   06 Jun 2027 04:11:56.915   06 Jun 2027 04:12:57.649            60.734         30367.000
       129   06 Jun 2027 04:16:28.114   06 Jun 2027 04:16:35.799             7.685          3842.500
       130   06 Jun 2027 05:49:04.129   06 Jun 2027 05:50:05.540            61.411         30705.500
       131   06 Jun 2027 05:50:11.755   06 Jun 2027 05:51:10.597            58.842         29421.000
       132   06 Jun 2027 07:12:24.843   06 Jun 2027 07:13:55.367            90.524         45262.000
       133   06 Jun 2027 07:15:06.039   06 Jun 2027 07:15:20.891            14.852          6441.156
       134   06 Jun 2027 08:49:02.490   06 Jun 2027 08:49:12.220             9.730          4450.719
       135   06 Jun 2027 08:50:22.232   06 Jun 2027 08:50:26.385             4.153          2076.500
       136   06 Jun 2027 08:50:28.887   06 Jun 2027 08:50:37.179             8.292           189.563
       137   06 Jun 2027 08:51:26.204   06 Jun 2027 08:51:26.204             0.000             0.000
       138   06 Jun 2027 08:52:03.871   06 Jun 2027 08:52:10.523             6.652          2357.656
       139   06 Jun 2027 10:24:25.994   06 Jun 2027 10:24:40.169            14.175          6893.656
       140   06 Jun 2027 10:24:50.886   06 Jun 2027 10:24:54.332             3.446           309.281
       141   06 Jun 2027 10:25:55.798   06 Jun 2027 10:25:58.943             3.145           834.156
       142   06 Jun 2027 10:26:17.996   06 Jun 2027 10:26:19.274             1.278           595.406
       143   06 Jun 2027 10:27:51.884   06 Jun 2027 10:27:58.551             6.667          2019.906
       144   06 Jun 2027 10:28:10.983   06 Jun 2027 10:28:11.927             0.944           307.094
       145   06 Jun 2027 10:28:25.705   06 Jun 2027 10:28:26.707             1.002           252.469
       146   06 Jun 2027 10:28:54.439   06 Jun 2027 10:29:02.312             7.873           716.094
       147   06 Jun 2027 10:30:35.044   06 Jun 2027 10:30:45.380            10.336          2706.937
       148   07 Jun 2027 04:23:55.985   07 Jun 2027 04:25:36.358           100.373         50186.500
       149   07 Jun 2027 04:26:26.223   07 Jun 2027 04:26:35.114             8.891          4445.500
       150   07 Jun 2027 04:27:42.759   07 Jun 2027 04:27:47.088             4.329          2164.500
       151   07 Jun 2027 04:30:11.528   07 Jun 2027 04:30:26.858            15.330          7665.000
       152   07 Jun 2027 04:30:49.827   07 Jun 2027 04:31:29.126            39.299         19649.500
       153   07 Jun 2027 05:50:16.008   07 Jun 2027 05:50:25.953             9.945          4972.500
       154   07 Jun 2027 06:01:01.828   07 Jun 2027 06:01:43.697            41.869         20934.500
       155   07 Jun 2027 06:01:49.037   07 Jun 2027 06:02:23.572            34.535         17267.500
       156   07 Jun 2027 06:02:26.949   07 Jun 2027 06:02:31.071             4.122          2061.000
       157   07 Jun 2027 06:03:17.792   07 Jun 2027 06:03:37.837            20.045         10022.500
       158   07 Jun 2027 07:25:01.198   07 Jun 2027 07:26:55.238           114.040         53568.968
       159   07 Jun 2027 09:00:46.221   07 Jun 2027 09:00:59.754            13.533          5925.375
       160   07 Jun 2027 09:03:07.295   07 Jun 2027 09:03:16.560             9.265          3856.469
       161   07 Jun 2027 09:04:07.305   07 Jun 2027 09:04:07.305             0.000             0.000
       162   07 Jun 2027 10:36:10.135   07 Jun 2027 10:36:21.961            11.826          5693.094
       163   07 Jun 2027 10:38:27.472   07 Jun 2027 10:38:29.366             1.894           831.187
       164   07 Jun 2027 10:41:08.190   07 Jun 2027 10:41:08.190             0.000             0.000
       165   07 Jun 2027 10:42:25.423   07 Jun 2027 10:42:41.694            16.271          7323.469
       166   08 Jun 2027 03:00:00.000   08 Jun 2027 03:00:04.850             4.850          2425.000
       167   08 Jun 2027 03:01:03.644   08 Jun 2027 03:01:22.202            18.558          9279.000
       168   08 Jun 2027 03:01:58.086   08 Jun 2027 03:02:16.436            18.350          9175.000
       169   08 Jun 2027 03:02:59.773   08 Jun 2027 03:03:19.041            19.268          9634.000
       170   08 Jun 2027 04:36:16.679   08 Jun 2027 04:37:24.825            68.146         34073.000
       171   08 Jun 2027 04:38:16.314   08 Jun 2027 04:38:28.241            11.927          5963.500
       172   08 Jun 2027 04:39:45.130   08 Jun 2027 04:40:10.414            25.284         12642.000
       173   08 Jun 2027 04:42:40.964   08 Jun 2027 04:42:40.964             0.000             0.000
       174   08 Jun 2027 04:42:56.420   08 Jun 2027 04:43:33.697            37.277         18638.500
       175   08 Jun 2027 06:01:32.789   08 Jun 2027 06:02:23.027            50.238         25119.000
       176   08 Jun 2027 06:13:00.464   08 Jun 2027 06:13:26.672            26.208         13104.000
       177   08 Jun 2027 06:14:24.652   08 Jun 2027 06:14:28.383             3.731          1865.500
       178   08 Jun 2027 07:35:39.590   08 Jun 2027 07:36:38.627            59.037         29518.500
       179   08 Jun 2027 07:37:15.345   08 Jun 2027 07:37:45.663            30.318         15159.000
       180   08 Jun 2027 07:38:20.311   08 Jun 2027 07:38:31.475            11.164          4878.938
       181   08 Jun 2027 07:38:55.878   08 Jun 2027 07:38:57.846             1.968           610.781
       182   08 Jun 2027 07:39:56.569   08 Jun 2027 07:40:02.957             6.388          1835.094
       183   08 Jun 2027 09:10:59.735   08 Jun 2027 09:11:12.379            12.644          5863.500
       184   08 Jun 2027 09:11:44.133   08 Jun 2027 09:11:49.409             5.276           180.125
       185   08 Jun 2027 09:12:52.082   08 Jun 2027 09:12:52.082             0.000             0.000
       186   08 Jun 2027 09:14:16.477   08 Jun 2027 09:14:26.529            10.052          4595.875
       187   08 Jun 2027 09:14:57.418   08 Jun 2027 09:15:08.916            11.498           102.500
       188   08 Jun 2027 10:47:47.156   08 Jun 2027 10:48:02.553            15.397          7692.250
       189   08 Jun 2027 10:50:43.460   08 Jun 2027 10:50:54.316            10.856          5028.344
       190   08 Jun 2027 10:52:00.228   08 Jun 2027 10:52:05.101             4.873          2059.750
       191   08 Jun 2027 10:52:06.014   08 Jun 2027 10:52:06.081             0.067            28.531
       192   08 Jun 2027 10:52:20.631   08 Jun 2027 10:52:24.023             3.392           454.687
       193   08 Jun 2027 10:52:53.689   08 Jun 2027 10:52:58.140             4.451           927.062
       194   08 Jun 2027 10:53:02.639   08 Jun 2027 10:53:03.412             0.773           140.594
       195   08 Jun 2027 10:53:30.010   08 Jun 2027 10:53:32.280             2.270           831.187
       196   08 Jun 2027 10:53:58.547   08 Jun 2027 10:54:00.755             2.208           820.844
       197   08 Jun 2027 10:54:38.636   08 Jun 2027 10:54:44.518             5.882          1183.781
       198   09 Jun 2027 03:09:26.955   09 Jun 2027 03:10:35.289            68.334         34167.000
       199   09 Jun 2027 03:10:55.332   09 Jun 2027 03:11:00.619             5.287          2643.500
       200   09 Jun 2027 03:11:01.988   09 Jun 2027 03:11:08.644             6.656          3328.000
       201   09 Jun 2027 03:11:49.101   09 Jun 2027 03:12:08.971            19.870          9935.000
       202   09 Jun 2027 03:12:52.483   09 Jun 2027 03:12:52.483             0.000             0.000
       203   09 Jun 2027 03:13:45.761   09 Jun 2027 03:13:58.904            13.143          6571.500
       204   09 Jun 2027 03:14:54.484   09 Jun 2027 03:15:04.712            10.228          5114.000
       205   09 Jun 2027 04:48:32.542   09 Jun 2027 04:49:27.991            55.449         27724.500
       206   09 Jun 2027 04:51:00.778   09 Jun 2027 04:51:15.584            14.806          7403.000
       207   09 Jun 2027 04:52:33.978   09 Jun 2027 04:52:36.946             2.968          1484.000
       208   09 Jun 2027 04:53:43.983   09 Jun 2027 04:53:45.971             1.988           994.000
       209   09 Jun 2027 04:54:09.967   09 Jun 2027 04:54:15.303             5.336          2668.000
       210   09 Jun 2027 04:54:29.356   09 Jun 2027 04:54:35.286             5.930          2965.000
       211   09 Jun 2027 04:55:20.354   09 Jun 2027 04:55:36.633            16.279          8139.500
       212   09 Jun 2027 06:12:47.457   09 Jun 2027 06:13:33.910            46.453         23226.500
       213   09 Jun 2027 06:24:59.730   09 Jun 2027 06:25:39.424            39.694         19847.000
       214   09 Jun 2027 07:47:15.690   09 Jun 2027 07:48:22.435            66.745         27079.780
       215   09 Jun 2027 07:51:05.032   09 Jun 2027 07:51:15.717            10.685          4758.406
       216   09 Jun 2027 07:51:34.678   09 Jun 2027 07:51:37.805             3.127            79.875
       217   09 Jun 2027 07:52:19.889   09 Jun 2027 07:52:22.398             2.509           979.750
       218   09 Jun 2027 09:22:09.153   09 Jun 2027 09:22:21.350            12.197          5937.281
       219   09 Jun 2027 09:23:10.199   09 Jun 2027 09:23:12.929             2.730           893.000
       220   09 Jun 2027 09:27:47.760   09 Jun 2027 09:27:58.755            10.995          5497.500
       221   09 Jun 2027 09:30:13.656   09 Jun 2027 09:30:25.697            12.041          5944.656
       222   09 Jun 2027 11:03:20.375   09 Jun 2027 11:03:51.089            30.714         15357.000
       223   09 Jun 2027 11:03:57.687   09 Jun 2027 11:03:58.018             0.331           165.500
       224   09 Jun 2027 11:04:59.364   09 Jun 2027 11:05:05.454             6.090          1962.250
       225   09 Jun 2027 11:05:40.995   09 Jun 2027 11:05:40.995             0.000             0.000
       226   09 Jun 2027 11:05:53.800   09 Jun 2027 11:05:58.495             4.695          1510.812
       227   09 Jun 2027 11:06:32.910   09 Jun 2027 11:06:35.324             2.414          1075.469
       228   09 Jun 2027 11:06:54.971   09 Jun 2027 11:07:03.122             8.151           613.969
       229   10 Jun 2027 03:21:53.871   10 Jun 2027 03:22:10.673            16.802          8401.000
       230   10 Jun 2027 03:22:19.805   10 Jun 2027 03:22:48.815            29.010         14505.000
       231   10 Jun 2027 03:22:53.541   10 Jun 2027 03:23:47.812            54.271         27135.500
       232   10 Jun 2027 03:23:49.324   10 Jun 2027 03:24:03.420            14.096          7048.000
       233   10 Jun 2027 03:24:14.152   10 Jun 2027 03:24:16.312             2.160          1080.000
       234   10 Jun 2027 03:24:28.674   10 Jun 2027 03:24:51.392            22.718         11359.000
       235   10 Jun 2027 05:00:37.387   10 Jun 2027 05:01:52.421            75.034         37517.000
       236   10 Jun 2027 05:04:11.614   10 Jun 2027 05:04:23.660            12.046          6023.000
       237   10 Jun 2027 05:05:51.384   10 Jun 2027 05:05:57.125             5.741          2870.500
       238   10 Jun 2027 05:07:22.125   10 Jun 2027 05:07:22.125             0.000             0.000
       239   10 Jun 2027 06:24:53.439   10 Jun 2027 06:25:34.795            41.356         20678.000
       240   10 Jun 2027 06:25:57.513   10 Jun 2027 06:26:29.690            32.177         16088.500
       241   10 Jun 2027 06:37:20.925   10 Jun 2027 06:37:27.052             6.127          3063.500
       242   10 Jun 2027 07:58:44.935   10 Jun 2027 07:59:40.731            55.796         27730.875
       243   10 Jun 2027 08:01:34.935   10 Jun 2027 08:01:43.864             8.929          3568.875
       244   10 Jun 2027 08:02:32.082   10 Jun 2027 08:02:40.499             8.417          1502.875
       245   10 Jun 2027 08:03:17.755   10 Jun 2027 08:03:17.755             0.000             0.000
       246   10 Jun 2027 08:03:34.903   10 Jun 2027 08:03:41.169             6.266           987.875
       247   10 Jun 2027 09:33:39.794   10 Jun 2027 09:33:51.994            12.200          5314.062
       248   10 Jun 2027 09:35:41.414   10 Jun 2027 09:35:46.527             5.113          2222.125
       249   10 Jun 2027 09:35:55.086   10 Jun 2027 09:35:55.824             0.738           238.844
       250   10 Jun 2027 09:39:20.909   10 Jun 2027 09:39:29.529             8.620          4310.000
       251   10 Jun 2027 09:40:40.255   10 Jun 2027 09:40:50.459            10.204          3959.969
       252   10 Jun 2027 09:40:53.671   10 Jun 2027 09:40:58.448             4.777            63.031
       253   10 Jun 2027 09:42:08.359   10 Jun 2027 09:42:14.349             5.990          1996.000
       254   10 Jun 2027 09:42:23.204   10 Jun 2027 09:42:27.263             4.059           276.719
       255   10 Jun 2027 09:42:27.469   10 Jun 2027 09:42:27.984             0.515             6.437
       256   10 Jun 2027 11:11:37.255   10 Jun 2027 11:11:51.728            14.473          6468.656
       257   10 Jun 2027 11:16:06.521   10 Jun 2027 11:16:22.967            16.446          7962.281
       258   10 Jun 2027 11:16:59.185   10 Jun 2027 11:17:02.627             3.442           561.313
       259   10 Jun 2027 11:17:25.979   10 Jun 2027 11:17:32.075             6.096           729.750
       260   10 Jun 2027 11:17:39.979   10 Jun 2027 11:17:39.979             0.000             0.000
       261   10 Jun 2027 11:18:27.906   10 Jun 2027 11:18:34.635             6.729          1744.719
       262   11 Jun 2027 03:34:30.469   11 Jun 2027 03:34:41.651            11.182          5591.000
       263   11 Jun 2027 03:34:53.226   11 Jun 2027 03:35:54.579            61.353         30676.500
       264   11 Jun 2027 03:36:00.573   11 Jun 2027 03:36:32.797            32.224         16112.000
       265   11 Jun 2027 03:36:43.533   11 Jun 2027 03:36:48.360             4.827          2413.500
       266   11 Jun 2027 03:37:48.259   11 Jun 2027 03:37:48.259             0.000             0.000
       267   11 Jun 2027 03:39:33.442   11 Jun 2027 03:39:33.442             0.000             0.000
       268   11 Jun 2027 05:13:00.273   11 Jun 2027 05:14:12.730            72.457         36228.500
       269   11 Jun 2027 05:14:37.924   11 Jun 2027 05:15:05.405            27.481         13740.500
       270   11 Jun 2027 05:16:29.809   11 Jun 2027 05:16:38.058             8.249          4124.500
       271   11 Jun 2027 06:36:49.513   11 Jun 2027 06:37:57.565            68.052         34026.000
       272   11 Jun 2027 08:12:49.078   11 Jun 2027 08:13:52.309            63.231         31113.124
       273   11 Jun 2027 08:15:54.419   11 Jun 2027 08:16:02.599             8.180          3195.688
       274   11 Jun 2027 09:46:33.407   11 Jun 2027 09:46:43.927            10.520          5260.000
       275   11 Jun 2027 09:47:12.462   11 Jun 2027 09:47:14.839             2.377           979.938
       276   11 Jun 2027 09:48:16.569   11 Jun 2027 09:48:19.621             3.052          1070.219
       277   11 Jun 2027 09:48:32.788   11 Jun 2027 09:48:38.648             5.860           411.469
       278   11 Jun 2027 09:48:48.858   11 Jun 2027 09:48:51.094             2.236           319.062
       279   11 Jun 2027 09:51:28.985   11 Jun 2027 09:51:39.403            10.418          4885.281
       280   11 Jun 2027 09:52:20.596   11 Jun 2027 09:52:26.941             6.345          1122.187
       281   11 Jun 2027 09:53:23.883   11 Jun 2027 09:53:28.302             4.419          1662.937
       282   11 Jun 2027 09:54:16.876   11 Jun 2027 09:54:19.721             2.845          1422.500
       283   11 Jun 2027 09:54:50.015   11 Jun 2027 09:54:50.015             0.000             0.000
       284   11 Jun 2027 09:54:54.346   11 Jun 2027 09:54:57.535             3.189          1177.469
       285   11 Jun 2027 11:23:58.616   11 Jun 2027 11:24:14.561            15.945          7923.219
       286   11 Jun 2027 11:24:23.796   11 Jun 2027 11:24:24.891             1.095           288.594
       287   11 Jun 2027 11:24:40.600   11 Jun 2027 11:24:43.998             3.398           490.906
       288   11 Jun 2027 11:25:11.640   11 Jun 2027 11:25:13.498             1.858           405.156
       289   11 Jun 2027 11:26:03.475   11 Jun 2027 11:26:09.100             5.625          1560.375
       290   11 Jun 2027 11:28:34.930   11 Jun 2027 11:28:49.530            14.600          4269.500
       291   11 Jun 2027 11:28:57.944   11 Jun 2027 11:28:58.087             0.143            71.500
       292   11 Jun 2027 11:29:08.575   11 Jun 2027 11:29:10.040             1.465           519.188
       293   11 Jun 2027 11:29:48.918   11 Jun 2027 11:29:57.642             8.724          1130.281
       294   11 Jun 2027 11:30:18.139   11 Jun 2027 11:30:18.139             0.000             0.000
       295   11 Jun 2027 11:30:42.564   11 Jun 2027 11:30:47.944             5.380          1352.188
       296   12 Jun 2027 03:47:01.844   12 Jun 2027 03:47:28.373            26.529         13264.500
       297   12 Jun 2027 03:47:35.332   12 Jun 2027 03:49:26.954           111.622         55811.000
       298   12 Jun 2027 03:51:06.265   12 Jun 2027 03:51:13.193             6.928          3464.000
       299   12 Jun 2027 03:51:45.039   12 Jun 2027 03:51:51.005             5.966          2983.000
       300   12 Jun 2027 05:25:00.838   12 Jun 2027 05:26:16.352            75.514         37757.000
       301   12 Jun 2027 05:26:35.529   12 Jun 2027 05:27:05.378            29.849         14924.500
       302   12 Jun 2027 05:27:48.256   12 Jun 2027 05:28:12.181            23.925         11962.500
       303   12 Jun 2027 06:48:41.085   12 Jun 2027 06:50:00.269            79.184         39592.000
       304   12 Jun 2027 06:50:23.376   12 Jun 2027 06:50:36.308            12.932          5408.531
       305   12 Jun 2027 08:25:03.694   12 Jun 2027 08:25:32.075            28.381         14190.500
       306   12 Jun 2027 08:25:37.676   12 Jun 2027 08:25:39.000             1.324           318.000
       307   12 Jun 2027 08:26:44.790   12 Jun 2027 08:26:50.088             5.298          2055.938
       308   12 Jun 2027 08:26:56.791   12 Jun 2027 08:26:56.791             0.000             0.000
       309   12 Jun 2027 08:27:39.853   12 Jun 2027 08:27:46.641             6.788          1555.156
       310   12 Jun 2027 09:59:08.160   12 Jun 2027 09:59:21.656            13.496          3999.406
       311   12 Jun 2027 10:01:02.293   12 Jun 2027 10:01:10.818             8.525          2486.469
       312   12 Jun 2027 10:02:11.405   12 Jun 2027 10:02:11.405             0.000             0.000
       313   12 Jun 2027 10:03:27.697   12 Jun 2027 10:03:38.241            10.544          4277.469
       314   12 Jun 2027 10:04:22.231   12 Jun 2027 10:04:25.485             3.254           222.000
       315   12 Jun 2027 10:05:03.989   12 Jun 2027 10:05:06.799             2.810          1024.281
       316   12 Jun 2027 10:05:38.218   12 Jun 2027 10:05:43.009             4.791           840.656
       317   12 Jun 2027 10:06:12.985   12 Jun 2027 10:06:12.985             0.000             0.000
       318   12 Jun 2027 10:07:00.220   12 Jun 2027 10:07:03.495             3.275          1637.500
       319   12 Jun 2027 11:36:12.090   12 Jun 2027 11:36:26.846            14.756          7046.125
       320   12 Jun 2027 11:36:46.137   12 Jun 2027 11:36:54.171             8.034           176.687
       321   12 Jun 2027 11:38:16.853   12 Jun 2027 11:38:19.380             2.527           921.281
       322   12 Jun 2027 11:38:42.193   12 Jun 2027 11:38:43.342             1.149           322.563
       323   12 Jun 2027 11:40:11.219   12 Jun 2027 11:40:18.372             7.153          2746.156
       324   12 Jun 2027 11:40:31.065   12 Jun 2027 11:40:34.999             3.934           396.656
       325   12 Jun 2027 11:40:58.611   12 Jun 2027 11:41:02.584             3.973           507.438
       326   12 Jun 2027 11:41:09.608   12 Jun 2027 11:41:10.191             0.583           134.281
       327   12 Jun 2027 11:42:10.166   12 Jun 2027 11:42:14.932             4.766          1578.781
       328   12 Jun 2027 11:42:17.899   12 Jun 2027 11:42:19.534             1.635             9.531
       329   12 Jun 2027 11:42:38.368   12 Jun 2027 11:42:38.368             0.000             0.000
       330   13 Jun 2027 03:59:07.878   13 Jun 2027 04:00:09.793            61.915         30957.500
       331   13 Jun 2027 04:00:16.266   13 Jun 2027 04:01:00.308            44.042         22021.000
       332   13 Jun 2027 04:01:22.177   13 Jun 2027 04:01:37.126            14.949          7474.500
       333   13 Jun 2027 04:01:43.594   13 Jun 2027 04:01:48.124             4.530          2265.000
       334   13 Jun 2027 04:02:38.934   13 Jun 2027 04:02:39.931             0.997           498.500
       335   13 Jun 2027 04:04:19.242   13 Jun 2027 04:04:21.686             2.444          1222.000
       336   13 Jun 2027 04:04:48.581   13 Jun 2027 04:04:52.040             3.459          1729.500
       337   13 Jun 2027 05:38:14.014   13 Jun 2027 05:39:55.517           101.503         50751.500
       338   13 Jun 2027 07:00:45.482   13 Jun 2027 07:02:24.843            99.361         49680.500
       339   13 Jun 2027 08:37:14.495   13 Jun 2027 08:37:34.660            20.165         10082.500
       340   13 Jun 2027 08:38:08.107   13 Jun 2027 08:38:15.706             7.599          3158.750
       341   13 Jun 2027 08:39:54.086   13 Jun 2027 08:39:54.086             0.000             0.000
       342   13 Jun 2027 10:12:20.104   13 Jun 2027 10:12:37.070            16.966          6715.563
       343   13 Jun 2027 10:14:19.944   13 Jun 2027 10:14:19.944             0.000             0.000
       344   13 Jun 2027 10:15:59.389   13 Jun 2027 10:15:59.389             0.000             0.000
       345   13 Jun 2027 10:17:26.003   13 Jun 2027 10:17:43.982            17.979          8511.281
       346   13 Jun 2027 10:18:15.913   13 Jun 2027 10:18:18.877             2.964           919.000
       347   13 Jun 2027 10:18:31.944   13 Jun 2027 10:18:34.839             2.895           317.625
       348   13 Jun 2027 10:18:59.768   13 Jun 2027 10:19:04.107             4.339           475.469
       349   13 Jun 2027 11:48:42.396   13 Jun 2027 11:48:58.426            16.030          7681.750
       350   13 Jun 2027 11:50:13.132   13 Jun 2027 11:50:14.975             1.843           921.500
       351   13 Jun 2027 11:50:51.619   13 Jun 2027 11:50:56.927             5.308          2104.687
       352   13 Jun 2027 11:52:14.378   13 Jun 2027 11:52:21.010             6.632          2346.781
       353   13 Jun 2027 11:52:42.459   13 Jun 2027 11:52:45.021             2.562           384.375
       354   13 Jun 2027 11:53:16.873   13 Jun 2027 11:53:20.175             3.302           807.156
       355   13 Jun 2027 11:54:03.906   13 Jun 2027 11:54:05.905             1.999           999.500
       356   13 Jun 2027 11:55:00.856   13 Jun 2027 11:55:01.226             0.370           185.000
