uniorb/output/strategy_1/Camera/Camera_KinoSat_111101.txt

KinoSat_111101
-------------------------
    Access    *     Start Time (UTCG)     *     Stop Time (UTCG)  *   Duration (s) *   Data (Mbytes)
         1   01 Jun 2027 04:01:40.967   01 Jun 2027 04:02:58.843            77.876         38938.000
         2   01 Jun 2027 04:03:28.971   01 Jun 2027 04:03:45.417            16.446          8223.000
         3   01 Jun 2027 05:37:38.356   01 Jun 2027 05:40:07.460           149.104         74552.000
         4   01 Jun 2027 05:40:23.503   01 Jun 2027 05:40:23.503             0.000             0.000
         5   01 Jun 2027 07:11:28.093   01 Jun 2027 07:13:30.260           122.167         61083.500
         6   01 Jun 2027 07:13:58.880   01 Jun 2027 07:14:02.138             3.258          1629.000
         7   01 Jun 2027 07:15:37.272   01 Jun 2027 07:15:53.140            15.868          7934.000
         8   01 Jun 2027 07:16:03.513   01 Jun 2027 07:16:06.375             2.862          1431.000
         9   01 Jun 2027 07:17:01.543   01 Jun 2027 07:17:03.685             2.142          1071.000
        10   01 Jun 2027 07:17:54.797   01 Jun 2027 07:17:58.497             3.700          1850.000
        11   01 Jun 2027 07:18:36.567   01 Jun 2027 07:18:36.706             0.139            69.500
        12   01 Jun 2027 07:18:57.940   01 Jun 2027 07:18:58.029             0.089            44.500
        13   01 Jun 2027 07:19:16.411   01 Jun 2027 07:19:22.045             5.634          2817.000
        14   01 Jun 2027 08:48:31.629   01 Jun 2027 08:50:25.590           113.961         56980.500
        15   01 Jun 2027 08:53:14.107   01 Jun 2027 08:53:14.107             0.000             0.000
        16   01 Jun 2027 08:53:54.050   01 Jun 2027 08:54:23.479            29.429         14714.500
        17   01 Jun 2027 10:25:26.335   01 Jun 2027 10:27:30.819           124.484         62242.000
        18   01 Jun 2027 10:29:24.192   01 Jun 2027 10:29:26.869             2.677          1338.500
        19   01 Jun 2027 10:30:16.286   01 Jun 2027 10:30:28.495            12.209          6104.500
        20   02 Jun 2027 04:13:34.999   02 Jun 2027 04:14:35.854            60.855         30427.500
        21   02 Jun 2027 05:49:57.045   02 Jun 2027 05:52:11.057           134.012         67006.000
        22   02 Jun 2027 05:52:20.397   02 Jun 2027 05:52:20.727             0.330           165.000
        23   02 Jun 2027 07:23:26.248   02 Jun 2027 07:25:36.844           130.596         65298.000
        24   02 Jun 2027 07:25:45.291   02 Jun 2027 07:26:01.677            16.386          8193.000
        25   02 Jun 2027 07:26:40.221   02 Jun 2027 07:26:51.768            11.547          5773.500
        26   02 Jun 2027 07:30:00.490   02 Jun 2027 07:30:07.668             7.178          3589.000
        27   02 Jun 2027 07:30:47.414   02 Jun 2027 07:30:54.822             7.408          3704.000
        28   02 Jun 2027 09:00:57.990   02 Jun 2027 09:03:07.168           129.178         64589.000
        29   02 Jun 2027 09:03:20.827   02 Jun 2027 09:03:31.403            10.576          5288.000
        30   02 Jun 2027 09:04:31.692   02 Jun 2027 09:04:37.782             6.090          3045.000
        31   02 Jun 2027 10:37:53.123   02 Jun 2027 10:39:49.224           116.101         58050.500
        32   02 Jun 2027 10:41:10.659   02 Jun 2027 10:41:13.898             3.239          1619.500
        33   02 Jun 2027 10:41:24.158   02 Jun 2027 10:41:26.123             1.965           982.500
        34   02 Jun 2027 10:42:11.773   02 Jun 2027 10:42:16.590             4.817          2408.500
        35   02 Jun 2027 10:42:21.756   02 Jun 2027 10:42:27.235             5.479          2739.500
        36   02 Jun 2027 10:43:14.845   02 Jun 2027 10:43:26.720            11.875          5937.500
        37   03 Jun 2027 03:01:49.769   03 Jun 2027 03:02:07.225            17.456          8728.000
        38   03 Jun 2027 03:02:27.294   03 Jun 2027 03:02:48.224            20.930         10465.000
        39   03 Jun 2027 03:04:12.312   03 Jun 2027 03:04:14.008             1.696           848.000
        40   03 Jun 2027 03:04:20.172   03 Jun 2027 03:04:23.617             3.445          1722.500
        41   03 Jun 2027 03:05:26.980   03 Jun 2027 03:05:26.980             0.000             0.000
        42   03 Jun 2027 03:06:18.171   03 Jun 2027 03:06:31.226            13.055          6527.500
        43   03 Jun 2027 04:25:25.966   03 Jun 2027 04:26:10.573            44.607         22303.500
        44   03 Jun 2027 04:27:47.494   03 Jun 2027 04:28:09.071            21.577         10788.500
        45   03 Jun 2027 06:01:58.772   03 Jun 2027 06:03:27.020            88.248         44124.000
        46   03 Jun 2027 07:36:27.870   03 Jun 2027 07:38:41.862           133.992         66996.000
        47   03 Jun 2027 07:40:13.076   03 Jun 2027 07:40:25.012            11.936          5968.000
        48   03 Jun 2027 07:41:37.737   03 Jun 2027 07:42:05.069            27.332         13666.000
        49   03 Jun 2027 07:43:46.013   03 Jun 2027 07:43:48.902             2.889          1444.500
        50   03 Jun 2027 09:13:05.376   03 Jun 2027 09:15:22.023           136.647         68323.500
        51   03 Jun 2027 09:17:21.966   03 Jun 2027 09:17:23.035             1.069           534.500
        52   03 Jun 2027 09:19:36.937   03 Jun 2027 09:19:43.186             6.249          3124.500
        53   03 Jun 2027 10:50:46.990   03 Jun 2027 10:51:58.902            71.912         33393.155
        54   03 Jun 2027 10:52:41.769   03 Jun 2027 10:52:45.604             3.835          1108.781
        55   03 Jun 2027 10:53:08.541   03 Jun 2027 10:53:10.323             1.782           710.313
        56   03 Jun 2027 10:53:43.214   03 Jun 2027 10:53:44.088             0.874           437.000
        57   03 Jun 2027 10:54:18.829   03 Jun 2027 10:54:19.421             0.592           296.000
        58   03 Jun 2027 10:54:30.691   03 Jun 2027 10:54:36.462             5.771          1544.094
        59   04 Jun 2027 03:14:15.355   04 Jun 2027 03:14:41.329            25.974         12987.000
        60   04 Jun 2027 03:15:02.889   04 Jun 2027 03:15:51.113            48.224         24112.000
        61   04 Jun 2027 03:17:19.908   04 Jun 2027 03:17:32.614            12.706          6353.000
        62   04 Jun 2027 04:37:36.302   04 Jun 2027 04:38:20.296            43.994         21997.000
        63   04 Jun 2027 06:14:07.853   04 Jun 2027 06:15:19.298            71.445         35722.500
        64   04 Jun 2027 06:17:01.327   04 Jun 2027 06:17:27.539            26.212         13106.000
        65   04 Jun 2027 07:49:16.995   04 Jun 2027 07:51:10.243           113.248         56624.000
        66   04 Jun 2027 07:51:29.338   04 Jun 2027 07:51:34.157             4.819          1972.219
        67   04 Jun 2027 07:51:53.827   04 Jun 2027 07:51:55.480             1.653           599.281
        68   04 Jun 2027 07:52:08.899   04 Jun 2027 07:52:10.161             1.262           408.344
        69   04 Jun 2027 07:54:38.888   04 Jun 2027 07:54:38.888             0.000             0.000
        70   04 Jun 2027 07:55:28.252   04 Jun 2027 07:55:36.667             8.415          4207.500
        71   04 Jun 2027 09:25:40.533   04 Jun 2027 09:26:04.200            23.667         11111.250
        72   04 Jun 2027 09:26:14.077   04 Jun 2027 09:26:14.829             0.752            76.156
        73   04 Jun 2027 09:27:23.413   04 Jun 2027 09:27:28.954             5.541            68.531
        74   04 Jun 2027 09:27:45.477   04 Jun 2027 09:27:50.806             5.329           516.344
        75   04 Jun 2027 09:27:57.703   04 Jun 2027 09:28:00.033             2.330            88.781
        76   04 Jun 2027 09:28:44.473   04 Jun 2027 09:28:46.886             2.413          1206.500
        77   04 Jun 2027 09:29:22.498   04 Jun 2027 09:29:24.133             1.635           817.500
        78   04 Jun 2027 09:29:44.955   04 Jun 2027 09:29:49.401             4.446          1128.313
        79   04 Jun 2027 09:29:49.444   04 Jun 2027 09:29:54.623             5.179             1.344
        80   04 Jun 2027 09:30:04.471   04 Jun 2027 09:30:05.465             0.994           307.750
        81   04 Jun 2027 09:30:30.503   04 Jun 2027 09:30:35.134             4.631           745.313
        82   04 Jun 2027 09:31:13.321   04 Jun 2027 09:31:15.457             2.136           872.437
        83   04 Jun 2027 11:02:54.487   04 Jun 2027 11:03:11.516            17.029          7379.875
        84   04 Jun 2027 11:03:25.479   04 Jun 2027 11:03:25.479             0.000             0.000
        85   04 Jun 2027 11:04:00.388   04 Jun 2027 11:04:08.329             7.941          1304.125
        86   04 Jun 2027 11:04:23.921   04 Jun 2027 11:04:27.311             3.390           375.281
        87   04 Jun 2027 11:04:58.933   04 Jun 2027 11:05:01.332             2.399           969.969
        88   04 Jun 2027 11:05:16.774   04 Jun 2027 11:05:18.352             1.578           209.437
        89   04 Jun 2027 11:05:43.260   04 Jun 2027 11:05:44.846             1.586           778.375
        90   04 Jun 2027 11:06:10.224   04 Jun 2027 11:06:13.009             2.785           752.531
        91   04 Jun 2027 11:06:39.225   04 Jun 2027 11:06:40.495             1.270           586.094
        92   04 Jun 2027 11:07:21.251   04 Jun 2027 11:07:22.704             1.453           388.250
        93   05 Jun 2027 03:26:10.542   05 Jun 2027 03:26:48.281            37.739         18869.500
        94   05 Jun 2027 03:27:18.061   05 Jun 2027 03:28:14.095            56.034         28017.000
        95   05 Jun 2027 04:50:13.206   05 Jun 2027 04:50:59.329            46.123         23061.500
        96   05 Jun 2027 04:51:11.237   05 Jun 2027 04:51:23.601            12.364          6182.000
        97   05 Jun 2027 04:51:46.152   05 Jun 2027 04:51:56.472            10.320          5160.000
        98   05 Jun 2027 04:52:05.857   05 Jun 2027 04:52:15.851             9.994          4997.000
        99   05 Jun 2027 06:26:01.081   05 Jun 2027 06:27:09.020            67.939         33969.500
       100   05 Jun 2027 06:28:14.801   05 Jun 2027 06:28:30.644            15.843          7921.500
       101   05 Jun 2027 06:29:14.804   05 Jun 2027 06:29:14.804             0.000             0.000
       102   05 Jun 2027 08:00:58.658   05 Jun 2027 08:02:06.496            67.838         33919.000
       103   05 Jun 2027 08:02:25.630   05 Jun 2027 08:02:27.731             2.101           870.594
       104   05 Jun 2027 08:03:01.264   05 Jun 2027 08:03:04.258             2.994          1027.438
       105   05 Jun 2027 08:03:29.620   05 Jun 2027 08:03:34.119             4.499           669.875
       106   05 Jun 2027 08:03:48.936   05 Jun 2027 08:03:49.811             0.875           297.656
       107   05 Jun 2027 08:04:02.744   05 Jun 2027 08:04:04.239             1.495           385.938
       108   05 Jun 2027 08:06:24.875   05 Jun 2027 08:06:32.291             7.416          3708.000
       109   05 Jun 2027 08:07:48.066   05 Jun 2027 08:07:51.391             3.325          1662.500
       110   05 Jun 2027 09:37:12.311   05 Jun 2027 09:37:30.990            18.679          9223.844
       111   05 Jun 2027 09:37:57.855   05 Jun 2027 09:38:00.044             2.189           549.562
       112   05 Jun 2027 09:38:31.428   05 Jun 2027 09:38:34.152             2.724           720.813
       113   05 Jun 2027 09:39:24.973   05 Jun 2027 09:39:28.877             3.904           284.563
       114   05 Jun 2027 09:39:45.163   05 Jun 2027 09:39:46.594             1.431           508.938
       115   05 Jun 2027 09:40:05.587   05 Jun 2027 09:40:07.747             2.160           325.344
       116   05 Jun 2027 09:40:42.263   05 Jun 2027 09:40:45.623             3.360           912.500
       117   05 Jun 2027 09:41:48.909   05 Jun 2027 09:41:57.678             8.769          1977.688
       118   05 Jun 2027 09:42:27.753   05 Jun 2027 09:42:30.488             2.735           927.781
       119   05 Jun 2027 11:15:32.425   05 Jun 2027 11:15:53.728            21.303          7593.906
       120   05 Jun 2027 11:16:03.016   05 Jun 2027 11:16:03.887             0.871           246.375
       121   05 Jun 2027 11:17:15.336   05 Jun 2027 11:17:19.515             4.179          2000.250
       122   05 Jun 2027 11:17:47.189   05 Jun 2027 11:17:51.341             4.152           209.656
       123   05 Jun 2027 11:17:53.890   05 Jun 2027 11:17:55.064             1.174            79.656
       124   05 Jun 2027 11:18:13.310   05 Jun 2027 11:18:14.481             1.171           570.187
       125   05 Jun 2027 11:18:18.692   05 Jun 2027 11:18:22.009             3.317           131.594
       126   05 Jun 2027 11:19:05.795   05 Jun 2027 11:19:10.278             4.483          1368.313
       127   06 Jun 2027 03:26:58.821   06 Jun 2027 03:27:43.514            44.693         22346.500
       128   06 Jun 2027 03:38:06.656   06 Jun 2027 03:39:14.962            68.306         34153.000
       129   06 Jun 2027 03:40:11.397   06 Jun 2027 03:40:27.528            16.131          8065.500
       130   06 Jun 2027 03:40:57.535   06 Jun 2027 03:41:00.739             3.204          1602.000
       131   06 Jun 2027 05:01:03.512   06 Jun 2027 05:01:40.725            37.213         18606.500
       132   06 Jun 2027 05:02:01.120   06 Jun 2027 05:02:16.076            14.956          7478.000
       133   06 Jun 2027 05:04:54.300   06 Jun 2027 05:04:55.045             0.745           372.500
       134   06 Jun 2027 06:36:23.265   06 Jun 2027 06:36:48.903            25.638         12819.000
       135   06 Jun 2027 06:37:46.036   06 Jun 2027 06:39:14.693            88.657         44328.500
       136   06 Jun 2027 06:39:55.568   06 Jun 2027 06:40:02.731             7.163          3581.500
       137   06 Jun 2027 06:41:47.584   06 Jun 2027 06:42:02.151            14.567          7283.500
       138   06 Jun 2027 06:42:15.752   06 Jun 2027 06:42:16.577             0.825           412.500
       139   06 Jun 2027 08:12:31.678   06 Jun 2027 08:12:56.556            24.878         12372.312
       140   06 Jun 2027 08:13:06.643   06 Jun 2027 08:13:08.348             1.705           132.719
       141   06 Jun 2027 08:14:44.462   06 Jun 2027 08:14:56.929            12.467          2257.188
       142   06 Jun 2027 08:15:44.472   06 Jun 2027 08:15:50.838             6.366          1106.000
       143   06 Jun 2027 08:16:11.868   06 Jun 2027 08:16:13.675             1.807           657.187
       144   06 Jun 2027 08:17:06.061   06 Jun 2027 08:17:09.400             3.339          1527.031
       145   06 Jun 2027 08:17:17.230   06 Jun 2027 08:17:19.336             2.106            34.563
       146   06 Jun 2027 08:18:23.819   06 Jun 2027 08:18:30.100             6.281          1921.156
       147   06 Jun 2027 08:19:01.950   06 Jun 2027 08:19:05.871             3.921           920.719
       148   06 Jun 2027 09:49:34.065   06 Jun 2027 09:49:53.907            19.842          8383.594
       149   06 Jun 2027 09:50:24.037   06 Jun 2027 09:50:27.239             3.202           556.062
       150   06 Jun 2027 09:51:31.789   06 Jun 2027 09:51:33.667             1.878           862.344
       151   06 Jun 2027 09:52:11.382   06 Jun 2027 09:52:12.724             1.342           582.406
       152   06 Jun 2027 09:52:44.833   06 Jun 2027 09:52:46.468             1.635           653.531
       153   06 Jun 2027 09:53:40.838   06 Jun 2027 09:53:44.073             3.235          1279.406
       154   06 Jun 2027 09:54:28.203   06 Jun 2027 09:54:31.799             3.596          1260.750
       155   06 Jun 2027 11:27:33.728   06 Jun 2027 11:27:46.249            12.521          6260.500
       156   06 Jun 2027 11:27:50.243   06 Jun 2027 11:27:50.756             0.513           256.500
       157   06 Jun 2027 11:28:09.803   06 Jun 2027 11:28:09.803             0.000             0.000
       158   06 Jun 2027 11:29:14.343   06 Jun 2027 11:29:22.537             8.194          3173.312
       159   06 Jun 2027 11:29:44.363   06 Jun 2027 11:29:45.707             1.344           672.000
       160   06 Jun 2027 11:30:15.147   06 Jun 2027 11:30:18.992             3.845           930.063
       161   06 Jun 2027 11:31:24.755   06 Jun 2027 11:31:29.042             4.287          1907.813
       162   07 Jun 2027 03:38:26.194   07 Jun 2027 03:39:09.375            43.181         21590.500
       163   07 Jun 2027 03:50:08.584   07 Jun 2027 03:51:21.845            73.261         36630.500
       164   07 Jun 2027 05:12:21.526   07 Jun 2027 05:13:05.442            43.916         21958.000
       165   07 Jun 2027 05:14:25.059   07 Jun 2027 05:14:49.335            24.276         12138.000
       166   07 Jun 2027 05:16:34.414   07 Jun 2027 05:16:40.546             6.132          3066.000
       167   07 Jun 2027 05:17:19.697   07 Jun 2027 05:17:32.711            13.014          6507.000
       168   07 Jun 2027 06:47:27.814   07 Jun 2027 06:48:57.293            89.479         44739.500
       169   07 Jun 2027 06:49:29.928   07 Jun 2027 06:49:51.612            21.684         10842.000
       170   07 Jun 2027 06:51:53.571   07 Jun 2027 06:51:59.317             5.746          2873.000
       171   07 Jun 2027 06:53:07.596   07 Jun 2027 06:53:12.086             4.490          2245.000
       172   07 Jun 2027 06:54:15.823   07 Jun 2027 06:54:20.458             4.635          2317.500
       173   07 Jun 2027 08:24:43.304   07 Jun 2027 08:25:04.823            21.519         10759.500
       174   07 Jun 2027 08:26:44.340   07 Jun 2027 08:26:53.682             9.342          3189.937
       175   07 Jun 2027 08:27:03.706   07 Jun 2027 08:27:06.572             2.866            45.563
       176   07 Jun 2027 08:28:08.722   07 Jun 2027 08:28:12.260             3.538          1733.938
       177   07 Jun 2027 08:28:25.811   07 Jun 2027 08:28:28.154             2.343           398.750
       178   07 Jun 2027 08:28:50.804   07 Jun 2027 08:28:53.491             2.687           561.906
       179   07 Jun 2027 08:29:30.190   07 Jun 2027 08:29:36.096             5.906          1146.844
       180   07 Jun 2027 08:29:55.020   07 Jun 2027 08:29:56.751             1.731           494.500
       181   07 Jun 2027 08:31:07.578   07 Jun 2027 08:31:12.061             4.483          1425.969
       182   07 Jun 2027 08:31:32.745   07 Jun 2027 08:31:32.745             0.000             0.000
       183   07 Jun 2027 10:01:37.439   07 Jun 2027 10:01:54.912            17.473          8117.938
       184   07 Jun 2027 10:03:15.296   07 Jun 2027 10:03:16.800             1.504           695.406
       185   07 Jun 2027 10:03:44.890   07 Jun 2027 10:03:48.307             3.417           512.625
       186   07 Jun 2027 10:03:52.324   07 Jun 2027 10:03:53.278             0.954           125.531
       187   07 Jun 2027 10:04:50.476   07 Jun 2027 10:04:53.287             2.811          1405.500
       188   07 Jun 2027 10:05:00.959   07 Jun 2027 10:05:06.170             5.211           477.844
       189   07 Jun 2027 10:05:44.609   07 Jun 2027 10:05:47.438             2.829           959.938
       190   07 Jun 2027 10:06:28.911   07 Jun 2027 10:06:33.437             4.526          1296.031
       191   07 Jun 2027 10:07:02.559   07 Jun 2027 10:07:05.562             3.003           482.750
       192   07 Jun 2027 10:07:24.144   07 Jun 2027 10:07:26.080             1.936           579.594
       193   07 Jun 2027 10:07:29.536   07 Jun 2027 10:07:30.073             0.537            87.813
       194   07 Jun 2027 10:07:35.250   07 Jun 2027 10:07:38.295             3.045            78.094
       195   07 Jun 2027 10:07:45.997   07 Jun 2027 10:07:47.513             1.516           118.188
       196   07 Jun 2027 11:39:33.628   07 Jun 2027 11:39:44.388            10.760          5380.000
       197   07 Jun 2027 11:40:28.727   07 Jun 2027 11:40:35.667             6.940          3006.625
       198   07 Jun 2027 11:40:56.104   07 Jun 2027 11:40:59.771             3.667           630.156
       199   07 Jun 2027 11:41:13.768   07 Jun 2027 11:41:13.768             0.000             0.000
       200   07 Jun 2027 11:41:23.215   07 Jun 2027 11:41:24.678             1.463           721.031
       201   07 Jun 2027 11:42:11.986   07 Jun 2027 11:42:15.789             3.803          1478.375
       202   07 Jun 2027 11:42:25.375   07 Jun 2027 11:42:25.375             0.000             0.000
       203   07 Jun 2027 11:43:22.337   07 Jun 2027 11:43:28.386             6.049          2025.094
       204   08 Jun 2027 03:49:54.873   08 Jun 2027 03:51:08.439            73.566         36783.000
       205   08 Jun 2027 04:02:05.300   08 Jun 2027 04:02:43.606            38.306         19153.000
       206   08 Jun 2027 05:24:06.918   08 Jun 2027 05:25:27.464            80.546         40273.000
       207   08 Jun 2027 05:26:09.535   08 Jun 2027 05:26:11.939             2.404          1202.000
       208   08 Jun 2027 05:26:18.115   08 Jun 2027 05:26:41.401            23.286         11643.000
       209   08 Jun 2027 06:58:57.079   08 Jun 2027 07:00:46.751           109.672         54836.000
       210   08 Jun 2027 07:03:09.040   08 Jun 2027 07:03:18.251             9.211          4605.500
       211   08 Jun 2027 07:05:17.592   08 Jun 2027 07:05:21.959             4.367          2183.500
       212   08 Jun 2027 07:06:19.456   08 Jun 2027 07:06:34.672            15.216          7306.843
       213   08 Jun 2027 08:36:43.682   08 Jun 2027 08:37:05.928            22.246          9993.500
       214   08 Jun 2027 08:38:52.384   08 Jun 2027 08:39:00.978             8.594          3293.250
       215   08 Jun 2027 08:39:37.145   08 Jun 2027 08:39:38.494             1.349           551.687
       216   08 Jun 2027 08:39:42.930   08 Jun 2027 08:39:44.487             1.557           107.875
       217   08 Jun 2027 08:41:21.754   08 Jun 2027 08:41:31.890            10.136          2804.094
       218   08 Jun 2027 08:42:42.433   08 Jun 2027 08:42:49.300             6.867          2204.469
       219   08 Jun 2027 08:43:12.474   08 Jun 2027 08:43:17.539             5.065           724.187
       220   08 Jun 2027 08:43:30.878   08 Jun 2027 08:43:33.006             2.128           300.906
       221   08 Jun 2027 08:43:55.753   08 Jun 2027 08:43:57.909             2.156           475.812
       222   08 Jun 2027 08:44:05.707   08 Jun 2027 08:44:06.330             0.623           225.781
       223   08 Jun 2027 10:13:28.843   08 Jun 2027 10:13:47.495            18.652          8625.031
       224   08 Jun 2027 10:14:33.157   08 Jun 2027 10:14:36.526             3.369          1315.375
       225   08 Jun 2027 10:16:11.646   08 Jun 2027 10:16:18.486             6.840          2150.094
       226   08 Jun 2027 10:16:44.393   08 Jun 2027 10:16:46.256             1.863           765.688
       227   08 Jun 2027 10:17:40.707   08 Jun 2027 10:17:45.676             4.969          1508.219
       228   08 Jun 2027 10:17:50.564   08 Jun 2027 10:17:50.898             0.334           103.906
       229   08 Jun 2027 10:18:29.831   08 Jun 2027 10:18:35.913             6.082          1210.781
       230   08 Jun 2027 10:18:47.746   08 Jun 2027 10:18:49.990             2.244            24.969
       231   08 Jun 2027 10:19:48.780   08 Jun 2027 10:19:52.771             3.991          1818.844
       232   08 Jun 2027 11:51:34.339   08 Jun 2027 11:51:58.406            24.067          8262.656
       233   08 Jun 2027 11:52:03.295   08 Jun 2027 11:52:03.986             0.691           152.781
       234   08 Jun 2027 11:52:31.565   08 Jun 2027 11:52:34.421             2.856           849.625
       235   08 Jun 2027 11:53:26.355   08 Jun 2027 11:53:26.805             0.450           225.000
       236   08 Jun 2027 11:53:42.472   08 Jun 2027 11:53:46.619             4.147          1096.375
       237   08 Jun 2027 11:54:12.727   08 Jun 2027 11:54:25.664            12.937           815.875
       238   08 Jun 2027 11:54:49.067   08 Jun 2027 11:54:58.249             9.182           731.344
       239   09 Jun 2027 04:01:56.026   09 Jun 2027 04:02:35.978            39.952         19976.000
       240   09 Jun 2027 04:02:44.739   09 Jun 2027 04:02:48.499             3.760          1880.000
       241   09 Jun 2027 04:03:43.795   09 Jun 2027 04:03:52.932             9.137          4568.500
       242   09 Jun 2027 05:37:54.063   09 Jun 2027 05:40:22.956           148.893         74446.500
       243   09 Jun 2027 05:40:39.297   09 Jun 2027 05:40:39.297             0.000             0.000
       244   09 Jun 2027 07:11:43.293   09 Jun 2027 07:13:41.668           118.375         59187.500
       245   09 Jun 2027 07:14:20.157   09 Jun 2027 07:14:20.157             0.000             0.000
       246   09 Jun 2027 07:15:20.157   09 Jun 2027 07:15:30.421            10.264          5132.000
       247   09 Jun 2027 07:15:42.615   09 Jun 2027 07:15:48.512             5.897           479.594
       248   09 Jun 2027 07:17:15.384   09 Jun 2027 07:17:18.894             3.510          1755.000
       249   09 Jun 2027 07:19:31.093   09 Jun 2027 07:19:33.444             2.351          1175.500
       250   09 Jun 2027 07:20:10.293   09 Jun 2027 07:20:10.293             0.000             0.000
       251   09 Jun 2027 08:48:47.906   09 Jun 2027 08:49:15.908            28.002         11786.094
       252   09 Jun 2027 08:49:45.287   09 Jun 2027 08:49:47.620             2.333           260.188
       253   09 Jun 2027 08:50:02.439   09 Jun 2027 08:50:05.244             2.805           209.562
       254   09 Jun 2027 08:51:34.487   09 Jun 2027 08:51:39.136             4.649          1799.906
       255   09 Jun 2027 08:52:02.936   09 Jun 2027 08:52:05.219             2.283           200.625
       256   09 Jun 2027 08:52:18.520   09 Jun 2027 08:52:22.490             3.970           415.656
       257   09 Jun 2027 08:52:36.236   09 Jun 2027 08:52:45.759             9.523           287.281
       258   09 Jun 2027 08:52:58.618   09 Jun 2027 08:52:59.840             1.222           125.219
       259   09 Jun 2027 08:53:30.311   09 Jun 2027 08:53:31.926             1.615           130.531
       260   09 Jun 2027 08:53:58.579   09 Jun 2027 08:54:02.074             3.495           647.781
       261   09 Jun 2027 08:54:15.556   09 Jun 2027 08:54:17.753             2.197           363.438
       262   09 Jun 2027 08:54:43.387   09 Jun 2027 08:54:43.440             0.053            26.500
       263   09 Jun 2027 08:55:24.060   09 Jun 2027 08:55:28.910             4.850          1906.938
       264   09 Jun 2027 08:55:53.624   09 Jun 2027 08:55:55.404             1.780           772.313
       265   09 Jun 2027 08:56:02.019   09 Jun 2027 08:56:02.928             0.909           178.594
       266   09 Jun 2027 10:25:46.974   09 Jun 2027 10:26:03.561            16.587          8249.000
       267   09 Jun 2027 10:27:19.044   09 Jun 2027 10:27:25.083             6.039          2244.906
       268   09 Jun 2027 10:28:08.902   09 Jun 2027 10:28:14.922             6.020          1085.063
       269   09 Jun 2027 10:28:38.637   09 Jun 2027 10:28:41.546             2.909           257.313
       270   09 Jun 2027 10:29:39.541   09 Jun 2027 10:29:41.719             2.178          1089.000
       271   09 Jun 2027 10:29:52.755   09 Jun 2027 10:29:57.765             5.010           963.312
       272   09 Jun 2027 10:30:00.993   09 Jun 2027 10:30:01.676             0.683            89.906
       273   09 Jun 2027 10:31:28.123   09 Jun 2027 10:31:33.845             5.722          2701.469
       274   09 Jun 2027 10:31:57.802   09 Jun 2027 10:31:59.228             1.426           706.469
       275   10 Jun 2027 04:13:50.347   10 Jun 2027 04:15:12.923            82.576         41288.000
       276   10 Jun 2027 05:50:13.170   10 Jun 2027 05:52:26.258           133.088         66544.000
       277   10 Jun 2027 05:53:12.635   10 Jun 2027 05:53:12.635             0.000             0.000
       278   10 Jun 2027 07:23:41.449   10 Jun 2027 07:25:38.034           116.585         58292.500
       279   10 Jun 2027 07:25:47.642   10 Jun 2027 07:25:49.654             2.012           829.063
       280   10 Jun 2027 07:26:00.996   10 Jun 2027 07:26:01.112             0.116            58.000
       281   10 Jun 2027 07:26:05.527   10 Jun 2027 07:26:05.527             0.000             0.000
       282   10 Jun 2027 07:26:16.669   10 Jun 2027 07:26:20.003             3.334           782.594
       283   10 Jun 2027 07:26:55.710   10 Jun 2027 07:26:58.763             3.053          1115.219
       284   10 Jun 2027 07:29:19.956   10 Jun 2027 07:29:29.312             9.356          4115.281
       285   10 Jun 2027 07:29:42.878   10 Jun 2027 07:29:42.878             0.000             0.000
       286   10 Jun 2027 07:30:40.686   10 Jun 2027 07:30:43.155             2.469          1234.500
       287   10 Jun 2027 07:31:43.585   10 Jun 2027 07:31:48.098             4.513          2256.500
       288   10 Jun 2027 09:01:14.934   10 Jun 2027 09:01:36.139            21.205          9418.250
       289   10 Jun 2027 09:01:49.700   10 Jun 2027 09:01:52.611             2.911           423.781
       290   10 Jun 2027 09:03:05.316   10 Jun 2027 09:03:07.724             2.408           963.562
       291   10 Jun 2027 09:03:46.769   10 Jun 2027 09:03:48.159             1.390           438.500
       292   10 Jun 2027 09:04:15.852   10 Jun 2027 09:04:17.110             1.258            94.563
       293   10 Jun 2027 09:04:56.563   10 Jun 2027 09:04:57.297             0.734           296.062
       294   10 Jun 2027 09:05:46.367   10 Jun 2027 09:05:49.886             3.519           531.469
       295   10 Jun 2027 09:06:11.602   10 Jun 2027 09:06:14.177             2.575           646.406
       296   10 Jun 2027 09:07:15.398   10 Jun 2027 09:07:21.326             5.928          1886.844
       297   10 Jun 2027 09:07:49.848   10 Jun 2027 09:07:51.995             2.147           869.531
       298   10 Jun 2027 10:38:08.726   10 Jun 2027 10:38:31.240            22.514          8469.031
       299   10 Jun 2027 10:39:08.796   10 Jun 2027 10:39:10.705             1.909           421.250
       300   10 Jun 2027 10:39:41.070   10 Jun 2027 10:39:42.051             0.981           229.406
       301   10 Jun 2027 10:40:28.876   10 Jun 2027 10:40:31.255             2.379          1014.844
       302   10 Jun 2027 10:40:38.433   10 Jun 2027 10:40:40.277             1.844           224.312
       303   10 Jun 2027 10:41:25.989   10 Jun 2027 10:41:27.025             1.036           138.094
       304   10 Jun 2027 10:41:59.376   10 Jun 2027 10:42:03.799             4.423           901.844
       305   10 Jun 2027 10:42:43.961   10 Jun 2027 10:42:48.488             4.527          1130.062
       306   10 Jun 2027 10:43:14.990   10 Jun 2027 10:43:19.363             4.373           828.187
       307   10 Jun 2027 10:43:36.382   10 Jun 2027 10:43:38.271             1.889           196.719
       308   11 Jun 2027 03:02:42.416   11 Jun 2027 03:03:03.523            21.107         10553.500
       309   11 Jun 2027 03:03:51.635   11 Jun 2027 03:03:56.572             4.937          2468.500
       310   11 Jun 2027 03:04:19.855   11 Jun 2027 03:04:24.594             4.739          2369.500
       311   11 Jun 2027 03:05:03.255   11 Jun 2027 03:05:41.606            38.351         19175.500
       312   11 Jun 2027 04:25:39.574   11 Jun 2027 04:26:25.413            45.839         22919.500
       313   11 Jun 2027 04:27:41.854   11 Jun 2027 04:27:41.854             0.000             0.000
       314   11 Jun 2027 06:02:14.625   11 Jun 2027 06:04:12.266           117.641         58820.500
       315   11 Jun 2027 06:04:15.305   11 Jun 2027 06:04:28.927            13.622          6811.000
       316   11 Jun 2027 06:05:11.007   11 Jun 2027 06:05:26.449            15.442          7721.000
       317   11 Jun 2027 07:36:57.425   11 Jun 2027 07:38:40.122           102.697         49748.937
       318   11 Jun 2027 07:39:36.350   11 Jun 2027 07:39:44.545             8.195          1704.219
       319   11 Jun 2027 07:41:03.860   11 Jun 2027 07:41:05.441             1.581           790.500
       320   11 Jun 2027 07:41:56.617   11 Jun 2027 07:42:03.263             6.646          3259.969
       321   11 Jun 2027 07:42:33.300   11 Jun 2027 07:42:35.794             2.494           938.656
       322   11 Jun 2027 07:43:05.782   11 Jun 2027 07:43:06.555             0.773           386.500
       323   11 Jun 2027 07:43:10.057   11 Jun 2027 07:43:11.692             1.635           550.625
       324   11 Jun 2027 07:44:05.558   11 Jun 2027 07:44:07.984             2.426          1213.000
       325   11 Jun 2027 09:13:21.165   11 Jun 2027 09:13:40.119            18.954          9331.469
       326   11 Jun 2027 09:15:05.840   11 Jun 2027 09:15:10.548             4.708           214.063
       327   11 Jun 2027 09:15:49.780   11 Jun 2027 09:15:52.481             2.701          1141.750
       328   11 Jun 2027 09:17:08.271   11 Jun 2027 09:17:09.993             1.722           586.812
       329   11 Jun 2027 09:17:42.521   11 Jun 2027 09:17:45.054             2.533          1016.500
       330   11 Jun 2027 09:17:51.297   11 Jun 2027 09:17:51.297             0.000             0.000
       331   11 Jun 2027 09:18:13.825   11 Jun 2027 09:18:15.656             1.831           804.844
       332   11 Jun 2027 09:18:18.258   11 Jun 2027 09:18:21.598             3.340            13.500
       333   11 Jun 2027 09:19:19.570   11 Jun 2027 09:19:24.053             4.483          1647.625
       334   11 Jun 2027 09:19:59.326   11 Jun 2027 09:20:02.548             3.222          1102.281
       335   11 Jun 2027 10:51:03.737   11 Jun 2027 10:51:22.076            18.339          7149.094
       336   11 Jun 2027 10:51:40.602   11 Jun 2027 10:51:43.000             2.398           578.937
       337   11 Jun 2027 10:52:22.259   11 Jun 2027 10:52:26.719             4.460          1150.813
       338   11 Jun 2027 10:52:57.046   11 Jun 2027 10:53:01.239             4.193           748.375
       339   11 Jun 2027 10:53:13.675   11 Jun 2027 10:53:14.054             0.379           189.500
       340   11 Jun 2027 10:53:17.621   11 Jun 2027 10:53:19.243             1.622           300.219
       341   11 Jun 2027 10:53:47.257   11 Jun 2027 10:53:51.640             4.383           875.438
       342   11 Jun 2027 10:53:54.644   11 Jun 2027 10:53:56.045             1.401            93.875
       343   11 Jun 2027 10:54:04.743   11 Jun 2027 10:54:10.623             5.880           271.812
       344   11 Jun 2027 10:54:38.678   11 Jun 2027 10:54:43.673             4.995           701.219
       345   11 Jun 2027 10:55:04.276   11 Jun 2027 10:55:07.250             2.974           582.625
       346   12 Jun 2027 03:15:18.136   12 Jun 2027 03:17:01.365           103.229         51614.500
       347   12 Jun 2027 03:18:19.033   12 Jun 2027 03:18:19.033             0.000             0.000
       348   12 Jun 2027 04:37:51.551   12 Jun 2027 04:38:35.176            43.625         21812.500
       349   12 Jun 2027 06:14:23.409   12 Jun 2027 06:16:15.500           112.091         56045.500
       350   12 Jun 2027 07:49:32.705   12 Jun 2027 07:50:44.464            71.759         35879.500
       351   12 Jun 2027 07:50:57.627   12 Jun 2027 07:50:59.787             2.160          1080.000
       352   12 Jun 2027 07:51:13.709   12 Jun 2027 07:51:18.118             4.409           459.000
       353   12 Jun 2027 07:51:43.951   12 Jun 2027 07:51:44.825             0.874           367.062
       354   12 Jun 2027 07:51:50.073   12 Jun 2027 07:51:50.560             0.487           164.000
       355   12 Jun 2027 07:53:23.997   12 Jun 2027 07:53:31.522             7.525          2516.875
       356   12 Jun 2027 07:54:56.869   12 Jun 2027 07:55:03.530             6.661          2667.094
       357   12 Jun 2027 07:55:51.739   12 Jun 2027 07:55:54.523             2.784          1309.719
       358   12 Jun 2027 07:56:06.877   12 Jun 2027 07:56:08.209             1.332           335.750
       359   12 Jun 2027 09:25:57.026   12 Jun 2027 09:26:11.322            14.296          6408.750
       360   12 Jun 2027 09:26:29.203   12 Jun 2027 09:26:29.919             0.716           148.781
       361   12 Jun 2027 09:27:36.158   12 Jun 2027 09:27:38.896             2.738           582.719
       362   12 Jun 2027 09:28:11.651   12 Jun 2027 09:28:12.318             0.667           333.500
       363   12 Jun 2027 09:28:59.124   12 Jun 2027 09:29:04.563             5.439          2152.781
       364   12 Jun 2027 09:29:26.587   12 Jun 2027 09:29:33.186             6.599           688.250
       365   12 Jun 2027 09:30:04.307   12 Jun 2027 09:30:12.121             7.814           806.000
       366   12 Jun 2027 09:31:25.381   12 Jun 2027 09:31:29.489             4.108          2052.187
       367   12 Jun 2027 11:03:10.140   12 Jun 2027 11:03:24.232            14.092          7008.469
       368   12 Jun 2027 11:04:16.397   12 Jun 2027 11:04:19.196             2.799          1122.219
       369   12 Jun 2027 11:04:41.821   12 Jun 2027 11:04:43.225             1.404           436.219
       370   12 Jun 2027 11:05:15.818   12 Jun 2027 11:05:18.340             2.522           952.031
       371   12 Jun 2027 11:06:23.707   12 Jun 2027 11:06:26.477             2.770          1385.000
       372   12 Jun 2027 11:07:03.746   12 Jun 2027 11:07:26.542            22.796          1601.969
       373   12 Jun 2027 11:07:36.075   12 Jun 2027 11:07:38.234             2.159           267.125
       374   13 Jun 2027 03:26:25.896   13 Jun 2027 03:27:03.873            37.977         18988.500
       375   13 Jun 2027 03:27:33.257   13 Jun 2027 03:29:09.875            96.618         48309.000
       376   13 Jun 2027 04:50:27.684   13 Jun 2027 04:50:47.806            20.122         10061.000
       377   13 Jun 2027 04:50:58.249   13 Jun 2027 04:50:58.249             0.000             0.000
       378   13 Jun 2027 04:51:07.290   13 Jun 2027 04:51:14.517             7.227          3613.500
       379   13 Jun 2027 04:51:47.092   13 Jun 2027 04:51:52.648             5.556          2778.000
       380   13 Jun 2027 06:26:16.288   13 Jun 2027 06:27:55.218            98.930         49465.000
       381   13 Jun 2027 06:28:53.202   13 Jun 2027 06:28:56.706             3.504          1752.000
       382   13 Jun 2027 06:29:30.562   13 Jun 2027 06:29:45.146            14.584          7292.000
       383   13 Jun 2027 08:01:13.588   13 Jun 2027 08:02:22.617            69.029         32812.218
       384   13 Jun 2027 08:02:43.219   13 Jun 2027 08:02:44.603             1.384           163.938
       385   13 Jun 2027 08:03:11.087   13 Jun 2027 08:03:14.923             3.836           326.250
       386   13 Jun 2027 08:03:34.546   13 Jun 2027 08:03:38.750             4.204           613.219
       387   13 Jun 2027 08:03:49.693   13 Jun 2027 08:03:50.751             1.058           341.969
       388   13 Jun 2027 08:04:00.125   13 Jun 2027 08:04:02.083             1.958           292.938
       389   13 Jun 2027 08:04:05.680   13 Jun 2027 08:04:07.629             1.949            65.438
       390   13 Jun 2027 08:04:21.218   13 Jun 2027 08:04:22.031             0.813           302.719
       391   13 Jun 2027 08:04:52.256   13 Jun 2027 08:05:00.944             8.688           847.438
       392   13 Jun 2027 08:05:58.196   13 Jun 2027 08:06:03.267             5.071          1765.906
       393   13 Jun 2027 08:06:40.751   13 Jun 2027 08:06:46.602             5.851          1088.969
       394   13 Jun 2027 08:08:03.119   13 Jun 2027 08:08:08.126             5.007          2391.156
       395   13 Jun 2027 09:37:28.702   13 Jun 2027 09:37:48.272            19.570          9547.656
       396   13 Jun 2027 09:38:35.277   13 Jun 2027 09:38:39.800             4.523          1210.625
       397   13 Jun 2027 09:39:33.554   13 Jun 2027 09:39:37.419             3.865          1520.875
       398   13 Jun 2027 09:40:09.639   13 Jun 2027 09:40:11.964             2.325           915.094
       399   13 Jun 2027 09:40:28.796   13 Jun 2027 09:40:30.334             1.538           422.437
       400   13 Jun 2027 09:41:52.477   13 Jun 2027 09:42:01.014             8.537          1902.062
       401   13 Jun 2027 09:42:13.327   13 Jun 2027 09:42:15.528             2.201           384.781
       402   13 Jun 2027 09:43:35.518   13 Jun 2027 09:43:39.427             3.909          1954.500
       403   13 Jun 2027 11:15:47.628   13 Jun 2027 11:16:07.645            20.017          7011.750
       404   13 Jun 2027 11:16:17.599   13 Jun 2027 11:16:18.758             1.159           236.406
       405   13 Jun 2027 11:17:30.746   13 Jun 2027 11:17:35.382             4.636          2019.438
       406   13 Jun 2027 11:17:51.689   13 Jun 2027 11:17:53.355             1.666           475.062
       407   13 Jun 2027 11:18:04.825   13 Jun 2027 11:18:05.832             1.007           270.313
       408   13 Jun 2027 11:18:50.810   13 Jun 2027 11:18:54.764             3.954          1405.563
       409   13 Jun 2027 11:19:27.527   13 Jun 2027 11:19:31.189             3.662           902.969
