uniorb/output/strategy_1/Camera/Camera_KinoSat_111610.txt

KinoSat_111610
-------------------------
    Access    *     Start Time (UTCG)     *     Stop Time (UTCG)  *   Duration (s) *   Data (Mbytes)
         1   01 Jun 2027 04:03:31.289   01 Jun 2027 04:05:45.563           134.274         67137.000
         2   01 Jun 2027 04:06:12.655   01 Jun 2027 04:06:38.900            26.245         13122.500
         3   01 Jun 2027 04:07:49.107   01 Jun 2027 04:07:52.285             3.178          1589.000
         4   01 Jun 2027 04:08:23.080   01 Jun 2027 04:08:24.765             1.685           842.500
         5   01 Jun 2027 04:10:28.513   01 Jun 2027 04:11:10.145            41.632         20816.000
         6   01 Jun 2027 05:29:36.785   01 Jun 2027 05:30:07.253            30.468         15234.000
         7   01 Jun 2027 05:40:34.272   01 Jun 2027 05:41:45.792            71.520         35760.000
         8   01 Jun 2027 05:42:08.944   01 Jun 2027 05:42:10.189             1.245           622.500
         9   01 Jun 2027 07:03:53.483   01 Jun 2027 07:05:18.145            84.662         42331.000
        10   01 Jun 2027 07:06:01.618   01 Jun 2027 07:06:16.657            15.039          7519.500
        11   01 Jun 2027 07:06:27.467   01 Jun 2027 07:06:34.804             7.337          3668.500
        12   01 Jun 2027 08:40:16.055   01 Jun 2027 08:41:22.447            66.392         33196.000
        13   01 Jun 2027 08:43:02.500   01 Jun 2027 08:43:31.105            28.605         14302.500
        14   01 Jun 2027 10:15:01.393   01 Jun 2027 10:16:42.773           101.380         50690.000
        15   01 Jun 2027 10:17:12.184   01 Jun 2027 10:17:37.753            25.569         12784.500
        16   01 Jun 2027 10:21:54.994   01 Jun 2027 10:21:57.866             2.872          1436.000
        17   01 Jun 2027 10:22:29.395   01 Jun 2027 10:22:34.018             4.623          2311.500
        18   01 Jun 2027 11:51:50.840   01 Jun 2027 11:53:36.328           105.488         52744.000
        19   01 Jun 2027 11:57:15.617   01 Jun 2027 11:57:29.808            14.191          7095.500
        20   01 Jun 2027 11:57:43.359   01 Jun 2027 11:57:52.107             8.748          4374.000
        21   02 Jun 2027 04:15:54.666   02 Jun 2027 04:17:33.193            98.527         49263.500
        22   02 Jun 2027 04:17:42.764   02 Jun 2027 04:17:47.911             5.147          2573.500
        23   02 Jun 2027 04:20:14.123   02 Jun 2027 04:20:34.056            19.933          9966.500
        24   02 Jun 2027 04:22:02.935   02 Jun 2027 04:22:02.935             0.000             0.000
        25   02 Jun 2027 04:22:44.116   02 Jun 2027 04:22:59.603            15.487          7743.500
        26   02 Jun 2027 05:40:55.561   02 Jun 2027 05:41:59.483            63.922         31961.000
        27   02 Jun 2027 05:52:35.638   02 Jun 2027 05:53:24.194            48.556         24278.000
        28   02 Jun 2027 07:14:51.668   02 Jun 2027 07:16:07.496            75.828         37914.000
        29   02 Jun 2027 07:16:48.722   02 Jun 2027 07:17:17.961            29.239         14619.500
        30   02 Jun 2027 07:17:28.255   02 Jun 2027 07:17:34.910             6.655          3327.500
        31   02 Jun 2027 07:19:45.848   02 Jun 2027 07:19:55.483             9.635          4817.500
        32   02 Jun 2027 08:50:03.850   02 Jun 2027 08:50:54.220            50.370         25185.000
        33   02 Jun 2027 08:52:00.073   02 Jun 2027 08:53:22.379            82.306         41153.000
        34   02 Jun 2027 08:56:35.412   02 Jun 2027 08:56:51.030            15.618          7809.000
        35   02 Jun 2027 10:27:08.556   02 Jun 2027 10:27:10.420             1.864           932.000
        36   02 Jun 2027 10:30:26.785   02 Jun 2027 10:30:26.785             0.000             0.000
        37   02 Jun 2027 10:31:58.445   02 Jun 2027 10:32:48.370            49.925         24962.500
        38   02 Jun 2027 10:33:40.365   02 Jun 2027 10:34:00.562            20.197         10098.500
        39   03 Jun 2027 04:28:13.067   03 Jun 2027 04:29:26.254            73.187         36593.500
        40   03 Jun 2027 04:30:37.821   03 Jun 2027 04:30:40.024             2.203          1101.500
        41   03 Jun 2027 04:30:58.978   03 Jun 2027 04:31:12.885            13.907          6953.500
        42   03 Jun 2027 04:31:52.942   03 Jun 2027 04:32:01.058             8.116          4058.000
        43   03 Jun 2027 04:33:49.597   03 Jun 2027 04:34:01.930            12.333          6166.500
        44   03 Jun 2027 04:34:57.738   03 Jun 2027 04:35:09.142            11.404          5702.000
        45   03 Jun 2027 05:52:17.822   03 Jun 2027 05:53:00.635            42.813         21406.500
        46   03 Jun 2027 05:54:12.697   03 Jun 2027 05:54:34.188            21.491         10745.500
        47   03 Jun 2027 06:04:32.753   03 Jun 2027 06:05:11.315            38.562         19281.000
        48   03 Jun 2027 07:26:33.496   03 Jun 2027 07:27:54.594            81.098         40549.000
        49   03 Jun 2027 07:28:39.146   03 Jun 2027 07:29:30.206            51.060         25530.000
        50   03 Jun 2027 09:01:31.436   03 Jun 2027 09:02:47.866            76.430         38215.000
        51   03 Jun 2027 09:04:21.630   03 Jun 2027 09:04:48.232            26.602         13301.000
        52   03 Jun 2027 09:08:17.873   03 Jun 2027 09:08:17.873             0.000             0.000
        53   03 Jun 2027 09:08:22.397   03 Jun 2027 09:08:54.009            31.612         15806.000
        54   03 Jun 2027 10:39:10.835   03 Jun 2027 10:40:24.370            73.535         35919.439
        55   03 Jun 2027 10:41:15.724   03 Jun 2027 10:41:19.147             3.423          1604.813
        56   03 Jun 2027 10:41:56.976   03 Jun 2027 10:42:00.221             3.245          1182.156
        57   03 Jun 2027 10:42:26.762   03 Jun 2027 10:42:28.716             1.954           770.031
        58   03 Jun 2027 10:43:07.208   03 Jun 2027 10:43:08.656             1.448           377.469
        59   03 Jun 2027 10:44:18.946   03 Jun 2027 10:44:23.106             4.160          2080.000
        60   03 Jun 2027 10:45:21.145   03 Jun 2027 10:45:26.052             4.907          1852.406
        61   04 Jun 2027 03:01:29.821   04 Jun 2027 03:01:31.281             1.460           730.000
        62   04 Jun 2027 03:01:56.986   04 Jun 2027 03:02:23.371            26.385         13192.500
        63   04 Jun 2027 03:02:25.430   04 Jun 2027 03:02:38.315            12.885          6442.500
        64   04 Jun 2027 03:02:46.071   04 Jun 2027 03:02:51.771             5.700          2850.000
        65   04 Jun 2027 03:03:49.120   04 Jun 2027 03:04:05.115            15.995          7997.500
        66   04 Jun 2027 03:04:11.737   04 Jun 2027 03:04:24.876            13.139          6569.500
        67   04 Jun 2027 04:40:18.072   04 Jun 2027 04:41:14.288            56.216         28108.000
        68   04 Jun 2027 04:41:28.013   04 Jun 2027 04:41:30.350             2.337          1168.500
        69   04 Jun 2027 04:42:02.913   04 Jun 2027 04:42:02.913             0.000             0.000
        70   04 Jun 2027 04:42:15.344   04 Jun 2027 04:42:30.074            14.730          7365.000
        71   04 Jun 2027 04:43:25.762   04 Jun 2027 04:43:49.974            24.212         12106.000
        72   04 Jun 2027 04:45:51.176   04 Jun 2027 04:45:51.176             0.000             0.000
        73   04 Jun 2027 04:46:10.132   04 Jun 2027 04:46:19.219             9.087          4543.500
        74   04 Jun 2027 06:04:25.065   04 Jun 2027 06:05:05.501            40.436         20218.000
        75   04 Jun 2027 06:06:05.907   04 Jun 2027 06:06:17.859            11.952          5976.000
        76   04 Jun 2027 07:38:13.086   04 Jun 2027 07:40:16.979           123.893         61946.500
        77   04 Jun 2027 07:41:32.145   04 Jun 2027 07:41:43.764            11.619          5809.500
        78   04 Jun 2027 07:43:39.932   04 Jun 2027 07:43:53.414            13.482          4099.750
        79   04 Jun 2027 09:13:05.375   04 Jun 2027 09:13:18.856            13.481          6178.219
        80   04 Jun 2027 09:13:40.674   04 Jun 2027 09:13:45.421             4.747           424.906
        81   04 Jun 2027 09:15:20.040   04 Jun 2027 09:15:26.829             6.789          2672.563
        82   04 Jun 2027 09:15:45.142   04 Jun 2027 09:15:46.677             1.535           538.781
        83   04 Jun 2027 09:18:53.314   04 Jun 2027 09:19:04.673            11.359          5474.656
        84   04 Jun 2027 09:20:10.044   04 Jun 2027 09:20:16.280             6.236          2042.844
        85   04 Jun 2027 09:20:41.502   04 Jun 2027 09:20:42.844             1.342           671.000
        86   04 Jun 2027 09:21:05.069   04 Jun 2027 09:21:09.201             4.132           811.719
        87   04 Jun 2027 09:22:05.455   04 Jun 2027 09:22:10.697             5.242          1612.563
        88   04 Jun 2027 09:22:16.237   04 Jun 2027 09:22:17.283             1.046            76.375
        89   04 Jun 2027 10:51:13.347   04 Jun 2027 10:51:34.398            21.051          6638.281
        90   04 Jun 2027 10:54:04.291   04 Jun 2027 10:54:12.953             8.662          4227.594
        91   04 Jun 2027 10:55:25.561   04 Jun 2027 10:55:27.196             1.635           593.469
        92   04 Jun 2027 10:56:01.126   04 Jun 2027 10:56:03.406             2.280          1009.844
        93   04 Jun 2027 10:56:14.775   04 Jun 2027 10:56:16.961             2.186           313.562
        94   04 Jun 2027 10:56:31.432   04 Jun 2027 10:56:38.898             7.466           116.313
        95   04 Jun 2027 10:56:46.899   04 Jun 2027 10:56:54.145             7.246           136.375
        96   04 Jun 2027 10:57:11.803   04 Jun 2027 10:57:15.024             3.221           547.438
        97   04 Jun 2027 10:57:51.981   04 Jun 2027 10:57:52.721             0.740           370.000
        98   05 Jun 2027 03:14:29.337   05 Jun 2027 03:15:24.180            54.843         27421.500
        99   05 Jun 2027 03:15:32.825   05 Jun 2027 03:16:02.147            29.322         14661.000
       100   05 Jun 2027 03:19:12.772   05 Jun 2027 03:19:19.953             7.181          3590.500
       101   05 Jun 2027 04:52:54.854   05 Jun 2027 04:53:29.187            34.333         17166.500
       102   05 Jun 2027 04:54:28.107   05 Jun 2027 04:55:20.710            52.603         26301.500
       103   05 Jun 2027 04:55:43.646   05 Jun 2027 04:55:49.732             6.086          3043.000
       104   05 Jun 2027 04:57:12.568   05 Jun 2027 04:57:22.381             9.813          4906.500
       105   05 Jun 2027 06:16:20.448   05 Jun 2027 06:17:00.651            40.203         20101.500
       106   05 Jun 2027 06:17:56.439   05 Jun 2027 06:18:29.337            32.898         16449.000
       107   05 Jun 2027 07:52:35.379   05 Jun 2027 07:53:54.459            79.080         39540.000
       108   05 Jun 2027 07:54:59.257   05 Jun 2027 07:54:59.257             0.000             0.000
       109   05 Jun 2027 09:26:07.908   05 Jun 2027 09:26:26.513            18.605          7664.219
       110   05 Jun 2027 09:27:42.260   05 Jun 2027 09:27:43.869             1.609           673.812
       111   05 Jun 2027 09:29:11.151   05 Jun 2027 09:29:16.254             5.103          2277.875
       112   05 Jun 2027 09:32:37.674   05 Jun 2027 09:32:49.895            12.221          6035.094
       113   05 Jun 2027 09:34:40.195   05 Jun 2027 09:34:41.265             1.070           535.000
       114   05 Jun 2027 11:03:40.491   05 Jun 2027 11:03:54.394            13.903          5784.688
       115   05 Jun 2027 11:04:18.412   05 Jun 2027 11:04:21.316             2.904           390.687
       116   05 Jun 2027 11:04:32.011   05 Jun 2027 11:04:40.101             8.090           304.875
       117   05 Jun 2027 11:05:10.164   05 Jun 2027 11:05:14.779             4.615           660.406
       118   05 Jun 2027 11:05:59.117   05 Jun 2027 11:06:04.064             4.947           598.562
       119   05 Jun 2027 11:06:17.451   05 Jun 2027 11:06:20.836             3.385           418.344
       120   05 Jun 2027 11:06:54.397   05 Jun 2027 11:06:56.759             2.362           275.688
       121   05 Jun 2027 11:07:24.704   05 Jun 2027 11:07:26.748             2.044           873.281
       122   05 Jun 2027 11:07:45.526   05 Jun 2027 11:07:46.605             1.079            36.219
       123   05 Jun 2027 11:08:08.709   05 Jun 2027 11:08:09.056             0.347           173.500
       124   05 Jun 2027 11:08:11.699   05 Jun 2027 11:08:13.997             2.298           169.844
       125   05 Jun 2027 11:08:35.418   05 Jun 2027 11:08:37.611             2.193           175.656
       126   05 Jun 2027 11:09:44.439   05 Jun 2027 11:09:48.715             4.276          1933.406
       127   05 Jun 2027 11:10:15.146   05 Jun 2027 11:10:20.511             5.365           825.969
       128   06 Jun 2027 03:26:30.534   06 Jun 2027 03:26:58.629            28.095         14047.500
       129   06 Jun 2027 03:27:01.206   06 Jun 2027 03:28:26.317            85.111         42555.500
       130   06 Jun 2027 03:29:40.504   06 Jun 2027 03:29:48.439             7.935          3967.500
       131   06 Jun 2027 05:04:33.408   06 Jun 2027 05:05:58.821            85.413         42706.500
       132   06 Jun 2027 05:06:54.398   06 Jun 2027 05:06:55.130             0.732           366.000
       133   06 Jun 2027 05:07:32.617   06 Jun 2027 05:07:52.448            19.831          9915.500
       134   06 Jun 2027 06:28:12.473   06 Jun 2027 06:29:11.312            58.839         29419.500
       135   06 Jun 2027 06:30:31.636   06 Jun 2027 06:30:38.550             6.914          3457.000
       136   06 Jun 2027 08:04:39.668   06 Jun 2027 08:05:33.161            53.493         26559.968
       137   06 Jun 2027 08:06:22.614   06 Jun 2027 08:06:26.183             3.569          1529.937
       138   06 Jun 2027 08:07:43.712   06 Jun 2027 08:07:51.198             7.486          2420.813
       139   06 Jun 2027 09:36:54.505   06 Jun 2027 09:36:57.383             2.878          1439.000
       140   06 Jun 2027 09:38:47.212   06 Jun 2027 09:38:57.034             9.822          3589.844
       141   06 Jun 2027 09:40:53.334   06 Jun 2027 09:41:03.616            10.282          2890.969
       142   06 Jun 2027 09:43:02.189   06 Jun 2027 09:43:02.189             0.000             0.000
       143   06 Jun 2027 09:43:45.106   06 Jun 2027 09:43:53.371             8.265          4132.500
       144   06 Jun 2027 09:44:47.832   06 Jun 2027 09:44:53.283             5.451          2317.313
       145   06 Jun 2027 09:45:37.554   06 Jun 2027 09:45:39.917             2.363           859.344
       146   06 Jun 2027 09:45:56.578   06 Jun 2027 09:45:58.850             2.272           354.625
       147   06 Jun 2027 09:46:22.445   06 Jun 2027 09:46:24.551             2.106           737.344
       148   06 Jun 2027 09:46:28.230   06 Jun 2027 09:46:31.477             3.247           114.969
       149   06 Jun 2027 11:15:45.690   06 Jun 2027 11:15:59.876            14.186          7093.000
       150   06 Jun 2027 11:16:09.499   06 Jun 2027 11:16:12.479             2.980           938.813
       151   06 Jun 2027 11:16:21.855   06 Jun 2027 11:16:29.555             7.700             2.094
       152   06 Jun 2027 11:16:50.921   06 Jun 2027 11:16:53.842             2.921           596.313
       153   06 Jun 2027 11:17:50.884   06 Jun 2027 11:17:55.434             4.550          1450.125
       154   06 Jun 2027 11:18:27.816   06 Jun 2027 11:18:29.802             1.986           991.969
       155   06 Jun 2027 11:19:46.448   06 Jun 2027 11:19:52.390             5.942          2054.812
       156   06 Jun 2027 11:20:10.140   06 Jun 2027 11:20:11.758             1.618           554.687
       157   06 Jun 2027 11:20:39.702   06 Jun 2027 11:20:42.152             2.450           873.250
       158   06 Jun 2027 11:20:46.317   06 Jun 2027 11:20:47.854             1.537           130.156
       159   06 Jun 2027 11:21:46.086   06 Jun 2027 11:21:49.877             3.791          1746.406
       160   06 Jun 2027 11:22:06.066   06 Jun 2027 11:22:08.566             2.500           486.313
       161   07 Jun 2027 03:38:38.531   07 Jun 2027 03:39:39.007            60.476         30238.000
       162   07 Jun 2027 03:39:47.590   07 Jun 2027 03:40:44.797            57.207         28603.500
       163   07 Jun 2027 03:41:21.641   07 Jun 2027 03:41:21.641             0.000             0.000
       164   07 Jun 2027 03:41:40.328   07 Jun 2027 03:42:01.729            21.401         10700.500
       165   07 Jun 2027 03:44:55.053   07 Jun 2027 03:44:58.115             3.062          1531.000
       166   07 Jun 2027 05:17:00.852   07 Jun 2027 05:17:24.584            23.732         11866.000
       167   07 Jun 2027 05:17:46.776   07 Jun 2027 05:18:47.334            60.558         30279.000
       168   07 Jun 2027 05:19:21.327   07 Jun 2027 05:19:34.213            12.886          6443.000
       169   07 Jun 2027 05:20:16.252   07 Jun 2027 05:20:16.252             0.000             0.000
       170   07 Jun 2027 06:40:20.720   07 Jun 2027 06:41:33.841            73.121         36560.500
       171   07 Jun 2027 08:16:50.118   07 Jun 2027 08:17:30.375            40.257         19878.562
       172   07 Jun 2027 08:17:51.705   07 Jun 2027 08:17:51.705             0.000             0.000
       173   07 Jun 2027 08:18:45.166   07 Jun 2027 08:18:52.305             7.139          2112.062
       174   07 Jun 2027 08:20:03.772   07 Jun 2027 08:20:07.309             3.537          1531.531
       175   07 Jun 2027 09:52:01.206   07 Jun 2027 09:52:12.148            10.942          4440.594
       176   07 Jun 2027 09:53:14.578   07 Jun 2027 09:53:14.578             0.000             0.000
       177   07 Jun 2027 09:54:59.574   07 Jun 2027 09:55:12.061            12.487          4901.219
       178   07 Jun 2027 09:55:50.196   07 Jun 2027 09:55:55.773             5.577          1191.719
       179   07 Jun 2027 09:56:24.890   07 Jun 2027 09:56:27.822             2.932           721.219
       180   07 Jun 2027 09:57:38.285   07 Jun 2027 09:57:45.531             7.246          2074.000
       181   07 Jun 2027 09:58:02.348   07 Jun 2027 09:58:04.834             2.486           235.500
       182   07 Jun 2027 09:58:29.911   07 Jun 2027 09:58:31.517             1.606           695.688
       183   07 Jun 2027 11:28:20.768   07 Jun 2027 11:28:40.206            19.438          6692.219
       184   07 Jun 2027 11:30:13.224   07 Jun 2027 11:30:16.406             3.182          1591.000
       185   07 Jun 2027 11:30:23.327   07 Jun 2027 11:30:26.850             3.523          1235.031
       186   07 Jun 2027 11:30:32.840   07 Jun 2027 11:30:35.151             2.311            98.750
       187   07 Jun 2027 11:31:32.805   07 Jun 2027 11:31:35.150             2.345          1017.813
       188   07 Jun 2027 11:32:30.272   07 Jun 2027 11:32:34.143             3.871          1700.594
       189   07 Jun 2027 11:33:04.151   07 Jun 2027 11:33:06.192             2.041           815.000
       190   07 Jun 2027 11:33:29.446   07 Jun 2027 11:33:30.397             0.951           160.844
       191   07 Jun 2027 11:33:55.596   07 Jun 2027 11:33:57.844             2.248           770.031
       192   07 Jun 2027 11:34:11.924   07 Jun 2027 11:34:22.517            10.593           440.000
       193   08 Jun 2027 03:50:43.280   08 Jun 2027 03:50:59.783            16.503          8251.500
       194   08 Jun 2027 03:51:45.901   08 Jun 2027 03:53:32.914           107.013         53506.500
       195   08 Jun 2027 03:54:24.276   08 Jun 2027 03:54:25.345             1.069           534.500
       196   08 Jun 2027 03:55:17.302   08 Jun 2027 03:55:25.383             8.081          4040.500
       197   08 Jun 2027 03:56:47.641   08 Jun 2027 03:56:48.703             1.062           531.000
       198   08 Jun 2027 03:58:58.841   08 Jun 2027 03:59:31.601            32.760         16380.000
       199   08 Jun 2027 05:28:54.705   08 Jun 2027 05:29:32.209            37.504         18752.000
       200   08 Jun 2027 05:30:02.328   08 Jun 2027 05:30:35.505            33.177         16588.500
       201   08 Jun 2027 05:31:09.884   08 Jun 2027 05:31:12.256             2.372          1186.000
       202   08 Jun 2027 05:32:18.225   08 Jun 2027 05:32:18.225             0.000             0.000
       203   08 Jun 2027 06:53:03.567   08 Jun 2027 06:54:52.864           109.297         54309.875
       204   08 Jun 2027 08:28:47.018   08 Jun 2027 08:28:54.772             7.754          3877.000
       205   08 Jun 2027 08:29:21.579   08 Jun 2027 08:29:33.025            11.446          5498.750
       206   08 Jun 2027 08:30:26.865   08 Jun 2027 08:30:26.865             0.000             0.000
       207   08 Jun 2027 08:30:33.887   08 Jun 2027 08:30:35.439             1.552           776.000
       208   08 Jun 2027 08:31:09.815   08 Jun 2027 08:31:14.007             4.192          2009.469
       209   08 Jun 2027 10:03:45.252   08 Jun 2027 10:03:59.053            13.801          5213.375
       210   08 Jun 2027 10:05:16.163   08 Jun 2027 10:05:22.832             6.669          2073.156
       211   08 Jun 2027 10:06:38.505   08 Jun 2027 10:06:43.500             4.995          2150.313
       212   08 Jun 2027 10:07:24.324   08 Jun 2027 10:07:31.182             6.858          1275.750
       213   08 Jun 2027 10:08:10.888   08 Jun 2027 10:08:15.236             4.348           897.188
       214   08 Jun 2027 10:08:33.783   08 Jun 2027 10:08:37.459             3.676           551.844
       215   08 Jun 2027 10:09:13.610   08 Jun 2027 10:09:15.685             2.075           912.937
       216   08 Jun 2027 10:09:59.369   08 Jun 2027 10:10:02.028             2.659           290.750
       217   08 Jun 2027 10:10:09.295   08 Jun 2027 10:10:15.151             5.856            54.344
       218   08 Jun 2027 10:10:22.112   08 Jun 2027 10:10:23.801             1.689           114.687
       219   08 Jun 2027 10:10:38.504   08 Jun 2027 10:10:39.622             1.118           421.781
       220   08 Jun 2027 11:39:56.509   08 Jun 2027 11:40:09.206            12.697          5983.406
       221   08 Jun 2027 11:40:22.195   08 Jun 2027 11:40:25.772             3.577           353.469
       222   08 Jun 2027 11:43:01.937   08 Jun 2027 11:43:01.972             0.035            17.500
       223   08 Jun 2027 11:43:42.014   08 Jun 2027 11:43:56.063            14.049          5441.469
       224   08 Jun 2027 11:44:24.364   08 Jun 2027 11:44:28.204             3.840           884.406
       225   08 Jun 2027 11:44:51.174   08 Jun 2027 11:44:51.174             0.000             0.000
       226   08 Jun 2027 11:45:25.934   08 Jun 2027 11:45:33.750             7.816          1373.469
       227   09 Jun 2027 04:03:48.673   09 Jun 2027 04:05:15.577            86.904         43452.000
       228   09 Jun 2027 04:06:03.345   09 Jun 2027 04:06:14.041            10.696          5348.000
       229   09 Jun 2027 04:07:13.206   09 Jun 2027 04:07:35.590            22.384         11192.000
       230   09 Jun 2027 04:09:17.369   09 Jun 2027 04:09:22.199             4.830          2415.000
       231   09 Jun 2027 04:10:41.961   09 Jun 2027 04:10:43.973             2.012          1006.000
       232   09 Jun 2027 04:11:25.719   09 Jun 2027 04:11:33.246             7.527          3763.500
       233   09 Jun 2027 05:29:50.816   09 Jun 2027 05:30:25.094            34.278         17139.000
       234   09 Jun 2027 05:40:50.926   09 Jun 2027 05:41:42.147            51.221         25610.500
       235   09 Jun 2027 05:42:58.395   09 Jun 2027 05:43:16.005            17.610          8805.000
       236   09 Jun 2027 07:04:09.178   09 Jun 2027 07:05:44.250            95.072         47536.000
       237   09 Jun 2027 07:06:57.820   09 Jun 2027 07:06:57.820             0.000             0.000
       238   09 Jun 2027 08:39:23.225   09 Jun 2027 08:39:28.311             5.086          2543.000
       239   09 Jun 2027 08:40:32.170   09 Jun 2027 08:40:46.426            14.256          6272.812
       240   09 Jun 2027 08:42:36.746   09 Jun 2027 08:42:44.204             7.458          3369.688
       241   09 Jun 2027 08:43:45.643   09 Jun 2027 08:43:50.266             4.623          1526.937
       242   09 Jun 2027 08:44:22.600   09 Jun 2027 08:44:24.923             2.323           587.781
       243   09 Jun 2027 10:15:18.451   09 Jun 2027 10:15:28.746            10.295          4695.500
       244   09 Jun 2027 10:15:47.033   09 Jun 2027 10:15:48.708             1.675           553.969
       245   09 Jun 2027 10:17:47.801   09 Jun 2027 10:17:56.329             8.528          3625.437
       246   09 Jun 2027 10:21:07.360   09 Jun 2027 10:21:20.055            12.695          5420.219
       247   09 Jun 2027 10:21:52.061   09 Jun 2027 10:21:55.481             3.420           950.687
       248   09 Jun 2027 10:22:23.609   09 Jun 2027 10:22:32.627             9.018           734.938
       249   09 Jun 2027 11:52:11.049   09 Jun 2027 11:52:30.997            19.948          8023.406
       250   09 Jun 2027 11:53:33.691   09 Jun 2027 11:53:37.481             3.790          1880.875
       251   09 Jun 2027 11:53:53.198   09 Jun 2027 11:53:53.407             0.209           104.500
       252   09 Jun 2027 11:55:54.911   09 Jun 2027 11:56:01.947             7.036          3518.000
       253   09 Jun 2027 11:56:29.380   09 Jun 2027 11:56:36.433             7.053          1522.937
       254   09 Jun 2027 11:57:45.737   09 Jun 2027 11:57:52.979             7.242          2165.750
       255   09 Jun 2027 11:58:05.223   09 Jun 2027 11:58:07.239             2.016           269.531
       256   10 Jun 2027 04:16:12.847   10 Jun 2027 04:17:37.790            84.943         42471.500
       257   10 Jun 2027 04:19:08.468   10 Jun 2027 04:19:19.410            10.942          5471.000
       258   10 Jun 2027 04:19:46.975   10 Jun 2027 04:20:02.371            15.396          7698.000
       259   10 Jun 2027 04:21:01.764   10 Jun 2027 04:21:05.738             3.974          1987.000
       260   10 Jun 2027 04:21:55.032   10 Jun 2027 04:22:03.960             8.928          4464.000
       261   10 Jun 2027 04:23:01.961   10 Jun 2027 04:23:13.450            11.489          5744.500
       262   10 Jun 2027 05:41:11.523   10 Jun 2027 05:41:53.004            41.481         20740.500
       263   10 Jun 2027 05:42:06.651   10 Jun 2027 05:42:39.989            33.338         16669.000
       264   10 Jun 2027 05:52:52.951   10 Jun 2027 05:53:14.026            21.075         10537.500
       265   10 Jun 2027 05:53:48.524   10 Jun 2027 05:54:06.459            17.935          8967.500
       266   10 Jun 2027 07:15:07.446   10 Jun 2027 07:16:22.995            75.549         37774.500
       267   10 Jun 2027 07:17:05.821   10 Jun 2027 07:17:31.804            25.983         12883.656
       268   10 Jun 2027 08:50:17.534   10 Jun 2027 08:50:32.056            14.522          7184.219
       269   10 Jun 2027 08:51:34.990   10 Jun 2027 08:51:43.206             8.216          1867.312
       270   10 Jun 2027 08:52:35.346   10 Jun 2027 08:52:39.758             4.412          1593.688
       271   10 Jun 2027 08:53:08.511   10 Jun 2027 08:53:10.477             1.966            85.813
       272   10 Jun 2027 08:53:51.504   10 Jun 2027 08:53:54.075             2.571           930.437
       273   10 Jun 2027 08:54:33.155   10 Jun 2027 08:54:37.090             3.935          1102.125
       274   10 Jun 2027 08:54:43.498   10 Jun 2027 08:54:44.668             1.170           112.094
       275   10 Jun 2027 08:55:38.609   10 Jun 2027 08:55:38.609             0.000             0.000
       276   10 Jun 2027 08:56:19.314   10 Jun 2027 08:56:22.437             3.123          1561.500
       277   10 Jun 2027 10:27:25.738   10 Jun 2027 10:27:38.431            12.693          5135.188
       278   10 Jun 2027 10:28:07.473   10 Jun 2027 10:28:09.331             1.858           181.156
       279   10 Jun 2027 10:28:33.065   10 Jun 2027 10:28:34.092             1.027           230.000
       280   10 Jun 2027 10:29:30.475   10 Jun 2027 10:29:35.823             5.348           864.406
       281   10 Jun 2027 10:30:24.356   10 Jun 2027 10:30:24.713             0.357            73.906
       282   10 Jun 2027 10:30:57.280   10 Jun 2027 10:31:00.304             3.024           735.531
       283   10 Jun 2027 10:31:12.379   10 Jun 2027 10:31:15.311             2.932            29.312
       284   10 Jun 2027 10:31:48.796   10 Jun 2027 10:31:52.996             4.200            69.781
       285   10 Jun 2027 10:32:13.828   10 Jun 2027 10:32:15.916             2.088           651.000
       286   10 Jun 2027 10:32:41.192   10 Jun 2027 10:32:46.230             5.038           763.937
       287   10 Jun 2027 10:32:49.423   10 Jun 2027 10:32:49.769             0.346            99.781
       288   10 Jun 2027 10:32:56.654   10 Jun 2027 10:32:56.654             0.000             0.000
       289   10 Jun 2027 10:33:24.447   10 Jun 2027 10:33:26.965             2.518          1083.688
       290   10 Jun 2027 10:33:47.396   10 Jun 2027 10:33:52.312             4.916           556.156
       291   10 Jun 2027 10:34:01.078   10 Jun 2027 10:34:03.678             2.600           219.719
       292   10 Jun 2027 10:34:26.389   10 Jun 2027 10:34:31.372             4.983           709.719
       293   11 Jun 2027 04:28:31.311   11 Jun 2027 04:29:49.174            77.863         38931.500
       294   11 Jun 2027 04:31:00.361   11 Jun 2027 04:31:32.484            32.123         16061.500
       295   11 Jun 2027 04:33:21.734   11 Jun 2027 04:33:34.615            12.881          6440.500
       296   11 Jun 2027 04:35:15.456   11 Jun 2027 04:35:29.827            14.371          7185.500
       297   11 Jun 2027 05:52:36.855   11 Jun 2027 05:53:45.533            68.678         34339.000
       298   11 Jun 2027 05:54:25.653   11 Jun 2027 05:54:51.921            26.268         13134.000
       299   11 Jun 2027 06:04:49.904   11 Jun 2027 06:05:15.182            25.278         12639.000
       300   11 Jun 2027 07:26:52.446   11 Jun 2027 07:28:10.559            78.113         39056.500
       301   11 Jun 2027 07:28:55.721   11 Jun 2027 07:29:01.347             5.626          2813.000
       302   11 Jun 2027 07:30:25.773   11 Jun 2027 07:30:25.773             0.000             0.000
       303   11 Jun 2027 07:31:45.853   11 Jun 2027 07:31:58.393            12.540          6270.000
       304   11 Jun 2027 09:01:44.909   11 Jun 2027 09:02:01.237            16.328          8151.188
       305   11 Jun 2027 09:02:27.247   11 Jun 2027 09:02:27.247             0.000             0.000
       306   11 Jun 2027 09:03:15.742   11 Jun 2027 09:03:19.844             4.102          1863.062
       307   11 Jun 2027 09:04:23.064   11 Jun 2027 09:04:32.604             9.540          1975.625
       308   11 Jun 2027 09:05:23.258   11 Jun 2027 09:05:24.463             1.205           602.500
       309   11 Jun 2027 09:05:30.940   11 Jun 2027 09:05:30.940             0.000             0.000
       310   11 Jun 2027 09:06:01.429   11 Jun 2027 09:06:01.710             0.281           140.500
       311   11 Jun 2027 09:08:08.351   11 Jun 2027 09:08:22.918            14.567          5030.437
       312   11 Jun 2027 09:08:34.606   11 Jun 2027 09:08:37.607             3.001           258.625
       313   11 Jun 2027 09:08:47.266   11 Jun 2027 09:08:47.959             0.693           271.438
       314   11 Jun 2027 09:09:59.922   11 Jun 2027 09:10:05.807             5.885          1662.094
       315   11 Jun 2027 09:10:17.378   11 Jun 2027 09:10:18.712             1.334           361.594
       316   11 Jun 2027 10:39:27.519   11 Jun 2027 10:39:43.869            16.350          5556.438
       317   11 Jun 2027 10:40:23.235   11 Jun 2027 10:40:25.352             2.117           186.938
       318   11 Jun 2027 10:40:54.150   11 Jun 2027 10:40:56.499             2.349           899.937
       319   11 Jun 2027 10:42:00.343   11 Jun 2027 10:42:05.207             4.864          1995.125
       320   11 Jun 2027 10:42:29.234   11 Jun 2027 10:42:33.563             4.329           583.188
       321   11 Jun 2027 10:43:17.865   11 Jun 2027 10:43:17.865             0.000             0.000
       322   11 Jun 2027 10:45:34.566   11 Jun 2027 10:45:47.193            12.627          5656.344
       323   11 Jun 2027 10:46:39.906   11 Jun 2027 10:46:43.080             3.174          1373.906
       324   12 Jun 2027 03:02:14.817   12 Jun 2027 03:02:39.984            25.167         12583.500
       325   12 Jun 2027 03:02:42.378   12 Jun 2027 03:02:53.082            10.704          5352.000
       326   12 Jun 2027 03:03:00.694   12 Jun 2027 03:03:03.941             3.247          1623.500
       327   12 Jun 2027 03:03:34.794   12 Jun 2027 03:03:37.877             3.083          1541.500
       328   12 Jun 2027 03:03:38.336   12 Jun 2027 03:03:50.175            11.839          5919.500
       329   12 Jun 2027 03:06:18.946   12 Jun 2027 03:06:30.698            11.752          5876.000
       330   12 Jun 2027 03:07:06.785   12 Jun 2027 03:07:14.343             7.558          3779.000
       331   12 Jun 2027 03:07:33.836   12 Jun 2027 03:07:41.147             7.311          3655.500
       332   12 Jun 2027 04:40:37.246   12 Jun 2027 04:42:09.398            92.152         46076.000
       333   12 Jun 2027 04:43:41.629   12 Jun 2027 04:43:59.921            18.292          9146.000
       334   12 Jun 2027 04:46:03.493   12 Jun 2027 04:46:13.893            10.400          5200.000
       335   12 Jun 2027 04:46:27.738   12 Jun 2027 04:46:27.982             0.244           122.000
       336   12 Jun 2027 06:04:41.770   12 Jun 2027 06:05:35.521            53.751         26875.500
       337   12 Jun 2027 06:05:47.027   12 Jun 2027 06:05:54.609             7.582          3791.000
       338   12 Jun 2027 07:38:28.170   12 Jun 2027 07:40:01.603            93.433         46716.500
       339   12 Jun 2027 07:40:22.489   12 Jun 2027 07:40:30.288             7.799          3899.500
       340   12 Jun 2027 07:42:15.862   12 Jun 2027 07:42:23.000             7.138          3339.719
       341   12 Jun 2027 09:14:28.565   12 Jun 2027 09:14:39.819            11.254          5411.969
       342   12 Jun 2027 09:15:46.195   12 Jun 2027 09:15:46.195             0.000             0.000
       343   12 Jun 2027 09:16:03.525   12 Jun 2027 09:16:06.655             3.130           811.937
       344   12 Jun 2027 09:19:09.825   12 Jun 2027 09:19:21.786            11.961          5337.813
       345   12 Jun 2027 09:20:25.806   12 Jun 2027 09:20:28.370             2.564          1282.000
       346   12 Jun 2027 09:20:51.314   12 Jun 2027 09:20:55.670             4.356          1435.625
       347   12 Jun 2027 09:21:22.896   12 Jun 2027 09:21:24.323             1.427           676.719
       348   12 Jun 2027 09:22:20.923   12 Jun 2027 09:22:24.573             3.650          1548.531
       349   12 Jun 2027 09:22:31.718   12 Jun 2027 09:22:32.322             0.604            97.563
       350   12 Jun 2027 09:22:39.213   12 Jun 2027 09:22:41.359             2.146           215.344
       351   12 Jun 2027 10:51:31.137   12 Jun 2027 10:51:44.679            13.542          6486.781
       352   12 Jun 2027 10:54:20.251   12 Jun 2027 10:54:20.251             0.000             0.000
       353   12 Jun 2027 10:55:44.401   12 Jun 2027 10:55:58.423            14.022          6653.687
       354   12 Jun 2027 10:56:25.987   12 Jun 2027 10:56:28.077             2.090           861.375
       355   12 Jun 2027 10:56:59.208   12 Jun 2027 10:56:59.826             0.618           309.000
       356   12 Jun 2027 10:57:00.727   12 Jun 2027 10:57:01.931             1.204           345.469
       357   12 Jun 2027 10:57:44.086   12 Jun 2027 10:57:52.697             8.611          1317.344
       358   12 Jun 2027 10:58:03.756   12 Jun 2027 10:58:04.919             1.163           183.563
       359   12 Jun 2027 10:58:20.036   12 Jun 2027 10:58:21.522             1.486           412.375
       360   13 Jun 2027 03:14:47.609   13 Jun 2027 03:15:39.277            51.668         25834.000
       361   13 Jun 2027 03:15:49.322   13 Jun 2027 03:16:08.075            18.753          9376.500
       362   13 Jun 2027 03:16:23.212   13 Jun 2027 03:16:31.121             7.909          3954.500
       363   13 Jun 2027 03:19:35.699   13 Jun 2027 03:19:36.348             0.649           324.500
       364   13 Jun 2027 04:53:11.628   13 Jun 2027 04:54:42.651            91.023         45511.500
       365   13 Jun 2027 04:55:29.428   13 Jun 2027 04:55:33.745             4.317          2158.500
       366   13 Jun 2027 04:55:54.019   13 Jun 2027 04:55:54.019             0.000             0.000
       367   13 Jun 2027 04:56:22.823   13 Jun 2027 04:56:29.163             6.340          3170.000
       368   13 Jun 2027 04:57:44.888   13 Jun 2027 04:57:52.859             7.971          3985.500
       369   13 Jun 2027 06:16:36.719   13 Jun 2027 06:17:48.382            71.663         35831.500
       370   13 Jun 2027 07:52:55.753   13 Jun 2027 07:54:30.772            95.019         44366.875
       371   13 Jun 2027 07:55:25.659   13 Jun 2027 07:55:31.037             5.378          1614.344
       372   13 Jun 2027 09:26:25.553   13 Jun 2027 09:26:37.226            11.673          4511.875
       373   13 Jun 2027 09:27:03.033   13 Jun 2027 09:27:04.580             1.547           640.375
       374   13 Jun 2027 09:27:35.295   13 Jun 2027 09:27:37.264             1.969           829.563
       375   13 Jun 2027 09:27:53.226   13 Jun 2027 09:27:53.226             0.000             0.000
       376   13 Jun 2027 09:28:16.830   13 Jun 2027 09:28:20.783             3.953          1208.531
       377   13 Jun 2027 09:28:23.912   13 Jun 2027 09:28:26.119             2.207            69.750
       378   13 Jun 2027 09:29:29.261   13 Jun 2027 09:29:34.066             4.805          1147.969
       379   13 Jun 2027 09:32:58.144   13 Jun 2027 09:33:23.805            25.661          6117.125
       380   13 Jun 2027 09:33:25.585   13 Jun 2027 09:33:25.585             0.000             0.000
       381   13 Jun 2027 09:33:29.012   13 Jun 2027 09:33:29.236             0.224           112.000
       382   13 Jun 2027 09:33:54.965   13 Jun 2027 09:33:56.390             1.425           712.500
       383   13 Jun 2027 09:33:56.452   13 Jun 2027 09:33:59.076             2.624           127.000
       384   13 Jun 2027 09:34:15.677   13 Jun 2027 09:34:17.974             2.297           503.312
       385   13 Jun 2027 09:34:56.795   13 Jun 2027 09:34:58.075             1.280           640.000
       386   13 Jun 2027 11:03:57.347   13 Jun 2027 11:04:10.507            13.160          6580.000
       387   13 Jun 2027 11:04:41.126   13 Jun 2027 11:04:46.268             5.142          1501.750
       388   13 Jun 2027 11:05:56.989   13 Jun 2027 11:06:00.642             3.653          1207.781
       389   13 Jun 2027 11:07:39.554   13 Jun 2027 11:07:46.127             6.573          2725.594
       390   13 Jun 2027 11:08:16.997   13 Jun 2027 11:08:21.385             4.388           492.313
       391   13 Jun 2027 11:08:25.634   13 Jun 2027 11:08:26.492             0.858           130.562
       392   13 Jun 2027 11:08:54.194   13 Jun 2027 11:08:57.775             3.581           864.875
       393   13 Jun 2027 11:09:12.951   13 Jun 2027 11:09:19.549             6.598           435.500
       394   13 Jun 2027 11:10:08.293   13 Jun 2027 11:10:10.995             2.702          1351.000
       395   13 Jun 2027 11:10:23.460   13 Jun 2027 11:10:25.008             1.548           561.781
       396   13 Jun 2027 11:10:31.686   13 Jun 2027 11:10:37.051             5.365           208.688
