uniorb/output/strategy_1/Camera/Camera_KinoSat_110103.txt

KinoSat_110103
-------------------------
    Access    *     Start Time (UTCG)     *     Stop Time (UTCG)  *   Duration (s) *   Data (Mbytes)
         1   01 Jun 2027 04:26:01.110   01 Jun 2027 04:28:23.880           142.770         71385.000
         2   01 Jun 2027 04:29:25.420   01 Jun 2027 04:29:33.469             8.049          4024.500
         3   01 Jun 2027 04:30:44.770   01 Jun 2027 04:31:08.628            23.858         11929.000
         4   01 Jun 2027 04:31:33.565   01 Jun 2027 04:31:48.406            14.841          7420.500
         5   01 Jun 2027 04:32:11.206   01 Jun 2027 04:32:15.393             4.187          2093.500
         6   01 Jun 2027 06:04:04.639   01 Jun 2027 06:07:22.898           198.259         99129.500
         7   01 Jun 2027 06:07:53.337   01 Jun 2027 06:08:03.823            10.486          5243.000
         8   01 Jun 2027 07:37:48.352   01 Jun 2027 07:40:37.021           168.669         84334.500
         9   01 Jun 2027 07:42:18.725   01 Jun 2027 07:42:22.897             4.172          2086.000
        10   01 Jun 2027 07:42:41.061   01 Jun 2027 07:42:43.000             1.939           969.500
        11   01 Jun 2027 07:42:47.130   01 Jun 2027 07:42:55.664             8.534          4267.000
        12   01 Jun 2027 07:44:00.167   01 Jun 2027 07:44:15.322            15.155          7577.500
        13   02 Jun 2027 03:01:13.259   02 Jun 2027 03:06:38.322           325.063        162531.500
        14   02 Jun 2027 03:06:55.241   02 Jun 2027 03:07:12.403            17.162          8581.000
        15   02 Jun 2027 03:08:07.615   02 Jun 2027 03:08:41.948            34.333         17166.500
        16   02 Jun 2027 04:38:08.120   02 Jun 2027 04:40:21.397           133.277         66638.500
        17   02 Jun 2027 04:40:32.127   02 Jun 2027 04:40:42.394            10.267          5133.500
        18   02 Jun 2027 04:41:43.842   02 Jun 2027 04:41:59.673            15.831          7915.500
        19   02 Jun 2027 04:42:32.179   02 Jun 2027 04:42:36.120             3.941          1970.500
        20   02 Jun 2027 04:42:53.722   02 Jun 2027 04:43:01.667             7.945          3972.500
        21   02 Jun 2027 04:43:44.731   02 Jun 2027 04:43:56.828            12.097          6048.500
        22   02 Jun 2027 04:44:03.046   02 Jun 2027 04:44:16.439            13.393          6696.500
        23   02 Jun 2027 06:15:42.137   02 Jun 2027 06:18:21.842           159.705         79852.500
        24   02 Jun 2027 06:18:34.464   02 Jun 2027 06:18:38.488             4.024          2012.000
        25   02 Jun 2027 06:19:56.457   02 Jun 2027 06:20:10.195            13.738          6869.000
        26   02 Jun 2027 07:50:04.953   02 Jun 2027 07:51:17.004            72.051         36025.500
        27   02 Jun 2027 07:51:54.368   02 Jun 2027 07:52:34.357            39.989         19994.500
        28   02 Jun 2027 07:53:11.075   02 Jun 2027 07:53:28.760            17.685          8842.500
        29   02 Jun 2027 07:55:01.003   02 Jun 2027 07:55:23.338            22.335         11167.500
        30   03 Jun 2027 03:13:35.307   03 Jun 2027 03:20:26.474           411.167        205583.500
        31   03 Jun 2027 04:50:37.422   03 Jun 2027 04:53:19.724           162.302         81151.000
        32   03 Jun 2027 04:54:08.488   03 Jun 2027 04:54:08.488             0.000             0.000
        33   03 Jun 2027 04:54:24.086   03 Jun 2027 04:54:34.365            10.279          5139.500
        34   03 Jun 2027 04:54:42.052   03 Jun 2027 04:54:51.908             9.856          4928.000
        35   03 Jun 2027 04:55:56.862   03 Jun 2027 04:56:20.580            23.718         11859.000
        36   03 Jun 2027 06:27:26.042   03 Jun 2027 06:29:44.574           138.532         69266.000
        37   03 Jun 2027 06:30:17.425   03 Jun 2027 06:30:32.408            14.983          7491.500
        38   03 Jun 2027 06:31:05.796   03 Jun 2027 06:31:10.810             5.014          2507.000
        39   03 Jun 2027 06:31:56.631   03 Jun 2027 06:32:10.666            14.035          7017.500
        40   03 Jun 2027 08:02:42.209   03 Jun 2027 08:02:43.444             1.235           617.500
        41   03 Jun 2027 08:04:28.392   03 Jun 2027 08:06:46.626           138.234         69117.000
        42   04 Jun 2027 03:25:46.191   04 Jun 2027 03:32:30.700           404.509        202254.500
        43   04 Jun 2027 05:02:52.864   04 Jun 2027 05:05:03.564           130.700         65350.000
        44   04 Jun 2027 05:05:58.444   04 Jun 2027 05:06:05.743             7.299          3649.500
        45   04 Jun 2027 05:06:32.901   04 Jun 2027 05:06:39.976             7.075          3537.500
        46   04 Jun 2027 05:07:08.146   04 Jun 2027 05:07:08.646             0.500           250.000
        47   04 Jun 2027 06:39:29.219   04 Jun 2027 06:41:56.804           147.585         73792.500
        48   04 Jun 2027 06:42:29.026   04 Jun 2027 06:42:35.147             6.121          3060.500
        49   04 Jun 2027 06:42:40.746   04 Jun 2027 06:42:46.488             5.742          2871.000
        50   04 Jun 2027 06:43:08.843   04 Jun 2027 06:43:23.699            14.856          7428.000
        51   04 Jun 2027 06:43:29.806   04 Jun 2027 06:43:39.865            10.059          5029.500
        52   04 Jun 2027 08:17:48.332   04 Jun 2027 08:18:38.535            50.203         25101.500
        53   05 Jun 2027 03:38:19.943   05 Jun 2027 03:44:36.268           376.325        188162.500
        54   05 Jun 2027 05:15:45.019   05 Jun 2027 05:18:10.188           145.169         72584.500
        55   05 Jun 2027 05:18:26.586   05 Jun 2027 05:18:59.756            33.170         16585.000
        56   05 Jun 2027 05:19:22.784   05 Jun 2027 05:19:35.890            13.106          6553.000
        57   05 Jun 2027 05:19:54.913   05 Jun 2027 05:20:07.023            12.110          6055.000
        58   05 Jun 2027 06:51:55.982   05 Jun 2027 06:54:34.857           158.875         79437.500
        59   06 Jun 2027 03:50:00.393   06 Jun 2027 03:55:47.658           347.265        173632.500
        60   06 Jun 2027 03:55:49.844   06 Jun 2027 03:56:16.975            27.131         13565.500
        61   06 Jun 2027 05:27:53.057   06 Jun 2027 05:31:48.191           235.134        117567.000
        62   06 Jun 2027 07:03:50.401   06 Jun 2027 07:06:08.501           138.100         69050.000
        63   06 Jun 2027 07:06:56.969   06 Jun 2027 07:07:02.849             5.880          2940.000
        64   06 Jun 2027 07:07:40.211   06 Jun 2027 07:08:04.004            23.793         11896.500
        65   07 Jun 2027 04:02:06.522   07 Jun 2027 04:08:14.791           368.269        184134.500
        66   07 Jun 2027 04:08:20.753   07 Jun 2027 04:08:28.269             7.516          3758.000
        67   07 Jun 2027 05:40:22.047   07 Jun 2027 05:44:06.052           224.005        112002.500
        68   07 Jun 2027 07:13:40.627   07 Jun 2027 07:15:11.157            90.530         45265.000
        69   07 Jun 2027 07:15:36.826   07 Jun 2027 07:15:40.528             3.702          1851.000
        70   07 Jun 2027 07:16:25.697   07 Jun 2027 07:17:32.615            66.918         33459.000
        71   07 Jun 2027 07:18:11.723   07 Jun 2027 07:18:19.041             7.318          3659.000
        72   07 Jun 2027 07:19:21.456   07 Jun 2027 07:19:33.475            12.019          6009.500
        73   07 Jun 2027 07:20:42.618   07 Jun 2027 07:21:02.526            19.908          9954.000
        74   08 Jun 2027 04:14:26.881   08 Jun 2027 04:20:17.555           350.674        175337.000
        75   08 Jun 2027 04:20:23.356   08 Jun 2027 04:20:34.220            10.864          5432.000
        76   08 Jun 2027 05:52:20.499   08 Jun 2027 05:55:41.720           201.221        100610.500
        77   08 Jun 2027 05:56:10.310   08 Jun 2027 05:56:19.283             8.973          4486.500
        78   08 Jun 2027 07:25:37.629   08 Jun 2027 07:28:21.551           163.922         81961.000
        79   08 Jun 2027 07:29:49.349   08 Jun 2027 07:29:52.673             3.324          1662.000
        80   08 Jun 2027 07:30:03.655   08 Jun 2027 07:30:14.467            10.812          5406.000
        81   08 Jun 2027 07:31:10.371   08 Jun 2027 07:31:16.699             6.328          3164.000
        82   08 Jun 2027 07:32:07.960   08 Jun 2027 07:32:25.921            17.961          8980.500
        83   08 Jun 2027 07:33:22.576   08 Jun 2027 07:33:27.020             4.444          2222.000
        84   09 Jun 2027 04:26:15.633   09 Jun 2027 04:32:55.841           400.208        200104.000
        85   09 Jun 2027 06:04:19.529   09 Jun 2027 06:07:19.446           179.917         89958.500
        86   09 Jun 2027 06:07:29.167   09 Jun 2027 06:07:30.149             0.982           491.000
        87   09 Jun 2027 06:07:58.837   09 Jun 2027 06:08:18.259            19.422          9711.000
        88   09 Jun 2027 07:38:03.697   09 Jun 2027 07:39:44.799           101.102         50551.000
        89   09 Jun 2027 07:41:03.113   09 Jun 2027 07:41:27.875            24.762         12381.000
        90   09 Jun 2027 07:42:57.514   09 Jun 2027 07:42:59.158             1.644           822.000
        91   09 Jun 2027 07:43:02.008   09 Jun 2027 07:43:11.739             9.731          4865.500
        92   09 Jun 2027 07:43:28.021   09 Jun 2027 07:43:29.670             1.649           824.500
        93   09 Jun 2027 07:44:38.630   09 Jun 2027 07:44:55.811            17.181          8590.500
        94   10 Jun 2027 03:01:28.512   10 Jun 2027 03:05:07.117           218.605        109302.500
        95   10 Jun 2027 03:05:15.516   10 Jun 2027 03:05:32.170            16.654          8327.000
        96   10 Jun 2027 03:06:52.907   10 Jun 2027 03:07:07.115            14.208          7104.000
        97   10 Jun 2027 03:07:09.476   10 Jun 2027 03:07:50.119            40.643         20321.500
        98   10 Jun 2027 03:08:22.844   10 Jun 2027 03:08:26.878             4.034          2017.000
        99   10 Jun 2027 03:08:36.542   10 Jun 2027 03:08:47.772            11.230          5615.000
       100   10 Jun 2027 04:38:22.801   10 Jun 2027 04:40:48.650           145.849         72924.500
       101   10 Jun 2027 04:41:35.505   10 Jun 2027 04:41:58.167            22.662         11331.000
       102   10 Jun 2027 04:42:48.064   10 Jun 2027 04:42:51.652             3.588          1794.000
       103   10 Jun 2027 04:43:08.109   10 Jun 2027 04:43:08.113             0.004             2.000
       104   10 Jun 2027 04:43:59.125   10 Jun 2027 04:44:11.295            12.170          6085.000
       105   10 Jun 2027 04:44:18.477   10 Jun 2027 04:44:26.499             8.022          4011.000
       106   10 Jun 2027 06:15:56.966   10 Jun 2027 06:18:39.164           162.198         81099.000
       107   10 Jun 2027 06:18:55.682   10 Jun 2027 06:19:16.341            20.659         10329.500
       108   10 Jun 2027 06:19:47.085   10 Jun 2027 06:19:47.435             0.350           175.000
       109   10 Jun 2027 07:50:19.388   10 Jun 2027 07:51:19.979            60.591         30295.500
       110   10 Jun 2027 07:52:10.031   10 Jun 2027 07:52:51.754            41.723         20861.500
       111   10 Jun 2027 07:55:15.823   10 Jun 2027 07:55:27.963            12.140          6070.000
       112   11 Jun 2027 03:13:50.559   11 Jun 2027 03:18:33.489           282.930        141465.000
       113   11 Jun 2027 03:18:43.980   11 Jun 2027 03:18:51.437             7.457          3728.500
       114   11 Jun 2027 03:19:17.726   11 Jun 2027 03:19:23.872             6.146          3073.000
       115   11 Jun 2027 03:20:06.708   11 Jun 2027 03:20:33.619            26.911         13455.500
       116   11 Jun 2027 04:50:52.186   11 Jun 2027 04:53:14.340           142.154         71077.000
       117   11 Jun 2027 04:53:58.782   11 Jun 2027 04:54:13.835            15.053          7526.500
       118   11 Jun 2027 04:55:11.005   11 Jun 2027 04:55:21.183            10.178          5089.000
       119   11 Jun 2027 04:55:27.648   11 Jun 2027 04:55:31.793             4.145          2072.500
       120   11 Jun 2027 04:55:49.143   11 Jun 2027 04:55:57.879             8.736          4368.000
       121   11 Jun 2027 04:56:21.782   11 Jun 2027 04:56:36.745            14.963          7481.500
       122   11 Jun 2027 06:27:42.447   11 Jun 2027 06:30:47.817           185.370         92685.000
       123   11 Jun 2027 06:31:00.926   11 Jun 2027 06:31:07.093             6.167          3083.500
       124   11 Jun 2027 06:32:04.773   11 Jun 2027 06:32:25.458            20.685         10342.500
       125   11 Jun 2027 08:04:54.871   11 Jun 2027 08:06:10.093            75.222         37611.000
       126   12 Jun 2027 03:26:01.097   12 Jun 2027 03:32:34.120           393.023        196511.500
       127   12 Jun 2027 03:32:37.140   12 Jun 2027 03:32:39.482             2.342          1171.000
       128   12 Jun 2027 05:03:11.891   12 Jun 2027 05:05:32.611           140.720         70360.000
       129   12 Jun 2027 05:06:29.273   12 Jun 2027 05:06:39.450            10.177          5088.500
       130   12 Jun 2027 05:06:56.946   12 Jun 2027 05:07:00.624             3.678          1839.000
       131   12 Jun 2027 05:07:06.315   12 Jun 2027 05:07:13.433             7.118          3559.000
       132   12 Jun 2027 05:07:24.290   12 Jun 2027 05:07:25.794             1.504           752.000
       133   12 Jun 2027 05:07:28.970   12 Jun 2027 05:07:42.145            13.175          6587.500
       134   12 Jun 2027 06:39:44.679   12 Jun 2027 06:42:27.360           162.681         81340.500
       135   12 Jun 2027 06:43:08.469   12 Jun 2027 06:43:17.488             9.019          4509.500
       136   12 Jun 2027 06:43:54.742   12 Jun 2027 06:44:01.331             6.589          3294.500
       137   12 Jun 2027 06:44:29.908   12 Jun 2027 06:44:40.695            10.787          5393.500
       138   12 Jun 2027 08:18:03.009   12 Jun 2027 08:18:27.829            24.820         12410.000
       139   13 Jun 2027 03:38:35.137   13 Jun 2027 03:44:52.185           377.048        188524.000
       140   13 Jun 2027 05:15:59.753   13 Jun 2027 05:18:40.713           160.960         80480.000
       141   13 Jun 2027 05:19:55.972   13 Jun 2027 05:20:21.515            25.543         12771.500
       142   13 Jun 2027 06:52:10.985   13 Jun 2027 06:54:40.914           149.929         74964.500
       143   13 Jun 2027 06:55:03.039   13 Jun 2027 06:55:13.110            10.071          5035.500
       144   13 Jun 2027 06:56:02.893   13 Jun 2027 06:56:22.536            19.643          9821.500
