uniorb/output/strategy_1/Camera/Camera_KinoSat_111607.txt

KinoSat_111607
-------------------------
    Access    *     Start Time (UTCG)     *     Stop Time (UTCG)  *   Duration (s) *   Data (Mbytes)
         1   01 Jun 2027 03:00:00.000   01 Jun 2027 03:00:00.511             0.511           255.500
         2   01 Jun 2027 04:32:47.092   01 Jun 2027 04:35:06.428           139.336         69668.000
         3   01 Jun 2027 04:35:20.959   01 Jun 2027 04:35:20.959             0.000             0.000
         4   01 Jun 2027 04:36:04.842   01 Jun 2027 04:36:04.842             0.000             0.000
         5   01 Jun 2027 04:36:34.856   01 Jun 2027 04:36:40.207             5.351          2675.500
         6   01 Jun 2027 04:37:26.968   01 Jun 2027 04:37:58.431            31.463         15731.500
         7   01 Jun 2027 04:39:45.345   01 Jun 2027 04:39:49.046             3.701          1850.500
         8   01 Jun 2027 05:57:08.449   01 Jun 2027 05:58:55.576           107.127         53563.500
         9   01 Jun 2027 06:09:21.590   01 Jun 2027 06:09:43.925            22.335         11167.500
        10   01 Jun 2027 07:31:15.336   01 Jun 2027 07:32:28.955            73.619         36809.500
        11   01 Jun 2027 07:33:18.623   01 Jun 2027 07:33:59.792            41.169         20584.500
        12   01 Jun 2027 07:34:13.553   01 Jun 2027 07:34:44.993            31.440         15720.000
        13   01 Jun 2027 09:06:03.413   01 Jun 2027 09:06:50.610            47.197         23598.500
        14   01 Jun 2027 09:07:54.314   01 Jun 2027 09:08:02.165             7.851          3925.500
        15   01 Jun 2027 09:08:52.420   01 Jun 2027 09:09:07.707            15.287          7643.500
        16   01 Jun 2027 09:12:34.158   01 Jun 2027 09:12:46.410            12.252          6126.000
        17   01 Jun 2027 09:13:57.384   01 Jun 2027 09:14:02.465             5.081          2540.500
        18   01 Jun 2027 09:14:25.916   01 Jun 2027 09:15:00.516            34.600         17300.000
        19   01 Jun 2027 10:43:54.490   01 Jun 2027 10:45:28.570            94.080         47040.000
        20   01 Jun 2027 10:45:42.172   01 Jun 2027 10:46:03.869            21.697         10848.500
        21   01 Jun 2027 10:47:09.417   01 Jun 2027 10:47:30.207            20.790         10395.000
        22   01 Jun 2027 10:50:16.478   01 Jun 2027 10:50:24.949             8.471          4235.500
        23   02 Jun 2027 03:06:43.297   02 Jun 2027 03:07:02.969            19.672          9836.000
        24   02 Jun 2027 03:07:08.288   02 Jun 2027 03:08:07.468            59.180         29590.000
        25   02 Jun 2027 03:09:54.784   02 Jun 2027 03:10:00.573             5.789          2894.500
        26   02 Jun 2027 04:45:10.588   02 Jun 2027 04:46:16.309            65.721         32860.500
        27   02 Jun 2027 04:47:02.204   02 Jun 2027 04:47:14.829            12.625          6312.500
        28   02 Jun 2027 04:47:45.439   02 Jun 2027 04:48:24.210            38.771         19385.500
        29   02 Jun 2027 04:49:34.166   02 Jun 2027 04:49:46.051            11.885          5942.500
        30   02 Jun 2027 06:09:06.437   02 Jun 2027 06:09:49.664            43.227         21613.500
        31   02 Jun 2027 06:10:45.351   02 Jun 2027 06:10:52.413             7.062          3531.000
        32   02 Jun 2027 06:11:19.772   02 Jun 2027 06:11:22.978             3.206          1603.000
        33   02 Jun 2027 07:45:03.757   02 Jun 2027 07:47:17.294           133.537         66768.500
        34   02 Jun 2027 07:48:59.093   02 Jun 2027 07:48:59.825             0.732           366.000
        35   02 Jun 2027 09:18:52.283   02 Jun 2027 09:20:21.986            89.703         44851.500
        36   02 Jun 2027 09:21:06.528   02 Jun 2027 09:21:10.769             4.241          2120.500
        37   02 Jun 2027 09:21:52.365   02 Jun 2027 09:22:07.325            14.960          7480.000
        38   02 Jun 2027 09:26:40.416   02 Jun 2027 09:27:15.996            35.580         17790.000
        39   02 Jun 2027 10:56:01.865   02 Jun 2027 10:57:34.219            92.354         46177.000
        40   02 Jun 2027 11:01:11.262   02 Jun 2027 11:01:51.375            40.113         20056.500
        41   02 Jun 2027 11:02:36.523   02 Jun 2027 11:02:41.824             5.301          2650.500
        42   03 Jun 2027 03:19:28.455   03 Jun 2027 03:19:48.453            19.998          9999.000
        43   03 Jun 2027 03:20:05.394   03 Jun 2027 03:20:56.178            50.784         25392.000
        44   03 Jun 2027 03:20:58.037   03 Jun 2027 03:21:01.949             3.912          1956.000
        45   03 Jun 2027 03:21:29.391   03 Jun 2027 03:21:50.322            20.931         10465.500
        46   03 Jun 2027 03:24:18.335   03 Jun 2027 03:24:24.250             5.915          2957.500
        47   03 Jun 2027 03:24:58.609   03 Jun 2027 03:25:00.018             1.409           704.500
        48   03 Jun 2027 04:57:36.591   03 Jun 2027 04:58:12.980            36.389         18194.500
        49   03 Jun 2027 04:59:04.969   03 Jun 2027 04:59:30.481            25.512         12756.000
        50   03 Jun 2027 04:59:44.924   03 Jun 2027 04:59:59.039            14.115          7057.500
        51   03 Jun 2027 05:00:53.969   03 Jun 2027 05:01:07.139            13.170          6585.000
        52   03 Jun 2027 06:20:59.241   03 Jun 2027 06:21:42.302            43.061         21530.500
        53   03 Jun 2027 06:21:52.587   03 Jun 2027 06:22:15.241            22.654         11327.000
        54   03 Jun 2027 07:57:21.554   03 Jun 2027 07:59:08.258           106.704         53352.000
        55   03 Jun 2027 08:00:12.564   03 Jun 2027 08:00:12.564             0.000             0.000
        56   03 Jun 2027 09:31:13.990   03 Jun 2027 09:32:03.582            49.592         24796.000
        57   03 Jun 2027 09:32:54.124   03 Jun 2027 09:33:51.988            57.864         28932.000
        58   03 Jun 2027 09:35:46.169   03 Jun 2027 09:36:03.057            16.888          8444.000
        59   03 Jun 2027 09:38:09.227   03 Jun 2027 09:38:11.951             2.724          1362.000
        60   03 Jun 2027 09:38:47.710   03 Jun 2027 09:39:04.601            16.891          8445.500
        61   03 Jun 2027 09:39:23.874   03 Jun 2027 09:39:23.927             0.053            26.500
        62   03 Jun 2027 11:08:28.557   03 Jun 2027 11:09:27.070            58.513         28365.876
        63   03 Jun 2027 11:10:46.116   03 Jun 2027 11:10:47.713             1.597           798.500
        64   03 Jun 2027 11:11:10.684   03 Jun 2027 11:11:21.262            10.578          2389.531
        65   03 Jun 2027 11:11:38.588   03 Jun 2027 11:11:42.462             3.874           541.438
        66   03 Jun 2027 11:12:26.188   03 Jun 2027 11:12:28.372             2.184           563.469
        67   03 Jun 2027 11:12:34.045   03 Jun 2027 11:12:36.530             2.485           177.281
        68   03 Jun 2027 11:12:55.338   03 Jun 2027 11:12:57.067             1.729           584.688
        69   03 Jun 2027 11:13:24.197   03 Jun 2027 11:13:25.485             1.288           644.000
        70   03 Jun 2027 11:13:30.484   03 Jun 2027 11:13:35.078             4.594           360.031
        71   03 Jun 2027 11:14:23.443   03 Jun 2027 11:14:25.487             2.044          1022.000
        72   03 Jun 2027 11:14:51.115   03 Jun 2027 11:14:55.623             4.508          1151.844
        73   04 Jun 2027 03:31:15.148   04 Jun 2027 03:31:16.561             1.413           706.500
        74   04 Jun 2027 03:31:37.244   04 Jun 2027 03:32:27.722            50.478         25239.000
        75   04 Jun 2027 03:32:34.057   04 Jun 2027 03:33:09.231            35.174         17587.000
        76   04 Jun 2027 03:34:31.994   04 Jun 2027 03:34:42.847            10.853          5426.500
        77   04 Jun 2027 03:35:50.012   04 Jun 2027 03:36:05.519            15.507          7753.500
        78   04 Jun 2027 03:36:21.412   04 Jun 2027 03:36:22.761             1.349           674.500
        79   04 Jun 2027 05:09:54.440   04 Jun 2027 05:10:13.238            18.798          9399.000
        80   04 Jun 2027 05:11:03.867   04 Jun 2027 05:12:06.292            62.425         31212.500
        81   04 Jun 2027 06:32:48.274   04 Jun 2027 06:33:55.391            67.117         33558.500
        82   04 Jun 2027 06:35:03.365   04 Jun 2027 06:35:14.952            11.587          5793.500
        83   04 Jun 2027 08:09:25.099   04 Jun 2027 08:10:41.541            76.442         38185.531
        84   04 Jun 2027 08:11:00.797   04 Jun 2027 08:11:04.157             3.360           374.875
        85   04 Jun 2027 08:11:59.544   04 Jun 2027 08:11:59.544             0.000             0.000
        86   04 Jun 2027 09:44:31.919   04 Jun 2027 09:44:48.901            16.982          6949.594
        87   04 Jun 2027 09:45:44.366   04 Jun 2027 09:45:51.200             6.834          1012.281
        88   04 Jun 2027 09:46:43.436   04 Jun 2027 09:46:46.856             3.420          1467.719
        89   04 Jun 2027 09:47:09.616   04 Jun 2027 09:47:11.532             1.916           248.656
        90   04 Jun 2027 09:47:18.596   04 Jun 2027 09:47:19.850             1.254            85.312
        91   04 Jun 2027 09:48:11.038   04 Jun 2027 09:48:14.379             3.341          1521.594
        92   04 Jun 2027 09:48:15.285   04 Jun 2027 09:48:15.789             0.504            28.312
        93   04 Jun 2027 09:50:29.774   04 Jun 2027 09:50:37.171             7.397          3698.500
        94   04 Jun 2027 09:51:03.072   04 Jun 2027 09:51:06.104             3.032          1126.156
        95   04 Jun 2027 09:51:13.939   04 Jun 2027 09:51:15.924             1.985           212.187
        96   04 Jun 2027 11:20:52.523   04 Jun 2027 11:21:04.097            11.574          5787.000
        97   04 Jun 2027 11:21:41.843   04 Jun 2027 11:21:44.569             2.726          1293.844
        98   04 Jun 2027 11:22:20.580   04 Jun 2027 11:22:24.748             4.168           201.188
        99   04 Jun 2027 11:24:11.792   04 Jun 2027 11:24:23.383            11.591          3310.875
       100   04 Jun 2027 11:24:35.397   04 Jun 2027 11:24:36.956             1.559           276.812
       101   04 Jun 2027 11:24:55.171   04 Jun 2027 11:24:56.733             1.562            82.219
       102   04 Jun 2027 11:25:10.083   04 Jun 2027 11:25:17.504             7.421           417.188
       103   04 Jun 2027 11:25:27.127   04 Jun 2027 11:25:28.219             1.092           300.719
       104   04 Jun 2027 11:26:34.709   04 Jun 2027 11:26:40.397             5.688          1956.219
       105   04 Jun 2027 11:27:06.482   04 Jun 2027 11:27:07.645             1.163           565.656
       106   05 Jun 2027 03:43:22.139   05 Jun 2027 03:44:23.569            61.430         30715.000
       107   05 Jun 2027 03:44:30.300   05 Jun 2027 03:45:49.634            79.334         39667.000
       108   05 Jun 2027 03:49:14.925   05 Jun 2027 03:49:17.948             3.023          1511.500
       109   05 Jun 2027 05:21:39.633   05 Jun 2027 05:22:13.895            34.262         17131.000
       110   05 Jun 2027 05:22:28.288   05 Jun 2027 05:23:07.382            39.094         19547.000
       111   05 Jun 2027 05:24:20.565   05 Jun 2027 05:24:20.565             0.000             0.000
       112   05 Jun 2027 05:24:43.365   05 Jun 2027 05:24:44.528             1.163           581.500
       113   05 Jun 2027 05:24:59.945   05 Jun 2027 05:25:11.765            11.820          5910.000
       114   05 Jun 2027 06:45:01.991   05 Jun 2027 06:46:17.146            75.155         37577.500
       115   05 Jun 2027 06:47:58.444   05 Jun 2027 06:47:58.444             0.000             0.000
       116   05 Jun 2027 08:21:35.940   05 Jun 2027 08:22:17.550            41.610         19658.001
       117   05 Jun 2027 08:23:15.182   05 Jun 2027 08:23:19.068             3.886          1719.438
       118   05 Jun 2027 08:23:59.119   05 Jun 2027 08:24:01.388             2.269          1134.500
       119   05 Jun 2027 09:56:45.592   05 Jun 2027 09:56:59.875            14.283          6499.687
       120   05 Jun 2027 09:57:58.018   05 Jun 2027 09:58:01.865             3.847          1772.000
       121   05 Jun 2027 09:58:15.120   05 Jun 2027 09:58:15.120             0.000             0.000
       122   05 Jun 2027 09:58:54.436   05 Jun 2027 09:59:01.072             6.636          1431.813
       123   05 Jun 2027 09:59:22.314   05 Jun 2027 09:59:22.898             0.584            35.094
       124   05 Jun 2027 10:01:50.832   05 Jun 2027 10:02:00.666             9.834          4052.437
       125   05 Jun 2027 10:02:32.304   05 Jun 2027 10:02:33.597             1.293           556.219
       126   05 Jun 2027 10:03:09.609   05 Jun 2027 10:03:11.483             1.874           859.875
       127   05 Jun 2027 11:33:06.923   05 Jun 2027 11:33:22.316            15.393          6509.438
       128   05 Jun 2027 11:33:52.513   05 Jun 2027 11:33:56.008             3.495           943.656
       129   05 Jun 2027 11:35:24.909   05 Jun 2027 11:35:29.955             5.046          2374.500
       130   05 Jun 2027 11:36:48.492   05 Jun 2027 11:36:53.428             4.936          2229.250
       131   05 Jun 2027 11:37:20.645   05 Jun 2027 11:37:28.734             8.089           850.531
       132   05 Jun 2027 11:38:32.058   05 Jun 2027 11:38:36.226             4.168          1978.875
       133   05 Jun 2027 11:38:47.856   05 Jun 2027 11:38:52.271             4.415           363.438
       134   05 Jun 2027 11:38:59.463   05 Jun 2027 11:39:04.034             4.571           115.531
       135   06 Jun 2027 03:56:28.774   06 Jun 2027 03:58:02.197            93.423         46711.500
       136   06 Jun 2027 03:58:19.612   06 Jun 2027 03:58:21.201             1.589           794.500
       137   06 Jun 2027 03:58:54.144   06 Jun 2027 03:58:57.848             3.704          1852.000
       138   06 Jun 2027 03:59:17.803   06 Jun 2027 03:59:55.724            37.921         18960.500
       139   06 Jun 2027 04:03:18.820   06 Jun 2027 04:03:37.012            18.192          9096.000
       140   06 Jun 2027 05:33:36.602   06 Jun 2027 05:34:16.836            40.234         20117.000
       141   06 Jun 2027 05:34:34.727   06 Jun 2027 05:35:43.696            68.969         34484.500
       142   06 Jun 2027 06:57:31.936   06 Jun 2027 06:58:57.105            85.169         42430.281
       143   06 Jun 2027 08:33:26.338   06 Jun 2027 08:33:38.198            11.860          5930.000
       144   06 Jun 2027 08:34:22.281   06 Jun 2027 08:34:27.654             5.373          2686.500
       145   06 Jun 2027 08:35:20.811   06 Jun 2027 08:35:27.325             6.514          3033.469
       146   06 Jun 2027 08:36:00.994   06 Jun 2027 08:36:02.899             1.905           905.656
       147   06 Jun 2027 08:36:44.696   06 Jun 2027 08:36:44.696             0.000             0.000
       148   06 Jun 2027 08:37:29.148   06 Jun 2027 08:37:31.425             2.277          1138.500
       149   06 Jun 2027 10:08:19.444   06 Jun 2027 10:08:30.989            11.545          4280.531
       150   06 Jun 2027 10:09:02.340   06 Jun 2027 10:09:03.860             1.520           608.031
       151   06 Jun 2027 10:10:36.902   06 Jun 2027 10:10:43.204             6.302          1179.187
       152   06 Jun 2027 10:11:00.877   06 Jun 2027 10:11:02.201             1.324           380.500
       153   06 Jun 2027 10:13:50.570   06 Jun 2027 10:14:08.526            17.956          5107.031
       154   06 Jun 2027 10:14:31.374   06 Jun 2027 10:14:33.748             2.374           110.438
       155   06 Jun 2027 10:14:59.934   06 Jun 2027 10:15:02.379             2.445           617.750
       156   06 Jun 2027 10:15:26.711   06 Jun 2027 10:15:30.275             3.564           221.938
       157   06 Jun 2027 11:44:43.906   06 Jun 2027 11:44:59.696            15.790          6848.375
       158   06 Jun 2027 11:45:05.102   06 Jun 2027 11:45:05.391             0.289           111.312
       159   06 Jun 2027 11:45:54.645   06 Jun 2027 11:45:58.658             4.013          1534.594
       160   06 Jun 2027 11:46:27.206   06 Jun 2027 11:46:29.806             2.600           644.219
       161   06 Jun 2027 11:46:44.274   06 Jun 2027 11:46:45.784             1.510           240.094
       162   06 Jun 2027 11:47:38.787   06 Jun 2027 11:47:43.296             4.509           835.531
       163   06 Jun 2027 11:48:25.678   06 Jun 2027 11:48:28.715             3.037          1264.844
       164   06 Jun 2027 11:50:15.909   06 Jun 2027 11:50:24.985             9.076          3328.406
       165   07 Jun 2027 04:08:32.784   07 Jun 2027 04:10:17.774           104.990         52495.000
       166   07 Jun 2027 04:10:42.079   07 Jun 2027 04:10:53.063            10.984          5492.000
       167   07 Jun 2027 04:13:18.989   07 Jun 2027 04:13:23.841             4.852          2426.000
       168   07 Jun 2027 04:14:57.092   07 Jun 2027 04:15:02.074             4.982          2491.000
       169   07 Jun 2027 04:15:35.547   07 Jun 2027 04:16:10.703            35.156         17578.000
       170   07 Jun 2027 05:34:17.054   07 Jun 2027 05:35:16.242            59.188         29594.000
       171   07 Jun 2027 05:45:33.109   07 Jun 2027 05:46:28.067            54.958         27479.000
       172   07 Jun 2027 07:08:09.055   07 Jun 2027 07:09:54.211           105.156         52299.875
       173   07 Jun 2027 07:12:48.930   07 Jun 2027 07:12:48.930             0.000             0.000
       174   07 Jun 2027 08:43:43.518   07 Jun 2027 08:43:58.530            15.012          7358.094
       175   07 Jun 2027 08:44:27.872   07 Jun 2027 08:44:29.194             1.322           430.344
       176   07 Jun 2027 08:46:44.252   07 Jun 2027 08:46:59.586            15.334          3550.344
       177   07 Jun 2027 10:19:57.845   07 Jun 2027 10:20:14.165            16.320          5785.156
       178   07 Jun 2027 10:21:59.850   07 Jun 2027 10:21:59.850             0.000             0.000
       179   07 Jun 2027 10:23:25.483   07 Jun 2027 10:23:30.888             5.405          2702.500
       180   07 Jun 2027 10:24:11.964   07 Jun 2027 10:24:27.374            15.410          4191.750
       181   07 Jun 2027 10:25:06.577   07 Jun 2027 10:25:07.530             0.953           476.500
       182   07 Jun 2027 10:25:10.615   07 Jun 2027 10:25:12.250             1.635           548.781
       183   07 Jun 2027 10:25:15.647   07 Jun 2027 10:25:17.167             1.520            39.125
       184   07 Jun 2027 10:26:37.246   07 Jun 2027 10:26:43.461             6.215          2093.656
       185   07 Jun 2027 10:27:00.588   07 Jun 2027 10:27:06.538             5.950           259.688
       186   07 Jun 2027 10:27:15.968   07 Jun 2027 10:27:20.680             4.712           294.688
       187   07 Jun 2027 11:57:03.863   07 Jun 2027 11:57:16.460            12.597          6022.562
       188   07 Jun 2027 11:57:38.689   07 Jun 2027 11:57:42.034             3.345           440.625
       189   07 Jun 2027 11:58:31.576   07 Jun 2027 11:58:33.136             1.560           226.719
       190   07 Jun 2027 11:59:43.390   07 Jun 2027 11:59:45.656             2.266          1133.000
       191   08 Jun 2027 04:21:02.607   08 Jun 2027 04:22:34.054            91.447         45723.500
       192   08 Jun 2027 04:24:53.101   08 Jun 2027 04:25:01.657             8.556          4278.000
       193   08 Jun 2027 04:26:25.677   08 Jun 2027 04:26:25.825             0.148            74.000
       194   08 Jun 2027 04:27:50.254   08 Jun 2027 04:28:10.595            20.341         10170.500
       195   08 Jun 2027 05:45:52.897   08 Jun 2027 05:46:27.577            34.680         17340.000
       196   08 Jun 2027 05:46:35.826   08 Jun 2027 05:47:22.499            46.673         23336.500
       197   08 Jun 2027 05:57:34.994   08 Jun 2027 05:58:31.498            56.504         28252.000
       198   08 Jun 2027 07:19:51.973   08 Jun 2027 07:20:58.159            66.186         33093.000
       199   08 Jun 2027 07:21:48.853   08 Jun 2027 07:22:28.507            39.654         18767.937
       200   08 Jun 2027 07:24:28.118   08 Jun 2027 07:24:28.118             0.000             0.000
       201   08 Jun 2027 08:54:50.467   08 Jun 2027 08:55:10.841            20.374          8715.000
       202   08 Jun 2027 08:55:33.339   08 Jun 2027 08:55:34.508             1.169           523.969
       203   08 Jun 2027 08:55:50.216   08 Jun 2027 08:55:51.317             1.101           482.250
       204   08 Jun 2027 08:56:59.181   08 Jun 2027 08:57:02.687             3.506          1275.719
       205   08 Jun 2027 09:00:02.885   08 Jun 2027 09:00:13.719            10.834          5352.156
       206   08 Jun 2027 09:00:29.673   08 Jun 2027 09:00:29.673             0.000             0.000
       207   08 Jun 2027 09:02:48.672   08 Jun 2027 09:03:00.763            12.091          3396.563
       208   08 Jun 2027 10:33:59.985   08 Jun 2027 10:34:15.240            15.255          7627.500
       209   08 Jun 2027 10:34:19.421   08 Jun 2027 10:34:26.078             6.657           323.906
       210   08 Jun 2027 10:35:01.533   08 Jun 2027 10:35:04.544             3.011           595.594
       211   08 Jun 2027 10:35:07.594   08 Jun 2027 10:35:09.674             2.080            95.281
       212   08 Jun 2027 10:38:31.779   08 Jun 2027 10:38:44.548            12.769          5904.688
       213   08 Jun 2027 10:39:06.966   08 Jun 2027 10:39:07.375             0.409           204.500
       214   09 Jun 2027 03:00:00.000   09 Jun 2027 03:00:18.178            18.178          9089.000
       215   09 Jun 2027 04:33:04.795   09 Jun 2027 04:35:02.726           117.931         58965.500
       216   09 Jun 2027 04:35:13.151   09 Jun 2027 04:35:18.809             5.658          2829.000
       217   09 Jun 2027 04:35:35.660   09 Jun 2027 04:35:35.660             0.000             0.000
       218   09 Jun 2027 04:36:20.502   09 Jun 2027 04:36:22.068             1.566           783.000
       219   09 Jun 2027 04:36:42.276   09 Jun 2027 04:36:50.313             8.037          4018.500
       220   09 Jun 2027 04:37:08.743   09 Jun 2027 04:37:08.743             0.000             0.000
       221   09 Jun 2027 04:38:13.158   09 Jun 2027 04:38:16.899             3.741          1870.500
       222   09 Jun 2027 04:38:45.824   09 Jun 2027 04:38:54.902             9.078          4539.000
       223   09 Jun 2027 04:38:58.822   09 Jun 2027 04:39:01.391             2.569          1284.500
       224   09 Jun 2027 05:57:25.795   09 Jun 2027 05:57:59.446            33.651         16825.500
       225   09 Jun 2027 05:59:11.257   09 Jun 2027 05:59:33.883            22.626         11313.000
       226   09 Jun 2027 06:09:41.865   09 Jun 2027 06:10:09.564            27.699         13849.500
       227   09 Jun 2027 07:31:29.205   09 Jun 2027 07:32:45.368            76.163         38081.500
       228   09 Jun 2027 07:33:34.232   09 Jun 2027 07:33:48.837            14.605          7051.875
       229   09 Jun 2027 07:36:29.010   09 Jun 2027 07:36:29.010             0.000             0.000
       230   09 Jun 2027 09:06:18.329   09 Jun 2027 09:06:34.303            15.974          7982.344
       231   09 Jun 2027 09:07:05.997   09 Jun 2027 09:07:06.571             0.574           281.062
       232   09 Jun 2027 09:08:16.421   09 Jun 2027 09:08:17.754             1.333           123.875
       233   09 Jun 2027 09:09:10.549   09 Jun 2027 09:09:10.549             0.000             0.000
       234   09 Jun 2027 09:09:46.321   09 Jun 2027 09:09:52.528             6.207          2707.219
       235   09 Jun 2027 09:10:44.651   09 Jun 2027 09:10:51.736             7.085          1278.187
       236   09 Jun 2027 09:11:06.566   09 Jun 2027 09:11:07.869             1.303           463.438
       237   09 Jun 2027 09:11:59.449   09 Jun 2027 09:12:03.640             4.191          1048.250
       238   09 Jun 2027 09:13:14.106   09 Jun 2027 09:13:22.850             8.744          2164.094
       239   09 Jun 2027 09:14:04.525   09 Jun 2027 09:14:14.951            10.426          1049.531
       240   09 Jun 2027 09:15:14.722   09 Jun 2027 09:15:21.180             6.458          1867.844
       241   09 Jun 2027 10:44:11.634   09 Jun 2027 10:44:31.663            20.029          5776.219
       242   09 Jun 2027 10:45:15.604   09 Jun 2027 10:45:18.828             3.224           372.969
       243   09 Jun 2027 10:45:49.018   09 Jun 2027 10:45:49.616             0.598           179.812
       244   09 Jun 2027 10:46:21.861   09 Jun 2027 10:46:23.505             1.644           717.625
       245   09 Jun 2027 10:47:10.317   09 Jun 2027 10:47:11.894             1.577           788.500
       246   09 Jun 2027 10:49:44.942   09 Jun 2027 10:49:58.542            13.600          5438.719
       247   09 Jun 2027 10:50:16.711   09 Jun 2027 10:50:18.403             1.692           567.781
       248   09 Jun 2027 10:50:34.657   09 Jun 2027 10:50:36.502             1.845           480.031
       249   09 Jun 2027 10:50:45.870   09 Jun 2027 10:50:47.770             1.900           177.500
       250   09 Jun 2027 10:51:02.157   09 Jun 2027 10:51:03.981             1.824           354.688
       251   09 Jun 2027 10:51:10.482   09 Jun 2027 10:51:11.050             0.568            53.094
       252   10 Jun 2027 03:07:00.807   10 Jun 2027 03:07:16.596            15.789          7894.500
       253   10 Jun 2027 03:07:24.925   10 Jun 2027 03:08:22.844            57.919         28959.500
       254   10 Jun 2027 03:09:11.317   10 Jun 2027 03:09:12.593             1.276           638.000
       255   10 Jun 2027 03:10:10.071   10 Jun 2027 03:10:28.913            18.842          9421.000
       256   10 Jun 2027 04:45:29.733   10 Jun 2027 04:46:27.063            57.330         28665.000
       257   10 Jun 2027 04:46:54.622   10 Jun 2027 04:47:08.496            13.874          6937.000
       258   10 Jun 2027 04:47:20.040   10 Jun 2027 04:47:24.253             4.213          2106.500
       259   10 Jun 2027 04:48:26.841   10 Jun 2027 04:48:43.865            17.024          8512.000
       260   10 Jun 2027 04:49:10.814   10 Jun 2027 04:49:12.566             1.752           876.000
       261   10 Jun 2027 04:49:13.315   10 Jun 2027 04:49:32.245            18.930          9465.000
       262   10 Jun 2027 06:09:22.489   10 Jun 2027 06:09:59.504            37.015         18507.500
       263   10 Jun 2027 06:10:06.438   10 Jun 2027 06:10:27.756            21.318         10659.000
       264   10 Jun 2027 07:45:21.980   10 Jun 2027 07:47:03.660           101.680         49869.531
       265   10 Jun 2027 09:19:10.286   10 Jun 2027 09:19:25.802            15.516          5784.750
       266   10 Jun 2027 09:19:58.500   10 Jun 2027 09:20:00.094             1.594           440.719
       267   10 Jun 2027 09:20:40.385   10 Jun 2027 09:20:43.675             3.290           618.156
       268   10 Jun 2027 09:21:24.312   10 Jun 2027 09:21:24.880             0.568           284.000
       269   10 Jun 2027 09:21:41.960   10 Jun 2027 09:21:44.731             2.771           769.500
       270   10 Jun 2027 09:22:21.620   10 Jun 2027 09:22:25.207             3.587           544.844
       271   10 Jun 2027 09:25:21.774   10 Jun 2027 09:25:33.628            11.854          5517.719
       272   10 Jun 2027 09:25:52.971   10 Jun 2027 09:25:52.971             0.000             0.000
       273   10 Jun 2027 09:26:06.161   10 Jun 2027 09:26:08.955             2.794           678.344
       274   10 Jun 2027 09:26:55.612   10 Jun 2027 09:26:58.380             2.768          1319.469
       275   10 Jun 2027 09:27:11.184   10 Jun 2027 09:27:15.092             3.908           400.125
       276   10 Jun 2027 10:56:19.087   10 Jun 2027 10:56:32.120            13.033          5379.094
       277   10 Jun 2027 10:57:11.275   10 Jun 2027 10:57:15.768             4.493           546.438
       278   10 Jun 2027 10:57:42.468   10 Jun 2027 10:57:45.809             3.341           794.156
       279   10 Jun 2027 11:00:38.081   10 Jun 2027 11:00:51.812            13.731          5226.469
       280   10 Jun 2027 11:01:04.341   10 Jun 2027 11:01:06.059             1.718             3.344
       281   10 Jun 2027 11:01:17.458   10 Jun 2027 11:01:18.528             1.070           337.625
       282   10 Jun 2027 11:01:49.205   10 Jun 2027 11:01:53.455             4.250           771.063
       283   10 Jun 2027 11:02:51.376   10 Jun 2027 11:02:52.577             1.201           600.500
       284   10 Jun 2027 11:03:01.450   10 Jun 2027 11:03:02.487             1.037           518.500
       285   11 Jun 2027 03:19:45.122   11 Jun 2027 03:20:04.298            19.176          9588.000
       286   11 Jun 2027 03:20:18.287   11 Jun 2027 03:21:13.170            54.883         27441.500
       287   11 Jun 2027 03:21:14.563   11 Jun 2027 03:21:20.843             6.280          3140.000
       288   11 Jun 2027 03:23:55.898   11 Jun 2027 03:24:15.478            19.580          9790.000
       289   11 Jun 2027 03:24:38.853   11 Jun 2027 03:24:46.838             7.985          3992.500
       290   11 Jun 2027 04:57:52.674   11 Jun 2027 04:58:38.415            45.741         22870.500
       291   11 Jun 2027 04:59:21.384   11 Jun 2027 04:59:48.374            26.990         13495.000
       292   11 Jun 2027 05:00:31.576   11 Jun 2027 05:00:51.208            19.632          9816.000
       293   11 Jun 2027 06:21:15.917   11 Jun 2027 06:22:31.881            75.964         37982.000
       294   11 Jun 2027 07:57:38.469   11 Jun 2027 07:58:52.356            73.887         36943.500
       295   11 Jun 2027 07:59:38.739   11 Jun 2027 07:59:41.685             2.946          1473.000
       296   11 Jun 2027 08:00:03.245   11 Jun 2027 08:00:06.263             3.018          1084.781
       297   11 Jun 2027 09:31:33.897   11 Jun 2027 09:31:48.212            14.315          7157.031
       298   11 Jun 2027 09:34:11.313   11 Jun 2027 09:34:24.815            13.502          3446.500
       299   11 Jun 2027 09:38:22.958   11 Jun 2027 09:38:38.536            15.578          6999.188
       300   11 Jun 2027 09:39:21.278   11 Jun 2027 09:39:24.176             2.898          1330.438
       301   11 Jun 2027 09:39:30.160   11 Jun 2027 09:39:33.514             3.354             6.125
       302   11 Jun 2027 11:08:44.892   11 Jun 2027 11:08:58.161            13.269          6523.156
       303   11 Jun 2027 11:09:07.318   11 Jun 2027 11:09:08.767             1.449           286.156
       304   11 Jun 2027 11:09:10.626   11 Jun 2027 11:09:12.341             1.715            22.000
       305   11 Jun 2027 11:09:34.490   11 Jun 2027 11:09:38.270             3.780           377.531
       306   11 Jun 2027 11:09:50.316   11 Jun 2027 11:09:50.723             0.407           203.500
       307   11 Jun 2027 11:10:53.678   11 Jun 2027 11:11:01.204             7.526          1999.938
       308   11 Jun 2027 11:11:27.385   11 Jun 2027 11:11:29.026             1.641           709.313
       309   11 Jun 2027 11:11:56.013   11 Jun 2027 11:11:58.451             2.438           583.031
       310   11 Jun 2027 11:13:04.946   11 Jun 2027 11:13:09.443             4.497          2077.969
       311   11 Jun 2027 11:13:12.455   11 Jun 2027 11:13:13.248             0.793            71.844
       312   11 Jun 2027 11:13:40.470   11 Jun 2027 11:13:42.021             1.551           478.969
       313   11 Jun 2027 11:14:43.777   11 Jun 2027 11:14:48.908             5.131          1929.875
       314   11 Jun 2027 11:15:04.203   11 Jun 2027 11:15:06.982             2.779           472.281
       315   11 Jun 2027 11:15:16.816   11 Jun 2027 11:15:21.542             4.726           301.500
       316   12 Jun 2027 03:31:50.042   12 Jun 2027 03:32:44.932            54.890         27445.000
       317   12 Jun 2027 03:32:50.688   12 Jun 2027 03:34:05.751            75.063         37531.500
       318   12 Jun 2027 03:35:10.379   12 Jun 2027 03:35:10.379             0.000             0.000
       319   12 Jun 2027 03:36:59.688   12 Jun 2027 03:37:03.859             4.171          2085.500
       320   12 Jun 2027 05:10:12.429   12 Jun 2027 05:10:28.221            15.792          7896.000
       321   12 Jun 2027 05:11:25.174   12 Jun 2027 05:12:51.202            86.028         43014.000
       322   12 Jun 2027 06:33:08.197   12 Jun 2027 06:34:28.693            80.496         40248.000
       323   12 Jun 2027 08:09:42.001   12 Jun 2027 08:10:07.672            25.671         12835.500
       324   12 Jun 2027 08:10:30.002   12 Jun 2027 08:10:33.792             3.790          1566.750
       325   12 Jun 2027 08:11:38.369   12 Jun 2027 08:11:47.134             8.765          1911.031
       326   12 Jun 2027 08:12:45.755   12 Jun 2027 08:12:49.404             3.649          1705.594
       327   12 Jun 2027 09:45:50.497   12 Jun 2027 09:46:03.226            12.729          6364.500
       328   12 Jun 2027 09:47:01.976   12 Jun 2027 09:47:11.449             9.473          2094.656
       329   12 Jun 2027 09:47:24.601   12 Jun 2027 09:47:25.843             1.242           190.812
       330   12 Jun 2027 09:47:47.016   12 Jun 2027 09:47:52.904             5.888           495.094
       331   12 Jun 2027 09:50:08.218   12 Jun 2027 09:50:16.873             8.655          3971.281
       332   12 Jun 2027 09:50:47.240   12 Jun 2027 09:50:48.843             1.603           801.500
       333   12 Jun 2027 09:51:21.906   12 Jun 2027 09:51:21.906             0.000             0.000
       334   12 Jun 2027 09:51:27.000   12 Jun 2027 09:51:29.053             2.053          1026.500
       335   12 Jun 2027 11:21:10.948   12 Jun 2027 11:21:28.427            17.479          7770.344
       336   12 Jun 2027 11:21:50.122   12 Jun 2027 11:21:52.658             2.536           428.156
       337   12 Jun 2027 11:22:56.647   12 Jun 2027 11:22:58.010             1.363           630.000
       338   12 Jun 2027 11:23:21.067   12 Jun 2027 11:23:22.694             1.627           539.188
       339   12 Jun 2027 11:23:33.460   12 Jun 2027 11:23:35.038             1.578           336.437
       340   12 Jun 2027 11:24:27.163   12 Jun 2027 11:24:33.900             6.737          1628.906
       341   12 Jun 2027 11:25:08.928   12 Jun 2027 11:25:08.928             0.000             0.000
       342   12 Jun 2027 11:25:25.478   12 Jun 2027 11:25:31.792             6.314          1341.437
       343   13 Jun 2027 03:43:39.216   13 Jun 2027 03:44:38.941            59.725         29862.500
       344   13 Jun 2027 03:44:46.700   13 Jun 2027 03:45:33.290            46.590         23295.000
       345   13 Jun 2027 03:45:49.090   13 Jun 2027 03:45:51.887             2.797          1398.500
       346   13 Jun 2027 03:46:38.476   13 Jun 2027 03:46:38.937             0.461           230.500
       347   13 Jun 2027 03:47:01.439   13 Jun 2027 03:47:12.282            10.843          5421.500
       348   13 Jun 2027 03:47:36.413   13 Jun 2027 03:47:36.413             0.000             0.000
       349   13 Jun 2027 05:21:56.237   13 Jun 2027 05:22:31.203            34.966         17483.000
       350   13 Jun 2027 05:22:44.855   13 Jun 2027 05:23:13.354            28.499         14249.500
       351   13 Jun 2027 05:23:25.120   13 Jun 2027 05:23:43.846            18.726          9363.000
       352   13 Jun 2027 05:24:16.046   13 Jun 2027 05:24:38.387            22.341         11170.500
       353   13 Jun 2027 06:45:17.798   13 Jun 2027 06:46:33.747            75.949         37974.500
       354   13 Jun 2027 06:46:42.174   13 Jun 2027 06:47:05.465            23.291         11645.500
       355   13 Jun 2027 08:21:52.825   13 Jun 2027 08:22:22.899            30.074         14360.281
       356   13 Jun 2027 08:23:09.313   13 Jun 2027 08:23:09.313             0.000             0.000
       357   13 Jun 2027 08:23:52.263   13 Jun 2027 08:23:52.856             0.593           296.500
       358   13 Jun 2027 08:24:13.780   13 Jun 2027 08:24:18.676             4.896          2448.000
       359   13 Jun 2027 08:24:52.669   13 Jun 2027 08:24:52.669             0.000             0.000
       360   13 Jun 2027 09:57:17.091   13 Jun 2027 09:57:30.123            13.032          6402.406
       361   13 Jun 2027 09:58:34.597   13 Jun 2027 09:58:38.780             4.183           579.687
       362   13 Jun 2027 09:59:58.016   13 Jun 2027 10:00:02.246             4.230          1399.438
       363   13 Jun 2027 10:00:49.926   13 Jun 2027 10:00:53.540             3.614          1231.906
       364   13 Jun 2027 10:00:54.587   13 Jun 2027 10:00:55.388             0.801            32.719
       365   13 Jun 2027 10:01:05.676   13 Jun 2027 10:01:06.991             1.315           321.500
       366   13 Jun 2027 10:01:18.172   13 Jun 2027 10:01:24.508             6.336            80.906
       367   13 Jun 2027 10:01:42.237   13 Jun 2027 10:01:49.520             7.283           554.031
       368   13 Jun 2027 10:02:27.979   13 Jun 2027 10:02:31.734             3.755           980.906
       369   13 Jun 2027 10:02:58.701   13 Jun 2027 10:03:02.326             3.625           348.500
       370   13 Jun 2027 10:03:15.566   13 Jun 2027 10:03:18.237             2.671           286.094
       371   13 Jun 2027 10:03:37.904   13 Jun 2027 10:03:38.550             0.646           323.000
       372   13 Jun 2027 11:33:23.766   13 Jun 2027 11:33:38.311            14.545          5948.500
       373   13 Jun 2027 11:35:07.921   13 Jun 2027 11:35:13.282             5.361          2485.094
       374   13 Jun 2027 11:35:34.545   13 Jun 2027 11:35:40.465             5.920           407.219
       375   13 Jun 2027 11:36:01.121   13 Jun 2027 11:36:04.945             3.824           575.719
       376   13 Jun 2027 11:36:38.295   13 Jun 2027 11:36:40.352             2.057           258.875
       377   13 Jun 2027 11:37:02.246   13 Jun 2027 11:37:04.132             1.886           439.906
       378   13 Jun 2027 11:37:22.131   13 Jun 2027 11:37:26.297             4.166           562.469
       379   13 Jun 2027 11:37:45.204   13 Jun 2027 11:37:48.435             3.231           590.844
       380   13 Jun 2027 11:38:47.949   13 Jun 2027 11:38:52.918             4.969          1859.813
       381   13 Jun 2027 11:39:05.744   13 Jun 2027 11:39:08.925             3.181           400.813
       382   13 Jun 2027 11:39:15.510   13 Jun 2027 11:39:18.612             3.102           105.625
