uniorb/output/strategy_1/Camera/Camera_KinoSat_111702.txt

KinoSat_111702
-------------------------
    Access    *     Start Time (UTCG)     *     Stop Time (UTCG)  *   Duration (s) *   Data (Mbytes)
         1   01 Jun 2027 03:39:21.857   01 Jun 2027 03:40:15.541            53.684         26842.000
         2   01 Jun 2027 03:40:25.028   01 Jun 2027 03:41:06.760            41.732         20866.000
         3   01 Jun 2027 03:41:07.357   01 Jun 2027 03:41:57.982            50.625         25312.500
         4   01 Jun 2027 03:43:49.619   01 Jun 2027 03:44:00.331            10.712          5356.000
         5   01 Jun 2027 05:17:47.061   01 Jun 2027 05:19:33.625           106.564         53282.000
         6   01 Jun 2027 05:20:42.899   01 Jun 2027 05:21:03.729            20.830         10415.000
         7   01 Jun 2027 06:41:13.096   01 Jun 2027 06:42:25.476            72.380         36190.000
         8   01 Jun 2027 06:43:13.593   01 Jun 2027 06:43:13.593             0.000             0.000
         9   01 Jun 2027 08:17:27.701   01 Jun 2027 08:19:23.830           116.129         58064.500
        10   01 Jun 2027 08:20:32.879   01 Jun 2027 08:20:32.879             0.000             0.000
        11   01 Jun 2027 09:51:00.177   01 Jun 2027 09:52:07.507            67.330         33665.000
        12   01 Jun 2027 09:53:22.967   01 Jun 2027 09:53:33.005            10.038          5019.000
        13   01 Jun 2027 09:55:54.044   01 Jun 2027 09:56:53.419            59.375         29687.500
        14   01 Jun 2027 09:59:32.718   01 Jun 2027 09:59:33.752             1.034           517.000
        15   01 Jun 2027 11:28:32.805   01 Jun 2027 11:30:30.509           117.704         58852.000
        16   01 Jun 2027 11:32:29.568   01 Jun 2027 11:32:46.648            17.080          8540.000
        17   01 Jun 2027 11:34:29.126   01 Jun 2027 11:34:42.399            13.273          6636.500
        18   02 Jun 2027 03:51:22.770   02 Jun 2027 03:51:49.483            26.713         13356.500
        19   02 Jun 2027 03:53:33.314   02 Jun 2027 03:55:00.013            86.699         43349.500
        20   02 Jun 2027 03:55:17.391   02 Jun 2027 03:55:22.503             5.112          2556.000
        21   02 Jun 2027 03:56:06.548   02 Jun 2027 03:56:19.445            12.897          6448.500
        22   02 Jun 2027 05:29:25.744   02 Jun 2027 05:30:44.924            79.180         39590.000
        23   02 Jun 2027 05:31:10.559   02 Jun 2027 05:31:34.611            24.052         12026.000
        24   02 Jun 2027 05:32:27.902   02 Jun 2027 05:32:31.532             3.630          1815.000
        25   02 Jun 2027 05:33:34.727   02 Jun 2027 05:33:39.593             4.866          2433.000
        26   02 Jun 2027 06:53:04.816   02 Jun 2027 06:54:44.169            99.353         49676.500
        27   02 Jun 2027 08:29:32.020   02 Jun 2027 08:30:03.916            31.896         15948.000
        28   02 Jun 2027 08:30:25.562   02 Jun 2027 08:31:13.632            48.070         24035.000
        29   02 Jun 2027 08:31:39.326   02 Jun 2027 08:32:05.828            26.502         13251.000
        30   02 Jun 2027 08:32:36.042   02 Jun 2027 08:33:07.558            31.516         15758.000
        31   02 Jun 2027 10:01:46.620   02 Jun 2027 10:01:49.971             3.351          1675.500
        32   02 Jun 2027 10:04:07.760   02 Jun 2027 10:05:25.976            78.216         39108.000
        33   02 Jun 2027 10:07:52.505   02 Jun 2027 10:08:35.233            42.728         21364.000
        34   02 Jun 2027 10:08:54.239   02 Jun 2027 10:09:05.976            11.737          5868.500
        35   02 Jun 2027 10:10:30.770   02 Jun 2027 10:10:40.376             9.606          4803.000
        36   02 Jun 2027 11:40:37.836   02 Jun 2027 11:42:27.656           109.820         54910.000
        37   03 Jun 2027 04:03:30.921   03 Jun 2027 04:04:29.918            58.997         29498.500
        38   03 Jun 2027 04:05:20.961   03 Jun 2027 04:06:00.617            39.656         19828.000
        39   03 Jun 2027 04:06:21.374   03 Jun 2027 04:06:25.406             4.032          2016.000
        40   03 Jun 2027 04:06:33.122   03 Jun 2027 04:06:54.199            21.077         10538.500
        41   03 Jun 2027 04:09:47.369   03 Jun 2027 04:09:50.743             3.374          1687.000
        42   03 Jun 2027 05:41:52.509   03 Jun 2027 05:42:17.196            24.687         12343.500
        43   03 Jun 2027 05:42:39.152   03 Jun 2027 05:43:45.650            66.498         33249.000
        44   03 Jun 2027 05:44:13.570   03 Jun 2027 05:44:13.845             0.275           137.500
        45   03 Jun 2027 05:45:32.801   03 Jun 2027 05:45:42.680             9.879          4939.500
        46   03 Jun 2027 07:05:13.154   03 Jun 2027 07:07:00.067           106.913         53456.500
        47   03 Jun 2027 07:07:48.850   03 Jun 2027 07:07:51.733             2.883          1441.500
        48   03 Jun 2027 07:08:02.117   03 Jun 2027 07:08:03.691             1.574           787.000
        49   03 Jun 2027 08:41:42.371   03 Jun 2027 08:43:24.762           102.391         51195.500
        50   03 Jun 2027 08:44:19.203   03 Jun 2027 08:44:41.787            22.584         11292.000
        51   03 Jun 2027 10:16:53.740   03 Jun 2027 10:18:04.775            71.035         35517.500
        52   03 Jun 2027 10:19:50.010   03 Jun 2027 10:19:50.010             0.000             0.000
        53   03 Jun 2027 10:23:22.580   03 Jun 2027 10:23:30.782             8.202          4101.000
        54   03 Jun 2027 11:53:12.880   03 Jun 2027 11:53:40.636            27.756         10435.719
        55   03 Jun 2027 11:55:11.131   03 Jun 2027 11:55:17.616             6.485          2739.625
        56   03 Jun 2027 11:55:48.177   03 Jun 2027 11:55:50.196             2.019           920.312
        57   03 Jun 2027 11:57:03.859   03 Jun 2027 11:57:08.363             4.504          2252.000
        58   03 Jun 2027 11:57:28.237   03 Jun 2027 11:57:29.462             1.225           612.500
        59   03 Jun 2027 11:58:25.189   03 Jun 2027 11:58:30.002             4.813          1800.000
        60   03 Jun 2027 11:58:39.341   03 Jun 2027 11:58:40.830             1.489           291.844
        61   04 Jun 2027 04:15:35.667   04 Jun 2027 04:15:51.237            15.570          7785.000
        62   04 Jun 2027 04:16:38.242   04 Jun 2027 04:17:47.733            69.491         34745.500
        63   04 Jun 2027 04:20:49.545   04 Jun 2027 04:20:50.709             1.164           582.000
        64   04 Jun 2027 04:23:50.919   04 Jun 2027 04:24:09.857            18.938          9469.000
        65   04 Jun 2027 05:53:47.009   04 Jun 2027 05:54:24.678            37.669         18834.500
        66   04 Jun 2027 05:54:54.658   04 Jun 2027 05:56:28.000            93.342         46671.000
        67   04 Jun 2027 07:17:55.981   04 Jun 2027 07:19:47.796           111.815         55907.500
        68   04 Jun 2027 07:20:23.409   04 Jun 2027 07:20:24.539             1.130           565.000
        69   04 Jun 2027 08:53:39.605   04 Jun 2027 08:54:03.328            23.723         11467.906
        70   04 Jun 2027 08:54:53.793   04 Jun 2027 08:54:57.439             3.646          1564.500
        71   04 Jun 2027 08:55:24.433   04 Jun 2027 08:55:25.862             1.429           488.406
        72   04 Jun 2027 10:28:38.084   04 Jun 2027 10:28:54.580            16.496          8248.000
        73   04 Jun 2027 10:29:01.000   04 Jun 2027 10:29:03.543             2.543           260.656
        74   04 Jun 2027 10:30:31.295   04 Jun 2027 10:30:39.102             7.807          2742.250
        75   04 Jun 2027 10:31:03.472   04 Jun 2027 10:31:08.401             4.929           588.406
        76   04 Jun 2027 10:31:32.996   04 Jun 2027 10:31:34.958             1.962            89.969
        77   04 Jun 2027 10:32:44.818   04 Jun 2027 10:32:45.410             0.592           296.000
        78   04 Jun 2027 10:33:08.620   04 Jun 2027 10:33:13.710             5.090          2271.906
        79   04 Jun 2027 10:33:37.790   04 Jun 2027 10:33:42.519             4.729           666.156
        80   04 Jun 2027 10:35:14.612   04 Jun 2027 10:35:18.440             3.828          1914.000
        81   04 Jun 2027 10:35:33.649   04 Jun 2027 10:35:35.689             2.040          1020.000
        82   05 Jun 2027 04:28:41.139   05 Jun 2027 04:30:05.858            84.719         42359.500
        83   05 Jun 2027 04:30:42.372   05 Jun 2027 04:30:51.838             9.466          4733.000
        84   05 Jun 2027 04:32:22.607   05 Jun 2027 04:32:27.062             4.455          2227.500
        85   05 Jun 2027 04:33:01.589   05 Jun 2027 04:33:01.589             0.000             0.000
        86   05 Jun 2027 04:34:55.490   05 Jun 2027 04:35:13.700            18.210          9105.000
        87   05 Jun 2027 04:35:39.062   05 Jun 2027 04:36:14.139            35.077         17538.500
        88   05 Jun 2027 05:54:43.975   05 Jun 2027 05:55:17.219            33.244         16622.000
        89   05 Jun 2027 06:05:43.329   05 Jun 2027 06:06:43.572            60.243         30121.500
        90   05 Jun 2027 06:07:10.382   05 Jun 2027 06:07:14.430             4.048          2024.000
        91   05 Jun 2027 06:07:50.675   05 Jun 2027 06:08:02.381            11.706          5853.000
        92   05 Jun 2027 06:08:48.892   05 Jun 2027 06:09:02.799            13.907          6953.500
        93   05 Jun 2027 07:29:39.839   05 Jun 2027 07:31:02.066            82.227         41113.500
        94   05 Jun 2027 09:04:15.855   05 Jun 2027 09:04:20.672             4.817          2408.500
        95   05 Jun 2027 09:05:24.651   05 Jun 2027 09:05:39.405            14.754          6841.249
        96   05 Jun 2027 09:05:49.465   05 Jun 2027 09:05:59.075             9.610           280.313
        97   05 Jun 2027 09:07:31.879   05 Jun 2027 09:07:39.053             7.174          2900.125
        98   05 Jun 2027 09:08:56.915   05 Jun 2027 09:09:01.480             4.565          2282.500
        99   05 Jun 2027 09:09:38.152   05 Jun 2027 09:09:38.152             0.000             0.000
       100   05 Jun 2027 10:40:10.894   05 Jun 2027 10:40:22.277            11.383          4985.343
       101   05 Jun 2027 10:41:01.645   05 Jun 2027 10:41:08.612             6.967           734.844
       102   05 Jun 2027 10:43:07.042   05 Jun 2027 10:43:11.440             4.398          1969.687
       103   05 Jun 2027 10:47:03.807   05 Jun 2027 10:47:25.646            21.839          7152.938
       104   05 Jun 2027 10:47:36.771   05 Jun 2027 10:47:38.987             2.216           347.656
       105   06 Jun 2027 03:02:03.705   06 Jun 2027 03:02:32.457            28.752         14376.000
       106   06 Jun 2027 03:02:45.323   06 Jun 2027 03:02:45.699             0.376           188.000
       107   06 Jun 2027 03:04:13.181   06 Jun 2027 03:04:29.867            16.686          8343.000
       108   06 Jun 2027 03:04:59.481   06 Jun 2027 03:05:04.511             5.030          2515.000
       109   06 Jun 2027 03:06:25.067   06 Jun 2027 03:06:25.067             0.000             0.000
       110   06 Jun 2027 03:06:58.968   06 Jun 2027 03:07:14.407            15.439          7719.500
       111   06 Jun 2027 03:07:25.469   06 Jun 2027 03:07:37.536            12.067          6033.500
       112   06 Jun 2027 04:41:07.115   06 Jun 2027 04:42:17.530            70.415         35207.500
       113   06 Jun 2027 04:42:59.731   06 Jun 2027 04:43:08.957             9.226          4613.000
       114   06 Jun 2027 04:43:43.154   06 Jun 2027 04:43:48.437             5.283          2641.500
       115   06 Jun 2027 04:44:17.684   06 Jun 2027 04:44:28.838            11.154          5577.000
       116   06 Jun 2027 04:45:52.776   06 Jun 2027 04:45:52.776             0.000             0.000
       117   06 Jun 2027 04:47:01.225   06 Jun 2027 04:47:05.727             4.502          2251.000
       118   06 Jun 2027 06:06:04.182   06 Jun 2027 06:07:11.116            66.934         33467.000
       119   06 Jun 2027 06:17:45.558   06 Jun 2027 06:18:31.991            46.433         23216.500
       120   06 Jun 2027 07:40:00.077   06 Jun 2027 07:41:05.896            65.819         32243.250
       121   06 Jun 2027 07:41:58.236   06 Jun 2027 07:42:01.154             2.918          1451.062
       122   06 Jun 2027 07:42:41.345   06 Jun 2027 07:42:41.345             0.000             0.000
       123   06 Jun 2027 07:43:48.912   06 Jun 2027 07:43:58.556             9.644          2936.969
       124   06 Jun 2027 07:45:03.805   06 Jun 2027 07:45:05.951             2.146          1073.000
       125   06 Jun 2027 09:15:10.642   06 Jun 2027 09:15:25.325            14.683          4873.406
       126   06 Jun 2027 09:16:21.744   06 Jun 2027 09:16:28.120             6.376          1610.594
       127   06 Jun 2027 09:19:49.539   06 Jun 2027 09:20:02.784            13.245          6183.031
       128   06 Jun 2027 09:21:25.832   06 Jun 2027 09:21:30.685             4.853          2332.125
       129   06 Jun 2027 10:52:18.365   06 Jun 2027 10:52:28.430            10.065          4971.312
       130   06 Jun 2027 10:55:33.326   06 Jun 2027 10:55:33.326             0.000             0.000
       131   06 Jun 2027 10:57:42.530   06 Jun 2027 10:57:49.324             6.794          3397.000
       132   06 Jun 2027 10:58:48.935   06 Jun 2027 10:59:06.183            17.248          8281.469
       133   07 Jun 2027 03:14:21.536   07 Jun 2027 03:15:27.901            66.365         33182.500
       134   07 Jun 2027 03:16:12.077   07 Jun 2027 03:16:13.997             1.920           960.000
       135   07 Jun 2027 03:16:22.857   07 Jun 2027 03:16:30.498             7.641          3820.500
       136   07 Jun 2027 03:17:10.676   07 Jun 2027 03:17:10.676             0.000             0.000
       137   07 Jun 2027 03:18:11.988   07 Jun 2027 03:18:15.284             3.296          1648.000
       138   07 Jun 2027 03:18:25.395   07 Jun 2027 03:18:35.100             9.705          4852.500
       139   07 Jun 2027 03:19:09.692   07 Jun 2027 03:19:22.059            12.367          6183.500
       140   07 Jun 2027 03:19:29.007   07 Jun 2027 03:19:41.502            12.495          6247.500
       141   07 Jun 2027 04:53:22.372   07 Jun 2027 04:54:41.635            79.263         39631.500
       142   07 Jun 2027 04:55:29.709   07 Jun 2027 04:55:32.261             2.552          1276.000
       143   07 Jun 2027 04:56:29.129   07 Jun 2027 04:56:37.019             7.890          3945.000
       144   07 Jun 2027 05:00:07.907   07 Jun 2027 05:00:22.294            14.387          7193.500
       145   07 Jun 2027 06:17:29.209   07 Jun 2027 06:18:02.848            33.639         16819.500
       146   07 Jun 2027 06:18:39.478   07 Jun 2027 06:19:04.121            24.643         12321.500
       147   07 Jun 2027 06:29:42.577   07 Jun 2027 06:30:20.590            38.013         19006.500
       148   07 Jun 2027 07:51:45.003   07 Jun 2027 07:52:45.898            60.895         29449.343
       149   07 Jun 2027 07:53:50.764   07 Jun 2027 07:53:55.536             4.772          2022.406
       150   07 Jun 2027 07:55:47.668   07 Jun 2027 07:55:57.797            10.129          2838.312
       151   07 Jun 2027 07:56:57.371   07 Jun 2027 07:57:02.132             4.761          1814.000
       152   07 Jun 2027 09:26:37.584   07 Jun 2027 09:26:49.822            12.238          4536.625
       153   07 Jun 2027 09:28:09.678   07 Jun 2027 09:28:12.940             3.262          1527.156
       154   07 Jun 2027 09:28:23.321   07 Jun 2027 09:28:29.727             6.406           278.750
       155   07 Jun 2027 09:32:07.622   07 Jun 2027 09:32:31.124            23.502          6801.250
       156   07 Jun 2027 09:34:52.609   07 Jun 2027 09:34:59.705             7.096          3386.219
       157   07 Jun 2027 11:04:20.056   07 Jun 2027 11:04:31.919            11.863          4920.875
       158   07 Jun 2027 11:05:25.140   07 Jun 2027 11:05:27.371             2.231           628.031
       159   07 Jun 2027 11:05:50.267   07 Jun 2027 11:05:52.809             2.542           624.719
       160   07 Jun 2027 11:07:08.559   07 Jun 2027 11:07:16.436             7.877          2167.750
       161   07 Jun 2027 11:07:52.856   07 Jun 2027 11:07:55.195             2.339           990.938
       162   07 Jun 2027 11:08:19.566   07 Jun 2027 11:08:19.566             0.000             0.000
       163   07 Jun 2027 11:10:27.618   07 Jun 2027 11:10:37.344             9.726          4763.219
       164   07 Jun 2027 11:10:46.051   07 Jun 2027 11:10:47.750             1.699           272.094
       165   07 Jun 2027 11:11:10.482   07 Jun 2027 11:11:14.014             3.532           525.656
       166   07 Jun 2027 11:11:28.755   07 Jun 2027 11:11:36.162             7.407           460.656
       167   08 Jun 2027 03:27:07.572   08 Jun 2027 03:27:32.397            24.825         12412.500
       168   08 Jun 2027 03:27:34.990   08 Jun 2027 03:28:55.615            80.625         40312.500
       169   08 Jun 2027 03:29:10.144   08 Jun 2027 03:29:10.929             0.785           392.500
       170   08 Jun 2027 03:29:22.891   08 Jun 2027 03:29:39.578            16.687          8343.500
       171   08 Jun 2027 03:31:39.477   08 Jun 2027 03:31:40.120             0.643           321.500
       172   08 Jun 2027 03:32:26.367   08 Jun 2027 03:32:26.854             0.487           243.500
       173   08 Jun 2027 05:05:30.170   08 Jun 2027 05:06:48.463            78.293         39146.500
       174   08 Jun 2027 05:07:15.411   08 Jun 2027 05:07:28.356            12.945          6472.500
       175   08 Jun 2027 05:08:33.295   08 Jun 2027 05:08:37.446             4.151          2075.500
       176   08 Jun 2027 05:11:14.390   08 Jun 2027 05:11:14.390             0.000             0.000
       177   08 Jun 2027 06:29:34.394   08 Jun 2027 06:30:16.125            41.731         20865.500
       178   08 Jun 2027 06:31:15.526   08 Jun 2027 06:31:35.193            19.667          9833.500
       179   08 Jun 2027 08:03:20.889   08 Jun 2027 08:04:21.433            60.544         29575.468
       180   08 Jun 2027 08:05:13.091   08 Jun 2027 08:05:13.091             0.000             0.000
       181   08 Jun 2027 08:05:19.156   08 Jun 2027 08:05:23.799             4.643          1705.531
       182   08 Jun 2027 08:06:26.288   08 Jun 2027 08:06:32.079             5.791          1916.313
       183   08 Jun 2027 08:07:05.172   08 Jun 2027 08:07:08.637             3.465           319.375
       184   08 Jun 2027 08:08:36.900   08 Jun 2027 08:08:43.820             6.920          2758.219
       185   08 Jun 2027 09:40:24.503   08 Jun 2027 09:40:39.582            15.079          6864.031
       186   08 Jun 2027 09:40:57.616   08 Jun 2027 09:40:59.431             1.815           521.594
       187   08 Jun 2027 09:44:00.895   08 Jun 2027 09:44:00.895             0.000             0.000
       188   08 Jun 2027 09:45:04.889   08 Jun 2027 09:45:19.544            14.655          7301.000
       189   08 Jun 2027 09:46:05.504   08 Jun 2027 09:46:08.654             3.150          1423.000
       190   08 Jun 2027 09:47:14.097   08 Jun 2027 09:47:18.789             4.692          1879.750
       191   08 Jun 2027 11:16:23.669   08 Jun 2027 11:16:51.570            27.901          7305.750
       192   08 Jun 2027 11:19:11.709   08 Jun 2027 11:19:11.709             0.000             0.000
       193   08 Jun 2027 11:21:08.819   08 Jun 2027 11:21:27.062            18.243          7660.500
       194   09 Jun 2027 03:39:41.948   09 Jun 2027 03:40:31.535            49.587         24793.500
       195   09 Jun 2027 03:40:41.646   09 Jun 2027 03:41:23.858            42.212         21106.000
       196   09 Jun 2027 03:41:24.485   09 Jun 2027 03:42:27.344            62.859         31429.500
       197   09 Jun 2027 05:18:04.304   09 Jun 2027 05:19:07.292            62.988         31494.000
       198   09 Jun 2027 05:19:18.312   09 Jun 2027 05:19:37.774            19.462          9731.000
       199   09 Jun 2027 05:20:38.442   09 Jun 2027 05:20:56.666            18.224          9112.000
       200   09 Jun 2027 06:41:29.403   09 Jun 2027 06:42:42.435            73.032         36516.000
       201   09 Jun 2027 08:17:48.281   09 Jun 2027 08:18:19.669            31.388         15694.000
       202   09 Jun 2027 08:18:24.834   09 Jun 2027 08:18:30.233             5.399           350.187
       203   09 Jun 2027 08:20:37.288   09 Jun 2027 08:20:45.109             7.821          3519.625
       204   09 Jun 2027 09:51:18.079   09 Jun 2027 09:51:28.945            10.866          4139.750
       205   09 Jun 2027 09:52:09.661   09 Jun 2027 09:52:11.614             1.953           414.281
       206   09 Jun 2027 09:53:55.894   09 Jun 2027 09:54:02.193             6.299          2833.156
       207   09 Jun 2027 09:57:33.897   09 Jun 2027 09:57:47.403            13.506          6143.688
       208   09 Jun 2027 09:58:18.191   09 Jun 2027 09:58:18.191             0.000             0.000
       209   09 Jun 2027 09:58:24.856   09 Jun 2027 09:58:27.873             3.017           556.938
       210   09 Jun 2027 09:58:48.362   09 Jun 2027 09:58:48.937             0.575           287.500
       211   09 Jun 2027 09:58:49.159   09 Jun 2027 09:58:50.645             1.486           352.781
       212   09 Jun 2027 09:59:13.936   09 Jun 2027 09:59:17.303             3.367           635.563
       213   09 Jun 2027 09:59:32.698   09 Jun 2027 09:59:32.698             0.000             0.000
       214   09 Jun 2027 11:28:49.997   09 Jun 2027 11:29:03.552            13.555          5619.469
       215   09 Jun 2027 11:29:41.924   09 Jun 2027 11:29:44.069             2.145           592.594
       216   09 Jun 2027 11:31:06.571   09 Jun 2027 11:31:10.292             3.721           462.531
       217   09 Jun 2027 11:31:37.656   09 Jun 2027 11:31:41.161             3.505           282.344
       218   09 Jun 2027 11:31:49.076   09 Jun 2027 11:31:50.970             1.894           247.344
       219   09 Jun 2027 11:32:11.271   09 Jun 2027 11:32:14.693             3.422           634.406
       220   09 Jun 2027 11:33:34.975   09 Jun 2027 11:33:39.247             4.272          1897.438
       221   09 Jun 2027 11:34:59.594   09 Jun 2027 11:35:05.236             5.642          2481.437
       222   09 Jun 2027 11:35:09.498   09 Jun 2027 11:35:14.328             4.830           133.187
       223   09 Jun 2027 11:35:26.105   09 Jun 2027 11:35:29.327             3.222           368.031
       224   10 Jun 2027 03:51:39.821   10 Jun 2027 03:51:47.120             7.299          3649.500
       225   10 Jun 2027 03:51:55.565   10 Jun 2027 03:52:04.345             8.780          4390.000
       226   10 Jun 2027 03:53:48.499   10 Jun 2027 03:55:53.359           124.860         62430.000
       227   10 Jun 2027 05:29:43.205   10 Jun 2027 05:31:53.535           130.330         65165.000
       228   10 Jun 2027 05:32:44.131   10 Jun 2027 05:33:04.494            20.363         10181.500
       229   10 Jun 2027 06:53:21.282   10 Jun 2027 06:54:36.519            75.237         34609.718
       230   10 Jun 2027 08:29:49.919   10 Jun 2027 08:30:08.044            18.125          7925.437
       231   10 Jun 2027 08:31:31.463   10 Jun 2027 08:31:37.853             6.390          2218.313
       232   10 Jun 2027 08:32:23.446   10 Jun 2027 08:32:28.917             5.471          1415.063
       233   10 Jun 2027 10:03:58.013   10 Jun 2027 10:04:06.620             8.607          4009.344
       234   10 Jun 2027 10:06:01.280   10 Jun 2027 10:06:01.280             0.000             0.000
       235   10 Jun 2027 10:06:56.891   10 Jun 2027 10:07:07.251            10.360          4733.188
       236   10 Jun 2027 10:09:51.702   10 Jun 2027 10:09:59.850             8.148          3588.687
       237   10 Jun 2027 10:10:20.067   10 Jun 2027 10:10:28.767             8.700           631.781
       238   10 Jun 2027 10:11:29.072   10 Jun 2027 10:11:37.785             8.713          1566.625
       239   10 Jun 2027 10:11:44.211   10 Jun 2027 10:11:45.209             0.998            79.687
       240   10 Jun 2027 11:40:56.426   10 Jun 2027 11:41:10.652            14.226          5540.812
       241   10 Jun 2027 11:41:42.885   10 Jun 2027 11:41:49.917             7.032           405.125
       242   10 Jun 2027 11:42:55.222   10 Jun 2027 11:43:01.118             5.896          2033.281
       243   10 Jun 2027 11:43:09.583   10 Jun 2027 11:43:12.719             3.136           258.750
       244   10 Jun 2027 11:43:23.496   10 Jun 2027 11:43:25.305             1.809           255.906
       245   10 Jun 2027 11:44:05.253   10 Jun 2027 11:44:19.349            14.096          1074.406
       246   10 Jun 2027 11:45:37.207   10 Jun 2027 11:45:41.890             4.683          1884.375
       247   10 Jun 2027 11:45:52.798   10 Jun 2027 11:45:54.159             1.361           340.875
       248   10 Jun 2027 11:46:46.322   10 Jun 2027 11:46:49.428             3.106          1518.219
       249   11 Jun 2027 04:03:48.250   11 Jun 2027 04:04:47.991            59.741         29870.500
       250   11 Jun 2027 04:04:57.460   11 Jun 2027 04:05:43.377            45.917         22958.500
       251   11 Jun 2027 04:06:03.292   11 Jun 2027 04:06:15.973            12.681          6340.500
       252   11 Jun 2027 04:09:22.000   11 Jun 2027 04:09:22.262             0.262           131.000
       253   11 Jun 2027 04:10:04.022   11 Jun 2027 04:10:09.429             5.407          2703.500
       254   11 Jun 2027 05:42:07.464   11 Jun 2027 05:42:35.874            28.410         14205.000
       255   11 Jun 2027 05:42:55.952   11 Jun 2027 05:43:53.943            57.991         28995.500
       256   11 Jun 2027 05:45:04.361   11 Jun 2027 05:45:25.918            21.557         10778.500
       257   11 Jun 2027 07:05:30.114   11 Jun 2027 07:07:14.529           104.415         52207.500
       258   11 Jun 2027 07:08:04.861   11 Jun 2027 07:08:07.532             2.671          1335.500
       259   11 Jun 2027 08:42:00.529   11 Jun 2027 08:42:15.538            15.009          7504.500
       260   11 Jun 2027 08:42:40.634   11 Jun 2027 08:42:44.015             3.381          1639.438
       261   11 Jun 2027 08:43:18.684   11 Jun 2027 08:43:25.564             6.880           419.188
       262   11 Jun 2027 08:44:22.123   11 Jun 2027 08:44:25.452             3.329          1558.125
       263   11 Jun 2027 08:44:59.494   11 Jun 2027 08:45:08.576             9.082          1063.813
       264   11 Jun 2027 10:17:32.562   11 Jun 2027 10:17:48.660            16.098          6590.781
       265   11 Jun 2027 10:18:29.275   11 Jun 2027 10:18:30.467             1.192           157.281
       266   11 Jun 2027 10:20:33.432   11 Jun 2027 10:20:33.432             0.000             0.000
       267   11 Jun 2027 10:22:08.818   11 Jun 2027 10:22:26.376            17.558          5698.656
       268   11 Jun 2027 10:23:15.727   11 Jun 2027 10:23:19.651             3.924          1542.219
       269   11 Jun 2027 10:23:39.193   11 Jun 2027 10:23:43.345             4.152           610.688
       270   11 Jun 2027 11:53:32.853   11 Jun 2027 11:53:52.243            19.390          7333.500
       271   11 Jun 2027 11:54:40.298   11 Jun 2027 11:54:45.501             5.203          1252.875
       272   11 Jun 2027 11:56:04.710   11 Jun 2027 11:56:07.814             3.104          1552.000
       273   11 Jun 2027 11:57:17.811   11 Jun 2027 11:57:24.091             6.280          2778.187
       274   11 Jun 2027 11:57:45.593   11 Jun 2027 11:57:47.915             2.322           657.438
       275   11 Jun 2027 11:58:42.379   11 Jun 2027 11:58:45.034             2.655          1327.500
       276   11 Jun 2027 11:58:54.139   11 Jun 2027 11:58:54.139             0.000             0.000
       277   11 Jun 2027 11:58:59.047   11 Jun 2027 11:59:03.242             4.195           812.406
       278   11 Jun 2027 11:59:39.329   11 Jun 2027 11:59:42.941             3.612          1127.719
       279   12 Jun 2027 04:15:53.212   12 Jun 2027 04:16:05.413            12.201          6100.500
       280   12 Jun 2027 04:16:55.295   12 Jun 2027 04:18:04.295            69.000         34500.000
       281   12 Jun 2027 04:19:18.387   12 Jun 2027 04:19:30.317            11.930          5965.000
       282   12 Jun 2027 04:21:04.407   12 Jun 2027 04:21:10.998             6.591          3295.500
       283   12 Jun 2027 04:24:01.831   12 Jun 2027 04:24:25.698            23.867         11933.500
       284   12 Jun 2027 05:54:03.999   12 Jun 2027 05:54:42.293            38.294         19147.000
       285   12 Jun 2027 05:55:11.027   12 Jun 2027 05:56:42.641            91.614         45807.000
       286   12 Jun 2027 07:18:10.271   12 Jun 2027 07:19:51.618           101.347         50353.032
       287   12 Jun 2027 07:20:13.255   12 Jun 2027 07:20:14.821             1.566           676.156
       288   12 Jun 2027 08:53:55.834   12 Jun 2027 08:54:11.491            15.657          7567.094
       289   12 Jun 2027 08:55:11.082   12 Jun 2027 08:55:16.336             5.254          1579.000
       290   12 Jun 2027 08:55:42.246   12 Jun 2027 08:55:44.714             2.468           559.719
       291   12 Jun 2027 08:55:48.622   12 Jun 2027 08:55:52.210             3.588           104.469
       292   12 Jun 2027 08:56:27.136   12 Jun 2027 08:56:34.317             7.181           926.563
       293   12 Jun 2027 10:28:53.006   12 Jun 2027 10:29:07.105            14.099          6753.563
       294   12 Jun 2027 10:29:17.643   12 Jun 2027 10:29:18.263             0.620           244.406
       295   12 Jun 2027 10:31:18.630   12 Jun 2027 10:31:26.305             7.675          3728.063
       296   12 Jun 2027 10:31:47.819   12 Jun 2027 10:31:49.665             1.846           635.625
       297   12 Jun 2027 10:33:01.173   12 Jun 2027 10:33:07.768             6.595          2234.625
       298   12 Jun 2027 10:33:25.769   12 Jun 2027 10:33:26.810             1.041           486.062
       299   12 Jun 2027 10:33:53.380   12 Jun 2027 10:33:55.240             1.860           672.625
       300   12 Jun 2027 10:35:31.039   12 Jun 2027 10:35:38.187             7.148          2566.156
       301   12 Jun 2027 10:35:48.508   12 Jun 2027 10:35:51.111             2.603           322.531
       302   13 Jun 2027 04:28:58.567   13 Jun 2027 04:30:22.766            84.199         42099.500
       303   13 Jun 2027 04:30:58.310   13 Jun 2027 04:31:05.961             7.651          3825.500
       304   13 Jun 2027 04:31:38.209   13 Jun 2027 04:32:04.192            25.983         12991.500
       305   13 Jun 2027 04:32:29.392   13 Jun 2027 04:32:36.979             7.587          3793.500
       306   13 Jun 2027 04:35:12.398   13 Jun 2027 04:35:20.408             8.010          4005.000
       307   13 Jun 2027 05:54:57.869   13 Jun 2027 05:55:36.439            38.570         19285.000
       308   13 Jun 2027 06:06:00.351   13 Jun 2027 06:06:59.530            59.179         29589.500
       309   13 Jun 2027 07:28:59.506   13 Jun 2027 07:30:45.513           106.007         53003.500
       310   13 Jun 2027 09:04:31.618   13 Jun 2027 09:04:39.646             8.028          4014.000
       311   13 Jun 2027 09:05:41.870   13 Jun 2027 09:05:54.033            12.163          5884.125
       312   13 Jun 2027 09:06:19.713   13 Jun 2027 09:06:22.062             2.349           718.344
       313   13 Jun 2027 09:06:42.277   13 Jun 2027 09:06:43.971             1.694           565.906
       314   13 Jun 2027 09:07:33.620   13 Jun 2027 09:07:41.248             7.628           906.094
       315   13 Jun 2027 10:40:26.747   13 Jun 2027 10:40:39.231            12.484          4790.125
       316   13 Jun 2027 10:41:41.882   13 Jun 2027 10:41:41.882             0.000             0.000
       317   13 Jun 2027 10:43:34.409   13 Jun 2027 10:43:44.327             9.918          4914.594
       318   13 Jun 2027 10:43:58.573   13 Jun 2027 10:44:00.308             1.735           445.187
       319   13 Jun 2027 10:47:19.972   13 Jun 2027 10:47:31.490            11.518          5654.188
       320   13 Jun 2027 10:47:59.642   13 Jun 2027 10:48:00.948             1.306           653.000
