uniorb/output/strategy_1/Camera/Camera_KinoSat_111308.txt

KinoSat_111308
-------------------------
    Access    *     Start Time (UTCG)     *     Stop Time (UTCG)  *   Duration (s) *   Data (Mbytes)
         1   01 Jun 2027 03:00:00.000   01 Jun 2027 03:00:09.650             9.650          4825.000
         2   01 Jun 2027 03:00:12.057   01 Jun 2027 03:00:39.709            27.652         13826.000
         3   01 Jun 2027 03:01:48.740   01 Jun 2027 03:01:51.327             2.587          1293.500
         4   01 Jun 2027 03:02:16.045   01 Jun 2027 03:02:19.613             3.568          1784.000
         5   01 Jun 2027 03:03:02.562   01 Jun 2027 03:03:02.562             0.000             0.000
         6   01 Jun 2027 03:03:09.986   01 Jun 2027 03:03:26.731            16.745          8372.500
         7   01 Jun 2027 03:04:21.230   01 Jun 2027 03:04:28.110             6.880          3440.000
         8   01 Jun 2027 03:05:07.676   01 Jun 2027 03:05:42.929            35.253         17626.500
         9   01 Jun 2027 04:23:34.973   01 Jun 2027 04:24:22.622            47.649         23824.500
        10   01 Jun 2027 04:35:02.807   01 Jun 2027 04:35:53.877            51.070         25535.000
        11   01 Jun 2027 05:57:42.204   01 Jun 2027 05:58:41.194            58.990         29495.000
        12   01 Jun 2027 05:59:17.909   01 Jun 2027 05:59:49.449            31.540         15770.000
        13   01 Jun 2027 06:00:03.018   01 Jun 2027 06:00:16.963            13.945          6972.500
        14   01 Jun 2027 06:01:56.497   01 Jun 2027 06:02:06.920            10.423          5211.500
        15   01 Jun 2027 07:33:03.192   01 Jun 2027 07:34:00.476            57.284         28642.000
        16   01 Jun 2027 07:34:34.246   01 Jun 2027 07:35:52.443            78.197         39098.500
        17   01 Jun 2027 07:38:57.762   01 Jun 2027 07:39:00.466             2.704          1352.000
        18   01 Jun 2027 09:09:31.637   01 Jun 2027 09:11:17.153           105.516         52758.000
        19   01 Jun 2027 09:13:14.268   01 Jun 2027 09:13:35.991            21.723         10861.500
        20   01 Jun 2027 09:14:59.604   01 Jun 2027 09:15:26.781            27.177         13588.500
        21   01 Jun 2027 09:16:57.006   01 Jun 2027 09:16:57.006             0.000             0.000
        22   01 Jun 2027 10:46:37.213   01 Jun 2027 10:48:47.110           129.897         64948.500
        23   01 Jun 2027 10:52:36.253   01 Jun 2027 10:52:50.249            13.996          6998.000
        24   02 Jun 2027 03:10:32.566   02 Jun 2027 03:11:50.156            77.590         38795.000
        25   02 Jun 2027 03:12:15.888   02 Jun 2027 03:12:31.938            16.050          8025.000
        26   02 Jun 2027 03:15:41.506   02 Jun 2027 03:15:53.446            11.940          5970.000
        27   02 Jun 2027 03:17:22.856   02 Jun 2027 03:17:39.191            16.335          8167.500
        28   02 Jun 2027 04:34:49.928   02 Jun 2027 04:35:15.359            25.431         12715.500
        29   02 Jun 2027 04:35:33.821   02 Jun 2027 04:35:44.972            11.151          5575.500
        30   02 Jun 2027 04:47:02.098   02 Jun 2027 04:48:02.006            59.908         29954.000
        31   02 Jun 2027 06:09:18.301   02 Jun 2027 06:10:11.134            52.833         26416.500
        32   02 Jun 2027 06:11:16.108   02 Jun 2027 06:11:19.772             3.664          1832.000
        33   02 Jun 2027 06:13:36.972   02 Jun 2027 06:13:37.271             0.299           149.500
        34   02 Jun 2027 06:13:37.869   02 Jun 2027 06:13:48.775            10.906          5453.000
        35   02 Jun 2027 06:14:11.905   02 Jun 2027 06:14:14.377             2.472          1236.000
        36   02 Jun 2027 07:44:12.225   02 Jun 2027 07:45:58.040           105.815         52907.500
        37   02 Jun 2027 07:46:21.127   02 Jun 2027 07:46:36.319            15.192          7596.000
        38   02 Jun 2027 07:51:12.843   02 Jun 2027 07:51:20.666             7.823          3911.500
        39   02 Jun 2027 09:21:45.714   02 Jun 2027 09:23:47.296           121.582         60791.000
        40   02 Jun 2027 09:27:25.162   02 Jun 2027 09:27:49.984            24.822         12411.000
        41   02 Jun 2027 09:27:55.173   02 Jun 2027 09:28:05.747            10.574          5287.000
        42   02 Jun 2027 10:58:28.191   02 Jun 2027 11:00:07.798            99.607         49803.500
        43   02 Jun 2027 11:03:24.537   02 Jun 2027 11:03:42.503            17.966          8983.000
        44   02 Jun 2027 11:03:45.099   02 Jun 2027 11:03:54.659             9.560          4780.000
        45   02 Jun 2027 11:04:46.741   02 Jun 2027 11:05:05.629            18.888          9444.000
        46   03 Jun 2027 03:22:36.444   03 Jun 2027 03:23:59.461            83.017         41508.500
        47   03 Jun 2027 03:24:42.547   03 Jun 2027 03:24:43.264             0.717           358.500
        48   03 Jun 2027 03:24:49.517   03 Jun 2027 03:24:58.609             9.092          4546.000
        49   03 Jun 2027 03:25:17.343   03 Jun 2027 03:25:17.919             0.576           288.000
        50   03 Jun 2027 03:25:29.691   03 Jun 2027 03:25:41.814            12.123          6061.500
        51   03 Jun 2027 03:26:27.359   03 Jun 2027 03:26:36.681             9.322          4661.000
        52   03 Jun 2027 03:27:14.368   03 Jun 2027 03:27:14.844             0.476           238.000
        53   03 Jun 2027 03:28:37.901   03 Jun 2027 03:28:42.882             4.981          2490.500
        54   03 Jun 2027 04:46:55.822   03 Jun 2027 04:47:36.694            40.872         20436.000
        55   03 Jun 2027 04:47:46.340   03 Jun 2027 04:48:01.453            15.113          7556.500
        56   03 Jun 2027 04:59:16.093   03 Jun 2027 04:59:36.290            20.197         10098.500
        57   03 Jun 2027 06:20:47.822   03 Jun 2027 06:21:42.302            54.480         27240.000
        58   03 Jun 2027 06:23:31.448   03 Jun 2027 06:23:33.091             1.643           821.500
        59   03 Jun 2027 06:25:04.644   03 Jun 2027 06:25:04.644             0.000             0.000
        60   03 Jun 2027 06:25:32.610   03 Jun 2027 06:25:34.368             1.758           879.000
        61   03 Jun 2027 06:26:09.197   03 Jun 2027 06:26:16.075             6.878          3439.000
        62   03 Jun 2027 07:55:42.899   03 Jun 2027 07:57:49.763           126.864         63432.000
        63   03 Jun 2027 07:58:35.735   03 Jun 2027 07:58:35.735             0.000             0.000
        64   03 Jun 2027 07:59:57.409   03 Jun 2027 08:00:12.564            15.155          7577.500
        65   03 Jun 2027 08:04:36.928   03 Jun 2027 08:04:59.791            22.863         11431.500
        66   03 Jun 2027 09:33:39.765   03 Jun 2027 09:35:36.677           116.912         58456.000
        67   03 Jun 2027 09:35:44.189   03 Jun 2027 09:35:46.169             1.980           990.000
        68   03 Jun 2027 09:39:27.689   03 Jun 2027 09:39:44.679            16.990          8495.000
        69   03 Jun 2027 11:10:32.031   03 Jun 2027 11:11:28.891            56.860         28356.124
        70   03 Jun 2027 11:12:08.157   03 Jun 2027 11:12:17.060             8.903           924.031
        71   03 Jun 2027 11:13:11.960   03 Jun 2027 11:13:18.030             6.070          1430.375
        72   03 Jun 2027 11:14:59.289   03 Jun 2027 11:15:07.101             7.812          3080.094
        73   03 Jun 2027 11:15:26.045   03 Jun 2027 11:15:26.413             0.368           184.000
        74   03 Jun 2027 11:15:38.741   03 Jun 2027 11:15:39.769             1.028           436.281
        75   03 Jun 2027 11:16:42.964   03 Jun 2027 11:16:48.455             5.491          1974.844
        76   04 Jun 2027 03:35:02.621   04 Jun 2027 03:36:18.626            76.005         38002.500
        77   04 Jun 2027 03:36:45.918   04 Jun 2027 03:36:59.801            13.883          6941.500
        78   04 Jun 2027 03:37:35.306   04 Jun 2027 03:37:48.257            12.951          6475.500
        79   04 Jun 2027 03:38:16.804   04 Jun 2027 03:38:29.827            13.023          6511.500
        80   04 Jun 2027 04:58:51.993   04 Jun 2027 04:59:48.293            56.300         28150.000
        81   04 Jun 2027 06:34:51.149   04 Jun 2027 06:36:59.857           128.708         64354.000
        82   04 Jun 2027 08:08:36.816   04 Jun 2027 08:09:39.799            62.983         29361.344
        83   04 Jun 2027 08:10:57.249   04 Jun 2027 08:11:00.797             3.548          1774.000
        84   04 Jun 2027 08:11:41.169   04 Jun 2027 08:11:45.051             3.882          1494.313
        85   04 Jun 2027 08:12:49.981   04 Jun 2027 08:12:56.418             6.437          1648.687
        86   04 Jun 2027 08:13:14.994   04 Jun 2027 08:13:15.546             0.552           276.000
        87   04 Jun 2027 08:15:44.944   04 Jun 2027 08:15:50.495             5.551          2775.500
        88   04 Jun 2027 08:16:17.715   04 Jun 2027 08:16:23.611             5.896          2880.094
        89   04 Jun 2027 09:46:00.341   04 Jun 2027 09:46:13.934            13.593          6283.938
        90   04 Jun 2027 09:47:01.659   04 Jun 2027 09:47:04.470             2.811           837.031
        91   04 Jun 2027 09:47:16.886   04 Jun 2027 09:47:18.596             1.710           383.687
        92   04 Jun 2027 09:47:44.245   04 Jun 2027 09:47:45.945             1.700           801.531
        93   04 Jun 2027 09:48:14.379   04 Jun 2027 09:48:14.767             0.388           104.406
        94   04 Jun 2027 09:48:52.525   04 Jun 2027 09:48:56.313             3.788          1163.750
        95   04 Jun 2027 09:49:01.502   04 Jun 2027 09:49:03.517             2.015           105.969
        96   04 Jun 2027 09:50:30.361   04 Jun 2027 09:50:32.886             2.525          1262.500
        97   04 Jun 2027 09:50:52.696   04 Jun 2027 09:50:57.534             4.838          1672.844
        98   04 Jun 2027 09:51:12.989   04 Jun 2027 09:51:13.939             0.950           475.000
        99   04 Jun 2027 09:52:05.479   04 Jun 2027 09:52:13.996             8.517          1618.594
       100   04 Jun 2027 11:23:04.561   04 Jun 2027 11:23:20.556            15.995          7997.500
       101   04 Jun 2027 11:24:30.472   04 Jun 2027 11:24:35.397             4.925          2352.125
       102   04 Jun 2027 11:24:50.040   04 Jun 2027 11:24:52.299             2.259           408.875
       103   04 Jun 2027 11:24:56.733   04 Jun 2027 11:24:57.618             0.885            76.875
       104   04 Jun 2027 11:26:01.382   04 Jun 2027 11:26:06.536             5.154          1944.344
       105   04 Jun 2027 11:26:17.881   04 Jun 2027 11:26:21.526             3.645           354.531
       106   04 Jun 2027 11:26:32.926   04 Jun 2027 11:26:34.252             1.326           356.250
       107   04 Jun 2027 11:26:48.381   04 Jun 2027 11:26:51.215             2.834           441.531
       108   04 Jun 2027 11:27:01.515   04 Jun 2027 11:27:03.025             1.510           321.875
       109   04 Jun 2027 11:28:02.852   04 Jun 2027 11:28:06.950             4.098          1761.563
       110   04 Jun 2027 11:28:17.337   04 Jun 2027 11:28:17.337             0.000             0.000
       111   04 Jun 2027 11:28:35.603   04 Jun 2027 11:28:39.184             3.581           696.719
       112   05 Jun 2027 03:47:21.527   05 Jun 2027 03:48:51.123            89.596         44798.000
       113   05 Jun 2027 03:49:35.273   05 Jun 2027 03:49:48.287            13.014          6507.000
       114   05 Jun 2027 03:50:10.268   05 Jun 2027 03:50:42.345            32.077         16038.500
       115   05 Jun 2027 05:10:43.521   05 Jun 2027 05:11:42.206            58.685         29342.500
       116   05 Jun 2027 05:12:00.262   05 Jun 2027 05:12:00.262             0.000             0.000
       117   05 Jun 2027 05:12:12.523   05 Jun 2027 05:12:25.369            12.846          6423.000
       118   05 Jun 2027 06:47:05.569   05 Jun 2027 06:48:50.414           104.845         52422.500
       119   05 Jun 2027 06:50:04.020   05 Jun 2027 06:50:10.373             6.353          3176.500
       120   05 Jun 2027 06:50:28.621   05 Jun 2027 06:50:39.243            10.622          5311.000
       121   05 Jun 2027 08:21:09.579   05 Jun 2027 08:21:43.296            33.717         15284.375
       122   05 Jun 2027 08:23:05.164   05 Jun 2027 08:23:10.237             5.073          2250.437
       123   05 Jun 2027 08:23:57.464   05 Jun 2027 08:23:59.119             1.655           827.500
       124   05 Jun 2027 08:24:48.478   05 Jun 2027 08:24:57.175             8.697          2036.281
       125   05 Jun 2027 08:27:38.951   05 Jun 2027 08:27:46.208             7.257          3628.500
       126   05 Jun 2027 08:27:53.252   05 Jun 2027 08:27:55.595             2.343          1171.500
       127   05 Jun 2027 08:28:18.861   05 Jun 2027 08:28:25.326             6.465          1202.687
       128   05 Jun 2027 08:28:30.543   05 Jun 2027 08:28:31.350             0.807           163.031
       129   05 Jun 2027 08:29:05.700   05 Jun 2027 08:29:07.085             1.385           692.500
       130   05 Jun 2027 09:58:14.154   05 Jun 2027 09:58:29.911            15.757          5947.625
       131   05 Jun 2027 09:59:57.574   05 Jun 2027 10:00:00.393             2.819            60.281
       132   05 Jun 2027 10:00:51.986   05 Jun 2027 10:00:56.176             4.190          1093.281
       133   05 Jun 2027 10:01:03.317   05 Jun 2027 10:01:05.088             1.771           110.094
       134   05 Jun 2027 10:01:25.799   05 Jun 2027 10:01:28.720             2.921           532.500
       135   05 Jun 2027 10:02:14.505   05 Jun 2027 10:02:17.757             3.252          1085.562
       136   05 Jun 2027 10:02:40.400   05 Jun 2027 10:02:41.628             1.228           609.406
       137   05 Jun 2027 10:03:03.258   05 Jun 2027 10:03:06.840             3.582           675.937
       138   05 Jun 2027 10:03:23.889   05 Jun 2027 10:03:27.488             3.599           446.250
       139   05 Jun 2027 10:03:57.237   05 Jun 2027 10:04:03.817             6.580           929.656
       140   05 Jun 2027 10:04:54.333   05 Jun 2027 10:04:56.803             2.470          1235.000
       141   05 Jun 2027 11:35:10.159   05 Jun 2027 11:35:24.909            14.750          7375.000
       142   05 Jun 2027 11:37:03.452   05 Jun 2027 11:37:11.260             7.808          3568.938
       143   05 Jun 2027 11:37:28.734   05 Jun 2027 11:37:32.676             3.942           546.062
       144   06 Jun 2027 03:59:50.265   06 Jun 2027 04:01:27.533            97.268         48634.000
       145   06 Jun 2027 04:01:54.578   06 Jun 2027 04:01:59.391             4.813          2406.500
       146   06 Jun 2027 04:02:44.237   06 Jun 2027 04:03:05.500            21.263         10631.500
       147   06 Jun 2027 05:22:47.120   06 Jun 2027 05:24:04.608            77.488         38744.000
       148   06 Jun 2027 05:24:29.150   06 Jun 2027 05:24:47.660            18.510          9255.000
       149   06 Jun 2027 06:59:16.249   06 Jun 2027 07:00:56.596           100.347         49514.562
       150   06 Jun 2027 07:01:46.203   06 Jun 2027 07:01:49.582             3.379          1550.219
       151   06 Jun 2027 08:34:21.216   06 Jun 2027 08:34:43.269            22.053          8311.312
       152   06 Jun 2027 08:36:02.899   06 Jun 2027 08:36:09.104             6.205          2279.313
       153   06 Jun 2027 08:37:51.180   06 Jun 2027 08:37:56.027             4.847          2136.062
       154   06 Jun 2027 08:38:31.002   06 Jun 2027 08:38:31.002             0.000             0.000
       155   06 Jun 2027 08:39:46.658   06 Jun 2027 08:39:56.419             9.761          3401.625
       156   06 Jun 2027 08:40:44.228   06 Jun 2027 08:40:46.249             2.021          1010.500
       157   06 Jun 2027 08:40:58.805   06 Jun 2027 08:41:01.806             3.001           875.906
       158   06 Jun 2027 10:10:43.204   06 Jun 2027 10:10:57.876            14.672          6051.219
       159   06 Jun 2027 10:12:06.092   06 Jun 2027 10:12:13.394             7.302          1833.344
       160   06 Jun 2027 10:13:28.429   06 Jun 2027 10:13:32.971             4.542          2043.500
       161   06 Jun 2027 10:13:49.390   06 Jun 2027 10:13:50.570             1.180           382.094
       162   06 Jun 2027 10:14:40.166   06 Jun 2027 10:14:47.222             7.056          1289.625
       163   06 Jun 2027 10:14:50.863   06 Jun 2027 10:14:52.988             2.125            92.781
       164   06 Jun 2027 10:15:26.373   06 Jun 2027 10:15:30.275             3.902           826.219
       165   06 Jun 2027 10:16:35.842   06 Jun 2027 10:16:39.522             3.680          1389.406
       166   06 Jun 2027 10:16:43.870   06 Jun 2027 10:16:44.188             0.318            31.031
       167   06 Jun 2027 10:16:55.561   06 Jun 2027 10:16:56.336             0.775           213.906
       168   06 Jun 2027 11:48:13.451   06 Jun 2027 11:48:30.168            16.717          8104.750
       169   06 Jun 2027 11:48:34.841   06 Jun 2027 11:48:38.831             3.990           146.031
       170   06 Jun 2027 11:49:43.923   06 Jun 2027 11:49:46.088             2.165          1082.500
       171   06 Jun 2027 11:50:09.916   06 Jun 2027 11:50:15.909             5.993          1447.313
       172   06 Jun 2027 11:51:26.496   06 Jun 2027 11:51:31.214             4.718          2205.844
       173   06 Jun 2027 11:52:38.651   06 Jun 2027 11:52:38.861             0.210           105.000
       174   07 Jun 2027 04:11:23.803   07 Jun 2027 04:12:00.710            36.907         18453.500
       175   07 Jun 2027 04:12:13.352   07 Jun 2027 04:13:04.770            51.418         25709.000
       176   07 Jun 2027 04:14:38.669   07 Jun 2027 04:14:38.669             0.000             0.000
       177   07 Jun 2027 04:15:02.074   07 Jun 2027 04:15:03.206             1.132           566.000
       178   07 Jun 2027 05:34:43.268   07 Jun 2027 05:36:18.966            95.698         47849.000
       179   07 Jun 2027 05:37:53.873   07 Jun 2027 05:37:54.976             1.103           551.500
       180   07 Jun 2027 07:11:21.046   07 Jun 2027 07:13:34.777           133.731         66865.500
       181   07 Jun 2027 08:46:31.458   07 Jun 2027 08:46:50.538            19.080          9162.062
       182   07 Jun 2027 08:47:25.638   07 Jun 2027 08:47:27.687             2.049           814.125
       183   07 Jun 2027 08:48:02.824   07 Jun 2027 08:48:04.020             1.196           598.000
       184   07 Jun 2027 08:48:57.022   07 Jun 2027 08:49:05.108             8.086          2134.625
       185   07 Jun 2027 08:49:35.100   07 Jun 2027 08:49:37.487             2.387           785.906
       186   07 Jun 2027 08:50:28.235   07 Jun 2027 08:50:32.773             4.538          1060.344
       187   07 Jun 2027 08:51:46.557   07 Jun 2027 08:51:53.944             7.387          2305.750
       188   07 Jun 2027 08:52:01.330   07 Jun 2027 08:52:01.744             0.414           201.000
       189   07 Jun 2027 08:52:42.736   07 Jun 2027 08:52:46.187             3.451          1241.094
       190   07 Jun 2027 10:22:45.733   07 Jun 2027 10:22:58.702            12.969          6484.500
       191   07 Jun 2027 10:23:07.878   07 Jun 2027 10:23:09.733             1.855           797.156
       192   07 Jun 2027 10:23:36.311   07 Jun 2027 10:23:38.690             2.379           539.594
       193   07 Jun 2027 10:24:36.853   07 Jun 2027 10:24:39.923             3.070          1287.844
       194   07 Jun 2027 10:24:58.461   07 Jun 2027 10:25:01.156             2.695           579.312
       195   07 Jun 2027 10:25:14.395   07 Jun 2027 10:25:15.647             1.252           356.656
       196   07 Jun 2027 10:25:30.249   07 Jun 2027 10:25:31.379             1.130           456.313
       197   07 Jun 2027 10:26:52.278   07 Jun 2027 10:26:59.608             7.330          2528.094
       198   07 Jun 2027 10:27:52.638   07 Jun 2027 10:28:02.129             9.491          1626.562
       199   08 Jun 2027 04:12:32.087   08 Jun 2027 04:12:47.747            15.660          7830.000
       200   08 Jun 2027 04:23:20.734   08 Jun 2027 04:24:49.473            88.739         44369.500
       201   08 Jun 2027 05:47:19.205   08 Jun 2027 05:48:57.881            98.676         49338.000
       202   08 Jun 2027 05:49:44.152   08 Jun 2027 05:49:44.152             0.000             0.000
       203   08 Jun 2027 07:23:04.851   08 Jun 2027 07:25:11.828           126.977         61238.407
       204   08 Jun 2027 07:26:27.616   08 Jun 2027 07:26:31.709             4.093          2046.500
       205   08 Jun 2027 08:57:55.725   08 Jun 2027 08:58:10.687            14.962          7260.938
       206   08 Jun 2027 09:00:30.968   08 Jun 2027 09:00:37.307             6.339          3169.500
       207   08 Jun 2027 09:01:20.736   08 Jun 2027 09:01:27.487             6.751          2039.344
       208   08 Jun 2027 09:02:38.713   08 Jun 2027 09:02:43.919             5.206          1558.438
       209   08 Jun 2027 09:03:50.395   08 Jun 2027 09:03:53.037             2.642          1321.000
       210   08 Jun 2027 09:04:29.491   08 Jun 2027 09:04:31.224             1.733           866.500
       211   08 Jun 2027 09:04:56.008   08 Jun 2027 09:05:00.557             4.549          1507.375
       212   08 Jun 2027 10:34:31.619   08 Jun 2027 10:34:50.197            18.578          8726.875
       213   08 Jun 2027 10:35:04.545   08 Jun 2027 10:35:07.094             2.549           230.781
       214   08 Jun 2027 10:36:26.567   08 Jun 2027 10:36:32.943             6.376          2467.906
       215   08 Jun 2027 10:36:45.823   08 Jun 2027 10:36:49.043             3.220           402.500
       216   08 Jun 2027 10:36:50.212   08 Jun 2027 10:36:51.221             1.009            36.531
       217   08 Jun 2027 10:37:34.272   08 Jun 2027 10:37:40.760             6.488          1041.719
       218   08 Jun 2027 10:38:26.452   08 Jun 2027 10:38:31.291             4.839          1355.250
       219   08 Jun 2027 10:38:44.548   08 Jun 2027 10:38:45.636             1.088           196.531
       220   08 Jun 2027 10:39:34.296   08 Jun 2027 10:39:39.166             4.870          1520.625
       221   08 Jun 2027 10:40:31.582   08 Jun 2027 10:40:39.615             8.033          1509.719
       222   08 Jun 2027 10:40:53.220   08 Jun 2027 10:40:55.395             2.175           362.250
       223   09 Jun 2027 03:00:00.000   09 Jun 2027 03:00:27.845            27.845         13922.500
       224   09 Jun 2027 03:01:55.048   09 Jun 2027 03:02:03.535             8.487          4243.500
       225   09 Jun 2027 03:02:48.837   09 Jun 2027 03:03:12.720            23.883         11941.500
       226   09 Jun 2027 03:04:15.143   09 Jun 2027 03:04:42.643            27.500         13750.000
       227   09 Jun 2027 03:05:24.338   09 Jun 2027 03:05:59.637            35.299         17649.500
       228   09 Jun 2027 04:23:48.617   09 Jun 2027 04:24:14.363            25.746         12873.000
       229   09 Jun 2027 04:35:18.879   09 Jun 2027 04:36:11.146            52.267         26133.500
       230   09 Jun 2027 05:57:58.098   09 Jun 2027 05:58:29.145            31.047         15523.500
       231   09 Jun 2027 05:58:36.595   09 Jun 2027 05:58:56.925            20.330         10165.000
       232   09 Jun 2027 05:59:33.599   09 Jun 2027 05:59:55.790            22.191         11095.500
       233   09 Jun 2027 06:00:02.520   09 Jun 2027 06:00:05.109             2.589          1294.500
       234   09 Jun 2027 07:33:15.663   09 Jun 2027 07:34:17.362            61.699         30849.500
       235   09 Jun 2027 07:34:49.603   09 Jun 2027 07:35:35.934            46.331         23165.500
       236   09 Jun 2027 07:37:12.877   09 Jun 2027 07:37:20.810             7.933          3820.469
       237   09 Jun 2027 07:37:43.418   09 Jun 2027 07:37:43.822             0.404           189.250
       238   09 Jun 2027 09:09:49.087   09 Jun 2027 09:10:03.749            14.662          5624.531
       239   09 Jun 2027 09:10:08.056   09 Jun 2027 09:10:09.069             1.013           134.594
       240   09 Jun 2027 09:10:15.234   09 Jun 2027 09:10:17.891             2.657           165.687
       241   09 Jun 2027 09:12:04.855   09 Jun 2027 09:12:12.119             7.264          2506.375
       242   09 Jun 2027 09:13:14.106   09 Jun 2027 09:13:16.701             2.595           286.812
       243   09 Jun 2027 09:13:29.167   09 Jun 2027 09:13:30.940             1.773           157.750
       244   09 Jun 2027 09:14:04.525   09 Jun 2027 09:14:14.951            10.426          1049.531
       245   09 Jun 2027 09:14:56.190   09 Jun 2027 09:14:59.942             3.752           988.344
       246   09 Jun 2027 09:15:24.387   09 Jun 2027 09:15:27.183             2.796           603.094
       247   09 Jun 2027 09:15:43.564   09 Jun 2027 09:15:44.279             0.715           357.500
       248   09 Jun 2027 09:16:28.567   09 Jun 2027 09:16:31.816             3.249          1461.594
       249   09 Jun 2027 09:17:00.174   09 Jun 2027 09:17:02.920             2.746           886.187
       250   09 Jun 2027 09:17:17.958   09 Jun 2027 09:17:18.274             0.316           158.000
       251   09 Jun 2027 10:46:52.884   09 Jun 2027 10:47:23.445            30.561          9662.125
       252   09 Jun 2027 10:47:52.350   09 Jun 2027 10:47:55.378             3.028           824.750
       253   09 Jun 2027 10:48:31.990   09 Jun 2027 10:48:36.024             4.034           546.687
       254   09 Jun 2027 10:49:09.031   09 Jun 2027 10:49:13.494             4.463           893.687
       255   09 Jun 2027 10:49:54.642   09 Jun 2027 10:49:58.542             3.900          1036.969
       256   09 Jun 2027 10:50:16.711   09 Jun 2027 10:50:18.403             1.692           567.781
       257   09 Jun 2027 10:50:41.279   09 Jun 2027 10:50:43.379             2.100           713.500
       258   09 Jun 2027 10:51:08.783   09 Jun 2027 10:51:10.482             1.699           716.031
       259   09 Jun 2027 10:51:52.172   09 Jun 2027 10:51:59.208             7.036          1302.812
       260   10 Jun 2027 03:10:48.879   10 Jun 2027 03:12:05.413            76.534         38267.000
       261   10 Jun 2027 03:12:26.376   10 Jun 2027 03:12:32.812             6.436          3218.000
       262   10 Jun 2027 03:13:04.363   10 Jun 2027 03:13:08.415             4.052          2026.000
       263   10 Jun 2027 03:14:05.013   10 Jun 2027 03:14:08.644             3.631          1815.500
       264   10 Jun 2027 03:14:34.289   10 Jun 2027 03:14:42.158             7.869          3934.500
       265   10 Jun 2027 03:14:51.970   10 Jun 2027 03:14:52.737             0.767           383.500
       266   10 Jun 2027 03:16:58.089   10 Jun 2027 03:17:42.068            43.979         21989.500
       267   10 Jun 2027 04:35:05.576   10 Jun 2027 04:35:29.911            24.335         12167.500
       268   10 Jun 2027 04:35:49.652   10 Jun 2027 04:35:49.652             0.000             0.000
       269   10 Jun 2027 04:47:18.114   10 Jun 2027 04:48:05.760            47.646         23823.000
       270   10 Jun 2027 06:09:33.947   10 Jun 2027 06:10:27.756            53.809         26904.500
       271   10 Jun 2027 07:44:27.038   10 Jun 2027 07:46:04.147            97.109         48554.500
       272   10 Jun 2027 07:46:08.001   10 Jun 2027 07:46:14.456             6.455          2938.844
       273   10 Jun 2027 07:49:46.404   10 Jun 2027 07:50:03.025            16.621          6623.375
       274   10 Jun 2027 07:50:39.682   10 Jun 2027 07:50:39.682             0.000             0.000
       275   10 Jun 2027 07:51:01.888   10 Jun 2027 07:51:04.592             2.704          1352.000
       276   10 Jun 2027 09:22:01.300   10 Jun 2027 09:22:10.495             9.195          4597.500
       277   10 Jun 2027 09:22:47.801   10 Jun 2027 09:22:55.438             7.637          2532.812
       278   10 Jun 2027 09:23:06.759   10 Jun 2027 09:23:08.266             1.507           251.438
       279   10 Jun 2027 09:23:45.834   10 Jun 2027 09:23:48.117             2.283           778.250
       280   10 Jun 2027 09:24:26.337   10 Jun 2027 09:24:34.110             7.773           887.906
       281   10 Jun 2027 09:24:54.544   10 Jun 2027 09:24:57.397             2.853           324.438
       282   10 Jun 2027 09:25:44.454   10 Jun 2027 09:25:44.454             0.000             0.000
       283   10 Jun 2027 09:25:52.971   10 Jun 2027 09:26:00.812             7.841          1492.969
       284   10 Jun 2027 09:26:53.717   10 Jun 2027 09:26:57.967             4.250          1486.125
       285   10 Jun 2027 09:27:11.672   10 Jun 2027 09:27:15.092             3.420           394.531
       286   10 Jun 2027 09:27:24.765   10 Jun 2027 09:27:26.897             2.132           302.281
       287   10 Jun 2027 09:27:47.539   10 Jun 2027 09:27:47.539             0.000             0.000
       288   10 Jun 2027 09:28:09.923   10 Jun 2027 09:28:18.167             8.244          1162.437
       289   10 Jun 2027 09:28:30.868   10 Jun 2027 09:28:30.963             0.095            47.500
       290   10 Jun 2027 09:28:58.012   10 Jun 2027 09:29:01.136             3.124          1114.844
       291   10 Jun 2027 10:58:44.095   10 Jun 2027 10:58:58.997            14.902          6466.562
       292   10 Jun 2027 10:59:52.274   10 Jun 2027 10:59:56.705             4.431          1533.000
       293   10 Jun 2027 11:00:24.597   10 Jun 2027 11:00:26.355             1.758           867.219
       294   10 Jun 2027 11:00:43.035   10 Jun 2027 11:00:45.528             2.493           302.063
       295   10 Jun 2027 11:01:09.164   10 Jun 2027 11:01:11.152             1.988           738.625
       296   10 Jun 2027 11:02:52.577   10 Jun 2027 11:02:57.637             5.060          2530.000
       297   10 Jun 2027 11:03:40.423   10 Jun 2027 11:03:43.399             2.976          1379.844
       298   10 Jun 2027 11:04:55.260   10 Jun 2027 11:04:57.597             2.337          1168.500
       299   11 Jun 2027 03:22:53.442   11 Jun 2027 03:24:19.523            86.081         43040.500
       300   11 Jun 2027 03:25:34.149   11 Jun 2027 03:25:45.296            11.147          5573.500
       301   11 Jun 2027 03:25:59.922   11 Jun 2027 03:26:10.851            10.929          5464.500
       302   11 Jun 2027 03:27:28.975   11 Jun 2027 03:27:38.439             9.464          4732.000
       303   11 Jun 2027 04:47:11.243   11 Jun 2027 04:47:52.519            41.276         20638.000
       304   11 Jun 2027 04:59:33.260   11 Jun 2027 04:59:51.368            18.108          9054.000
       305   11 Jun 2027 06:21:02.742   11 Jun 2027 06:22:25.985            83.243         41621.500
       306   11 Jun 2027 06:24:35.643   11 Jun 2027 06:25:00.220            24.577         12288.500
       307   11 Jun 2027 06:25:03.403   11 Jun 2027 06:25:04.338             0.935           467.500
       308   11 Jun 2027 07:55:57.464   11 Jun 2027 07:57:11.196            73.732         35101.937
       309   11 Jun 2027 07:58:01.341   11 Jun 2027 07:58:03.549             2.208           500.562
       310   11 Jun 2027 07:58:08.595   11 Jun 2027 07:58:09.033             0.438            18.344
       311   11 Jun 2027 07:59:32.273   11 Jun 2027 07:59:38.191             5.918          2601.250
       312   11 Jun 2027 08:02:07.150   11 Jun 2027 08:02:16.806             9.656          4637.844
       313   11 Jun 2027 08:03:46.393   11 Jun 2027 08:03:53.957             7.564          2376.031
       314   11 Jun 2027 08:04:47.685   11 Jun 2027 08:04:47.685             0.000             0.000
       315   11 Jun 2027 09:33:55.467   11 Jun 2027 09:34:11.313            15.846          7052.500
       316   11 Jun 2027 09:36:03.200   11 Jun 2027 09:36:13.810            10.610          3496.469
       317   11 Jun 2027 09:37:13.495   11 Jun 2027 09:37:16.728             3.233           804.000
       318   11 Jun 2027 09:37:36.397   11 Jun 2027 09:37:38.928             2.531           525.969
       319   11 Jun 2027 09:38:45.280   11 Jun 2027 09:38:50.208             4.928          1313.781
       320   11 Jun 2027 09:39:29.964   11 Jun 2027 09:39:33.514             3.550           981.250
       321   11 Jun 2027 09:39:41.969   11 Jun 2027 09:39:43.209             1.240           117.031
       322   11 Jun 2027 09:39:51.826   11 Jun 2027 09:39:54.857             3.031           243.469
       323   11 Jun 2027 09:40:26.776   11 Jun 2027 09:40:28.594             1.818           828.469
       324   11 Jun 2027 09:40:34.057   11 Jun 2027 09:40:34.669             0.612            99.062
       325   11 Jun 2027 09:40:47.868   11 Jun 2027 09:40:51.581             3.713           186.531
       326   11 Jun 2027 09:41:00.809   11 Jun 2027 09:41:01.650             0.841           144.000
       327   11 Jun 2027 11:10:50.528   11 Jun 2027 11:11:12.087            21.559          9095.313
       328   11 Jun 2027 11:12:25.175   11 Jun 2027 11:12:31.997             6.822           911.312
       329   11 Jun 2027 11:12:49.871   11 Jun 2027 11:12:51.356             1.485           169.719
       330   11 Jun 2027 11:13:09.443   11 Jun 2027 11:13:10.676             1.233           533.594
       331   11 Jun 2027 11:13:41.136   11 Jun 2027 11:13:44.874             3.738           896.281
       332   11 Jun 2027 11:13:59.430   11 Jun 2027 11:14:00.090             0.660           330.000
       333   11 Jun 2027 11:14:49.734   11 Jun 2027 11:14:52.183             2.449          1224.500
       334   11 Jun 2027 11:15:13.601   11 Jun 2027 11:15:15.834             2.233          1112.563
       335   11 Jun 2027 11:15:43.385   11 Jun 2027 11:15:45.288             1.903           840.938
       336   11 Jun 2027 11:16:49.988   11 Jun 2027 11:16:55.231             5.243          1871.281
       337   11 Jun 2027 11:17:14.247   11 Jun 2027 11:17:17.071             2.824           594.250
       338   12 Jun 2027 03:35:19.018   12 Jun 2027 03:37:16.791           117.773         58886.500
       339   12 Jun 2027 03:38:29.494   12 Jun 2027 03:38:29.494             0.000             0.000
       340   12 Jun 2027 03:38:56.513   12 Jun 2027 03:39:20.837            24.324         12162.000
       341   12 Jun 2027 04:59:07.057   12 Jun 2027 05:00:05.676            58.619         29309.500
       342   12 Jun 2027 06:35:07.271   12 Jun 2027 06:36:34.044            86.773         43386.500
       343   12 Jun 2027 06:37:17.346   12 Jun 2027 06:37:34.212            16.866          8433.000
       344   12 Jun 2027 06:37:53.493   12 Jun 2027 06:37:58.580             5.087          2543.500
       345   12 Jun 2027 08:08:51.337   12 Jun 2027 08:09:17.837            26.500         12339.656
       346   12 Jun 2027 08:10:37.715   12 Jun 2027 08:10:43.684             5.969           877.812
       347   12 Jun 2027 08:11:27.270   12 Jun 2027 08:11:27.270             0.000             0.000
       348   12 Jun 2027 08:11:51.176   12 Jun 2027 08:11:54.465             3.289          1149.281
       349   12 Jun 2027 08:12:26.949   12 Jun 2027 08:12:29.328             2.379          1015.125
       350   12 Jun 2027 08:13:31.222   12 Jun 2027 08:13:40.870             9.648          1934.188
       351   12 Jun 2027 08:14:51.873   12 Jun 2027 08:14:57.195             5.322          1955.687
       352   12 Jun 2027 08:15:28.212   12 Jun 2027 08:15:29.526             1.314            38.187
       353   12 Jun 2027 08:15:50.292   12 Jun 2027 08:15:51.490             1.198           569.469
       354   12 Jun 2027 08:16:35.302   12 Jun 2027 08:16:38.246             2.944          1251.625
       355   12 Jun 2027 09:46:16.866   12 Jun 2027 09:46:29.007            12.141          5902.500
       356   12 Jun 2027 09:47:16.635   12 Jun 2027 09:47:18.495             1.860           821.031
       357   12 Jun 2027 09:47:31.173   12 Jun 2027 09:47:31.525             0.352           176.000
       358   12 Jun 2027 09:47:33.993   12 Jun 2027 09:47:35.658             1.665           254.563
       359   12 Jun 2027 09:50:08.218   12 Jun 2027 09:50:17.590             9.372          4567.594
       360   12 Jun 2027 09:50:52.088   12 Jun 2027 09:50:54.450             2.362           537.062
       361   12 Jun 2027 09:51:09.334   12 Jun 2027 09:51:10.737             1.403           465.125
       362   12 Jun 2027 09:51:29.053   12 Jun 2027 09:51:30.547             1.494           535.437
       363   12 Jun 2027 09:52:19.831   12 Jun 2027 09:52:29.443             9.612          1516.156
       364   12 Jun 2027 11:23:20.406   12 Jun 2027 11:23:35.038            14.632          7199.438
       365   12 Jun 2027 11:24:46.539   12 Jun 2027 11:24:50.211             3.672           605.500
       366   12 Jun 2027 11:25:04.486   12 Jun 2027 11:25:07.300             2.814           421.531
       367   12 Jun 2027 11:25:46.771   12 Jun 2027 11:25:49.460             2.689          1182.594
       368   12 Jun 2027 11:26:50.575   12 Jun 2027 11:26:53.204             2.629          1314.500
       369   12 Jun 2027 11:27:25.257   12 Jun 2027 11:27:32.704             7.447          1519.750
       370   12 Jun 2027 11:28:47.717   12 Jun 2027 11:28:56.452             8.735          2177.344
       371   13 Jun 2027 03:47:37.445   13 Jun 2027 03:49:34.977           117.532         58766.000
       372   13 Jun 2027 03:50:07.790   13 Jun 2027 03:50:22.113            14.323          7161.500
       373   13 Jun 2027 03:51:56.079   13 Jun 2027 03:51:59.747             3.668          1834.000
       374   13 Jun 2027 05:10:58.646   13 Jun 2027 05:11:58.017            59.371         29685.500
       375   13 Jun 2027 05:12:40.045   13 Jun 2027 05:12:40.045             0.000             0.000
       376   13 Jun 2027 06:47:21.951   13 Jun 2027 06:49:22.597           120.646         60323.000
       377   13 Jun 2027 06:49:35.512   13 Jun 2027 06:49:37.388             1.876           938.000
       378   13 Jun 2027 06:49:45.182   13 Jun 2027 06:49:47.332             2.150          1075.000
       379   13 Jun 2027 08:21:26.485   13 Jun 2027 08:21:50.729            24.244         12018.125
       380   13 Jun 2027 08:23:11.533   13 Jun 2027 08:23:20.532             8.999          1932.187
       381   13 Jun 2027 08:24:18.676   13 Jun 2027 08:24:18.676             0.000             0.000
       382   13 Jun 2027 08:24:52.669   13 Jun 2027 08:24:58.988             6.319          2879.281
       383   13 Jun 2027 08:25:18.710   13 Jun 2027 08:25:18.710             0.000             0.000
       384   13 Jun 2027 08:27:52.061   13 Jun 2027 08:28:03.121            11.060          5158.094
       385   13 Jun 2027 08:28:10.549   13 Jun 2027 08:28:11.226             0.677           232.125
       386   13 Jun 2027 08:29:22.519   13 Jun 2027 08:29:24.118             1.599           799.500
       387   13 Jun 2027 09:58:29.862   13 Jun 2027 09:58:45.022            15.160          6042.875
       388   13 Jun 2027 09:59:39.019   13 Jun 2027 09:59:40.098             1.079            32.375
       389   13 Jun 2027 09:59:52.266   13 Jun 2027 09:59:53.415             1.149           316.312
       390   13 Jun 2027 10:00:12.702   13 Jun 2027 10:00:15.442             2.740            58.312
       391   13 Jun 2027 10:01:07.835   13 Jun 2027 10:01:11.999             4.164          1018.375
       392   13 Jun 2027 10:01:31.127   13 Jun 2027 10:01:33.955             2.828           404.844
       393   13 Jun 2027 10:01:36.002   13 Jun 2027 10:01:38.759             2.757            63.969
       394   13 Jun 2027 10:02:10.630   13 Jun 2027 10:02:13.344             2.714           887.281
       395   13 Jun 2027 10:02:47.549   13 Jun 2027 10:02:48.860             1.311           611.562
       396   13 Jun 2027 10:03:06.411   13 Jun 2027 10:03:07.094             0.683           276.656
       397   13 Jun 2027 10:04:32.916   13 Jun 2027 10:04:38.759             5.843          2333.719
       398   13 Jun 2027 10:04:50.101   13 Jun 2027 10:04:53.927             3.826           221.719
       399   13 Jun 2027 11:35:26.495   13 Jun 2027 11:35:40.465            13.970          6710.156
       400   13 Jun 2027 11:35:53.443   13 Jun 2027 11:36:01.100             7.657           224.437
       401   13 Jun 2027 11:36:46.872   13 Jun 2027 11:36:50.953             4.081          1429.719
       402   13 Jun 2027 11:37:10.118   13 Jun 2027 11:37:10.955             0.837           246.000
       403   13 Jun 2027 11:37:36.597   13 Jun 2027 11:37:44.932             8.335           801.313
       404   13 Jun 2027 11:37:48.435   13 Jun 2027 11:37:50.438             2.003           100.969
       405   13 Jun 2027 11:38:35.623   13 Jun 2027 11:38:41.155             5.532          1400.000
       406   13 Jun 2027 11:38:54.403   13 Jun 2027 11:38:54.403             0.000             0.000
       407   13 Jun 2027 11:39:38.819   13 Jun 2027 11:39:43.803             4.984          1589.687
