uniorb/output/strategy_1/Camera/Camera_KinoSat_110202.txt

KinoSat_110202
-------------------------
    Access    *     Start Time (UTCG)     *     Stop Time (UTCG)  *   Duration (s) *   Data (Mbytes)
         1   01 Jun 2027 03:00:00.000   01 Jun 2027 03:00:13.544            13.544          6772.000
         2   01 Jun 2027 03:00:58.708   01 Jun 2027 03:01:14.388            15.680          7840.000
         3   01 Jun 2027 04:30:52.365   01 Jun 2027 04:33:23.479           151.114         75557.000
         4   01 Jun 2027 04:34:16.554   01 Jun 2027 04:34:17.115             0.561           280.500
         5   01 Jun 2027 04:34:23.372   01 Jun 2027 04:34:25.771             2.399          1199.500
         6   01 Jun 2027 04:35:26.008   01 Jun 2027 04:35:38.778            12.770          6385.000
         7   01 Jun 2027 04:36:04.842   01 Jun 2027 04:36:34.856            30.014         15007.000
         8   01 Jun 2027 06:08:25.908   01 Jun 2027 06:11:13.121           167.213         83606.500
         9   01 Jun 2027 06:12:28.728   01 Jun 2027 06:12:57.305            28.577         14288.500
        10   01 Jun 2027 07:44:27.213   01 Jun 2027 07:47:04.819           157.606         78803.000
        11   01 Jun 2027 07:47:16.953   01 Jun 2027 07:47:24.209             7.256          3628.000
        12   01 Jun 2027 07:47:42.532   01 Jun 2027 07:47:51.686             9.154          4577.000
        13   01 Jun 2027 07:48:17.206   01 Jun 2027 07:48:21.129             3.923          1961.500
        14   01 Jun 2027 07:48:23.584   01 Jun 2027 07:48:28.415             4.831          2415.500
        15   01 Jun 2027 07:48:56.062   01 Jun 2027 07:49:16.142            20.080         10040.000
        16   02 Jun 2027 03:06:02.329   02 Jun 2027 03:11:41.120           338.791        169395.500
        17   02 Jun 2027 03:12:20.795   02 Jun 2027 03:13:24.734            63.939         31969.500
        18   02 Jun 2027 04:42:38.183   02 Jun 2027 04:45:11.657           153.474         76737.000
        19   02 Jun 2027 04:46:01.397   02 Jun 2027 04:46:16.309            14.912          7456.000
        20   02 Jun 2027 04:46:49.146   02 Jun 2027 04:47:02.204            13.058          6529.000
        21   02 Jun 2027 04:47:14.829   02 Jun 2027 04:47:45.439            30.610         15305.000
        22   02 Jun 2027 04:48:03.155   02 Jun 2027 04:48:29.359            26.204         13102.000
        23   02 Jun 2027 06:20:55.869   02 Jun 2027 06:23:21.995           146.126         73063.000
        24   02 Jun 2027 06:23:30.399   02 Jun 2027 06:23:57.423            27.024         13512.000
        25   02 Jun 2027 07:54:16.424   02 Jun 2027 07:54:26.447            10.023          5011.500
        26   02 Jun 2027 07:56:15.721   02 Jun 2027 07:58:24.234           128.513         64256.500
        27   02 Jun 2027 07:59:29.965   02 Jun 2027 07:59:56.306            26.341         13170.500
        28   02 Jun 2027 08:00:15.363   02 Jun 2027 08:00:26.575            11.212          5606.000
        29   02 Jun 2027 08:00:47.622   02 Jun 2027 08:00:51.198             3.576          1788.000
        30   02 Jun 2027 08:00:54.492   02 Jun 2027 08:00:58.892             4.400          2200.000
        31   02 Jun 2027 08:01:16.694   02 Jun 2027 08:01:18.607             1.913           956.500
        32   03 Jun 2027 03:17:55.228   03 Jun 2027 03:23:41.419           346.191        173095.500
        33   03 Jun 2027 03:24:34.845   03 Jun 2027 03:25:25.109            50.264         25132.000
        34   03 Jun 2027 04:54:59.271   03 Jun 2027 04:57:57.689           178.418         89209.000
        35   03 Jun 2027 05:00:39.804   03 Jun 2027 05:00:49.945            10.141          5070.500
        36   03 Jun 2027 05:00:52.234   03 Jun 2027 05:01:10.211            17.977          8988.500
        37   03 Jun 2027 06:32:53.551   03 Jun 2027 06:35:02.546           128.995         64497.500
        38   03 Jun 2027 06:35:08.914   03 Jun 2027 06:35:13.530             4.616          2308.000
        39   03 Jun 2027 06:35:43.019   03 Jun 2027 06:35:46.328             3.309          1654.500
        40   03 Jun 2027 06:36:29.092   03 Jun 2027 06:36:52.579            23.487         11743.500
        41   03 Jun 2027 08:06:06.052   03 Jun 2027 08:08:02.680           116.628         58314.000
        42   03 Jun 2027 08:08:32.650   03 Jun 2027 08:08:46.183            13.533          6766.500
        43   03 Jun 2027 08:09:31.111   03 Jun 2027 08:09:43.070            11.959          5979.500
        44   03 Jun 2027 08:09:47.120   03 Jun 2027 08:10:08.377            21.257         10628.500
        45   03 Jun 2027 08:10:51.664   03 Jun 2027 08:11:08.655            16.991          8495.500
        46   04 Jun 2027 03:30:07.678   04 Jun 2027 03:35:41.657           333.979        166989.500
        47   04 Jun 2027 03:36:15.752   04 Jun 2027 03:37:10.154            54.402         27201.000
        48   04 Jun 2027 03:37:22.491   04 Jun 2027 03:37:28.596             6.105          3052.500
        49   04 Jun 2027 05:06:50.365   04 Jun 2027 05:09:48.074           177.709         88854.500
        50   04 Jun 2027 05:11:15.696   04 Jun 2027 05:11:31.364            15.668          7834.000
        51   04 Jun 2027 05:12:41.983   04 Jun 2027 05:12:56.126            14.143          7071.500
        52   04 Jun 2027 05:12:57.929   04 Jun 2027 05:13:03.594             5.665          2832.500
        53   04 Jun 2027 06:44:53.391   04 Jun 2027 06:47:39.181           165.790         82895.000
        54   04 Jun 2027 06:48:28.490   04 Jun 2027 06:48:33.137             4.647          2323.500
        55   04 Jun 2027 08:18:31.120   04 Jun 2027 08:19:28.038            56.918         28459.000
        56   04 Jun 2027 08:19:37.933   04 Jun 2027 08:19:54.766            16.833          8416.500
        57   04 Jun 2027 08:21:19.394   04 Jun 2027 08:21:23.466             4.072          2036.000
        58   04 Jun 2027 08:22:16.771   04 Jun 2027 08:22:29.334            12.563          6281.500
        59   04 Jun 2027 08:23:16.646   04 Jun 2027 08:23:31.679            15.033          7516.500
        60   04 Jun 2027 08:23:52.656   04 Jun 2027 08:23:56.547             3.891          1945.500
        61   04 Jun 2027 08:24:31.363   04 Jun 2027 08:24:43.370            12.007          6003.500
        62   04 Jun 2027 08:25:31.878   04 Jun 2027 08:25:53.944            22.066         11033.000
        63   05 Jun 2027 03:42:01.619   05 Jun 2027 03:48:21.167           379.548        189774.000
        64   05 Jun 2027 03:48:51.123   05 Jun 2027 03:49:30.007            38.884         19442.000
        65   05 Jun 2027 05:18:56.257   05 Jun 2027 05:21:28.515           152.258         76129.000
        66   05 Jun 2027 05:21:36.491   05 Jun 2027 05:22:11.568            35.077         17538.500
        67   05 Jun 2027 05:23:41.375   05 Jun 2027 05:23:48.097             6.722          3361.000
        68   05 Jun 2027 05:23:58.453   05 Jun 2027 05:23:58.465             0.012             6.000
        69   05 Jun 2027 05:25:04.442   05 Jun 2027 05:25:27.680            23.238         11619.000
        70   05 Jun 2027 06:56:39.612   05 Jun 2027 06:59:15.265           155.653         77826.500
        71   05 Jun 2027 07:00:07.613   05 Jun 2027 07:00:23.292            15.679          7839.500
        72   05 Jun 2027 07:00:53.749   05 Jun 2027 07:00:57.866             4.117          2058.500
        73   05 Jun 2027 08:30:54.263   05 Jun 2027 08:31:32.136            37.873         18936.500
        74   05 Jun 2027 08:32:39.163   05 Jun 2027 08:32:50.892            11.729          5864.500
        75   05 Jun 2027 08:33:45.819   05 Jun 2027 08:34:12.541            26.722         13361.000
        76   05 Jun 2027 08:35:42.184   05 Jun 2027 08:35:49.901             7.717          3858.500
        77   05 Jun 2027 08:36:10.400   05 Jun 2027 08:36:14.105             3.705          1852.500
        78   06 Jun 2027 03:54:22.653   06 Jun 2027 04:01:23.446           420.793        210396.500
        79   06 Jun 2027 05:31:26.291   06 Jun 2027 05:34:21.710           175.419         87709.500
        80   06 Jun 2027 05:34:35.296   06 Jun 2027 05:34:57.267            21.971         10985.500
        81   06 Jun 2027 05:35:43.696   06 Jun 2027 05:35:43.884             0.188            94.000
        82   06 Jun 2027 05:36:38.847   06 Jun 2027 05:36:44.603             5.756          2878.000
        83   06 Jun 2027 05:37:10.784   06 Jun 2027 05:37:16.611             5.827          2913.500
        84   06 Jun 2027 07:08:11.282   06 Jun 2027 07:10:26.216           134.934         67467.000
        85   06 Jun 2027 07:11:03.045   06 Jun 2027 07:11:08.638             5.593          2796.500
        86   06 Jun 2027 07:12:02.083   06 Jun 2027 07:12:16.078            13.995          6997.500
        87   06 Jun 2027 08:43:27.630   06 Jun 2027 08:43:35.518             7.888          3944.000
        88   06 Jun 2027 08:45:08.841   06 Jun 2027 08:45:33.706            24.865         12432.500
        89   06 Jun 2027 08:46:48.989   06 Jun 2027 08:46:58.681             9.692          4846.000
        90   06 Jun 2027 08:47:13.352   06 Jun 2027 08:47:15.365             2.013          1006.500
        91   06 Jun 2027 08:47:40.373   06 Jun 2027 08:47:59.018            18.645          9322.500
        92   07 Jun 2027 04:06:36.054   07 Jun 2027 04:12:39.245           363.191        181595.500
        93   07 Jun 2027 04:12:56.972   07 Jun 2027 04:13:17.196            20.224         10112.000
        94   07 Jun 2027 05:43:31.939   07 Jun 2027 05:47:29.571           237.632        118816.000
        95   07 Jun 2027 07:20:18.387   07 Jun 2027 07:22:57.216           158.829         79414.500
        96   07 Jun 2027 07:23:10.422   07 Jun 2027 07:23:12.265             1.843           921.500
        97   07 Jun 2027 07:23:33.754   07 Jun 2027 07:23:48.913            15.159          7579.500
        98   07 Jun 2027 07:24:49.111   07 Jun 2027 07:24:51.472             2.361          1180.500
        99   07 Jun 2027 08:58:30.925   07 Jun 2027 08:58:47.535            16.610          8305.000
       100   07 Jun 2027 08:58:56.908   07 Jun 2027 08:58:58.224             1.316           658.000
       101   07 Jun 2027 08:59:23.286   07 Jun 2027 08:59:28.177             4.891          2445.500
       102   08 Jun 2027 04:19:05.448   08 Jun 2027 04:25:25.163           379.715        189857.500
       103   08 Jun 2027 05:56:34.623   08 Jun 2027 05:59:35.147           180.524         90262.000
       104   08 Jun 2027 07:32:40.051   08 Jun 2027 07:35:28.325           168.274         84137.000
       105   08 Jun 2027 07:36:21.604   08 Jun 2027 07:36:36.034            14.430          7215.000
       106   09 Jun 2027 03:00:00.000   09 Jun 2027 03:01:29.191            89.191         44595.500
       107   09 Jun 2027 04:31:06.408   09 Jun 2027 04:36:43.890           337.482        168741.000
       108   09 Jun 2027 04:36:48.391   09 Jun 2027 04:36:57.785             9.394          4697.000
       109   09 Jun 2027 04:37:06.614   09 Jun 2027 04:37:14.393             7.779          3889.500
       110   09 Jun 2027 06:08:40.822   09 Jun 2027 06:11:33.056           172.234         86117.000
       111   09 Jun 2027 06:12:29.770   09 Jun 2027 06:12:52.348            22.578         11289.000
       112   09 Jun 2027 07:44:42.158   09 Jun 2027 07:46:37.753           115.595         57797.500
       113   09 Jun 2027 07:47:35.630   09 Jun 2027 07:47:55.770            20.140         10070.000
       114   09 Jun 2027 07:48:06.748   09 Jun 2027 07:48:22.699            15.951          7975.500
       115   09 Jun 2027 07:49:40.783   09 Jun 2027 07:49:42.667             1.884           942.000
       116   10 Jun 2027 03:06:16.885   10 Jun 2027 03:10:23.578           246.693        123346.500
       117   10 Jun 2027 03:11:19.089   10 Jun 2027 03:11:37.434            18.345          9172.500
       118   10 Jun 2027 03:11:56.052   10 Jun 2027 03:12:27.889            31.837         15918.500
       119   10 Jun 2027 03:13:03.192   10 Jun 2027 03:13:31.811            28.619         14309.500
       120   10 Jun 2027 04:42:52.978   10 Jun 2027 04:45:23.098           150.120         75060.000
       121   10 Jun 2027 04:46:21.115   10 Jun 2027 04:46:49.167            28.052         14026.000
       122   10 Jun 2027 06:21:10.824   10 Jun 2027 06:23:55.877           165.053         82526.500
       123   10 Jun 2027 06:23:59.845   10 Jun 2027 06:24:03.722             3.877          1938.500
       124   10 Jun 2027 06:24:25.179   10 Jun 2027 06:24:27.088             1.909           954.500
       125   10 Jun 2027 06:24:44.266   10 Jun 2027 06:24:56.109            11.843          5921.500
       126   10 Jun 2027 07:54:30.886   10 Jun 2027 07:54:42.617            11.731          5865.500
       127   10 Jun 2027 07:56:30.503   10 Jun 2027 07:57:55.156            84.653         42326.500
       128   10 Jun 2027 07:58:36.188   10 Jun 2027 07:58:49.468            13.280          6640.000
       129   10 Jun 2027 07:59:18.953   10 Jun 2027 07:59:34.633            15.680          7840.000
       130   10 Jun 2027 08:00:35.255   10 Jun 2027 08:00:41.702             6.447          3223.500
       131   10 Jun 2027 08:01:02.844   10 Jun 2027 08:01:07.526             4.682          2341.000
       132   10 Jun 2027 08:01:09.587   10 Jun 2027 08:01:16.763             7.176          3588.000
       133   11 Jun 2027 03:18:10.627   11 Jun 2027 03:22:12.718           242.091        121045.500
       134   11 Jun 2027 03:23:23.353   11 Jun 2027 03:23:36.163            12.810          6405.000
       135   11 Jun 2027 03:23:55.976   11 Jun 2027 03:24:36.268            40.292         20146.000
       136   11 Jun 2027 03:24:46.838   11 Jun 2027 03:25:01.161            14.323          7161.500
       137   11 Jun 2027 03:25:16.678   11 Jun 2027 03:25:18.030             1.352           676.000
       138   11 Jun 2027 03:25:31.258   11 Jun 2027 03:25:37.470             6.212          3106.000
       139   11 Jun 2027 04:55:14.107   11 Jun 2027 04:57:08.597           114.490         57245.000
       140   11 Jun 2027 04:58:11.885   11 Jun 2027 04:58:27.978            16.093          8046.500
       141   11 Jun 2027 04:58:38.415   11 Jun 2027 04:58:40.683             2.268          1134.000
       142   11 Jun 2027 04:58:54.378   11 Jun 2027 04:59:21.384            27.006         13503.000
       143   11 Jun 2027 04:59:48.374   11 Jun 2027 04:59:59.359            10.985          5492.500
       144   11 Jun 2027 05:00:51.872   11 Jun 2027 05:01:04.886            13.014          6507.000
       145   11 Jun 2027 05:01:07.878   11 Jun 2027 05:01:18.876            10.998          5499.000
       146   11 Jun 2027 06:33:08.381   11 Jun 2027 06:35:35.910           147.529         73764.500
       147   11 Jun 2027 06:35:48.858   11 Jun 2027 06:35:57.670             8.812          4406.000
       148   11 Jun 2027 06:36:46.005   11 Jun 2027 06:37:08.037            22.032         11016.000
       149   11 Jun 2027 08:06:21.243   11 Jun 2027 08:07:47.169            85.926         42963.000
       150   11 Jun 2027 08:09:11.961   11 Jun 2027 08:09:15.443             3.482          1741.000
       151   11 Jun 2027 08:09:30.153   11 Jun 2027 08:09:46.367            16.214          8107.000
       152   11 Jun 2027 08:10:37.413   11 Jun 2027 08:10:38.480             1.067           533.500
       153   11 Jun 2027 08:10:52.830   11 Jun 2027 08:11:07.542            14.712          7356.000
       154   11 Jun 2027 08:12:23.997   11 Jun 2027 08:12:38.277            14.280          7140.000
       155   11 Jun 2027 08:13:25.895   11 Jun 2027 08:13:26.633             0.738           369.000
       156   11 Jun 2027 08:13:29.793   11 Jun 2027 08:13:38.082             8.289          4144.500
       157   11 Jun 2027 08:14:03.817   11 Jun 2027 08:14:12.424             8.607          4303.500
       158   12 Jun 2027 03:30:22.312   12 Jun 2027 03:35:23.614           301.302        150651.000
       159   12 Jun 2027 03:36:30.211   12 Jun 2027 03:37:24.908            54.697         27348.500
       160   12 Jun 2027 03:37:43.003   12 Jun 2027 03:37:43.507             0.504           252.000
       161   12 Jun 2027 05:07:05.146   12 Jun 2027 05:10:03.106           177.960         88980.000
       162   12 Jun 2027 05:11:11.435   12 Jun 2027 05:11:13.468             2.033          1016.500
       163   12 Jun 2027 05:12:31.923   12 Jun 2027 05:12:50.597            18.674          9337.000
       164   12 Jun 2027 05:13:34.015   12 Jun 2027 05:13:43.105             9.090          4545.000
       165   12 Jun 2027 06:45:08.215   12 Jun 2027 06:47:53.849           165.634         82817.000
       166   12 Jun 2027 06:49:02.680   12 Jun 2027 06:49:07.454             4.774          2387.000
       167   12 Jun 2027 08:18:49.184   12 Jun 2027 08:19:17.667            28.483         14241.500
       168   12 Jun 2027 08:20:11.530   12 Jun 2027 08:20:15.686             4.156          2078.000
       169   12 Jun 2027 08:20:28.065   12 Jun 2027 08:20:36.214             8.149          4074.500
       170   12 Jun 2027 08:21:33.888   12 Jun 2027 08:22:34.342            60.454         30227.000
       171   13 Jun 2027 03:42:16.402   13 Jun 2027 03:47:26.732           310.330        155165.000
       172   13 Jun 2027 03:47:45.428   13 Jun 2027 03:48:57.550            72.122         36061.000
       173   13 Jun 2027 05:19:11.489   13 Jun 2027 05:22:02.050           170.561         85280.500
       174   13 Jun 2027 05:22:27.263   13 Jun 2027 05:22:33.467             6.204          3102.000
       175   13 Jun 2027 05:23:13.354   13 Jun 2027 05:23:25.120            11.766          5883.000
       176   13 Jun 2027 05:23:43.846   13 Jun 2027 05:23:56.219            12.373          6186.500
       177   13 Jun 2027 05:25:08.699   13 Jun 2027 05:25:27.393            18.694          9347.000
       178   13 Jun 2027 06:56:54.244   13 Jun 2027 06:59:32.269           158.025         79012.500
       179   13 Jun 2027 07:00:02.873   13 Jun 2027 07:00:18.378            15.505          7752.500
       180   13 Jun 2027 07:00:40.210   13 Jun 2027 07:00:40.210             0.000             0.000
       181   13 Jun 2027 07:01:08.323   13 Jun 2027 07:01:12.363             4.040          2020.000
       182   13 Jun 2027 08:31:09.504   13 Jun 2027 08:31:38.889            29.385         14692.500
       183   13 Jun 2027 08:32:53.968   13 Jun 2027 08:33:06.151            12.183          6091.500
       184   13 Jun 2027 08:33:39.835   13 Jun 2027 08:33:59.594            19.759          9879.500
       185   13 Jun 2027 08:35:29.270   13 Jun 2027 08:35:34.744             5.474          2737.000
       186   13 Jun 2027 08:35:44.249   13 Jun 2027 08:35:47.798             3.549          1774.500
       187   13 Jun 2027 08:36:04.761   13 Jun 2027 08:36:05.964             1.203           601.500
       188   13 Jun 2027 08:36:18.356   13 Jun 2027 08:36:25.632             7.276          3638.000
