uniorb/output/strategy_1/Camera/Camera_KinoSat_111209.txt

KinoSat_111209
-------------------------
    Access    *     Start Time (UTCG)     *     Stop Time (UTCG)  *   Duration (s) *   Data (Mbytes)
         1   01 Jun 2027 04:17:02.863   01 Jun 2027 04:18:32.801            89.938         44969.000
         2   01 Jun 2027 04:29:16.485   01 Jun 2027 04:29:48.557            32.072         16036.000
         3   01 Jun 2027 05:51:12.727   01 Jun 2027 05:52:27.695            74.968         37484.000
         4   01 Jun 2027 05:53:51.061   01 Jun 2027 05:53:58.125             7.064          3532.000
         5   01 Jun 2027 05:54:34.444   01 Jun 2027 05:54:55.793            21.349         10674.500
         6   01 Jun 2027 05:55:15.658   01 Jun 2027 05:55:46.350            30.692         15346.000
         7   01 Jun 2027 07:26:01.017   01 Jun 2027 07:28:29.929           148.912         74456.000
         8   01 Jun 2027 07:34:20.641   01 Jun 2027 07:34:26.488             5.847          2923.500
         9   01 Jun 2027 09:03:49.786   01 Jun 2027 09:05:48.689           118.903         59451.500
        10   01 Jun 2027 09:09:09.246   01 Jun 2027 09:09:26.668            17.422          8711.000
        11   01 Jun 2027 09:09:36.681   01 Jun 2027 09:09:52.551            15.870          7935.000
        12   01 Jun 2027 10:40:34.211   01 Jun 2027 10:40:55.444            21.233         10616.500
        13   01 Jun 2027 10:41:03.746   01 Jun 2027 10:42:14.279            70.533         35266.500
        14   01 Jun 2027 10:43:20.527   01 Jun 2027 10:43:46.972            26.445         13222.500
        15   01 Jun 2027 10:45:58.685   01 Jun 2027 10:46:05.147             6.462          3231.000
        16   01 Jun 2027 10:46:54.866   01 Jun 2027 10:47:09.417            14.551          7275.500
        17   02 Jun 2027 03:05:00.120   02 Jun 2027 03:05:55.703            55.583         27791.500
        18   02 Jun 2027 03:06:16.342   02 Jun 2027 03:06:17.233             0.891           445.500
        19   02 Jun 2027 03:07:00.242   02 Jun 2027 03:07:15.789            15.547          7773.500
        20   02 Jun 2027 03:08:18.606   02 Jun 2027 03:08:24.457             5.851          2925.500
        21   02 Jun 2027 03:08:56.906   02 Jun 2027 03:09:15.262            18.356          9178.000
        22   02 Jun 2027 03:09:36.351   02 Jun 2027 03:09:36.351             0.000             0.000
        23   02 Jun 2027 04:29:01.883   02 Jun 2027 04:29:40.609            38.726         19363.000
        24   02 Jun 2027 06:04:58.714   02 Jun 2027 06:06:32.467            93.753         46876.500
        25   02 Jun 2027 06:06:43.960   02 Jun 2027 06:07:02.586            18.626          9313.000
        26   02 Jun 2027 06:08:30.230   02 Jun 2027 06:08:38.517             8.287          4143.500
        27   02 Jun 2027 07:38:49.587   02 Jun 2027 07:40:52.823           123.236         61618.000
        28   02 Jun 2027 07:42:54.733   02 Jun 2027 07:42:54.733             0.000             0.000
        29   02 Jun 2027 07:44:26.299   02 Jun 2027 07:44:46.500            20.201         10100.500
        30   02 Jun 2027 07:46:30.649   02 Jun 2027 07:46:34.501             3.852          1926.000
        31   02 Jun 2027 09:15:56.326   02 Jun 2027 09:17:52.822           116.496         58248.000
        32   02 Jun 2027 09:21:10.769   02 Jun 2027 09:21:46.951            36.182         18091.000
        33   02 Jun 2027 09:22:31.738   02 Jun 2027 09:22:40.892             9.154          4577.000
        34   02 Jun 2027 10:52:58.800   02 Jun 2027 10:54:51.396           112.596         56298.000
        35   02 Jun 2027 10:56:45.580   02 Jun 2027 10:56:56.215            10.635          5317.500
        36   02 Jun 2027 10:58:47.855   02 Jun 2027 10:58:57.748             9.893          4946.500
        37   03 Jun 2027 03:17:34.650   03 Jun 2027 03:19:00.480            85.830         42915.000
        38   03 Jun 2027 03:19:45.333   03 Jun 2027 03:19:50.153             4.820          2410.000
        39   03 Jun 2027 04:40:56.223   03 Jun 2027 04:41:34.160            37.937         18968.500
        40   03 Jun 2027 06:17:20.536   03 Jun 2027 06:18:46.723            86.187         43093.500
        41   03 Jun 2027 06:19:43.621   03 Jun 2027 06:19:51.976             8.355          4177.500
        42   03 Jun 2027 07:51:00.492   03 Jun 2027 07:52:54.417           113.925         56962.500
        43   03 Jun 2027 07:55:53.332   03 Jun 2027 07:56:02.640             9.308          4654.000
        44   03 Jun 2027 07:57:49.763   03 Jun 2027 07:57:55.342             5.579          2789.500
        45   03 Jun 2027 07:58:06.516   03 Jun 2027 07:58:17.117            10.601          5300.500
        46   03 Jun 2027 07:58:17.624   03 Jun 2027 07:58:33.963            16.339          8169.500
        47   03 Jun 2027 09:28:22.381   03 Jun 2027 09:30:18.854           116.473         58236.500
        48   03 Jun 2027 09:30:22.381   03 Jun 2027 09:30:37.203            14.822          7411.000
        49   03 Jun 2027 09:32:53.133   03 Jun 2027 09:32:53.612             0.479           239.500
        50   03 Jun 2027 11:05:19.522   03 Jun 2027 11:06:18.090            58.568         28723.813
        51   03 Jun 2027 11:07:01.655   03 Jun 2027 11:07:07.094             5.439          1248.531
        52   03 Jun 2027 11:08:21.540   03 Jun 2027 11:08:26.993             5.453          2232.531
        53   03 Jun 2027 11:09:08.584   03 Jun 2027 11:09:12.343             3.759          1278.719
        54   03 Jun 2027 11:09:49.072   03 Jun 2027 11:09:49.072             0.000             0.000
        55   03 Jun 2027 11:09:58.583   03 Jun 2027 11:10:01.092             2.509          1254.500
        56   04 Jun 2027 03:29:12.480   04 Jun 2027 03:30:44.350            91.870         45935.000
        57   04 Jun 2027 04:52:43.590   04 Jun 2027 04:53:56.468            72.878         36439.000
        58   04 Jun 2027 06:29:22.224   04 Jun 2027 06:31:07.535           105.311         52655.500
        59   04 Jun 2027 08:04:17.441   04 Jun 2027 08:05:32.569            75.128         37283.281
        60   04 Jun 2027 08:06:09.953   04 Jun 2027 08:06:16.336             6.383          1161.125
        61   04 Jun 2027 08:07:23.355   04 Jun 2027 08:07:27.663             4.308          1899.969
        62   04 Jun 2027 08:08:25.114   04 Jun 2027 08:08:25.114             0.000             0.000
        63   04 Jun 2027 08:08:40.789   04 Jun 2027 08:08:57.103            16.314          1972.625
        64   04 Jun 2027 08:08:59.698   04 Jun 2027 08:09:01.464             1.766            81.094
        65   04 Jun 2027 08:09:40.308   04 Jun 2027 08:09:43.135             2.827           840.469
        66   04 Jun 2027 08:10:00.740   04 Jun 2027 08:10:01.643             0.903           417.500
        67   04 Jun 2027 08:10:07.757   04 Jun 2027 08:10:08.823             1.066           191.063
        68   04 Jun 2027 08:11:08.679   04 Jun 2027 08:11:09.231             0.552           276.000
        69   04 Jun 2027 09:40:29.971   04 Jun 2027 09:40:45.833            15.862          7566.750
        70   04 Jun 2027 09:41:28.387   04 Jun 2027 09:41:31.520             3.133          1021.844
        71   04 Jun 2027 09:41:34.084   04 Jun 2027 09:41:36.372             2.288            13.219
        72   04 Jun 2027 09:41:44.354   04 Jun 2027 09:41:45.671             1.317            69.844
        73   04 Jun 2027 09:42:41.676   04 Jun 2027 09:42:44.538             2.862          1333.344
        74   04 Jun 2027 09:43:01.762   04 Jun 2027 09:43:03.855             2.093           105.937
        75   04 Jun 2027 09:43:14.752   04 Jun 2027 09:43:18.151             3.399           246.000
        76   04 Jun 2027 09:43:48.104   04 Jun 2027 09:43:49.810             1.706           853.000
        77   04 Jun 2027 09:44:43.446   04 Jun 2027 09:44:44.918             1.472           736.000
        78   04 Jun 2027 09:45:00.102   04 Jun 2027 09:45:03.341             3.239          1497.656
        79   04 Jun 2027 09:45:32.538   04 Jun 2027 09:45:35.921             3.383           585.031
        80   04 Jun 2027 09:46:38.734   04 Jun 2027 09:46:40.556             1.822           775.000
        81   04 Jun 2027 11:18:13.511   04 Jun 2027 11:18:27.737            14.226          6806.156
        82   04 Jun 2027 11:18:38.955   04 Jun 2027 11:18:41.040             2.085           350.563
        83   04 Jun 2027 11:18:51.248   04 Jun 2027 11:18:51.898             0.650           319.000
        84   04 Jun 2027 11:19:36.350   04 Jun 2027 11:19:45.439             9.089          1318.844
        85   04 Jun 2027 11:20:02.672   04 Jun 2027 11:20:04.290             1.618           431.719
        86   04 Jun 2027 11:20:16.838   04 Jun 2027 11:20:21.990             5.152           392.125
        87   04 Jun 2027 11:20:40.303   04 Jun 2027 11:20:40.303             0.000             0.000
        88   04 Jun 2027 11:21:12.682   04 Jun 2027 11:21:16.569             3.887          1584.125
        89   04 Jun 2027 11:21:33.621   04 Jun 2027 11:21:35.136             1.515           497.500
        90   04 Jun 2027 11:22:12.157   04 Jun 2027 11:22:18.754             6.597          1114.500
        91   04 Jun 2027 11:22:25.652   04 Jun 2027 11:22:25.652             0.000             0.000
        92   04 Jun 2027 11:22:34.927   04 Jun 2027 11:22:37.013             2.086           505.406
        93   05 Jun 2027 03:41:35.459   05 Jun 2027 03:42:06.126            30.667         15333.500
        94   05 Jun 2027 03:42:24.653   05 Jun 2027 03:44:07.598           102.945         51472.500
        95   05 Jun 2027 03:44:24.537   05 Jun 2027 03:44:24.537             0.000             0.000
        96   05 Jun 2027 05:04:57.987   05 Jun 2027 05:05:52.265            54.278         27139.000
        97   05 Jun 2027 06:41:29.773   05 Jun 2027 06:43:03.396            93.623         46811.500
        98   05 Jun 2027 06:44:01.438   05 Jun 2027 06:44:05.972             4.534          2267.000
        99   05 Jun 2027 06:44:13.525   05 Jun 2027 06:44:13.525             0.000             0.000
       100   05 Jun 2027 08:16:39.894   05 Jun 2027 08:17:30.537            50.643         23029.281
       101   05 Jun 2027 08:19:13.830   05 Jun 2027 08:19:23.739             9.909          3037.625
       102   05 Jun 2027 08:21:53.150   05 Jun 2027 08:22:02.139             8.989          4405.844
       103   05 Jun 2027 08:22:43.457   05 Jun 2027 08:22:50.199             6.742          1291.188
       104   05 Jun 2027 08:23:15.200   05 Jun 2027 08:23:16.461             1.261           630.500
       105   05 Jun 2027 09:53:04.532   05 Jun 2027 09:53:19.590            15.058          7343.094
       106   05 Jun 2027 09:54:25.537   05 Jun 2027 09:54:37.540            12.003          1389.250
       107   05 Jun 2027 09:55:20.984   05 Jun 2027 09:55:24.788             3.804          1105.562
       108   05 Jun 2027 09:55:32.974   05 Jun 2027 09:55:36.329             3.355           255.813
       109   05 Jun 2027 09:55:38.848   05 Jun 2027 09:55:39.302             0.454            59.187
       110   05 Jun 2027 09:56:12.629   05 Jun 2027 09:56:17.166             4.537          1041.469
       111   05 Jun 2027 09:56:42.052   05 Jun 2027 09:56:45.592             3.540           505.781
       112   05 Jun 2027 09:57:12.185   05 Jun 2027 09:57:14.184             1.999           731.250
       113   05 Jun 2027 09:57:33.550   05 Jun 2027 09:57:35.725             2.175           605.188
       114   05 Jun 2027 09:58:14.608   05 Jun 2027 09:58:24.488             9.880          1215.094
       115   05 Jun 2027 09:58:29.911   05 Jun 2027 09:58:31.249             1.338           169.469
       116   05 Jun 2027 09:58:54.826   05 Jun 2027 09:58:56.724             1.898           693.656
       117   05 Jun 2027 09:59:01.072   05 Jun 2027 09:59:01.587             0.515           133.500
       118   05 Jun 2027 11:30:20.093   05 Jun 2027 11:30:38.652            18.559          6641.344
       119   05 Jun 2027 11:31:06.375   05 Jun 2027 11:31:11.827             5.452           860.594
       120   05 Jun 2027 11:31:43.845   05 Jun 2027 11:31:44.918             1.073           536.500
       121   05 Jun 2027 11:32:02.121   05 Jun 2027 11:32:07.164             5.043           756.219
       122   05 Jun 2027 11:32:22.843   05 Jun 2027 11:32:23.605             0.762           381.000
       123   05 Jun 2027 11:32:38.480   05 Jun 2027 11:32:40.213             1.733           573.813
       124   05 Jun 2027 11:33:04.623   05 Jun 2027 11:33:06.393             1.770           327.469
       125   05 Jun 2027 11:33:22.316   05 Jun 2027 11:33:24.158             1.842           497.594
       126   05 Jun 2027 11:33:39.508   05 Jun 2027 11:33:41.405             1.897           479.687
       127   05 Jun 2027 11:34:36.866   05 Jun 2027 11:34:38.779             1.913           956.500
       128   06 Jun 2027 03:53:32.205   06 Jun 2027 03:54:11.128            38.923         19461.500
       129   06 Jun 2027 03:54:35.325   06 Jun 2027 03:55:50.629            75.304         37652.000
       130   06 Jun 2027 03:56:20.895   06 Jun 2027 03:56:45.910            25.015         12507.500
       131   06 Jun 2027 05:17:00.515   06 Jun 2027 05:18:06.127            65.612         32806.000
       132   06 Jun 2027 05:18:17.584   06 Jun 2027 05:18:36.978            19.394          9697.000
       133   06 Jun 2027 06:53:22.727   06 Jun 2027 06:55:03.830           101.103         50551.500
       134   06 Jun 2027 06:56:46.680   06 Jun 2027 06:56:47.114             0.434           217.000
       135   06 Jun 2027 06:57:14.877   06 Jun 2027 06:57:24.867             9.990          4995.000
       136   06 Jun 2027 08:28:18.697   06 Jun 2027 08:28:35.364            16.667          7829.188
       137   06 Jun 2027 08:28:57.099   06 Jun 2027 08:29:00.854             3.755           355.469
       138   06 Jun 2027 08:29:33.378   06 Jun 2027 08:29:34.703             1.325           148.250
       139   06 Jun 2027 08:30:21.694   06 Jun 2027 08:30:22.658             0.964           482.000
       140   06 Jun 2027 08:30:43.661   06 Jun 2027 08:30:51.118             7.457           783.625
       141   06 Jun 2027 08:31:20.070   06 Jun 2027 08:31:21.805             1.735           368.125
       142   06 Jun 2027 08:31:46.102   06 Jun 2027 08:31:50.931             4.829           759.281
       143   06 Jun 2027 08:32:41.568   06 Jun 2027 08:32:44.795             3.227          1324.375
       144   06 Jun 2027 08:34:49.961   06 Jun 2027 08:34:57.794             7.833          3911.437
       145   06 Jun 2027 10:04:38.041   06 Jun 2027 10:04:57.588            19.547          7511.844
       146   06 Jun 2027 10:07:23.567   06 Jun 2027 10:07:29.737             6.170          2896.375
       147   06 Jun 2027 10:07:49.623   06 Jun 2027 10:07:52.859             3.236           495.813
       148   06 Jun 2027 10:09:03.860   06 Jun 2027 10:09:09.926             6.066          2218.781
       149   06 Jun 2027 10:09:30.347   06 Jun 2027 10:09:40.097             9.750           511.500
       150   06 Jun 2027 10:09:52.053   06 Jun 2027 10:09:55.947             3.894           369.969
       151   06 Jun 2027 10:10:08.785   06 Jun 2027 10:10:11.971             3.186           381.937
       152   06 Jun 2027 10:10:30.539   06 Jun 2027 10:10:33.475             2.936           580.250
       153   06 Jun 2027 10:10:48.701   06 Jun 2027 10:10:50.222             1.521           318.219
       154   06 Jun 2027 11:42:53.109   06 Jun 2027 11:43:07.533            14.424          7046.906
       155   06 Jun 2027 11:43:56.651   06 Jun 2027 11:43:58.567             1.916           958.000
       156   06 Jun 2027 11:45:05.538   06 Jun 2027 11:45:10.240             4.702          2344.688
       157   06 Jun 2027 11:45:31.322   06 Jun 2027 11:45:32.625             1.303           598.188
       158   06 Jun 2027 11:45:49.448   06 Jun 2027 11:45:52.740             3.292           340.875
       159   06 Jun 2027 11:46:06.591   06 Jun 2027 11:46:10.211             3.620           373.312
       160   06 Jun 2027 11:46:36.591   06 Jun 2027 11:46:38.588             1.997           293.281
       161   06 Jun 2027 11:46:42.241   06 Jun 2027 11:46:42.983             0.742           114.156
       162   07 Jun 2027 03:54:16.149   07 Jun 2027 03:54:26.202            10.053          5026.500
       163   07 Jun 2027 03:54:48.767   07 Jun 2027 03:55:07.784            19.017          9508.500
       164   07 Jun 2027 04:05:28.573   07 Jun 2027 04:07:02.774            94.201         47100.500
       165   07 Jun 2027 04:07:35.392   07 Jun 2027 04:07:45.140             9.748          4874.000
       166   07 Jun 2027 05:28:05.343   07 Jun 2027 05:29:15.498            70.155         35077.500
       167   07 Jun 2027 05:29:56.404   07 Jun 2027 05:30:08.933            12.529          6264.500
       168   07 Jun 2027 05:30:38.730   07 Jun 2027 05:30:41.093             2.363          1181.500
       169   07 Jun 2027 05:32:19.607   07 Jun 2027 05:32:20.036             0.429           214.500
       170   07 Jun 2027 07:03:41.293   07 Jun 2027 07:04:20.444            39.151         19575.500
       171   07 Jun 2027 07:05:06.886   07 Jun 2027 07:06:18.446            71.560         35780.000
       172   07 Jun 2027 07:07:07.300   07 Jun 2027 07:07:13.072             5.772          2886.000
       173   07 Jun 2027 07:09:24.198   07 Jun 2027 07:09:33.838             9.640          4820.000
       174   07 Jun 2027 08:39:52.136   07 Jun 2027 08:40:11.944            19.808          7317.219
       175   07 Jun 2027 08:40:22.659   07 Jun 2027 08:40:24.115             1.456           182.469
       176   07 Jun 2027 08:40:56.909   07 Jun 2027 08:40:59.427             2.518          1024.813
       177   07 Jun 2027 08:41:44.349   07 Jun 2027 08:41:45.035             0.686            27.063
       178   07 Jun 2027 08:42:59.677   07 Jun 2027 08:43:06.411             6.734          2325.437
       179   07 Jun 2027 08:43:21.469   07 Jun 2027 08:43:24.444             2.975           451.656
       180   07 Jun 2027 08:43:28.221   07 Jun 2027 08:43:28.748             0.527           118.031
       181   07 Jun 2027 08:43:55.493   07 Jun 2027 08:43:58.530             3.037           835.781
       182   07 Jun 2027 08:44:16.657   07 Jun 2027 08:44:20.891             4.234           108.781
       183   07 Jun 2027 08:45:06.526   07 Jun 2027 08:45:09.064             2.538           891.813
       184   07 Jun 2027 08:45:40.402   07 Jun 2027 08:45:42.462             2.060           727.656
       185   07 Jun 2027 08:46:34.112   07 Jun 2027 08:46:38.339             4.227          1506.656
       186   07 Jun 2027 08:47:02.926   07 Jun 2027 08:47:03.712             0.786           393.000
       187   07 Jun 2027 10:16:57.701   07 Jun 2027 10:17:16.252            18.551          8154.344
       188   07 Jun 2027 10:17:53.154   07 Jun 2027 10:17:56.924             3.770           898.719
       189   07 Jun 2027 10:19:01.452   07 Jun 2027 10:19:03.544             2.092          1046.000
       190   07 Jun 2027 10:19:03.693   07 Jun 2027 10:19:04.651             0.958            38.531
       191   07 Jun 2027 10:19:38.658   07 Jun 2027 10:19:39.096             0.438           162.250
       192   07 Jun 2027 10:20:03.625   07 Jun 2027 10:20:05.066             1.441           595.594
       193   07 Jun 2027 10:20:20.618   07 Jun 2027 10:20:21.748             1.130           486.000
       194   07 Jun 2027 10:20:32.557   07 Jun 2027 10:20:33.817             1.260           178.719
       195   07 Jun 2027 10:21:32.763   07 Jun 2027 10:21:40.200             7.437          1225.875
       196   07 Jun 2027 10:21:45.121   07 Jun 2027 10:21:49.344             4.223           153.781
       197   07 Jun 2027 10:22:58.702   07 Jun 2027 10:23:07.878             9.176          2156.125
       198   07 Jun 2027 11:54:56.250   07 Jun 2027 11:55:17.426            21.176          8991.719
       199   07 Jun 2027 11:56:26.576   07 Jun 2027 11:56:32.427             5.851          2160.937
       200   07 Jun 2027 11:57:00.664   07 Jun 2027 11:57:02.819             2.155           763.219
       201   07 Jun 2027 11:57:18.330   07 Jun 2027 11:57:18.360             0.030            15.000
       202   07 Jun 2027 11:57:24.138   07 Jun 2027 11:57:27.773             3.635           577.469
       203   07 Jun 2027 11:57:58.333   07 Jun 2027 11:58:03.418             5.085           955.000
       204   08 Jun 2027 04:05:48.086   08 Jun 2027 04:06:27.640            39.554         19777.000
       205   08 Jun 2027 04:06:45.327   08 Jun 2027 04:07:14.922            29.595         14797.500
       206   08 Jun 2027 04:17:31.573   08 Jun 2027 04:18:04.440            32.867         16433.500
       207   08 Jun 2027 04:18:31.803   08 Jun 2027 04:18:44.514            12.711          6355.500
       208   08 Jun 2027 05:39:44.302   08 Jun 2027 05:40:54.564            70.262         35131.000
       209   08 Jun 2027 05:41:44.802   08 Jun 2027 05:42:02.015            17.213          8606.500
       210   08 Jun 2027 05:42:12.075   08 Jun 2027 05:42:16.799             4.724          2362.000
       211   08 Jun 2027 07:14:47.518   08 Jun 2027 07:16:31.311           103.793         51896.500
       212   08 Jun 2027 07:16:51.312   08 Jun 2027 07:17:18.110            26.798         13399.000
       213   08 Jun 2027 07:17:30.683   08 Jun 2027 07:17:35.568             4.885          1451.375
       214   08 Jun 2027 07:19:43.403   08 Jun 2027 07:19:51.048             7.645          3804.000
       215   08 Jun 2027 07:20:13.108   08 Jun 2027 07:20:13.391             0.283           141.500
       216   08 Jun 2027 08:52:11.051   08 Jun 2027 08:52:26.567            15.516          7329.531
       217   08 Jun 2027 08:55:02.436   08 Jun 2027 08:55:15.348            12.912          4870.906
       218   08 Jun 2027 08:55:33.339   08 Jun 2027 08:55:33.339             0.000             0.000
       219   08 Jun 2027 08:55:48.528   08 Jun 2027 08:55:51.317             2.789           998.625
       220   08 Jun 2027 08:56:49.693   08 Jun 2027 08:56:54.006             4.313          1824.250
       221   08 Jun 2027 08:57:40.949   08 Jun 2027 08:57:42.952             2.003           742.594
       222   08 Jun 2027 08:58:07.221   08 Jun 2027 08:58:09.863             2.642           758.406
       223   08 Jun 2027 08:58:36.707   08 Jun 2027 08:58:44.015             7.308           635.781
       224   08 Jun 2027 08:59:07.911   08 Jun 2027 08:59:11.730             3.819           744.969
       225   08 Jun 2027 08:59:28.194   08 Jun 2027 08:59:28.194             0.000             0.000
       226   08 Jun 2027 10:28:59.193   08 Jun 2027 10:29:15.978            16.785          7123.031
       227   08 Jun 2027 10:30:31.872   08 Jun 2027 10:30:32.255             0.383           191.500
       228   08 Jun 2027 10:30:50.863   08 Jun 2027 10:30:52.868             2.005           867.719
       229   08 Jun 2027 10:31:18.896   08 Jun 2027 10:31:20.251             1.355           238.031
       230   08 Jun 2027 10:31:39.943   08 Jun 2027 10:31:42.057             2.114           615.375
       231   08 Jun 2027 10:32:50.466   08 Jun 2027 10:32:52.997             2.531          1265.500
       232   08 Jun 2027 10:33:02.705   08 Jun 2027 10:33:05.289             2.584          1175.656
       233   08 Jun 2027 10:33:16.654   08 Jun 2027 10:33:17.708             1.054           268.813
       234   08 Jun 2027 10:33:25.661   08 Jun 2027 10:33:27.877             2.216           248.531
       235   08 Jun 2027 10:34:57.160   08 Jun 2027 10:35:01.533             4.373          2186.500
       236   09 Jun 2027 03:00:00.000   09 Jun 2027 03:00:03.426             3.426          1713.000
       237   09 Jun 2027 04:17:19.099   09 Jun 2027 04:18:03.978            44.879         22439.500
       238   09 Jun 2027 04:18:27.807   09 Jun 2027 04:19:07.267            39.460         19730.000
       239   09 Jun 2027 04:29:32.210   09 Jun 2027 04:30:03.994            31.784         15892.000
       240   09 Jun 2027 05:51:27.807   09 Jun 2027 05:52:41.816            74.009         37004.500
       241   09 Jun 2027 05:53:30.654   09 Jun 2027 05:53:39.463             8.809          4404.500
       242   09 Jun 2027 05:54:15.533   09 Jun 2027 05:54:20.146             4.613          2306.500
       243   09 Jun 2027 05:54:49.866   09 Jun 2027 05:54:59.171             9.305          4652.500
       244   09 Jun 2027 05:55:16.682   09 Jun 2027 05:55:30.055            13.373          6686.500
       245   09 Jun 2027 07:26:15.910   09 Jun 2027 07:28:02.653           106.743         51885.595
       246   09 Jun 2027 07:28:21.347   09 Jun 2027 07:28:23.914             2.567           484.719
       247   09 Jun 2027 07:29:45.707   09 Jun 2027 07:29:45.707             0.000             0.000
       248   09 Jun 2027 07:30:21.272   09 Jun 2027 07:30:30.535             9.263          3667.437
       249   09 Jun 2027 07:32:56.713   09 Jun 2027 07:32:56.713             0.000             0.000
       250   09 Jun 2027 07:33:49.751   09 Jun 2027 07:34:00.476            10.725          5362.500
       251   09 Jun 2027 07:34:54.919   09 Jun 2027 07:35:00.398             5.479          2359.687
       252   09 Jun 2027 09:04:05.475   09 Jun 2027 09:04:23.713            18.238          8066.906
       253   09 Jun 2027 09:05:04.047   09 Jun 2027 09:05:05.952             1.905           952.500
       254   09 Jun 2027 09:05:38.306   09 Jun 2027 09:05:41.753             3.447          1161.313
       255   09 Jun 2027 09:05:48.985   09 Jun 2027 09:05:49.339             0.354            70.844
       256   09 Jun 2027 09:06:16.838   09 Jun 2027 09:06:18.329             1.491           622.250
       257   09 Jun 2027 09:07:39.985   09 Jun 2027 09:07:47.249             7.264          2447.781
       258   09 Jun 2027 09:08:16.421   09 Jun 2027 09:08:17.754             1.333           123.875
       259   09 Jun 2027 09:09:10.549   09 Jun 2027 09:09:13.427             2.878          1439.000
       260   09 Jun 2027 09:09:37.894   09 Jun 2027 09:09:37.894             0.000             0.000
       261   09 Jun 2027 09:09:47.321   09 Jun 2027 09:09:52.528             5.207          1209.531
       262   09 Jun 2027 09:11:03.103   09 Jun 2027 09:11:07.869             4.766          2205.469
       263   09 Jun 2027 09:11:14.077   09 Jun 2027 09:11:17.918             3.841            91.125
       264   09 Jun 2027 10:40:49.889   09 Jun 2027 10:41:04.174            14.285          6987.094
       265   09 Jun 2027 10:41:56.027   09 Jun 2027 10:41:59.705             3.678          1463.594
       266   09 Jun 2027 10:42:11.657   09 Jun 2027 10:42:25.572            13.915           102.844
       267   09 Jun 2027 10:42:52.823   09 Jun 2027 10:42:54.684             1.861           851.594
       268   09 Jun 2027 10:43:18.987   09 Jun 2027 10:43:19.039             0.052            26.000
       269   09 Jun 2027 10:44:01.949   09 Jun 2027 10:44:08.013             6.064          1562.094
       270   09 Jun 2027 10:44:51.691   09 Jun 2027 10:44:54.562             2.871          1159.406
       271   09 Jun 2027 10:45:21.752   09 Jun 2027 10:45:24.109             2.357           849.687
       272   09 Jun 2027 10:46:44.511   09 Jun 2027 10:46:45.514             1.003           501.500
       273   09 Jun 2027 10:46:50.769   09 Jun 2027 10:46:58.475             7.706          2011.062
       274   09 Jun 2027 10:47:33.624   09 Jun 2027 10:47:35.909             2.285          1098.406
       275   10 Jun 2027 03:05:15.967   10 Jun 2027 03:06:31.923            75.956         37978.000
       276   10 Jun 2027 03:08:07.981   10 Jun 2027 03:08:26.155            18.174          9087.000
       277   10 Jun 2027 03:08:45.977   10 Jun 2027 03:08:52.750             6.773          3386.500
       278   10 Jun 2027 04:29:17.537   10 Jun 2027 04:29:55.278            37.741         18870.500
       279   10 Jun 2027 04:31:04.719   10 Jun 2027 04:31:14.657             9.938          4969.000
       280   10 Jun 2027 06:05:14.268   10 Jun 2027 06:06:59.291           105.023         52511.500
       281   10 Jun 2027 06:07:19.646   10 Jun 2027 06:07:19.646             0.000             0.000
       282   10 Jun 2027 07:39:04.624   10 Jun 2027 07:40:50.624           106.000         52916.281
       283   10 Jun 2027 07:41:14.575   10 Jun 2027 07:41:17.223             2.648           748.469
       284   10 Jun 2027 07:43:57.446   10 Jun 2027 07:44:14.735            17.289          4460.688
       285   10 Jun 2027 07:44:37.013   10 Jun 2027 07:44:37.013             0.000             0.000
       286   10 Jun 2027 07:46:04.147   10 Jun 2027 07:46:06.207             2.060          1030.000
       287   10 Jun 2027 07:46:14.456   10 Jun 2027 07:46:22.410             7.954          2422.531
       288   10 Jun 2027 07:46:36.136   10 Jun 2027 07:46:37.175             1.039           304.438
       289   10 Jun 2027 09:16:12.192   10 Jun 2027 09:16:34.890            22.698          9484.719
       290   10 Jun 2027 09:18:53.905   10 Jun 2027 09:19:02.506             8.601          3256.625
       291   10 Jun 2027 09:19:44.321   10 Jun 2027 09:19:46.279             1.958           578.719
       292   10 Jun 2027 09:20:00.094   10 Jun 2027 09:20:02.538             2.444           343.687
       293   10 Jun 2027 09:20:56.558   10 Jun 2027 09:21:00.431             3.873          1303.375
       294   10 Jun 2027 09:21:26.086   10 Jun 2027 09:21:26.086             0.000             0.000
       295   10 Jun 2027 09:21:33.037   10 Jun 2027 09:21:38.020             4.983           967.656
       296   10 Jun 2027 09:21:52.369   10 Jun 2027 09:21:56.036             3.667           415.125
       297   10 Jun 2027 09:22:55.438   10 Jun 2027 09:23:00.918             5.480          1642.531
       298   10 Jun 2027 09:23:08.266   10 Jun 2027 09:23:12.205             3.939            77.500
       299   10 Jun 2027 09:23:27.180   10 Jun 2027 09:23:28.200             1.020           384.406
       300   10 Jun 2027 10:53:15.245   10 Jun 2027 10:53:23.524             8.279          4139.500
       301   10 Jun 2027 10:53:40.215   10 Jun 2027 10:53:49.848             9.633          4413.031
       302   10 Jun 2027 10:55:30.066   10 Jun 2027 10:55:31.853             1.787           733.062
       303   10 Jun 2027 10:55:59.838   10 Jun 2027 10:56:01.998             2.160           164.813
       304   10 Jun 2027 10:57:01.175   10 Jun 2027 10:57:05.972             4.797          1849.281
       305   10 Jun 2027 10:57:23.033   10 Jun 2027 10:57:25.875             2.842           533.156
       306   10 Jun 2027 10:57:45.809   10 Jun 2027 10:57:46.838             1.029           159.281
       307   10 Jun 2027 10:58:32.012   10 Jun 2027 10:58:35.993             3.981          1302.625
       308   11 Jun 2027 03:17:50.741   11 Jun 2027 03:19:07.213            76.472         38236.000
       309   11 Jun 2027 03:19:16.057   11 Jun 2027 03:19:17.726             1.669           834.500
       310   11 Jun 2027 03:19:48.909   11 Jun 2027 03:20:01.503            12.594          6297.000
       311   11 Jun 2027 03:20:33.619   11 Jun 2027 03:20:34.076             0.457           228.500
       312   11 Jun 2027 04:41:11.356   11 Jun 2027 04:41:48.610            37.254         18627.000
       313   11 Jun 2027 06:17:35.987   11 Jun 2027 06:19:34.296           118.309         59154.500
       314   11 Jun 2027 06:20:35.122   11 Jun 2027 06:20:39.472             4.350          2175.000
       315   11 Jun 2027 06:20:56.762   11 Jun 2027 06:21:02.094             5.332          2666.000
       316   11 Jun 2027 07:51:18.914   11 Jun 2027 07:52:30.438            71.524         35762.000
       317   11 Jun 2027 07:53:12.160   11 Jun 2027 07:53:14.505             2.345          1172.500
       318   11 Jun 2027 07:53:55.384   11 Jun 2027 07:54:01.606             6.222          2404.188
       319   11 Jun 2027 07:55:00.418   11 Jun 2027 07:55:05.831             5.413          1837.875
       320   11 Jun 2027 07:55:23.626   11 Jun 2027 07:55:24.914             1.288           410.438
       321   11 Jun 2027 07:56:44.885   11 Jun 2027 07:56:44.885             0.000             0.000
       322   11 Jun 2027 07:57:55.159   11 Jun 2027 07:58:08.008            12.849          4483.437
       323   11 Jun 2027 07:58:08.595   11 Jun 2027 07:58:08.595             0.000             0.000
       324   11 Jun 2027 07:58:09.033   11 Jun 2027 07:58:10.054             1.021            32.031
       325   11 Jun 2027 07:58:20.514   11 Jun 2027 07:58:23.059             2.545           275.844
       326   11 Jun 2027 07:58:50.870   11 Jun 2027 07:58:52.064             1.194           597.000
       327   11 Jun 2027 07:58:57.036   11 Jun 2027 07:58:58.069             1.033           427.469
       328   11 Jun 2027 09:28:38.631   11 Jun 2027 09:28:56.442            17.811          8561.750
       329   11 Jun 2027 09:30:02.024   11 Jun 2027 09:30:03.459             1.435           667.187
       330   11 Jun 2027 09:30:04.567   11 Jun 2027 09:30:06.860             2.293            34.625
       331   11 Jun 2027 09:30:52.184   11 Jun 2027 09:30:56.374             4.190           927.594
       332   11 Jun 2027 09:30:58.634   11 Jun 2027 09:30:58.860             0.226            70.625
       333   11 Jun 2027 09:31:20.614   11 Jun 2027 09:31:26.148             5.534           679.812
       334   11 Jun 2027 09:31:32.818   11 Jun 2027 09:31:33.868             1.050           208.437
       335   11 Jun 2027 09:32:18.934   11 Jun 2027 09:32:21.025             2.091           965.219
       336   11 Jun 2027 09:33:13.868   11 Jun 2027 09:33:17.153             3.285           738.937
       337   11 Jun 2027 09:33:27.801   11 Jun 2027 09:33:31.785             3.984           226.562
       338   11 Jun 2027 09:33:59.119   11 Jun 2027 09:34:00.868             1.749           776.781
       339   11 Jun 2027 09:34:46.450   11 Jun 2027 09:34:48.333             1.883           941.500
       340   11 Jun 2027 09:35:17.628   11 Jun 2027 09:35:19.479             1.851           925.500
       341   11 Jun 2027 11:05:35.395   11 Jun 2027 11:05:54.973            19.578          6731.094
       342   11 Jun 2027 11:07:15.453   11 Jun 2027 11:07:18.678             3.225          1612.500
       343   11 Jun 2027 11:07:47.868   11 Jun 2027 11:07:54.445             6.577          1417.000
       344   11 Jun 2027 11:08:16.860   11 Jun 2027 11:08:19.437             2.577           690.844
       345   11 Jun 2027 11:09:27.079   11 Jun 2027 11:09:27.429             0.350           175.000
       346   11 Jun 2027 11:09:50.723   11 Jun 2027 11:09:55.096             4.373          2181.344
       347   11 Jun 2027 11:10:27.589   11 Jun 2027 11:10:31.555             3.966           949.125
       348   11 Jun 2027 11:10:41.169   11 Jun 2027 11:10:45.901             4.732           101.531
       349   11 Jun 2027 11:11:04.687   11 Jun 2027 11:11:06.672             1.985           504.437
       350   12 Jun 2027 03:29:28.459   12 Jun 2027 03:31:25.566           117.107         58553.500
       351   12 Jun 2027 03:32:34.120   12 Jun 2027 03:32:37.140             3.020          1510.000
       352   12 Jun 2027 04:52:59.044   12 Jun 2027 04:53:30.510            31.466         15733.000
       353   12 Jun 2027 04:53:30.741   12 Jun 2027 04:54:11.991            41.250         20625.000
       354   12 Jun 2027 06:29:39.273   12 Jun 2027 06:31:17.050            97.777         48888.500
       355   12 Jun 2027 06:31:58.425   12 Jun 2027 06:31:59.845             1.420           710.000
       356   12 Jun 2027 06:32:08.930   12 Jun 2027 06:32:20.400            11.470          5735.000
       357   12 Jun 2027 08:04:38.334   12 Jun 2027 08:05:07.587            29.253         14343.125
       358   12 Jun 2027 08:05:53.270   12 Jun 2027 08:05:57.043             3.773          1203.719
       359   12 Jun 2027 08:07:18.937   12 Jun 2027 08:07:25.824             6.887          2478.250
       360   12 Jun 2027 08:08:02.851   12 Jun 2027 08:08:02.851             0.000             0.000
       361   12 Jun 2027 08:08:27.489   12 Jun 2027 08:08:29.750             2.261          1061.844
       362   12 Jun 2027 08:09:12.122   12 Jun 2027 08:09:17.837             5.715          1324.125
       363   12 Jun 2027 08:09:47.713   12 Jun 2027 08:09:48.941             1.228           567.500
       364   12 Jun 2027 08:09:54.799   12 Jun 2027 08:09:55.185             0.386           179.281
       365   12 Jun 2027 08:10:02.293   12 Jun 2027 08:10:07.672             5.379           222.125
       366   12 Jun 2027 08:10:37.715   12 Jun 2027 08:10:43.684             5.969           877.812
       367   12 Jun 2027 08:11:03.960   12 Jun 2027 08:11:05.692             1.732           633.625
       368   12 Jun 2027 08:11:15.610   12 Jun 2027 08:11:17.250             1.640           309.937
       369   12 Jun 2027 09:40:46.604   12 Jun 2027 09:41:01.103            14.499          6146.969
       370   12 Jun 2027 09:41:43.402   12 Jun 2027 09:41:46.370             2.968           969.844
       371   12 Jun 2027 09:43:03.489   12 Jun 2027 09:43:10.217             6.728          2313.094
       372   12 Jun 2027 09:43:22.431   12 Jun 2027 09:43:23.452             1.021           179.594
       373   12 Jun 2027 09:43:33.245   12 Jun 2027 09:43:36.312             3.067           107.219
       374   12 Jun 2027 09:44:20.600   12 Jun 2027 09:44:28.306             7.706           927.312
       375   12 Jun 2027 09:45:11.922   12 Jun 2027 09:45:14.991             3.069          1363.000
       376   12 Jun 2027 09:45:31.579   12 Jun 2027 09:45:32.352             0.773           386.500
       377   12 Jun 2027 09:45:47.380   12 Jun 2027 09:45:47.975             0.595           297.500
       378   12 Jun 2027 09:46:29.007   12 Jun 2027 09:46:33.536             4.529          1554.468
       379   12 Jun 2027 09:46:54.179   12 Jun 2027 09:46:55.639             1.460           645.094
       380   12 Jun 2027 11:18:30.723   12 Jun 2027 11:18:47.768            17.045          7303.094
       381   12 Jun 2027 11:20:06.677   12 Jun 2027 11:20:11.029             4.352          2176.000
       382   12 Jun 2027 11:20:36.624   12 Jun 2027 11:20:39.081             2.457          1089.750
       383   12 Jun 2027 11:21:36.421   12 Jun 2027 11:21:40.331             3.910          1658.156
       384   12 Jun 2027 11:22:40.948   12 Jun 2027 11:22:49.942             8.994          1588.313
       385   13 Jun 2027 03:41:51.238   13 Jun 2027 03:42:22.310            31.072         15536.000
       386   13 Jun 2027 03:42:40.837   13 Jun 2027 03:43:59.530            78.693         39346.500
       387   13 Jun 2027 03:44:35.358   13 Jun 2027 03:44:39.252             3.894          1947.000
       388   13 Jun 2027 05:05:13.479   13 Jun 2027 05:06:14.419            60.940         30470.000
       389   13 Jun 2027 06:41:45.551   13 Jun 2027 06:43:46.074           120.523         60261.500
       390   13 Jun 2027 06:44:45.135   13 Jun 2027 06:44:45.869             0.734           367.000
       391   13 Jun 2027 06:45:04.929   13 Jun 2027 06:45:15.541            10.612          5306.000
       392   13 Jun 2027 08:16:55.936   13 Jun 2027 08:17:27.786            31.850         14413.062
       393   13 Jun 2027 08:17:39.439   13 Jun 2027 08:17:40.401             0.962           214.219
       394   13 Jun 2027 08:18:39.314   13 Jun 2027 08:18:48.710             9.396          1471.687
       395   13 Jun 2027 08:19:02.332   13 Jun 2027 08:19:03.304             0.972           390.125
       396   13 Jun 2027 08:19:48.841   13 Jun 2027 08:19:51.453             2.612          1065.969
       397   13 Jun 2027 08:19:54.446   13 Jun 2027 08:19:54.598             0.152            12.813
       398   13 Jun 2027 08:20:29.992   13 Jun 2027 08:20:43.933            13.941           546.656
       399   13 Jun 2027 08:21:38.338   13 Jun 2027 08:21:42.401             4.063          1652.781
       400   13 Jun 2027 08:21:52.034   13 Jun 2027 08:21:52.825             0.791           301.031
       401   13 Jun 2027 08:22:35.488   13 Jun 2027 08:22:37.232             1.744           864.094
       402   13 Jun 2027 08:23:31.128   13 Jun 2027 08:23:32.205             1.077           538.500
       403   13 Jun 2027 09:53:18.883   13 Jun 2027 09:53:31.994            13.111          6376.750
       404   13 Jun 2027 09:55:01.069   13 Jun 2027 09:55:09.422             8.353          2412.375
       405   13 Jun 2027 09:55:30.536   13 Jun 2027 09:55:33.862             3.326           659.812
       406   13 Jun 2027 09:55:53.011   13 Jun 2027 09:55:53.206             0.195            97.500
       407   13 Jun 2027 09:56:02.643   13 Jun 2027 09:56:04.838             2.195           583.094
       408   13 Jun 2027 09:56:11.787   13 Jun 2027 09:56:12.712             0.925           217.156
       409   13 Jun 2027 09:56:40.498   13 Jun 2027 09:56:42.615             2.117           472.406
       410   13 Jun 2027 09:57:30.123   13 Jun 2027 09:57:37.801             7.678           564.219
       411   13 Jun 2027 09:57:40.965   13 Jun 2027 09:57:41.790             0.825            98.875
       412   13 Jun 2027 09:58:21.400   13 Jun 2027 09:58:27.767             6.367          1237.813
       413   13 Jun 2027 09:58:31.155   13 Jun 2027 09:58:34.597             3.442            37.531
       414   13 Jun 2027 09:58:45.022   13 Jun 2027 09:58:45.593             0.571           185.625
       415   13 Jun 2027 09:58:57.688   13 Jun 2027 09:58:58.772             1.084           237.344
       416   13 Jun 2027 09:59:21.553   13 Jun 2027 09:59:25.003             3.450           607.000
       417   13 Jun 2027 11:30:36.153   13 Jun 2027 11:30:54.046            17.893          7529.250
       418   13 Jun 2027 11:31:21.460   13 Jun 2027 11:31:25.186             3.726           856.687
       419   13 Jun 2027 11:31:42.879   13 Jun 2027 11:31:44.024             1.145           155.375
       420   13 Jun 2027 11:32:11.416   13 Jun 2027 11:32:16.847             5.431           856.000
       421   13 Jun 2027 11:32:19.687   13 Jun 2027 11:32:22.224             2.537            20.250
       422   13 Jun 2027 11:32:54.237   13 Jun 2027 11:33:01.137             6.900           491.187
       423   13 Jun 2027 11:34:07.099   13 Jun 2027 11:34:15.976             8.877          1937.500
       424   13 Jun 2027 11:34:50.752   13 Jun 2027 11:34:52.341             1.589           794.500
       425   13 Jun 2027 11:35:07.891   13 Jun 2027 11:35:12.546             4.655           778.187
