uniorb/output/strategy_1/Camera/Camera_KinoSat_110408.txt

KinoSat_110408
-------------------------
    Access    *     Start Time (UTCG)     *     Stop Time (UTCG)  *   Duration (s) *   Data (Mbytes)
         1   01 Jun 2027 03:20:57.963   01 Jun 2027 03:22:01.289            63.326         31663.000
         2   01 Jun 2027 03:22:22.246   01 Jun 2027 03:22:41.546            19.300          9650.000
         3   01 Jun 2027 03:22:51.670   01 Jun 2027 03:22:51.670             0.000             0.000
         4   01 Jun 2027 03:23:07.097   01 Jun 2027 03:23:12.009             4.912          2456.000
         5   01 Jun 2027 03:23:21.523   01 Jun 2027 03:23:24.962             3.439          1719.500
         6   01 Jun 2027 03:24:34.543   01 Jun 2027 03:24:47.173            12.630          6315.000
         7   01 Jun 2027 03:25:19.721   01 Jun 2027 03:25:45.065            25.344         12672.000
         8   01 Jun 2027 03:26:55.288   01 Jun 2027 03:26:58.066             2.778          1389.000
         9   01 Jun 2027 03:27:01.975   01 Jun 2027 03:27:10.338             8.363          4181.500
        10   01 Jun 2027 03:28:29.002   01 Jun 2027 03:29:01.854            32.852         16426.000
        11   01 Jun 2027 03:29:44.832   01 Jun 2027 03:29:48.046             3.214          1607.000
        12   01 Jun 2027 03:29:51.274   01 Jun 2027 03:30:05.910            14.636          7318.000
        13   01 Jun 2027 04:58:52.355   01 Jun 2027 05:00:51.928           119.573         59786.500
        14   01 Jun 2027 05:01:29.944   01 Jun 2027 05:01:39.642             9.698          4849.000
        15   01 Jun 2027 05:02:27.677   01 Jun 2027 05:02:36.806             9.129          4564.500
        16   01 Jun 2027 05:02:59.051   01 Jun 2027 05:03:07.768             8.717          4358.500
        17   01 Jun 2027 05:05:14.206   01 Jun 2027 05:05:45.840            31.634         15817.000
        18   01 Jun 2027 05:06:08.098   01 Jun 2027 05:06:17.722             9.624          4812.000
        19   01 Jun 2027 06:35:36.482   01 Jun 2027 06:38:35.736           179.254         89627.000
        20   01 Jun 2027 06:39:06.559   01 Jun 2027 06:39:14.647             8.088          4044.000
        21   01 Jun 2027 06:39:49.941   01 Jun 2027 06:39:50.941             1.000           500.000
        22   01 Jun 2027 06:40:50.456   01 Jun 2027 06:41:09.728            19.272          9636.000
        23   01 Jun 2027 06:41:35.902   01 Jun 2027 06:41:51.929            16.027          8013.500
        24   01 Jun 2027 08:13:30.004   01 Jun 2027 08:15:54.875           144.871         72435.500
        25   01 Jun 2027 08:17:10.491   01 Jun 2027 08:17:16.778             6.287          3143.500
        26   01 Jun 2027 09:49:27.836   01 Jun 2027 09:51:30.249           122.413         61206.500
        27   01 Jun 2027 09:52:10.778   01 Jun 2027 09:52:20.070             9.292          4646.000
        28   01 Jun 2027 09:52:47.768   01 Jun 2027 09:52:48.355             0.587           293.500
        29   01 Jun 2027 09:52:52.373   01 Jun 2027 09:52:57.906             5.533          2766.500
        30   01 Jun 2027 09:53:07.610   01 Jun 2027 09:53:26.620            19.010          9505.000
        31   02 Jun 2027 03:33:50.967   02 Jun 2027 03:39:06.556           315.589        157794.500
        32   02 Jun 2027 03:39:39.730   02 Jun 2027 03:40:12.299            32.569         16284.500
        33   02 Jun 2027 03:42:06.351   02 Jun 2027 03:42:21.540            15.189          7594.500
        34   02 Jun 2027 05:11:00.815   02 Jun 2027 05:13:44.103           163.288         81644.000
        35   02 Jun 2027 05:14:28.122   02 Jun 2027 05:14:40.194            12.072          6036.000
        36   02 Jun 2027 05:15:55.085   02 Jun 2027 05:16:01.385             6.300          3150.000
        37   02 Jun 2027 06:48:15.143   02 Jun 2027 06:50:38.724           143.581         71790.500
        38   02 Jun 2027 06:52:34.336   02 Jun 2027 06:52:45.627            11.291          5645.500
        39   02 Jun 2027 06:52:55.789   02 Jun 2027 06:53:18.014            22.225         11112.500
        40   02 Jun 2027 08:24:55.955   02 Jun 2027 08:27:49.995           174.040         87020.000
        41   02 Jun 2027 08:28:26.530   02 Jun 2027 08:28:37.251            10.721          5360.500
        42   02 Jun 2027 08:28:41.605   02 Jun 2027 08:28:43.508             1.903           951.500
        43   02 Jun 2027 08:29:21.364   02 Jun 2027 08:29:30.364             9.000          4500.000
        44   02 Jun 2027 08:29:36.668   02 Jun 2027 08:29:45.949             9.281          4640.500
        45   02 Jun 2027 10:00:08.526   02 Jun 2027 10:00:22.360            13.834          6917.000
        46   02 Jun 2027 10:01:54.056   02 Jun 2027 10:03:13.615            79.559         39779.500
        47   02 Jun 2027 10:03:43.090   02 Jun 2027 10:03:55.958            12.868          6434.000
        48   03 Jun 2027 03:46:17.242   03 Jun 2027 03:52:48.724           391.482        195741.000
        49   03 Jun 2027 03:52:59.863   03 Jun 2027 03:53:11.636            11.773          5886.500
        50   03 Jun 2027 03:53:35.864   03 Jun 2027 03:53:50.514            14.650          7325.000
        51   03 Jun 2027 03:54:16.981   03 Jun 2027 03:54:19.875             2.894          1447.000
        52   03 Jun 2027 05:23:25.532   03 Jun 2027 05:26:51.937           206.405        103202.500
        53   03 Jun 2027 05:27:40.578   03 Jun 2027 05:27:50.824            10.246          5123.000
        54   03 Jun 2027 05:28:31.170   03 Jun 2027 05:28:59.855            28.685         14342.500
        55   03 Jun 2027 07:00:23.548   03 Jun 2027 07:03:07.005           163.457         81728.500
        56   03 Jun 2027 07:03:26.585   03 Jun 2027 07:03:40.313            13.728          6864.000
        57   03 Jun 2027 07:04:32.644   03 Jun 2027 07:04:46.242            13.598          6799.000
        58   03 Jun 2027 07:04:58.479   03 Jun 2027 07:05:09.448            10.969          5484.500
        59   03 Jun 2027 08:37:10.699   03 Jun 2027 08:39:25.969           135.270         67635.000
        60   03 Jun 2027 08:40:14.007   03 Jun 2027 08:40:25.284            11.277          5638.500
        61   03 Jun 2027 08:40:29.417   03 Jun 2027 08:40:37.209             7.792          3896.000
        62   03 Jun 2027 10:15:21.181   03 Jun 2027 10:16:21.741            60.560         30280.000
        63   04 Jun 2027 03:59:30.607   04 Jun 2027 04:05:16.228           345.621        172810.500
        64   04 Jun 2027 04:05:16.424   04 Jun 2027 04:05:29.599            13.175          6587.500
        65   04 Jun 2027 04:06:11.488   04 Jun 2027 04:06:19.781             8.293          4146.500
        66   04 Jun 2027 05:35:51.112   04 Jun 2027 05:38:51.838           180.726         90363.000
        67   04 Jun 2027 05:39:08.978   04 Jun 2027 05:39:21.226            12.248          6124.000
        68   04 Jun 2027 05:40:24.116   04 Jun 2027 05:40:27.018             2.902          1451.000
        69   04 Jun 2027 05:40:50.023   04 Jun 2027 05:41:03.650            13.627          6813.500
        70   04 Jun 2027 05:42:09.996   04 Jun 2027 05:42:13.500             3.504          1752.000
        71   04 Jun 2027 07:13:25.142   04 Jun 2027 07:16:29.444           184.302         92151.000
        72   04 Jun 2027 07:17:03.874   04 Jun 2027 07:17:08.217             4.343          2171.500
        73   04 Jun 2027 07:17:33.371   04 Jun 2027 07:17:43.284             9.913          4956.500
        74   04 Jun 2027 08:49:28.531   04 Jun 2027 08:50:21.318            52.787         26393.500
        75   04 Jun 2027 08:51:04.329   04 Jun 2027 08:51:11.421             7.092          3546.000
        76   04 Jun 2027 08:51:32.535   04 Jun 2027 08:51:41.253             8.718          4359.000
        77   04 Jun 2027 08:52:11.164   04 Jun 2027 08:52:22.738            11.574          5787.000
        78   04 Jun 2027 08:53:02.988   04 Jun 2027 08:53:16.881            13.893          6946.500
        79   05 Jun 2027 04:11:42.539   05 Jun 2027 04:13:30.326           107.787         53893.500
        80   05 Jun 2027 04:13:49.291   05 Jun 2027 04:17:06.512           197.221         98610.500
        81   05 Jun 2027 04:17:56.206   05 Jun 2027 04:18:02.492             6.286          3143.000
        82   05 Jun 2027 04:18:04.151   05 Jun 2027 04:18:18.055            13.904          6952.000
        83   05 Jun 2027 05:48:02.138   05 Jun 2027 05:50:30.872           148.734         74367.000
        84   05 Jun 2027 05:51:47.926   05 Jun 2027 05:52:08.901            20.975         10487.500
        85   05 Jun 2027 05:52:29.239   05 Jun 2027 05:52:41.000            11.761          5880.500
        86   05 Jun 2027 05:53:34.216   05 Jun 2027 05:53:46.373            12.157          6078.500
        87   05 Jun 2027 05:53:54.104   05 Jun 2027 05:54:05.656            11.552          5776.000
        88   05 Jun 2027 07:25:29.011   05 Jun 2027 07:27:58.288           149.277         74638.500
        89   05 Jun 2027 07:29:05.146   05 Jun 2027 07:29:16.796            11.650          5825.000
        90   05 Jun 2027 07:29:27.838   05 Jun 2027 07:29:37.366             9.528          4764.000
        91   05 Jun 2027 09:01:32.573   05 Jun 2027 09:02:16.579            44.006         22003.000
        92   05 Jun 2027 09:03:42.730   05 Jun 2027 09:04:03.299            20.569         10284.500
        93   05 Jun 2027 09:05:02.141   05 Jun 2027 09:05:12.372            10.231          5115.500
        94   05 Jun 2027 09:05:42.175   05 Jun 2027 09:05:43.037             0.862           431.000
        95   05 Jun 2027 09:06:03.590   05 Jun 2027 09:06:06.049             2.459          1229.500
        96   05 Jun 2027 09:06:14.263   05 Jun 2027 09:06:18.282             4.019          2009.500
        97   06 Jun 2027 04:23:11.685   06 Jun 2027 04:25:39.249           147.564         73782.000
        98   06 Jun 2027 04:26:36.370   06 Jun 2027 04:30:18.053           221.683        110841.500
        99   06 Jun 2027 04:30:23.625   06 Jun 2027 04:30:27.619             3.994          1997.000
       100   06 Jun 2027 05:59:42.046   06 Jun 2027 06:02:37.003           174.957         87478.500
       101   06 Jun 2027 06:05:07.915   06 Jun 2027 06:05:48.985            41.070         20535.000
       102   06 Jun 2027 07:38:00.073   06 Jun 2027 07:40:16.739           136.666         68333.000
       103   06 Jun 2027 09:13:25.457   06 Jun 2027 09:14:16.941            51.484         25742.000
       104   06 Jun 2027 09:16:08.519   06 Jun 2027 09:16:34.948            26.429         13214.500
       105   06 Jun 2027 09:18:26.770   06 Jun 2027 09:18:35.930             9.160          4580.000
       106   07 Jun 2027 03:00:04.086   07 Jun 2027 03:03:53.905           229.819        114909.500
       107   07 Jun 2027 03:04:07.011   07 Jun 2027 03:04:19.252            12.241          6120.500
       108   07 Jun 2027 04:34:55.797   07 Jun 2027 04:36:48.776           112.979         56489.500
       109   07 Jun 2027 04:37:06.456   07 Jun 2027 04:37:06.456             0.000             0.000
       110   07 Jun 2027 04:37:47.008   07 Jun 2027 04:38:07.898            20.890         10445.000
       111   07 Jun 2027 04:39:26.596   07 Jun 2027 04:39:37.029            10.433          5216.500
       112   07 Jun 2027 04:39:57.580   07 Jun 2027 04:40:04.658             7.078          3539.000
       113   07 Jun 2027 04:40:23.478   07 Jun 2027 04:40:26.479             3.001          1500.500
       114   07 Jun 2027 04:41:01.227   07 Jun 2027 04:41:11.017             9.790          4895.000
       115   07 Jun 2027 04:41:41.387   07 Jun 2027 04:41:58.834            17.447          8723.500
       116   07 Jun 2027 06:12:01.862   07 Jun 2027 06:15:04.364           182.502         91251.000
       117   07 Jun 2027 06:16:20.334   07 Jun 2027 06:16:32.795            12.461          6230.500
       118   07 Jun 2027 06:17:17.417   07 Jun 2027 06:17:26.340             8.923          4461.500
       119   07 Jun 2027 06:17:45.346   07 Jun 2027 06:17:50.475             5.129          2564.500
       120   07 Jun 2027 07:49:57.373   07 Jun 2027 07:52:09.091           131.718         65859.000
       121   07 Jun 2027 07:53:06.900   07 Jun 2027 07:53:17.898            10.998          5499.000
       122   07 Jun 2027 09:23:02.987   07 Jun 2027 09:23:38.893            35.906         17953.000
       123   07 Jun 2027 09:24:20.890   07 Jun 2027 09:24:47.489            26.599         13299.500
       124   07 Jun 2027 09:26:31.950   07 Jun 2027 09:26:37.306             5.356          2678.000
       125   07 Jun 2027 09:27:11.130   07 Jun 2027 09:27:26.553            15.423          7711.500
       126   07 Jun 2027 09:28:09.439   07 Jun 2027 09:28:16.241             6.802          3401.000
       127   07 Jun 2027 09:28:55.961   07 Jun 2027 09:29:02.385             6.424          3212.000
       128   07 Jun 2027 09:29:09.469   07 Jun 2027 09:29:15.915             6.446          3223.000
       129   07 Jun 2027 09:30:04.976   07 Jun 2027 09:30:07.589             2.613          1306.500
       130   07 Jun 2027 09:30:25.713   07 Jun 2027 09:30:42.790            17.077          8538.500
       131   08 Jun 2027 03:09:43.343   08 Jun 2027 03:11:40.697           117.354         58677.000
       132   08 Jun 2027 03:11:48.593   08 Jun 2027 03:13:31.791           103.198         51599.000
       133   08 Jun 2027 03:14:04.399   08 Jun 2027 03:14:15.125            10.726          5363.000
       134   08 Jun 2027 03:14:28.078   08 Jun 2027 03:14:35.239             7.161          3580.500
       135   08 Jun 2027 03:14:39.408   08 Jun 2027 03:14:47.884             8.476          4238.000
       136   08 Jun 2027 03:16:44.825   08 Jun 2027 03:17:06.737            21.912         10956.000
       137   08 Jun 2027 03:17:42.131   08 Jun 2027 03:17:43.503             1.372           686.000
       138   08 Jun 2027 04:47:13.181   08 Jun 2027 04:49:05.508           112.327         56163.500
       139   08 Jun 2027 04:49:40.555   08 Jun 2027 04:49:48.741             8.186          4093.000
       140   08 Jun 2027 04:53:52.747   08 Jun 2027 04:54:31.837            39.090         19545.000
       141   08 Jun 2027 06:23:57.903   08 Jun 2027 06:26:54.024           176.121         88060.500
       142   08 Jun 2027 06:27:52.072   08 Jun 2027 06:27:58.919             6.847          3423.500
       143   08 Jun 2027 06:28:14.040   08 Jun 2027 06:28:19.918             5.878          2939.000
       144   08 Jun 2027 06:29:11.527   08 Jun 2027 06:29:15.660             4.133          2066.500
       145   08 Jun 2027 06:29:17.244   08 Jun 2027 06:29:25.629             8.385          4192.500
       146   08 Jun 2027 06:30:05.768   08 Jun 2027 06:30:10.270             4.502          2251.000
       147   08 Jun 2027 06:30:14.087   08 Jun 2027 06:30:31.321            17.234          8617.000
       148   08 Jun 2027 08:01:56.650   08 Jun 2027 08:03:25.069            88.419         44209.500
       149   08 Jun 2027 08:03:33.553   08 Jun 2027 08:03:37.149             3.596          1798.000
       150   08 Jun 2027 08:04:06.495   08 Jun 2027 08:04:09.801             3.306          1653.000
       151   08 Jun 2027 08:04:28.709   08 Jun 2027 08:04:34.079             5.370          2685.000
       152   08 Jun 2027 08:04:57.407   08 Jun 2027 08:05:07.144             9.737          4868.500
       153   08 Jun 2027 08:05:45.788   08 Jun 2027 08:06:03.576            17.788          8894.000
       154   08 Jun 2027 09:35:34.161   08 Jun 2027 09:35:58.811            24.650         12325.000
       155   08 Jun 2027 09:37:05.504   08 Jun 2027 09:37:17.127            11.623          5811.500
       156   08 Jun 2027 09:38:13.612   08 Jun 2027 09:38:42.627            29.015         14507.500
       157   08 Jun 2027 09:40:58.342   08 Jun 2027 09:41:13.533            15.191          7595.500
       158   08 Jun 2027 09:41:26.838   08 Jun 2027 09:41:34.274             7.436          3718.000
       159   08 Jun 2027 09:42:16.068   08 Jun 2027 09:42:18.182             2.114          1057.000
       160   09 Jun 2027 03:21:12.412   09 Jun 2027 03:24:49.789           217.377        108688.500
       161   09 Jun 2027 03:25:34.863   09 Jun 2027 03:25:59.796            24.933         12466.500
       162   09 Jun 2027 03:26:45.287   09 Jun 2027 03:26:45.826             0.539           269.500
       163   09 Jun 2027 03:27:13.441   09 Jun 2027 03:27:25.048            11.607          5803.500
       164   09 Jun 2027 03:28:45.327   09 Jun 2027 03:29:16.515            31.188         15594.000
       165   09 Jun 2027 03:30:22.620   09 Jun 2027 03:30:25.351             2.731          1365.500
       166   09 Jun 2027 04:59:07.076   09 Jun 2027 05:01:31.985           144.909         72454.500
       167   09 Jun 2027 05:01:44.683   09 Jun 2027 05:01:54.320             9.637          4818.500
       168   09 Jun 2027 05:02:41.900   09 Jun 2027 05:02:51.981            10.081          5040.500
       169   09 Jun 2027 05:03:13.771   09 Jun 2027 05:03:23.366             9.595          4797.500
       170   09 Jun 2027 05:03:57.777   09 Jun 2027 05:04:10.683            12.906          6453.000
       171   09 Jun 2027 05:04:26.378   09 Jun 2027 05:04:39.415            13.037          6518.500
       172   09 Jun 2027 05:06:21.805   09 Jun 2027 05:06:32.525            10.720          5360.000
       173   09 Jun 2027 06:35:51.367   09 Jun 2027 06:38:17.185           145.818         72909.000
       174   09 Jun 2027 06:39:00.645   09 Jun 2027 06:39:13.454            12.809          6404.500
       175   09 Jun 2027 06:39:31.525   09 Jun 2027 06:39:32.083             0.558           279.000
       176   09 Jun 2027 06:39:36.444   09 Jun 2027 06:39:41.041             4.597          2298.500
       177   09 Jun 2027 06:40:03.924   09 Jun 2027 06:40:05.529             1.605           802.500
       178   09 Jun 2027 06:41:06.815   09 Jun 2027 06:41:26.812            19.997          9998.500
       179   09 Jun 2027 06:41:52.837   09 Jun 2027 06:42:07.477            14.640          7320.000
       180   09 Jun 2027 08:13:44.746   09 Jun 2027 08:14:46.531            61.785         30892.500
       181   09 Jun 2027 08:15:21.317   09 Jun 2027 08:15:21.584             0.267           133.500
       182   09 Jun 2027 08:15:36.921   09 Jun 2027 08:15:46.267             9.346          4673.000
       183   09 Jun 2027 08:16:16.186   09 Jun 2027 08:16:21.437             5.251          2625.500
       184   09 Jun 2027 08:17:25.220   09 Jun 2027 08:17:44.924            19.704          9852.000
       185   09 Jun 2027 09:49:42.653   09 Jun 2027 09:50:03.048            20.395         10197.500
       186   09 Jun 2027 09:50:29.868   09 Jun 2027 09:50:47.220            17.352          8676.000
       187   09 Jun 2027 09:51:33.198   09 Jun 2027 09:51:35.581             2.383          1191.500
       188   09 Jun 2027 09:52:09.952   09 Jun 2027 09:52:17.828             7.876          3938.000
       189   09 Jun 2027 09:52:31.299   09 Jun 2027 09:52:34.765             3.466          1733.000
       190   09 Jun 2027 09:53:02.420   09 Jun 2027 09:53:15.841            13.421          6710.500
       191   10 Jun 2027 03:34:05.454   10 Jun 2027 03:38:42.077           276.623        138311.500
       192   10 Jun 2027 03:39:12.342   10 Jun 2027 03:39:17.221             4.879          2439.500
       193   10 Jun 2027 03:40:46.123   10 Jun 2027 03:41:14.825            28.702         14351.000
       194   10 Jun 2027 03:41:45.071   10 Jun 2027 03:41:57.818            12.747          6373.500
       195   10 Jun 2027 03:42:35.649   10 Jun 2027 03:42:36.209             0.560           280.000
       196   10 Jun 2027 05:11:16.006   10 Jun 2027 05:13:59.097           163.091         81545.500
       197   10 Jun 2027 05:15:19.623   10 Jun 2027 05:15:39.170            19.547          9773.500
       198   10 Jun 2027 05:16:39.628   10 Jun 2027 05:17:04.185            24.557         12278.500
       199   10 Jun 2027 05:17:49.888   10 Jun 2027 05:17:58.656             8.768          4384.000
       200   10 Jun 2027 05:18:16.524   10 Jun 2027 05:18:31.770            15.246          7623.000
       201   10 Jun 2027 06:48:30.097   10 Jun 2027 06:50:08.144            98.047         49023.500
       202   10 Jun 2027 06:50:46.116   10 Jun 2027 06:51:40.575            54.459         27229.500
       203   10 Jun 2027 06:52:09.533   10 Jun 2027 06:52:17.504             7.971          3985.500
       204   10 Jun 2027 06:52:33.553   10 Jun 2027 06:52:36.244             2.691          1345.500
       205   10 Jun 2027 06:53:26.299   10 Jun 2027 06:53:41.523            15.224          7612.000
       206   10 Jun 2027 06:54:11.677   10 Jun 2027 06:54:15.261             3.584          1792.000
       207   10 Jun 2027 08:25:10.670   10 Jun 2027 08:26:09.324            58.654         29327.000
       208   10 Jun 2027 08:26:32.292   10 Jun 2027 08:26:55.874            23.582         11791.000
       209   10 Jun 2027 08:29:33.453   10 Jun 2027 08:30:00.462            27.009         13504.500
       210   10 Jun 2027 10:00:23.419   10 Jun 2027 10:00:34.615            11.196          5598.000
       211   10 Jun 2027 10:02:09.067   10 Jun 2027 10:02:17.237             8.170          4085.000
       212   10 Jun 2027 10:02:37.475   10 Jun 2027 10:02:44.641             7.166          3583.000
       213   10 Jun 2027 10:03:21.145   10 Jun 2027 10:03:28.219             7.074          3537.000
       214   10 Jun 2027 10:03:57.528   10 Jun 2027 10:04:10.613            13.085          6542.500
       215   11 Jun 2027 03:46:33.015   11 Jun 2027 03:51:13.387           280.372        140186.000
       216   11 Jun 2027 03:51:22.112   11 Jun 2027 03:51:23.481             1.369           684.500
       217   11 Jun 2027 03:52:02.268   11 Jun 2027 03:52:20.170            17.902          8951.000
       218   11 Jun 2027 03:53:14.847   11 Jun 2027 03:53:26.391            11.544          5772.000
       219   11 Jun 2027 03:54:31.562   11 Jun 2027 03:54:34.459             2.897          1448.500
       220   11 Jun 2027 05:23:40.173   11 Jun 2027 05:26:03.101           142.928         71464.000
       221   11 Jun 2027 05:26:30.515   11 Jun 2027 05:27:08.478            37.963         18981.500
       222   11 Jun 2027 05:27:54.593   11 Jun 2027 05:27:57.573             2.980          1490.000
       223   11 Jun 2027 05:28:08.705   11 Jun 2027 05:28:08.705             0.000             0.000
       224   11 Jun 2027 05:28:46.624   11 Jun 2027 05:28:49.809             3.185          1592.500
       225   11 Jun 2027 05:29:59.779   11 Jun 2027 05:30:22.236            22.457         11228.500
       226   11 Jun 2027 07:00:38.003   11 Jun 2027 07:03:25.172           167.169         83584.500
       227   11 Jun 2027 07:03:57.388   11 Jun 2027 07:03:58.514             1.126           563.000
       228   11 Jun 2027 07:04:26.000   11 Jun 2027 07:04:47.690            21.690         10845.000
       229   11 Jun 2027 08:37:25.373   11 Jun 2027 08:38:02.140            36.767         18383.500
       230   11 Jun 2027 08:39:10.693   11 Jun 2027 08:39:24.632            13.939          6969.500
       231   11 Jun 2027 08:39:37.397   11 Jun 2027 08:39:40.311             2.914          1457.000
       232   11 Jun 2027 08:39:45.604   11 Jun 2027 08:39:59.128            13.524          6762.000
       233   11 Jun 2027 08:41:23.362   11 Jun 2027 08:41:38.819            15.457          7728.500
       234   11 Jun 2027 10:15:35.746   11 Jun 2027 10:15:39.867             4.121          2060.500
       235   11 Jun 2027 10:16:30.303   11 Jun 2027 10:16:36.333             6.030          3015.000
       236   12 Jun 2027 03:59:45.162   12 Jun 2027 04:05:14.566           329.404        164702.000
       237   12 Jun 2027 04:06:26.048   12 Jun 2027 04:06:34.487             8.439          4219.500
       238   12 Jun 2027 05:36:05.672   12 Jun 2027 05:39:07.272           181.600         90800.000
       239   12 Jun 2027 05:39:50.723   12 Jun 2027 05:40:19.555            28.832         14416.000
       240   12 Jun 2027 05:41:26.638   12 Jun 2027 05:41:30.119             3.481          1740.500
       241   12 Jun 2027 07:13:39.732   12 Jun 2027 07:16:07.063           147.331         73665.500
       242   12 Jun 2027 07:16:28.485   12 Jun 2027 07:16:44.427            15.942          7971.000
       243   12 Jun 2027 07:17:49.976   12 Jun 2027 07:17:54.366             4.390          2195.000
       244   12 Jun 2027 08:49:43.081   12 Jun 2027 08:50:35.978            52.897         26448.500
       245   12 Jun 2027 08:51:57.018   12 Jun 2027 08:51:58.891             1.873           936.500
       246   12 Jun 2027 08:52:25.797   12 Jun 2027 08:52:37.665            11.868          5934.000
       247   12 Jun 2027 08:52:46.542   12 Jun 2027 08:52:57.356            10.814          5407.000
       248   12 Jun 2027 08:53:17.880   12 Jun 2027 08:53:18.841             0.961           480.500
       249   13 Jun 2027 04:11:57.140   13 Jun 2027 04:17:00.086           302.946        151473.000
       250   13 Jun 2027 04:17:21.344   13 Jun 2027 04:18:11.346            50.002         25001.000
       251   13 Jun 2027 05:48:15.377   13 Jun 2027 05:51:20.394           185.017         92508.500
       252   13 Jun 2027 05:52:50.907   13 Jun 2027 05:53:16.340            25.433         12716.500
       253   13 Jun 2027 05:53:54.469   13 Jun 2027 05:53:57.682             3.213          1606.500
       254   13 Jun 2027 07:25:43.857   13 Jun 2027 07:28:16.065           152.208         76104.000
       255   13 Jun 2027 07:28:34.400   13 Jun 2027 07:28:47.909            13.509          6754.500
       256   13 Jun 2027 07:29:39.712   13 Jun 2027 07:29:43.520             3.808          1904.000
       257   13 Jun 2027 07:29:54.204   13 Jun 2027 07:29:54.737             0.533           266.500
       258   13 Jun 2027 09:01:47.230   13 Jun 2027 09:02:32.025            44.795         22397.500
       259   13 Jun 2027 09:04:01.423   13 Jun 2027 09:04:18.487            17.064          8532.000
       260   13 Jun 2027 09:05:39.069   13 Jun 2027 09:05:49.986            10.917          5458.500
       261   13 Jun 2027 09:06:25.827   13 Jun 2027 09:06:40.265            14.438          7219.000
