uniorb/output/strategy_1/Camera/Camera_KinoSat_112001.txt

KinoSat_112001
-------------------------
    Access    *     Start Time (UTCG)     *     Stop Time (UTCG)  *   Duration (s) *   Data (Mbytes)
         1   01 Jun 2027 03:35:20.440   01 Jun 2027 03:36:31.282            70.842         35421.000
         2   01 Jun 2027 03:36:47.461   01 Jun 2027 03:37:09.537            22.076         11038.000
         3   01 Jun 2027 03:38:42.536   01 Jun 2027 03:39:27.647            45.111         22555.500
         4   01 Jun 2027 03:39:50.379   01 Jun 2027 03:39:55.263             4.884          2442.000
         5   01 Jun 2027 03:40:31.843   01 Jun 2027 03:40:32.438             0.595           297.500
         6   01 Jun 2027 03:40:41.920   01 Jun 2027 03:40:52.186            10.266          5133.000
         7   01 Jun 2027 03:41:57.982   01 Jun 2027 03:42:05.808             7.826          3913.000
         8   01 Jun 2027 05:13:17.896   01 Jun 2027 05:13:20.708             2.812          1406.000
         9   01 Jun 2027 05:13:46.065   01 Jun 2027 05:15:27.486           101.421         50710.500
        10   01 Jun 2027 05:15:56.305   01 Jun 2027 05:16:00.424             4.119          2059.500
        11   01 Jun 2027 05:16:24.873   01 Jun 2027 05:16:35.288            10.415          5207.500
        12   01 Jun 2027 05:16:38.142   01 Jun 2027 05:16:55.298            17.156          8578.000
        13   01 Jun 2027 06:51:57.916   01 Jun 2027 06:53:38.357           100.441         50220.500
        14   01 Jun 2027 06:53:47.781   01 Jun 2027 06:53:51.607             3.826          1913.000
        15   01 Jun 2027 06:54:15.642   01 Jun 2027 06:54:16.124             0.482           241.000
        16   01 Jun 2027 06:55:19.550   01 Jun 2027 06:55:21.199             1.649           824.500
        17   01 Jun 2027 08:14:53.053   01 Jun 2027 08:16:30.985            97.932         48966.000
        18   01 Jun 2027 09:51:30.356   01 Jun 2027 09:52:06.065            35.709         17854.500
        19   01 Jun 2027 11:26:25.799   01 Jun 2027 11:27:08.572            42.773         21386.500
        20   01 Jun 2027 11:30:37.819   01 Jun 2027 11:32:22.137           104.318         52159.000
        21   01 Jun 2027 11:32:24.836   01 Jun 2027 11:32:29.568             4.732          2366.000
        22   01 Jun 2027 11:33:21.865   01 Jun 2027 11:33:22.485             0.620           310.000
        23   02 Jun 2027 03:47:17.622   02 Jun 2027 03:50:19.711           182.089         91044.500
        24   02 Jun 2027 05:25:25.824   02 Jun 2027 05:26:27.557            61.733         30866.500
        25   02 Jun 2027 05:26:34.244   02 Jun 2027 05:27:09.201            34.957         17478.500
        26   02 Jun 2027 05:27:26.817   02 Jun 2027 05:27:33.495             6.678          3339.000
        27   02 Jun 2027 05:29:18.626   02 Jun 2027 05:29:30.858            12.232          6116.000
        28   02 Jun 2027 05:30:55.403   02 Jun 2027 05:31:01.672             6.269          3134.500
        29   02 Jun 2027 07:03:43.857   02 Jun 2027 07:05:17.346            93.489         46744.500
        30   02 Jun 2027 07:06:42.342   02 Jun 2027 07:06:52.517            10.175          5087.500
        31   02 Jun 2027 07:07:03.473   02 Jun 2027 07:07:14.445            10.972          5486.000
        32   02 Jun 2027 08:27:06.911   02 Jun 2027 08:29:36.668           149.757         74878.500
        33   02 Jun 2027 10:03:38.817   02 Jun 2027 10:04:00.572            21.755         10877.500
        34   02 Jun 2027 10:06:25.633   02 Jun 2027 10:07:12.364            46.731         23365.500
        35   02 Jun 2027 11:45:15.640   02 Jun 2027 11:45:25.142             9.502          4751.000
        36   03 Jun 2027 03:59:14.936   03 Jun 2027 04:01:09.911           114.975         57487.500
        37   03 Jun 2027 04:04:18.677   03 Jun 2027 04:04:18.677             0.000             0.000
        38   03 Jun 2027 04:05:07.101   03 Jun 2027 04:05:12.559             5.458          2729.000
        39   03 Jun 2027 04:05:38.092   03 Jun 2027 04:05:39.117             1.025           512.500
        40   03 Jun 2027 04:06:00.617   03 Jun 2027 04:06:09.490             8.873          4436.500
        41   03 Jun 2027 05:38:32.634   03 Jun 2027 05:40:25.502           112.868         56434.000
        42   03 Jun 2027 05:43:31.980   03 Jun 2027 05:43:39.435             7.455          3727.500
        43   03 Jun 2027 05:45:21.458   03 Jun 2027 05:45:32.801            11.343          5671.500
        44   03 Jun 2027 07:15:40.677   03 Jun 2027 07:16:20.567            39.890         19945.000
        45   03 Jun 2027 07:16:40.145   03 Jun 2027 07:18:26.773           106.628         53314.000
        46   03 Jun 2027 08:39:09.983   03 Jun 2027 08:40:17.280            67.297         33648.500
        47   03 Jun 2027 08:40:48.148   03 Jun 2027 08:41:59.095            70.947         35473.500
        48   03 Jun 2027 10:19:01.618   03 Jun 2027 10:19:01.618             0.000             0.000
        49   03 Jun 2027 11:53:29.257   03 Jun 2027 11:53:51.563            22.306         11153.000
        50   03 Jun 2027 11:57:07.155   03 Jun 2027 11:57:32.863            25.708         12854.000
        51   04 Jun 2027 04:11:56.142   04 Jun 2027 04:12:35.004            38.862         19431.000
        52   04 Jun 2027 04:13:41.802   04 Jun 2027 04:14:30.438            48.636         24318.000
        53   04 Jun 2027 04:16:57.800   04 Jun 2027 04:17:01.408             3.608          1804.000
        54   04 Jun 2027 04:17:28.231   04 Jun 2027 04:17:33.786             5.555          2777.500
        55   04 Jun 2027 05:50:36.705   04 Jun 2027 05:52:44.961           128.256         64128.000
        56   04 Jun 2027 05:53:07.333   04 Jun 2027 05:53:19.628            12.295          6147.500
        57   04 Jun 2027 05:54:53.847   04 Jun 2027 05:55:02.851             9.004          4502.000
        58   04 Jun 2027 05:55:23.573   04 Jun 2027 05:55:30.304             6.731          3365.500
        59   04 Jun 2027 05:56:28.000   04 Jun 2027 05:56:32.658             4.658          2329.000
        60   04 Jun 2027 05:57:38.511   04 Jun 2027 05:58:14.214            35.703         17851.500
        61   04 Jun 2027 07:16:27.982   04 Jun 2027 07:17:16.304            48.322         24161.000
        62   04 Jun 2027 07:27:37.099   04 Jun 2027 07:28:45.318            68.219         34109.500
        63   04 Jun 2027 07:29:14.830   04 Jun 2027 07:29:17.957             3.127          1563.500
        64   04 Jun 2027 08:50:14.959   04 Jun 2027 08:50:54.702            39.743         19551.343
        65   04 Jun 2027 08:51:42.359   04 Jun 2027 08:51:44.443             2.084           801.875
        66   04 Jun 2027 08:52:50.337   04 Jun 2027 08:52:54.732             4.395          2052.469
        67   04 Jun 2027 10:27:41.790   04 Jun 2027 10:27:41.790             0.000             0.000
        68   05 Jun 2027 04:24:02.103   05 Jun 2027 04:25:59.208           117.105         58552.500
        69   05 Jun 2027 04:26:38.607   05 Jun 2027 04:26:38.607             0.000             0.000
        70   05 Jun 2027 04:27:07.478   05 Jun 2027 04:27:19.407            11.929          5964.500
        71   05 Jun 2027 06:03:06.322   05 Jun 2027 06:05:19.028           132.706         66353.000
        72   05 Jun 2027 06:08:11.043   05 Jun 2027 06:08:14.146             3.103          1551.500
        73   05 Jun 2027 06:08:31.881   05 Jun 2027 06:08:39.639             7.758          3879.000
        74   05 Jun 2027 06:09:53.532   05 Jun 2027 06:10:14.468            20.936         10468.000
        75   05 Jun 2027 07:27:58.093   05 Jun 2027 07:29:27.165            89.072         44536.000
        76   05 Jun 2027 07:39:40.703   05 Jun 2027 07:39:52.216            11.513          5756.500
        77   05 Jun 2027 07:40:02.388   05 Jun 2027 07:40:05.405             3.017          1508.500
        78   05 Jun 2027 09:01:54.178   05 Jun 2027 09:02:33.411            39.233         18929.781
        79   05 Jun 2027 09:02:54.159   05 Jun 2027 09:02:58.735             4.576           635.937
        80   05 Jun 2027 09:06:02.857   05 Jun 2027 09:06:13.984            11.127          4695.906
        81   05 Jun 2027 10:38:06.552   05 Jun 2027 10:38:22.189            15.637          7818.500
        82   05 Jun 2027 10:42:36.069   05 Jun 2027 10:42:39.225             3.156          1578.000
        83   05 Jun 2027 10:43:02.113   05 Jun 2027 10:43:19.125            17.012          7173.968
        84   05 Jun 2027 10:44:58.329   05 Jun 2027 10:45:01.911             3.582          1043.063
        85   06 Jun 2027 03:00:03.912   06 Jun 2027 03:00:09.158             5.246          2623.000
        86   06 Jun 2027 03:00:51.422   06 Jun 2027 03:01:09.896            18.474          9237.000
        87   06 Jun 2027 03:02:40.070   06 Jun 2027 03:03:01.809            21.739         10869.500
        88   06 Jun 2027 03:04:38.536   06 Jun 2027 03:04:56.572            18.036          9018.000
        89   06 Jun 2027 03:05:24.775   06 Jun 2027 03:05:25.251             0.476           238.000
        90   06 Jun 2027 04:36:22.313   06 Jun 2027 04:37:28.432            66.119         33059.500
        91   06 Jun 2027 04:37:32.170   06 Jun 2027 04:37:37.202             5.032          2516.000
        92   06 Jun 2027 04:37:48.580   06 Jun 2027 04:37:52.497             3.917          1958.500
        93   06 Jun 2027 04:38:38.004   06 Jun 2027 04:38:48.196            10.192          5096.000
        94   06 Jun 2027 04:39:08.271   06 Jun 2027 04:39:10.688             2.417          1208.500
        95   06 Jun 2027 04:39:58.023   06 Jun 2027 04:40:00.827             2.804          1402.000
        96   06 Jun 2027 06:15:08.758   06 Jun 2027 06:17:25.727           136.969         68484.500
        97   06 Jun 2027 06:17:51.825   06 Jun 2027 06:18:09.029            17.204          8602.000
        98   06 Jun 2027 06:19:08.030   06 Jun 2027 06:19:39.289            31.259         15629.500
        99   06 Jun 2027 06:22:06.588   06 Jun 2027 06:22:07.521             0.933           466.500
       100   06 Jun 2027 07:39:29.043   06 Jun 2027 07:40:31.795            62.752         31376.000
       101   06 Jun 2027 07:41:06.184   06 Jun 2027 07:41:09.914             3.730          1283.251
       102   06 Jun 2027 07:51:46.188   06 Jun 2027 07:51:54.480             8.292          4146.000
       103   06 Jun 2027 09:13:37.451   06 Jun 2027 09:14:13.269            35.818         17909.000
       104   06 Jun 2027 09:16:31.682   06 Jun 2027 09:16:42.793            11.111          5486.375
       105   06 Jun 2027 09:18:43.991   06 Jun 2027 09:18:48.653             4.662          2331.000
       106   06 Jun 2027 10:48:25.511   06 Jun 2027 10:48:39.447            13.936          6868.844
       107   06 Jun 2027 10:52:01.290   06 Jun 2027 10:52:11.571            10.281          4826.969
       108   06 Jun 2027 10:52:28.430   06 Jun 2027 10:52:29.717             1.287           314.531
       109   06 Jun 2027 10:53:26.749   06 Jun 2027 10:53:28.382             1.633           726.781
       110   06 Jun 2027 10:53:56.699   06 Jun 2027 10:53:59.017             2.318           815.062
       111   06 Jun 2027 10:54:37.201   06 Jun 2027 10:54:42.378             5.177           916.188
       112   06 Jun 2027 10:55:10.814   06 Jun 2027 10:55:12.571             1.757           745.188
       113   06 Jun 2027 10:55:47.134   06 Jun 2027 10:55:52.362             5.228           674.562
       114   06 Jun 2027 10:56:48.110   06 Jun 2027 10:56:51.124             3.014          1507.000
       115   06 Jun 2027 10:56:52.280   06 Jun 2027 10:56:53.378             1.098           194.031
       116   06 Jun 2027 10:57:18.508   06 Jun 2027 10:57:20.133             1.625           785.312
       117   07 Jun 2027 03:11:25.667   07 Jun 2027 03:11:49.566            23.899         11949.500
       118   07 Jun 2027 03:12:02.888   07 Jun 2027 03:12:42.113            39.225         19612.500
       119   07 Jun 2027 03:14:07.551   07 Jun 2027 03:14:21.133            13.582          6791.000
       120   07 Jun 2027 03:15:27.901   07 Jun 2027 03:15:40.999            13.098          6549.000
       121   07 Jun 2027 03:17:34.457   07 Jun 2027 03:17:42.262             7.805          3902.500
       122   07 Jun 2027 03:18:21.176   07 Jun 2027 03:18:25.395             4.219          2109.500
       123   07 Jun 2027 03:18:35.100   07 Jun 2027 03:18:42.704             7.604          3802.000
       124   07 Jun 2027 04:49:05.176   07 Jun 2027 04:49:20.963            15.787          7893.500
       125   07 Jun 2027 04:49:29.276   07 Jun 2027 04:50:36.013            66.737         33368.500
       126   07 Jun 2027 04:51:09.421   07 Jun 2027 04:51:12.173             2.752          1376.000
       127   07 Jun 2027 04:51:48.323   07 Jun 2027 04:51:49.985             1.662           831.000
       128   07 Jun 2027 04:52:05.590   07 Jun 2027 04:52:11.546             5.956          2978.000
       129   07 Jun 2027 04:52:27.335   07 Jun 2027 04:52:36.675             9.340          4670.000
       130   07 Jun 2027 04:54:02.989   07 Jun 2027 04:54:04.971             1.982           991.000
       131   07 Jun 2027 06:27:33.230   07 Jun 2027 06:29:33.526           120.296         60148.000
       132   07 Jun 2027 06:29:48.595   07 Jun 2027 06:29:52.066             3.471          1735.500
       133   07 Jun 2027 06:31:07.356   07 Jun 2027 06:31:07.356             0.000             0.000
       134   07 Jun 2027 06:31:14.863   07 Jun 2027 06:31:17.990             3.127          1563.500
       135   07 Jun 2027 06:32:05.419   07 Jun 2027 06:32:23.857            18.438          9219.000
       136   07 Jun 2027 07:51:27.921   07 Jun 2027 07:52:29.765            61.844         29292.249
       137   07 Jun 2027 09:27:24.716   07 Jun 2027 09:28:05.554            40.838         20291.125
       138   07 Jun 2027 09:28:14.401   07 Jun 2027 09:28:14.401             0.000             0.000
       139   07 Jun 2027 09:28:23.321   07 Jun 2027 09:28:29.727             6.406           426.344
       140   07 Jun 2027 11:01:13.866   07 Jun 2027 11:01:32.606            18.740          8816.844
       141   07 Jun 2027 11:02:41.718   07 Jun 2027 11:02:45.555             3.837           980.594
       142   07 Jun 2027 11:07:24.709   07 Jun 2027 11:07:24.709             0.000             0.000
       143   07 Jun 2027 11:07:55.195   07 Jun 2027 11:08:15.820            20.625          9223.437
       144   08 Jun 2027 03:23:26.085   08 Jun 2027 03:23:59.236            33.151         16575.500
       145   08 Jun 2027 03:24:25.328   08 Jun 2027 03:24:34.573             9.245          4622.500
       146   08 Jun 2027 03:25:34.850   08 Jun 2027 03:26:41.480            66.630         33315.000
       147   08 Jun 2027 03:26:53.618   08 Jun 2027 03:26:58.471             4.853          2426.500
       148   08 Jun 2027 03:27:16.183   08 Jun 2027 03:27:16.402             0.219           109.500
       149   08 Jun 2027 03:27:18.494   08 Jun 2027 03:27:30.202            11.708          5854.000
       150   08 Jun 2027 03:28:40.438   08 Jun 2027 03:28:58.602            18.164          9082.000
       151   08 Jun 2027 05:01:49.608   08 Jun 2027 05:02:08.843            19.235          9617.500
       152   08 Jun 2027 05:02:23.112   08 Jun 2027 05:03:17.667            54.555         27277.500
       153   08 Jun 2027 05:03:19.208   08 Jun 2027 05:03:46.844            27.636         13818.000
       154   08 Jun 2027 05:06:03.105   08 Jun 2027 05:06:11.650             8.545          4272.500
       155   08 Jun 2027 05:07:28.356   08 Jun 2027 05:07:42.518            14.162          7081.000
       156   08 Jun 2027 06:39:57.349   08 Jun 2027 06:41:29.665            92.316         46158.000
       157   08 Jun 2027 06:41:52.582   08 Jun 2027 06:41:52.582             0.000             0.000
       158   08 Jun 2027 06:42:04.143   08 Jun 2027 06:42:06.880             2.737          1368.500
       159   08 Jun 2027 06:42:58.087   08 Jun 2027 06:43:17.130            19.043          9521.500
       160   08 Jun 2027 08:03:21.694   08 Jun 2027 08:03:56.196            34.502         17251.000
       161   08 Jun 2027 08:05:24.966   08 Jun 2027 08:05:32.517             7.551          3731.594
       162   08 Jun 2027 09:39:46.575   08 Jun 2027 09:40:15.291            28.716         13979.406
       163   08 Jun 2027 11:13:34.851   08 Jun 2027 11:13:51.382            16.531          8225.594
       164   08 Jun 2027 11:15:35.299   08 Jun 2027 11:15:37.614             2.315          1157.500
       165   08 Jun 2027 11:19:11.709   08 Jun 2027 11:19:31.712            20.003          7171.812
       166   08 Jun 2027 11:20:12.079   08 Jun 2027 11:20:17.009             4.930          1105.281
       167   08 Jun 2027 11:20:35.778   08 Jun 2027 11:20:43.117             7.339           518.844
       168   08 Jun 2027 11:21:20.827   08 Jun 2027 11:21:21.059             0.232           116.000
       169   08 Jun 2027 11:21:44.878   08 Jun 2027 11:21:45.735             0.857           428.500
       170   09 Jun 2027 03:35:38.985   09 Jun 2027 03:36:23.808            44.823         22411.500
       171   09 Jun 2027 03:36:46.025   09 Jun 2027 03:38:28.052           102.027         51013.500
       172   09 Jun 2027 03:40:04.826   09 Jun 2027 03:40:12.246             7.420          3710.000
       173   09 Jun 2027 03:40:56.543   09 Jun 2027 03:40:58.433             1.890           945.000
       174   09 Jun 2027 03:42:13.494   09 Jun 2027 03:42:20.303             6.809          3404.500
       175   09 Jun 2027 05:13:54.643   09 Jun 2027 05:14:49.513            54.870         27435.000
       176   09 Jun 2027 05:14:55.349   09 Jun 2027 05:15:42.226            46.877         23438.500
       177   09 Jun 2027 05:16:48.924   09 Jun 2027 05:17:06.562            17.638          8819.000
       178   09 Jun 2027 06:52:16.521   09 Jun 2027 06:53:39.610            83.089         41544.500
       179   09 Jun 2027 06:53:51.304   09 Jun 2027 06:53:57.266             5.962          2981.000
       180   09 Jun 2027 06:54:52.181   09 Jun 2027 06:55:04.463            12.282          6141.000
       181   09 Jun 2027 06:55:55.271   09 Jun 2027 06:55:56.998             1.727           863.500
       182   09 Jun 2027 08:15:09.897   09 Jun 2027 08:15:46.815            36.918         18459.000
       183   09 Jun 2027 08:16:48.762   09 Jun 2027 08:16:56.200             7.438          1964.688
       184   09 Jun 2027 09:51:48.371   09 Jun 2027 09:52:09.841            21.470         10691.875
       185   09 Jun 2027 09:54:17.299   09 Jun 2027 09:54:25.887             8.588          3562.250
       186   09 Jun 2027 11:28:12.257   09 Jun 2027 11:28:36.559            24.302         11718.500
       187   09 Jun 2027 11:30:01.650   09 Jun 2027 11:30:06.143             4.493          2019.969
       188   09 Jun 2027 11:30:51.770   09 Jun 2027 11:30:53.435             1.665           832.500
       189   09 Jun 2027 11:33:39.247   09 Jun 2027 11:33:41.190             1.943           971.500
       190   10 Jun 2027 03:47:35.515   10 Jun 2027 03:50:10.192           154.677         77338.500
       191   10 Jun 2027 05:25:44.015   10 Jun 2027 05:26:43.910            59.895         29947.500
       192   10 Jun 2027 05:26:51.471   10 Jun 2027 05:28:10.599            79.128         39564.000
       193   10 Jun 2027 05:30:09.323   10 Jun 2027 05:30:12.879             3.556          1778.000
       194   10 Jun 2027 07:04:01.061   10 Jun 2027 07:05:25.371            84.310         41456.593
       195   10 Jun 2027 07:06:21.228   10 Jun 2027 07:06:26.730             5.502          1686.094
       196   10 Jun 2027 07:07:21.590   10 Jun 2027 07:07:21.590             0.000             0.000
       197   10 Jun 2027 07:07:36.001   10 Jun 2027 07:07:41.636             5.635          2162.937
       198   10 Jun 2027 08:27:24.377   10 Jun 2027 08:27:51.024            26.647         13316.344
       199   10 Jun 2027 08:28:53.137   10 Jun 2027 08:28:53.137             0.000             0.000
       200   10 Jun 2027 08:30:20.483   10 Jun 2027 08:30:28.183             7.700          3850.000
       201   10 Jun 2027 10:04:17.631   10 Jun 2027 10:04:17.631             0.000             0.000
       202   10 Jun 2027 10:05:31.248   10 Jun 2027 10:05:59.328            28.080         14026.063
       203   10 Jun 2027 11:39:07.512   10 Jun 2027 11:39:26.910            19.398          9059.062
       204   10 Jun 2027 11:39:54.861   10 Jun 2027 11:39:59.150             4.289           834.500
       205   10 Jun 2027 11:40:44.434   10 Jun 2027 11:40:46.167             1.733           441.219
       206   10 Jun 2027 11:42:55.342   10 Jun 2027 11:43:06.988            11.646          3853.312
       207   10 Jun 2027 11:43:30.872   10 Jun 2027 11:43:32.303             1.431           705.469
       208   10 Jun 2027 11:43:49.522   10 Jun 2027 11:43:55.376             5.854           538.094
       209   10 Jun 2027 11:44:56.159   10 Jun 2027 11:45:01.945             5.786          1857.156
       210   10 Jun 2027 11:45:02.589   10 Jun 2027 11:45:03.393             0.804            20.125
       211   10 Jun 2027 11:45:20.597   10 Jun 2027 11:45:21.623             1.026           409.187
       212   10 Jun 2027 11:45:38.913   10 Jun 2027 11:45:41.890             2.977           463.000
       213   11 Jun 2027 03:59:32.775   11 Jun 2027 04:01:41.569           128.794         64397.000
       214   11 Jun 2027 04:01:52.312   11 Jun 2027 04:02:14.854            22.542         11271.000
       215   11 Jun 2027 05:38:50.599   11 Jun 2027 05:40:25.877            95.278         47639.000
       216   11 Jun 2027 05:40:44.796   11 Jun 2027 05:41:06.355            21.559         10779.500
       217   11 Jun 2027 05:43:49.148   11 Jun 2027 05:43:53.943             4.795          2397.500
       218   11 Jun 2027 05:45:25.918   11 Jun 2027 05:45:25.918             0.000             0.000
       219   11 Jun 2027 05:45:41.036   11 Jun 2027 05:45:49.125             8.089          4044.500
       220   11 Jun 2027 05:46:27.829   11 Jun 2027 05:46:41.486            13.657          6828.500
       221   11 Jun 2027 05:46:46.947   11 Jun 2027 05:46:47.057             0.110            55.000
       222   11 Jun 2027 07:15:57.817   11 Jun 2027 07:16:38.837            41.020         20510.000
       223   11 Jun 2027 07:16:55.657   11 Jun 2027 07:17:55.521            59.864         29932.000
       224   11 Jun 2027 07:18:19.809   11 Jun 2027 07:18:30.097            10.288          5068.313
       225   11 Jun 2027 08:39:26.002   11 Jun 2027 08:39:57.240            31.238         13545.812
       226   11 Jun 2027 08:40:31.836   11 Jun 2027 08:40:36.778             4.942           926.438
       227   11 Jun 2027 08:42:15.538   11 Jun 2027 08:42:26.360            10.822          2662.219
       228   11 Jun 2027 10:19:16.841   11 Jun 2027 10:19:16.841             0.000             0.000
       229   11 Jun 2027 11:53:52.243   11 Jun 2027 11:54:07.376            15.133          7566.500
       230   11 Jun 2027 11:57:24.091   11 Jun 2027 11:57:51.062            26.971         13485.500
       231   12 Jun 2027 04:12:14.378   12 Jun 2027 04:14:13.089           118.711         59355.500
       232   12 Jun 2027 04:14:15.153   12 Jun 2027 04:14:21.346             6.193          3096.500
       233   12 Jun 2027 04:17:41.264   12 Jun 2027 04:17:41.264             0.000             0.000
       234   12 Jun 2027 04:18:13.386   12 Jun 2027 04:18:15.585             2.199          1099.500
       235   12 Jun 2027 05:50:55.197   12 Jun 2027 05:52:45.887           110.690         55345.000
       236   12 Jun 2027 05:53:34.448   12 Jun 2027 05:53:56.385            21.937         10968.500
       237   12 Jun 2027 05:54:18.825   12 Jun 2027 05:54:19.241             0.416           208.000
       238   12 Jun 2027 05:56:05.948   12 Jun 2027 05:56:10.443             4.495          2247.500
       239   12 Jun 2027 05:56:42.641   12 Jun 2027 05:56:50.739             8.098          4049.000
       240   12 Jun 2027 05:57:57.897   12 Jun 2027 05:58:32.033            34.136         17068.000
       241   12 Jun 2027 07:16:41.491   12 Jun 2027 07:17:36.518            55.027         27513.500
       242   12 Jun 2027 07:27:55.151   12 Jun 2027 07:28:28.897            33.746         16873.000
       243   12 Jun 2027 07:28:44.836   12 Jun 2027 07:29:00.936            16.100          5147.438
       244   12 Jun 2027 08:50:31.724   12 Jun 2027 08:51:00.021            28.297         13843.844
       245   12 Jun 2027 08:51:34.557   12 Jun 2027 08:51:38.044             3.487           942.594
       246   12 Jun 2027 08:53:08.067   12 Jun 2027 08:53:17.213             9.146          2177.906
       247   12 Jun 2027 10:29:27.477   12 Jun 2027 10:29:27.477             0.000             0.000
       248   12 Jun 2027 10:31:30.859   12 Jun 2027 10:32:00.562            29.703         14851.500
       249   13 Jun 2027 04:24:20.586   13 Jun 2027 04:26:13.904           113.318         56659.000
       250   13 Jun 2027 04:27:36.486   13 Jun 2027 04:27:37.515             1.029           514.500
       251   13 Jun 2027 04:28:40.150   13 Jun 2027 04:28:46.508             6.358          3179.000
       252   13 Jun 2027 04:29:20.622   13 Jun 2027 04:29:32.032            11.410          5705.000
       253   13 Jun 2027 04:29:49.916   13 Jun 2027 04:29:53.997             4.081          2040.500
       254   13 Jun 2027 06:03:25.297   13 Jun 2027 06:05:13.277           107.980         53990.000
       255   13 Jun 2027 06:05:20.066   13 Jun 2027 06:05:33.843            13.777          6888.500
       256   13 Jun 2027 06:08:25.474   13 Jun 2027 06:08:31.859             6.385          3192.500
       257   13 Jun 2027 06:10:12.733   13 Jun 2027 06:10:21.291             8.558          4279.000
       258   13 Jun 2027 07:28:15.339   13 Jun 2027 07:29:49.118            93.779         46889.500
       259   13 Jun 2027 07:39:55.083   13 Jun 2027 07:40:17.119            22.036         11018.000
       260   13 Jun 2027 09:02:14.198   13 Jun 2027 09:02:56.858            42.660         20789.532
       261   13 Jun 2027 09:04:50.206   13 Jun 2027 09:04:50.206             0.000             0.000
       262   13 Jun 2027 09:05:58.901   13 Jun 2027 09:05:58.901             0.000             0.000
       263   13 Jun 2027 10:37:13.052   13 Jun 2027 10:37:35.829            22.777          9079.656
       264   13 Jun 2027 10:38:26.268   13 Jun 2027 10:38:29.292             3.024           985.656
       265   13 Jun 2027 10:40:57.142   13 Jun 2027 10:41:09.107            11.965          4521.250
       266   13 Jun 2027 10:41:18.786   13 Jun 2027 10:41:20.908             2.122           218.562
