uniorb/output/strategy_1/Camera/Camera_KinoSat_110609.txt

KinoSat_110609
-------------------------
    Access    *     Start Time (UTCG)     *     Stop Time (UTCG)  *   Duration (s) *   Data (Mbytes)
         1   01 Jun 2027 03:03:17.403   01 Jun 2027 03:03:51.803            34.400         17200.000
         2   01 Jun 2027 03:04:13.851   01 Jun 2027 03:04:17.469             3.618          1809.000
         3   01 Jun 2027 03:04:28.931   01 Jun 2027 03:04:32.364             3.433          1716.500
         4   01 Jun 2027 03:05:25.031   01 Jun 2027 03:05:37.230            12.199          6099.500
         5   01 Jun 2027 03:06:10.503   01 Jun 2027 03:06:10.503             0.000             0.000
         6   01 Jun 2027 03:06:38.440   01 Jun 2027 03:06:51.088            12.648          6324.000
         7   01 Jun 2027 03:07:42.902   01 Jun 2027 03:07:42.902             0.000             0.000
         8   01 Jun 2027 03:07:58.223   01 Jun 2027 03:08:01.172             2.949          1474.500
         9   01 Jun 2027 04:38:09.981   01 Jun 2027 04:40:05.360           115.379         57689.500
        10   01 Jun 2027 04:40:32.174   01 Jun 2027 04:40:40.623             8.449          4224.500
        11   01 Jun 2027 04:42:44.381   01 Jun 2027 04:42:44.381             0.000             0.000
        12   01 Jun 2027 04:43:12.972   01 Jun 2027 04:43:24.691            11.719          5859.500
        13   01 Jun 2027 04:47:06.286   01 Jun 2027 04:47:18.040            11.754          5877.000
        14   01 Jun 2027 06:16:16.646   01 Jun 2027 06:18:23.186           126.540         63270.000
        15   01 Jun 2027 06:19:00.836   01 Jun 2027 06:19:15.096            14.260          7130.000
        16   01 Jun 2027 06:23:22.079   01 Jun 2027 06:23:26.879             4.800          2400.000
        17   01 Jun 2027 07:53:11.612   01 Jun 2027 07:53:36.780            25.168         12584.000
        18   01 Jun 2027 07:53:43.972   01 Jun 2027 07:55:03.036            79.064         39532.000
        19   01 Jun 2027 07:55:59.877   01 Jun 2027 07:56:42.065            42.188         21094.000
        20   01 Jun 2027 07:57:21.536   01 Jun 2027 07:57:25.726             4.190          2095.000
        21   01 Jun 2027 09:30:19.258   01 Jun 2027 09:32:21.030           121.772         60886.000
        22   01 Jun 2027 09:33:23.545   01 Jun 2027 09:33:23.545             0.000             0.000
        23   01 Jun 2027 09:34:37.688   01 Jun 2027 09:34:46.138             8.450          4225.000
        24   01 Jun 2027 11:05:12.563   01 Jun 2027 11:06:15.171            62.608         31304.000
        25   01 Jun 2027 11:07:01.351   01 Jun 2027 11:08:21.973            80.622         40311.000
        26   02 Jun 2027 03:17:38.875   02 Jun 2027 03:18:06.177            27.302         13651.000
        27   02 Jun 2027 03:18:40.664   02 Jun 2027 03:18:40.664             0.000             0.000
        28   02 Jun 2027 03:18:51.566   02 Jun 2027 03:18:52.958             1.392           696.000
        29   02 Jun 2027 04:51:11.168   02 Jun 2027 04:53:17.033           125.865         62932.500
        30   02 Jun 2027 04:53:41.781   02 Jun 2027 04:53:42.065             0.284           142.000
        31   02 Jun 2027 04:54:13.839   02 Jun 2027 04:54:27.326            13.487          6743.500
        32   02 Jun 2027 04:58:19.212   02 Jun 2027 04:58:40.802            21.590         10795.000
        33   02 Jun 2027 04:59:42.757   02 Jun 2027 04:59:44.319             1.562           781.000
        34   02 Jun 2027 06:28:43.750   02 Jun 2027 06:30:32.799           109.049         54524.500
        35   02 Jun 2027 06:31:20.229   02 Jun 2027 06:31:24.538             4.309          2154.500
        36   02 Jun 2027 06:32:21.287   02 Jun 2027 06:32:32.703            11.416          5708.000
        37   02 Jun 2027 06:32:36.304   02 Jun 2027 06:32:37.172             0.868           434.000
        38   02 Jun 2027 08:05:38.510   02 Jun 2027 08:07:42.666           124.156         62078.000
        39   02 Jun 2027 08:08:13.214   02 Jun 2027 08:08:43.283            30.069         15034.500
        40   02 Jun 2027 08:10:12.562   02 Jun 2027 08:10:17.020             4.458          2229.000
        41   02 Jun 2027 08:11:06.361   02 Jun 2027 08:11:24.134            17.773          8886.500
        42   02 Jun 2027 09:42:33.156   02 Jun 2027 09:44:29.027           115.871         57935.500
        43   02 Jun 2027 09:46:52.556   02 Jun 2027 09:47:06.493            13.937          6968.500
        44   02 Jun 2027 11:19:42.440   02 Jun 2027 11:21:27.994           105.554         52777.000
        45   02 Jun 2027 11:21:59.613   02 Jun 2027 11:22:08.985             9.372          4686.000
        46   03 Jun 2027 03:29:42.872   03 Jun 2027 03:29:52.740             9.868          4934.000
        47   03 Jun 2027 03:31:13.736   03 Jun 2027 03:31:16.616             2.880          1440.000
        48   03 Jun 2027 03:31:48.466   03 Jun 2027 03:31:52.571             4.105          2052.500
        49   03 Jun 2027 03:32:01.143   03 Jun 2027 03:32:16.866            15.723          7861.500
        50   03 Jun 2027 03:32:42.694   03 Jun 2027 03:32:42.694             0.000             0.000
        51   03 Jun 2027 03:33:01.738   03 Jun 2027 03:33:11.812            10.074          5037.000
        52   03 Jun 2027 05:01:50.666   03 Jun 2027 05:02:01.402            10.736          5368.000
        53   03 Jun 2027 05:03:49.814   03 Jun 2027 05:05:44.210           114.396         57198.000
        54   03 Jun 2027 05:08:54.756   03 Jun 2027 05:09:02.787             8.031          4015.500
        55   03 Jun 2027 05:10:21.600   03 Jun 2027 05:10:29.334             7.734          3867.000
        56   03 Jun 2027 05:10:36.584   03 Jun 2027 05:10:37.745             1.161           580.500
        57   03 Jun 2027 05:10:40.944   03 Jun 2027 05:10:43.170             2.226          1113.000
        58   03 Jun 2027 05:11:20.547   03 Jun 2027 05:11:20.547             0.000             0.000
        59   03 Jun 2027 05:11:38.063   03 Jun 2027 05:11:38.536             0.473           236.500
        60   03 Jun 2027 06:40:48.277   03 Jun 2027 06:42:55.724           127.447         63723.500
        61   03 Jun 2027 06:43:26.738   03 Jun 2027 06:43:27.979             1.241           620.500
        62   03 Jun 2027 06:44:29.053   03 Jun 2027 06:44:42.846            13.793          6896.500
        63   03 Jun 2027 06:46:53.180   03 Jun 2027 06:46:56.501             3.321          1660.500
        64   03 Jun 2027 08:18:18.662   03 Jun 2027 08:20:45.168           146.506         73253.000
        65   03 Jun 2027 08:22:21.735   03 Jun 2027 08:22:41.576            19.841          9920.500
        66   03 Jun 2027 09:54:37.125   03 Jun 2027 09:56:06.306            89.181         44590.500
        67   03 Jun 2027 09:57:47.384   03 Jun 2027 09:57:54.035             6.651          3325.500
        68   03 Jun 2027 09:58:39.560   03 Jun 2027 09:58:46.723             7.163          3002.065
        69   03 Jun 2027 11:32:52.051   03 Jun 2027 11:33:03.356            11.305          5039.000
        70   04 Jun 2027 03:41:52.803   04 Jun 2027 03:42:13.413            20.610         10305.000
        71   04 Jun 2027 03:43:18.048   04 Jun 2027 03:43:44.890            26.842         13421.000
        72   04 Jun 2027 05:17:03.778   04 Jun 2027 05:19:01.142           117.364         58682.000
        73   04 Jun 2027 05:19:55.693   04 Jun 2027 05:20:08.000            12.307          6153.500
        74   04 Jun 2027 05:21:50.161   04 Jun 2027 05:21:50.161             0.000             0.000
        75   04 Jun 2027 05:22:18.772   04 Jun 2027 05:22:33.845            15.073          7536.500
        76   04 Jun 2027 05:22:48.402   04 Jun 2027 05:22:49.950             1.548           774.000
        77   04 Jun 2027 05:23:31.779   04 Jun 2027 05:23:40.843             9.064          4532.000
        78   04 Jun 2027 06:53:22.745   04 Jun 2027 06:54:48.657            85.912         42956.000
        79   04 Jun 2027 06:55:30.660   04 Jun 2027 06:56:11.723            41.063         20531.500
        80   04 Jun 2027 06:56:35.233   04 Jun 2027 06:56:48.753            13.520          6760.000
        81   04 Jun 2027 06:58:16.253   04 Jun 2027 06:58:16.541             0.288           144.000
        82   04 Jun 2027 06:58:20.497   04 Jun 2027 06:58:30.241             9.744          4872.000
        83   04 Jun 2027 06:58:46.792   04 Jun 2027 06:58:50.976             4.184          2092.000
        84   04 Jun 2027 08:30:45.837   04 Jun 2027 08:31:34.427            48.590         24234.344
        85   04 Jun 2027 08:31:53.536   04 Jun 2027 08:31:56.608             3.072           597.156
        86   04 Jun 2027 08:32:32.924   04 Jun 2027 08:32:32.924             0.000             0.000
        87   04 Jun 2027 08:32:42.094   04 Jun 2027 08:32:45.417             3.323          1321.813
        88   04 Jun 2027 08:34:05.965   04 Jun 2027 08:34:13.569             7.604          2517.125
        89   04 Jun 2027 08:34:42.743   04 Jun 2027 08:34:47.788             5.045           911.688
        90   04 Jun 2027 10:06:55.041   04 Jun 2027 10:07:09.122            14.081          7040.500
        91   04 Jun 2027 10:07:17.308   04 Jun 2027 10:07:23.787             6.479          1273.094
        92   04 Jun 2027 10:07:56.221   04 Jun 2027 10:07:57.794             1.573           320.437
        93   04 Jun 2027 10:08:07.906   04 Jun 2027 10:08:07.906             0.000             0.000
        94   04 Jun 2027 10:08:47.213   04 Jun 2027 10:08:57.680            10.467          1544.344
        95   04 Jun 2027 10:09:45.172   04 Jun 2027 10:09:47.151             1.979           112.562
        96   04 Jun 2027 10:10:00.139   04 Jun 2027 10:10:00.139             0.000             0.000
        97   04 Jun 2027 10:10:31.786   04 Jun 2027 10:10:34.709             2.923          1031.719
        98   04 Jun 2027 10:11:17.991   04 Jun 2027 10:11:21.075             3.084           543.688
        99   04 Jun 2027 10:11:22.025   04 Jun 2027 10:11:22.240             0.215            29.687
       100   05 Jun 2027 03:53:50.161   05 Jun 2027 03:54:32.800            42.639         21319.500
       101   05 Jun 2027 03:55:19.547   05 Jun 2027 03:55:45.689            26.142         13071.000
       102   05 Jun 2027 05:28:54.541   05 Jun 2027 05:30:11.814            77.273         38636.500
       103   05 Jun 2027 05:30:40.011   05 Jun 2027 05:31:29.674            49.663         24831.500
       104   05 Jun 2027 05:32:35.707   05 Jun 2027 05:32:52.793            17.086          8543.000
       105   05 Jun 2027 05:35:23.437   05 Jun 2027 05:35:41.677            18.240          9120.000
       106   05 Jun 2027 07:05:00.083   05 Jun 2027 07:07:11.574           131.491         65745.500
       107   05 Jun 2027 07:07:21.519   05 Jun 2027 07:07:28.454             6.935          3467.500
       108   05 Jun 2027 07:07:32.557   05 Jun 2027 07:07:35.793             3.236          1338.969
       109   05 Jun 2027 07:08:53.703   05 Jun 2027 07:08:58.044             4.341          2170.500
       110   05 Jun 2027 08:42:58.446   05 Jun 2027 08:43:25.010            26.564         12717.719
       111   05 Jun 2027 08:43:49.048   05 Jun 2027 08:43:49.488             0.440           212.219
       112   05 Jun 2027 08:44:13.907   05 Jun 2027 08:44:15.167             1.260           390.875
       113   05 Jun 2027 08:44:43.371   05 Jun 2027 08:44:44.695             1.324           392.156
       114   05 Jun 2027 08:45:15.384   05 Jun 2027 08:45:21.378             5.994           635.875
       115   05 Jun 2027 08:45:45.786   05 Jun 2027 08:45:47.596             1.810           409.000
       116   05 Jun 2027 08:46:25.680   05 Jun 2027 08:46:28.864             3.184           681.094
       117   05 Jun 2027 08:47:15.110   05 Jun 2027 08:47:22.809             7.699          1363.531
       118   05 Jun 2027 10:18:49.621   05 Jun 2027 10:19:07.653            18.032          8392.031
       119   05 Jun 2027 10:19:58.988   05 Jun 2027 10:20:00.254             1.266           633.000
       120   05 Jun 2027 10:20:09.554   05 Jun 2027 10:20:09.947             0.393           196.500
       121   05 Jun 2027 10:20:57.850   05 Jun 2027 10:21:05.139             7.289          2520.937
       122   05 Jun 2027 10:21:43.811   05 Jun 2027 10:21:44.438             0.627           313.500
       123   05 Jun 2027 10:21:51.773   05 Jun 2027 10:21:54.738             2.965          1124.219
       124   05 Jun 2027 10:22:10.432   05 Jun 2027 10:22:12.045             1.613           357.219
       125   05 Jun 2027 10:22:24.775   05 Jun 2027 10:22:24.775             0.000             0.000
       126   05 Jun 2027 10:22:57.499   05 Jun 2027 10:23:04.012             6.513          1420.437
       127   05 Jun 2027 10:23:35.774   05 Jun 2027 10:23:38.321             2.547           940.281
       128   06 Jun 2027 04:05:34.854   06 Jun 2027 04:06:45.865            71.011         35505.500
       129   06 Jun 2027 04:09:53.479   06 Jun 2027 04:09:57.603             4.124          2062.000
       130   06 Jun 2027 05:40:20.667   06 Jun 2027 05:42:37.889           137.222         68611.000
       131   06 Jun 2027 05:43:06.619   06 Jun 2027 05:43:13.602             6.983          3491.500
       132   06 Jun 2027 05:44:45.047   06 Jun 2027 05:44:55.746            10.699          5349.500
       133   06 Jun 2027 05:45:03.840   06 Jun 2027 05:45:06.462             2.622          1311.000
       134   06 Jun 2027 05:47:49.235   06 Jun 2027 05:47:53.439             4.204          2102.000
       135   06 Jun 2027 07:17:10.179   06 Jun 2027 07:19:13.005           122.826         61413.000
       136   06 Jun 2027 07:20:20.774   06 Jun 2027 07:20:32.132            11.358          3801.281
       137   06 Jun 2027 07:22:12.352   06 Jun 2027 07:22:20.522             8.170          3131.875
       138   06 Jun 2027 07:22:49.906   06 Jun 2027 07:22:54.596             4.690           918.250
       139   06 Jun 2027 08:55:20.623   06 Jun 2027 08:55:47.683            27.060         13530.000
       140   06 Jun 2027 08:56:27.807   06 Jun 2027 08:56:30.811             3.004          1502.000
       141   06 Jun 2027 08:56:59.529   06 Jun 2027 08:57:00.821             1.292           646.000
       142   06 Jun 2027 08:57:23.630   06 Jun 2027 08:57:27.089             3.459          1043.187
       143   06 Jun 2027 08:58:16.969   06 Jun 2027 08:58:18.942             1.973           650.094
       144   06 Jun 2027 08:58:27.434   06 Jun 2027 08:58:28.192             0.758           265.375
       145   06 Jun 2027 08:58:38.503   06 Jun 2027 08:58:39.750             1.247           322.219
       146   06 Jun 2027 10:28:38.109   06 Jun 2027 10:28:54.439            16.330          6785.531
       147   06 Jun 2027 10:30:11.466   06 Jun 2027 10:30:14.910             3.444          1648.156
       148   06 Jun 2027 10:30:16.763   06 Jun 2027 10:30:18.836             2.073            57.906
       149   06 Jun 2027 10:30:52.354   06 Jun 2027 10:31:00.942             8.588           916.031
       150   06 Jun 2027 10:31:56.751   06 Jun 2027 10:31:59.949             3.198          1599.000
       151   06 Jun 2027 10:32:49.325   06 Jun 2027 10:32:56.674             7.349          1666.375
       152   06 Jun 2027 10:34:32.104   06 Jun 2027 10:34:41.287             9.183          2859.781
       153   06 Jun 2027 10:35:41.236   06 Jun 2027 10:35:45.442             4.206          1490.031
       154   07 Jun 2027 04:15:22.856   07 Jun 2027 04:16:37.640            74.784         37392.000
       155   07 Jun 2027 04:17:18.920   07 Jun 2027 04:17:31.019            12.099          6049.500
       156   07 Jun 2027 04:19:49.581   07 Jun 2027 04:19:52.006             2.425          1212.500
       157   07 Jun 2027 04:21:57.594   07 Jun 2027 04:22:04.862             7.268          3634.000
       158   07 Jun 2027 05:52:27.533   07 Jun 2027 05:54:48.745           141.212         70606.000
       159   07 Jun 2027 05:55:09.752   07 Jun 2027 05:55:19.107             9.355          4677.500
       160   07 Jun 2027 05:58:57.181   07 Jun 2027 05:59:14.009            16.828          8414.000
       161   07 Jun 2027 05:59:53.313   07 Jun 2027 05:59:53.839             0.526           263.000
       162   07 Jun 2027 07:29:25.652   07 Jun 2027 07:31:28.690           123.038         61519.000
       163   07 Jun 2027 07:32:14.385   07 Jun 2027 07:32:23.579             9.194          4597.000
       164   07 Jun 2027 07:32:42.550   07 Jun 2027 07:32:45.941             3.391          1695.500
       165   07 Jun 2027 07:33:35.671   07 Jun 2027 07:33:37.751             2.080          1040.000
       166   07 Jun 2027 07:33:43.571   07 Jun 2027 07:33:49.622             6.051          3025.500
       167   07 Jun 2027 07:33:58.231   07 Jun 2027 07:34:03.452             5.221          1552.407
       168   07 Jun 2027 07:35:12.462   07 Jun 2027 07:35:18.285             5.823          2156.563
       169   07 Jun 2027 09:07:21.938   07 Jun 2027 09:07:50.705            28.767         13508.656
       170   07 Jun 2027 09:09:00.221   07 Jun 2027 09:09:08.055             7.834          2020.875
       171   07 Jun 2027 09:09:25.192   07 Jun 2027 09:09:32.180             6.988           535.531
       172   07 Jun 2027 09:09:42.890   07 Jun 2027 09:09:48.577             5.687           276.531
       173   07 Jun 2027 09:09:58.341   07 Jun 2027 09:10:00.849             2.508           305.125
       174   07 Jun 2027 09:10:33.565   07 Jun 2027 09:10:37.682             4.117           763.844
       175   07 Jun 2027 09:11:06.292   07 Jun 2027 09:11:09.862             3.570           710.812
       176   07 Jun 2027 09:11:16.501   07 Jun 2027 09:11:16.526             0.025            12.500
       177   07 Jun 2027 10:40:43.489   07 Jun 2027 10:40:54.991            11.502          5300.781
       178   07 Jun 2027 10:42:16.533   07 Jun 2027 10:42:21.497             4.964          1730.156
       179   07 Jun 2027 10:43:24.841   07 Jun 2027 10:43:27.874             3.033          1516.500
       180   07 Jun 2027 10:43:49.097   07 Jun 2027 10:43:50.586             1.489           744.500
       181   07 Jun 2027 10:44:31.169   07 Jun 2027 10:44:40.099             8.930          1362.781
       182   07 Jun 2027 10:44:50.622   07 Jun 2027 10:44:53.219             2.597           197.656
       183   07 Jun 2027 10:45:45.551   07 Jun 2027 10:45:50.587             5.036          1597.875
       184   07 Jun 2027 10:46:13.006   07 Jun 2027 10:46:16.607             3.601           416.156
       185   07 Jun 2027 10:47:36.448   07 Jun 2027 10:47:39.125             2.677          1338.500
       186   08 Jun 2027 04:26:50.628   08 Jun 2027 04:28:23.584            92.956         46478.000
       187   08 Jun 2027 04:29:40.171   08 Jun 2027 04:29:40.171             0.000             0.000
       188   08 Jun 2027 04:30:14.085   08 Jun 2027 04:30:14.615             0.530           265.000
       189   08 Jun 2027 04:31:10.479   08 Jun 2027 04:31:19.413             8.934          4467.000
       190   08 Jun 2027 04:33:26.823   08 Jun 2027 04:33:40.658            13.835          6917.500
       191   08 Jun 2027 04:35:15.358   08 Jun 2027 04:35:23.503             8.145          4072.500
       192   08 Jun 2027 06:04:29.581   08 Jun 2027 06:06:20.349           110.768         55384.000
       193   08 Jun 2027 06:06:44.964   08 Jun 2027 06:07:01.428            16.464          8232.000
       194   08 Jun 2027 06:07:34.738   08 Jun 2027 06:07:34.738             0.000             0.000
       195   08 Jun 2027 06:07:40.491   08 Jun 2027 06:07:54.684            14.193          7096.500
       196   08 Jun 2027 07:41:16.388   08 Jun 2027 07:43:04.195           107.807         53903.500
       197   08 Jun 2027 07:44:14.794   08 Jun 2027 07:44:29.200            14.406          7203.000
       198   08 Jun 2027 07:45:36.391   08 Jun 2027 07:45:36.391             0.000             0.000
       199   08 Jun 2027 07:45:58.391   08 Jun 2027 07:46:02.349             3.958          1979.000
       200   08 Jun 2027 07:46:27.865   08 Jun 2027 07:46:33.409             5.544          2154.468
       201   08 Jun 2027 07:46:47.773   08 Jun 2027 07:46:49.504             1.731           219.125
       202   08 Jun 2027 09:19:19.010   08 Jun 2027 09:19:43.284            24.274         12137.000
       203   08 Jun 2027 09:19:44.771   08 Jun 2027 09:19:47.124             2.353           513.719
       204   08 Jun 2027 09:20:43.272   08 Jun 2027 09:20:47.738             4.466          1531.719
       205   08 Jun 2027 09:21:34.785   08 Jun 2027 09:21:38.686             3.901          1464.312
       206   08 Jun 2027 09:22:08.888   08 Jun 2027 09:22:08.888             0.000             0.000
       207   08 Jun 2027 09:22:21.195   08 Jun 2027 09:22:23.979             2.784          1328.406
       208   08 Jun 2027 09:22:32.169   08 Jun 2027 09:22:33.639             1.470           230.156
       209   08 Jun 2027 09:22:50.365   08 Jun 2027 09:22:51.589             1.224           307.750
       210   08 Jun 2027 10:53:09.747   08 Jun 2027 10:53:14.119             4.372          1918.438
       211   08 Jun 2027 10:53:35.694   08 Jun 2027 10:53:37.788             2.094           394.094
       212   08 Jun 2027 10:53:58.547   08 Jun 2027 10:54:00.755             2.208           648.719
       213   08 Jun 2027 10:54:38.636   08 Jun 2027 10:54:44.518             5.882          1183.781
       214   08 Jun 2027 10:55:20.390   08 Jun 2027 10:55:21.376             0.986           493.000
       215   08 Jun 2027 10:55:32.460   08 Jun 2027 10:55:34.230             1.770           794.563
       216   08 Jun 2027 10:56:12.035   08 Jun 2027 10:56:14.500             2.465          1129.969
       217   08 Jun 2027 10:56:20.040   08 Jun 2027 10:56:21.229             1.189           173.125
       218   08 Jun 2027 10:56:50.897   08 Jun 2027 10:56:52.055             1.158           579.000
       219   08 Jun 2027 10:57:19.953   08 Jun 2027 10:57:23.361             3.408           899.687
       220   08 Jun 2027 10:58:38.805   08 Jun 2027 10:58:44.185             5.380          1669.094
       221   08 Jun 2027 10:59:38.538   08 Jun 2027 10:59:43.777             5.239          1529.188
       222   09 Jun 2027 03:03:31.739   09 Jun 2027 03:03:43.349            11.610          5805.000
       223   09 Jun 2027 03:04:32.045   09 Jun 2027 03:04:40.055             8.010          4005.000
       224   09 Jun 2027 03:07:29.864   09 Jun 2027 03:07:34.560             4.696          2348.000
       225   09 Jun 2027 03:08:04.348   09 Jun 2027 03:08:14.776            10.428          5214.000
       226   09 Jun 2027 04:38:24.567   09 Jun 2027 04:40:46.553           141.986         70993.000
       227   09 Jun 2027 04:47:15.767   09 Jun 2027 04:47:33.464            17.697          8848.500
       228   09 Jun 2027 06:16:31.523   09 Jun 2027 06:18:04.251            92.728         46364.000
       229   09 Jun 2027 06:19:41.175   09 Jun 2027 06:20:01.268            20.093         10046.500
       230   09 Jun 2027 06:21:25.571   09 Jun 2027 06:21:34.696             9.125          4562.500
       231   09 Jun 2027 06:22:02.596   09 Jun 2027 06:22:05.896             3.300          1650.000
       232   09 Jun 2027 07:53:26.545   09 Jun 2027 07:54:48.597            82.052         41026.000
       233   09 Jun 2027 07:55:13.411   09 Jun 2027 07:55:19.317             5.906          2827.938
       234   09 Jun 2027 07:56:14.488   09 Jun 2027 07:56:15.756             1.268           634.000
       235   09 Jun 2027 07:58:10.368   09 Jun 2027 07:58:21.654            11.286          4671.719
       236   09 Jun 2027 09:30:33.863   09 Jun 2027 09:30:55.867            22.004          9912.906
       237   09 Jun 2027 09:31:07.364   09 Jun 2027 09:31:08.781             1.417           314.313
       238   09 Jun 2027 09:32:14.674   09 Jun 2027 09:32:21.339             6.665          2059.156
       239   09 Jun 2027 09:32:22.748   09 Jun 2027 09:32:28.722             5.974             4.750
       240   09 Jun 2027 09:32:36.276   09 Jun 2027 09:32:37.577             1.301           236.062
       241   09 Jun 2027 09:33:26.629   09 Jun 2027 09:33:30.095             3.466          1233.687
       242   09 Jun 2027 09:33:51.006   09 Jun 2027 09:33:51.668             0.662           283.406
       243   09 Jun 2027 09:34:07.398   09 Jun 2027 09:34:09.207             1.809           482.750
       244   09 Jun 2027 09:34:34.585   09 Jun 2027 09:34:37.604             3.019           489.625
       245   09 Jun 2027 09:34:44.408   09 Jun 2027 09:34:48.497             4.089             8.000
       246   09 Jun 2027 09:35:02.772   09 Jun 2027 09:35:04.043             1.271           427.344
       247   09 Jun 2027 11:05:27.891   09 Jun 2027 11:05:34.754             6.863          3195.937
       248   09 Jun 2027 11:05:44.037   09 Jun 2027 11:05:47.330             3.293           290.094
       249   09 Jun 2027 11:05:58.495   09 Jun 2027 11:05:59.401             0.906           249.000
       250   09 Jun 2027 11:07:16.211   09 Jun 2027 11:07:24.212             8.001           723.438
       251   09 Jun 2027 11:07:39.272   09 Jun 2027 11:07:43.610             4.338           293.781
       252   09 Jun 2027 11:08:08.389   09 Jun 2027 11:08:09.918             1.529           597.969
       253   09 Jun 2027 11:08:18.799   09 Jun 2027 11:08:19.110             0.311            86.281
       254   09 Jun 2027 11:08:50.124   09 Jun 2027 11:08:51.177             1.053           463.250
       255   09 Jun 2027 11:10:00.867   09 Jun 2027 11:10:04.084             3.217          1608.500
       256   09 Jun 2027 11:10:18.505   09 Jun 2027 11:10:21.208             2.703           969.219
       257   10 Jun 2027 03:17:53.538   10 Jun 2027 03:18:20.822            27.284         13642.000
       258   10 Jun 2027 03:18:56.493   10 Jun 2027 03:19:01.436             4.943          2471.500
       259   10 Jun 2027 03:19:31.052   10 Jun 2027 03:19:31.052             0.000             0.000
       260   10 Jun 2027 03:19:47.555   10 Jun 2027 03:20:06.030            18.475          9237.500
       261   10 Jun 2027 03:20:16.066   10 Jun 2027 03:20:16.066             0.000             0.000
       262   10 Jun 2027 04:51:25.945   10 Jun 2027 04:53:12.286           106.341         53170.500
       263   10 Jun 2027 04:53:16.560   10 Jun 2027 04:53:20.119             3.559          1779.500
       264   10 Jun 2027 04:53:56.809   10 Jun 2027 04:54:14.990            18.181          9090.500
       265   10 Jun 2027 04:55:48.490   10 Jun 2027 04:55:51.382             2.892          1446.000
       266   10 Jun 2027 04:58:24.119   10 Jun 2027 04:58:33.541             9.422          4711.000
       267   10 Jun 2027 04:59:39.378   10 Jun 2027 04:59:54.918            15.540          7770.000
       268   10 Jun 2027 04:59:57.343   10 Jun 2027 04:59:58.946             1.603           801.500
       269   10 Jun 2027 06:28:58.554   10 Jun 2027 06:30:51.136           112.582         56291.000
       270   10 Jun 2027 06:32:10.642   10 Jun 2027 06:32:18.273             7.631          3815.500
       271   10 Jun 2027 06:35:18.087   10 Jun 2027 06:35:21.078             2.991          1495.500
       272   10 Jun 2027 08:05:53.153   10 Jun 2027 08:07:00.023            66.870         33435.000
       273   10 Jun 2027 08:07:28.065   10 Jun 2027 08:07:31.447             3.382          1691.000
       274   10 Jun 2027 08:08:13.355   10 Jun 2027 08:08:17.658             4.303          1554.281
       275   10 Jun 2027 08:08:18.357   10 Jun 2027 08:08:21.002             2.645            21.844
       276   10 Jun 2027 08:09:05.090   10 Jun 2027 08:09:09.331             4.241          1377.750
       277   10 Jun 2027 08:10:12.709   10 Jun 2027 08:10:18.771             6.062          1924.406
       278   10 Jun 2027 08:10:53.324   10 Jun 2027 08:10:57.244             3.920          1036.688
       279   10 Jun 2027 09:42:46.843   10 Jun 2027 09:43:06.586            19.743          8875.625
       280   10 Jun 2027 09:43:28.762   10 Jun 2027 09:43:32.428             3.666           673.000
       281   10 Jun 2027 09:43:51.278   10 Jun 2027 09:43:51.459             0.181            90.500
       282   10 Jun 2027 09:44:43.780   10 Jun 2027 09:44:49.709             5.929          1755.094
       283   10 Jun 2027 09:45:13.216   10 Jun 2027 09:45:15.427             2.211           662.250
       284   10 Jun 2027 09:45:17.184   10 Jun 2027 09:45:17.331             0.147            54.906
       285   10 Jun 2027 09:46:17.151   10 Jun 2027 09:46:19.795             2.644           765.781
       286   10 Jun 2027 09:46:41.261   10 Jun 2027 09:46:44.109             2.848           575.813
       287   10 Jun 2027 09:46:59.351   10 Jun 2027 09:47:02.141             2.790            75.750
       288   10 Jun 2027 11:19:56.948   10 Jun 2027 11:20:02.520             5.572          1968.156
       289   10 Jun 2027 11:20:20.769   10 Jun 2027 11:20:20.904             0.135            67.500
       290   10 Jun 2027 11:20:44.776   10 Jun 2027 11:20:48.199             3.423           792.312
       291   10 Jun 2027 11:22:00.618   10 Jun 2027 11:22:14.985            14.367          2044.812
       292   11 Jun 2027 03:29:57.522   11 Jun 2027 03:30:14.981            17.459          8729.500
       293   11 Jun 2027 03:30:38.508   11 Jun 2027 03:30:52.586            14.078          7039.000
       294   11 Jun 2027 03:31:44.443   11 Jun 2027 03:31:44.568             0.125            62.500
       295   11 Jun 2027 03:32:01.739   11 Jun 2027 03:32:09.627             7.888          3944.000
       296   11 Jun 2027 05:02:05.640   11 Jun 2027 05:02:15.906            10.266          5133.000
       297   11 Jun 2027 05:04:04.598   11 Jun 2027 05:05:47.781           103.183         51591.500
       298   11 Jun 2027 05:06:28.866   11 Jun 2027 05:06:47.260            18.394          9197.000
       299   11 Jun 2027 05:07:19.654   11 Jun 2027 05:07:44.553            24.899         12449.500
       300   11 Jun 2027 05:10:51.607   11 Jun 2027 05:10:51.607             0.000             0.000
       301   11 Jun 2027 05:10:58.687   11 Jun 2027 05:11:00.690             2.003          1001.500
       302   11 Jun 2027 05:11:46.909   11 Jun 2027 05:11:53.179             6.270          3135.000
       303   11 Jun 2027 06:41:03.027   11 Jun 2027 06:42:03.463            60.436         30218.000
       304   11 Jun 2027 06:42:45.957   11 Jun 2027 06:43:50.767            64.810         32405.000
       305   11 Jun 2027 06:44:19.328   11 Jun 2027 06:44:21.448             2.120          1060.000
       306   11 Jun 2027 06:44:58.074   11 Jun 2027 06:45:05.820             7.746          3873.000
       307   11 Jun 2027 06:45:56.258   11 Jun 2027 06:46:15.444            19.186          9593.000
       308   11 Jun 2027 08:18:34.762   11 Jun 2027 08:19:26.464            51.702         25723.625
       309   11 Jun 2027 08:20:03.686   11 Jun 2027 08:20:09.302             5.616           487.562
       310   11 Jun 2027 08:20:50.260   11 Jun 2027 08:20:50.433             0.173            86.500
       311   11 Jun 2027 08:20:52.408   11 Jun 2027 08:20:57.216             4.808          1255.156
       312   11 Jun 2027 08:21:15.516   11 Jun 2027 08:21:20.326             4.810           479.188
       313   11 Jun 2027 08:21:24.569   11 Jun 2027 08:21:28.833             4.264           101.906
       314   11 Jun 2027 08:22:19.695   11 Jun 2027 08:22:22.882             3.187          1544.437
       315   11 Jun 2027 09:54:52.762   11 Jun 2027 09:55:10.850            18.088          8699.813
       316   11 Jun 2027 09:55:16.498   11 Jun 2027 09:55:19.380             2.882           176.500
       317   11 Jun 2027 09:55:41.219   11 Jun 2027 09:55:42.646             1.427           213.312
       318   11 Jun 2027 09:56:23.563   11 Jun 2027 09:56:26.489             2.926           792.125
       319   11 Jun 2027 09:56:40.550   11 Jun 2027 09:56:44.757             4.207           439.406
       320   11 Jun 2027 09:56:51.668   11 Jun 2027 09:56:55.811             4.143           127.719
       321   11 Jun 2027 09:57:25.133   11 Jun 2027 09:57:25.374             0.241           120.500
       322   11 Jun 2027 09:58:02.241   11 Jun 2027 09:58:05.950             3.709          1808.469
       323   11 Jun 2027 09:58:15.848   11 Jun 2027 09:58:17.287             1.439           162.187
       324   11 Jun 2027 09:59:23.580   11 Jun 2027 09:59:32.408             8.828          1702.625
       325   11 Jun 2027 11:33:06.728   11 Jun 2027 11:33:10.139             3.411          1515.156
       326   12 Jun 2027 03:42:07.599   12 Jun 2027 03:42:45.008            37.409         18704.500
       327   12 Jun 2027 03:43:33.808   12 Jun 2027 03:43:36.255             2.447          1223.500
       328   12 Jun 2027 03:45:00.708   12 Jun 2027 03:45:06.698             5.990          2995.000
       329   12 Jun 2027 03:45:19.412   12 Jun 2027 03:45:37.782            18.370          9185.000
       330   12 Jun 2027 05:17:18.586   12 Jun 2027 05:19:20.577           121.991         60995.500
       331   12 Jun 2027 05:21:51.000   12 Jun 2027 05:22:04.986            13.986          6993.000
       332   12 Jun 2027 05:23:46.320   12 Jun 2027 05:23:55.479             9.159          4579.500
       333   12 Jun 2027 06:53:37.584   12 Jun 2027 06:55:45.693           128.109         64054.500
       334   12 Jun 2027 06:56:09.698   12 Jun 2027 06:56:15.215             5.517          2607.250
       335   12 Jun 2027 08:31:00.250   12 Jun 2027 08:31:34.664            34.414         15896.219
       336   12 Jun 2027 08:32:33.173   12 Jun 2027 08:32:45.248            12.075          1556.125
       337   12 Jun 2027 08:33:18.765   12 Jun 2027 08:33:19.156             0.391           195.500
       338   12 Jun 2027 08:33:33.842   12 Jun 2027 08:33:35.207             1.365           682.500
       339   12 Jun 2027 08:33:39.285   12 Jun 2027 08:33:41.563             2.278           755.781
       340   12 Jun 2027 08:34:07.886   12 Jun 2027 08:34:07.886             0.000             0.000
       341   12 Jun 2027 08:34:47.981   12 Jun 2027 08:34:50.944             2.963          1481.500
       342   12 Jun 2027 10:07:09.797   12 Jun 2027 10:07:28.222            18.425          8735.281
       343   12 Jun 2027 10:08:12.648   12 Jun 2027 10:08:18.806             6.158          1270.688
       344   12 Jun 2027 10:09:01.868   12 Jun 2027 10:09:05.519             3.651          1317.250
       345   12 Jun 2027 10:09:37.826   12 Jun 2027 10:09:37.831             0.005             2.500
       346   12 Jun 2027 10:09:57.686   12 Jun 2027 10:10:02.063             4.377          1270.938
       347   12 Jun 2027 10:10:17.356   12 Jun 2027 10:10:17.356             0.000             0.000
       348   12 Jun 2027 10:10:47.456   12 Jun 2027 10:10:49.982             2.526          1056.312
       349   12 Jun 2027 10:11:33.198   12 Jun 2027 10:11:36.161             2.963           558.688
       350   12 Jun 2027 10:11:36.601   12 Jun 2027 10:11:39.255             2.654            13.750
       351   13 Jun 2027 03:54:04.541   13 Jun 2027 03:54:38.623            34.082         17041.000
       352   13 Jun 2027 03:56:05.056   13 Jun 2027 03:56:07.167             2.111          1055.500
       353   13 Jun 2027 03:57:13.087   13 Jun 2027 03:57:21.906             8.819          4409.500
       354   13 Jun 2027 03:57:28.738   13 Jun 2027 03:57:33.027             4.289          2144.500
       355   13 Jun 2027 05:29:08.735   13 Jun 2027 05:31:24.872           136.137         68068.500
       356   13 Jun 2027 05:31:46.470   13 Jun 2027 05:31:55.157             8.687          4343.500
       357   13 Jun 2027 05:35:02.810   13 Jun 2027 05:35:10.167             7.357          3678.500
       358   13 Jun 2027 05:35:37.945   13 Jun 2027 05:35:56.301            18.356          9178.000
       359   13 Jun 2027 07:05:14.429   13 Jun 2027 07:07:36.476           142.047         71023.500
       360   13 Jun 2027 07:08:39.866   13 Jun 2027 07:08:47.703             7.837          3918.500
       361   13 Jun 2027 07:09:24.124   13 Jun 2027 07:09:39.950            15.826          2310.843
       362   13 Jun 2027 08:43:13.174   13 Jun 2027 08:43:43.765            30.591         14500.469
       363   13 Jun 2027 08:44:03.597   13 Jun 2027 08:44:04.137             0.540           166.438
       364   13 Jun 2027 08:44:30.031   13 Jun 2027 08:44:32.024             1.993           570.562
       365   13 Jun 2027 08:45:50.941   13 Jun 2027 08:45:57.847             6.906          2466.156
       366   13 Jun 2027 08:46:20.843   13 Jun 2027 08:46:24.710             3.867           667.094
       367   13 Jun 2027 08:46:34.871   13 Jun 2027 08:46:36.459             1.588            83.531
       368   13 Jun 2027 08:47:07.736   13 Jun 2027 08:47:12.152             4.416           860.250
       369   13 Jun 2027 10:19:04.107   13 Jun 2027 10:19:21.760            17.653          8304.000
       370   13 Jun 2027 10:19:43.475   13 Jun 2027 10:19:45.394             1.919           678.594
       371   13 Jun 2027 10:21:12.049   13 Jun 2027 10:21:19.057             7.008          2707.969
       372   13 Jun 2027 10:21:58.445   13 Jun 2027 10:22:01.318             2.873          1207.750
       373   13 Jun 2027 10:22:14.486   13 Jun 2027 10:22:15.561             1.075           261.063
       374   13 Jun 2027 10:22:40.478   13 Jun 2027 10:22:42.830             2.352           422.594
       375   13 Jun 2027 10:22:57.618   13 Jun 2027 10:22:59.370             1.752           462.125
       376   13 Jun 2027 10:23:58.463   13 Jun 2027 10:24:02.132             3.669          1447.375
       377   13 Jun 2027 10:24:19.022   13 Jun 2027 10:24:19.601             0.579           276.219
