uniorb/output/strategy_1/Camera/Camera_KinoSat_110901.txt

KinoSat_110901
-------------------------
    Access    *     Start Time (UTCG)     *     Stop Time (UTCG)  *   Duration (s) *   Data (Mbytes)
         1   01 Jun 2027 04:08:27.462   01 Jun 2027 04:10:23.040           115.578         57789.000
         2   01 Jun 2027 05:44:00.788   01 Jun 2027 05:44:50.124            49.336         24668.000
         3   01 Jun 2027 05:45:28.390   01 Jun 2027 05:46:35.698            67.308         33654.000
         4   01 Jun 2027 05:47:27.202   01 Jun 2027 05:47:47.502            20.300         10150.000
         5   01 Jun 2027 05:49:56.971   01 Jun 2027 05:50:06.205             9.234          4617.000
         6   01 Jun 2027 07:20:17.312   01 Jun 2027 07:22:24.464           127.152         63576.000
         7   01 Jun 2027 07:23:04.474   01 Jun 2027 07:23:17.047            12.573          6286.500
         8   01 Jun 2027 07:23:37.553   01 Jun 2027 07:23:37.553             0.000             0.000
         9   01 Jun 2027 07:24:06.043   01 Jun 2027 07:24:14.185             8.142          4071.000
        10   01 Jun 2027 07:25:31.864   01 Jun 2027 07:25:43.799            11.935          5967.500
        11   01 Jun 2027 07:27:50.739   01 Jun 2027 07:27:50.856             0.117            58.500
        12   01 Jun 2027 08:57:23.124   01 Jun 2027 08:59:27.660           124.536         62268.000
        13   01 Jun 2027 08:59:51.265   01 Jun 2027 08:59:53.868             2.603          1301.500
        14   01 Jun 2027 09:01:46.496   01 Jun 2027 09:01:49.634             3.138          1569.000
        15   01 Jun 2027 09:02:40.417   01 Jun 2027 09:02:56.144            15.727          7863.500
        16   01 Jun 2027 09:03:19.728   01 Jun 2027 09:03:20.405             0.677           338.500
        17   01 Jun 2027 09:03:42.754   01 Jun 2027 09:03:44.382             1.628           814.000
        18   01 Jun 2027 10:35:20.597   01 Jun 2027 10:37:14.413           113.816         56908.000
        19   01 Jun 2027 10:38:33.909   01 Jun 2027 10:38:48.481            14.572          7286.000
        20   02 Jun 2027 04:20:10.650   02 Jun 2027 04:21:16.558            65.908         32954.000
        21   02 Jun 2027 04:22:36.786   02 Jun 2027 04:22:44.166             7.380          3690.000
        22   02 Jun 2027 04:23:43.475   02 Jun 2027 04:24:12.357            28.882         14441.000
        23   02 Jun 2027 04:24:13.502   02 Jun 2027 04:24:32.864            19.362          9681.000
        24   02 Jun 2027 05:55:08.960   02 Jun 2027 05:56:27.955            78.995         39497.500
        25   02 Jun 2027 05:56:37.957   02 Jun 2027 05:56:53.644            15.687          7843.500
        26   02 Jun 2027 05:58:54.600   02 Jun 2027 05:59:24.903            30.303         15151.500
        27   02 Jun 2027 06:03:10.433   02 Jun 2027 06:03:25.361            14.928          7464.000
        28   02 Jun 2027 07:32:36.978   02 Jun 2027 07:34:38.851           121.873         60936.500
        29   02 Jun 2027 07:35:46.834   02 Jun 2027 07:36:00.588            13.754          6877.000
        30   02 Jun 2027 07:37:05.119   02 Jun 2027 07:37:07.627             2.508          1254.000
        31   02 Jun 2027 07:39:43.787   02 Jun 2027 07:39:55.013            11.226          5613.000
        32   02 Jun 2027 09:09:22.697   02 Jun 2027 09:11:26.813           124.116         62058.000
        33   02 Jun 2027 09:11:54.963   02 Jun 2027 09:11:59.745             4.782          2391.000
        34   02 Jun 2027 09:12:05.032   02 Jun 2027 09:12:17.256            12.224          6112.000
        35   02 Jun 2027 09:12:56.223   02 Jun 2027 09:13:07.544            11.321          5660.500
        36   02 Jun 2027 09:14:09.470   02 Jun 2027 09:14:17.317             7.847          3923.500
        37   02 Jun 2027 10:47:20.421   02 Jun 2027 10:49:11.265           110.844         55422.000
        38   02 Jun 2027 10:49:34.955   02 Jun 2027 10:49:41.962             7.007          3503.500
        39   02 Jun 2027 10:50:53.610   02 Jun 2027 10:50:59.951             6.341          3170.500
        40   03 Jun 2027 03:09:56.763   03 Jun 2027 03:10:28.283            31.520         15760.000
        41   03 Jun 2027 04:31:47.282   03 Jun 2027 04:32:40.538            53.256         26628.000
        42   03 Jun 2027 04:34:38.374   03 Jun 2027 04:34:45.434             7.060          3530.000
        43   03 Jun 2027 04:36:13.174   03 Jun 2027 04:36:29.722            16.548          8274.000
        44   03 Jun 2027 04:37:12.838   03 Jun 2027 04:37:35.074            22.236         11118.000
        45   03 Jun 2027 06:06:36.813   03 Jun 2027 06:07:46.283            69.470         34735.000
        46   03 Jun 2027 06:12:06.224   03 Jun 2027 06:12:09.787             3.563          1781.500
        47   03 Jun 2027 06:12:15.931   03 Jun 2027 06:12:29.197            13.266          6633.000
        48   03 Jun 2027 06:14:23.298   03 Jun 2027 06:14:34.275            10.977          5488.500
        49   03 Jun 2027 06:15:14.756   03 Jun 2027 06:15:14.833             0.077            38.500
        50   03 Jun 2027 06:15:24.915   03 Jun 2027 06:15:25.238             0.323           161.500
        51   03 Jun 2027 07:44:30.047   03 Jun 2027 07:46:42.711           132.664         66332.000
        52   03 Jun 2027 07:47:11.190   03 Jun 2027 07:47:19.541             8.351          4175.500
        53   03 Jun 2027 07:49:45.274   03 Jun 2027 07:49:45.274             0.000             0.000
        54   03 Jun 2027 07:50:21.259   03 Jun 2027 07:50:37.347            16.088          8044.000
        55   03 Jun 2027 07:51:53.946   03 Jun 2027 07:51:54.458             0.512           256.000
        56   03 Jun 2027 09:21:13.901   03 Jun 2027 09:23:41.268           147.367         73683.500
        57   03 Jun 2027 09:27:19.225   03 Jun 2027 09:27:23.574             4.349          2174.500
        58   03 Jun 2027 10:59:20.817   03 Jun 2027 11:00:21.128            60.311         29789.001
        59   03 Jun 2027 11:01:12.358   03 Jun 2027 11:01:14.261             1.903           951.500
        60   03 Jun 2027 11:01:24.337   03 Jun 2027 11:01:25.147             0.810           405.000
        61   03 Jun 2027 11:02:33.706   03 Jun 2027 11:02:38.669             4.963          2481.500
        62   03 Jun 2027 11:03:02.418   03 Jun 2027 11:03:08.887             6.469           962.438
        63   03 Jun 2027 11:03:14.270   03 Jun 2027 11:03:14.554             0.284            15.781
        64   04 Jun 2027 03:09:40.502   04 Jun 2027 03:09:55.922            15.420          7710.000
        65   04 Jun 2027 04:45:41.009   04 Jun 2027 04:47:05.295            84.286         42143.000
        66   04 Jun 2027 04:47:13.368   04 Jun 2027 04:47:42.779            29.411         14705.500
        67   04 Jun 2027 04:48:32.071   04 Jun 2027 04:48:32.071             0.000             0.000
        68   04 Jun 2027 04:48:58.005   04 Jun 2027 04:49:03.884             5.879          2939.500
        69   04 Jun 2027 04:49:10.941   04 Jun 2027 04:49:13.586             2.645          1322.500
        70   04 Jun 2027 06:19:28.498   04 Jun 2027 06:21:13.234           104.736         52368.000
        71   04 Jun 2027 06:22:09.101   04 Jun 2027 06:22:15.219             6.118          3059.000
        72   04 Jun 2027 06:24:15.040   04 Jun 2027 06:24:17.835             2.795          1397.500
        73   04 Jun 2027 06:25:36.598   04 Jun 2027 06:25:38.481             1.883           941.500
        74   04 Jun 2027 06:26:21.249   04 Jun 2027 06:26:23.996             2.747          1373.500
        75   04 Jun 2027 06:27:06.929   04 Jun 2027 06:27:22.967            16.038          8019.000
        76   04 Jun 2027 07:56:37.312   04 Jun 2027 07:58:04.970            87.658         43450.750
        77   04 Jun 2027 07:58:24.853   04 Jun 2027 07:58:28.449             3.596           621.344
        78   04 Jun 2027 07:59:51.227   04 Jun 2027 07:59:55.205             3.978          1989.000
        79   04 Jun 2027 08:00:03.354   04 Jun 2027 08:00:07.404             4.050           852.469
        80   04 Jun 2027 08:00:07.734   04 Jun 2027 08:00:08.359             0.625            10.313
        81   04 Jun 2027 08:01:12.110   04 Jun 2027 08:01:18.586             6.476          1745.250
        82   04 Jun 2027 08:01:27.600   04 Jun 2027 08:01:28.383             0.783           170.312
        83   04 Jun 2027 08:02:31.212   04 Jun 2027 08:02:35.480             4.268          1963.406
        84   04 Jun 2027 08:03:07.528   04 Jun 2027 08:03:12.399             4.871          1001.500
        85   04 Jun 2027 08:03:48.793   04 Jun 2027 08:03:48.793             0.000             0.000
        86   04 Jun 2027 09:33:51.428   04 Jun 2027 09:34:16.182            24.754         11087.563
        87   04 Jun 2027 09:35:14.226   04 Jun 2027 09:35:18.080             3.854           655.906
        88   04 Jun 2027 09:35:35.110   04 Jun 2027 09:35:40.441             5.331           195.906
        89   04 Jun 2027 09:36:04.255   04 Jun 2027 09:36:06.613             2.358           741.250
        90   04 Jun 2027 09:36:54.206   04 Jun 2027 09:36:57.997             3.791          1201.750
        91   04 Jun 2027 09:37:19.382   04 Jun 2027 09:37:22.642             3.260           668.281
        92   04 Jun 2027 09:38:05.124   04 Jun 2027 09:38:09.668             4.544          1247.719
        93   04 Jun 2027 09:38:11.492   04 Jun 2027 09:38:13.858             2.366            37.344
        94   04 Jun 2027 09:38:19.950   04 Jun 2027 09:38:23.900             3.950           145.969
        95   04 Jun 2027 09:39:25.801   04 Jun 2027 09:39:33.758             7.957          1702.906
        96   04 Jun 2027 11:10:34.203   04 Jun 2027 11:10:50.389            16.186          8093.000
        97   04 Jun 2027 11:11:02.287   04 Jun 2027 11:11:03.573             1.286           513.500
        98   04 Jun 2027 11:11:38.076   04 Jun 2027 11:11:41.128             3.052           949.031
        99   04 Jun 2027 11:12:12.216   04 Jun 2027 11:12:15.171             2.955           780.406
       100   04 Jun 2027 11:12:22.040   04 Jun 2027 11:12:24.412             2.372           206.031
       101   04 Jun 2027 11:13:28.940   04 Jun 2027 11:13:34.074             5.134          1944.781
       102   04 Jun 2027 11:13:52.957   04 Jun 2027 11:13:57.811             4.854           505.250
       103   04 Jun 2027 11:14:04.362   04 Jun 2027 11:14:04.997             0.635           204.719
       104   04 Jun 2027 11:15:14.874   04 Jun 2027 11:15:20.211             5.337          2120.094
       105   05 Jun 2027 03:21:33.541   05 Jun 2027 03:21:54.654            21.113         10556.500
       106   05 Jun 2027 03:23:29.251   05 Jun 2027 03:23:33.535             4.284          2142.000
       107   05 Jun 2027 04:57:55.415   05 Jun 2027 05:00:06.421           131.006         65503.000
       108   05 Jun 2027 05:00:19.624   05 Jun 2027 05:00:27.498             7.874          3937.000
       109   05 Jun 2027 05:00:52.323   05 Jun 2027 05:00:55.082             2.759          1379.500
       110   05 Jun 2027 06:31:51.639   05 Jun 2027 06:33:27.524            95.885         47942.500
       111   05 Jun 2027 06:35:03.968   05 Jun 2027 06:35:21.704            17.736          8868.000
       112   05 Jun 2027 06:38:22.202   05 Jun 2027 06:38:29.318             7.116          3558.000
       113   05 Jun 2027 06:39:36.745   05 Jun 2027 06:39:41.516             4.771          2385.500
       114   05 Jun 2027 06:39:55.284   05 Jun 2027 06:39:57.958             2.674          1337.000
       115   05 Jun 2027 08:09:02.880   05 Jun 2027 08:09:56.453            53.573         26308.750
       116   05 Jun 2027 08:10:37.391   05 Jun 2027 08:10:40.367             2.976           886.562
       117   05 Jun 2027 08:11:46.189   05 Jun 2027 08:11:52.029             5.840          1767.094
       118   05 Jun 2027 08:11:59.957   05 Jun 2027 08:12:00.470             0.513           163.406
       119   05 Jun 2027 08:12:30.012   05 Jun 2027 08:12:31.792             1.780           730.219
       120   05 Jun 2027 08:14:27.251   05 Jun 2027 08:14:35.019             7.768          3253.500
       121   05 Jun 2027 08:15:07.621   05 Jun 2027 08:15:10.164             2.543           950.250
       122   05 Jun 2027 09:46:04.882   05 Jun 2027 09:46:13.677             8.795          4397.500
       123   05 Jun 2027 09:46:20.666   05 Jun 2027 09:46:41.264            20.598          6278.094
       124   05 Jun 2027 09:47:19.123   05 Jun 2027 09:47:20.972             1.849           556.594
       125   05 Jun 2027 09:47:40.875   05 Jun 2027 09:47:48.576             7.701           621.969
       126   05 Jun 2027 09:47:56.614   05 Jun 2027 09:47:57.262             0.648           245.125
       127   05 Jun 2027 09:48:53.281   05 Jun 2027 09:48:58.052             4.771          1599.750
       128   05 Jun 2027 09:49:26.631   05 Jun 2027 09:49:29.317             2.686           756.719
       129   05 Jun 2027 09:49:36.779   05 Jun 2027 09:49:39.670             2.891           195.594
       130   05 Jun 2027 09:49:47.989   05 Jun 2027 09:49:48.982             0.993           259.969
       131   05 Jun 2027 09:50:21.747   05 Jun 2027 09:50:22.311             0.564           282.000
       132   05 Jun 2027 09:50:22.342   05 Jun 2027 09:50:26.831             4.489           566.500
       133   05 Jun 2027 09:51:14.443   05 Jun 2027 09:51:21.671             7.228          1362.719
       134   05 Jun 2027 11:22:49.392   05 Jun 2027 11:23:05.461            16.069          8034.500
       135   05 Jun 2027 11:23:39.452   05 Jun 2027 11:23:45.250             5.798          1320.875
       136   05 Jun 2027 11:24:45.599   05 Jun 2027 11:24:49.588             3.989          1435.031
       137   05 Jun 2027 11:25:06.018   05 Jun 2027 11:25:07.643             1.625           235.937
       138   05 Jun 2027 11:25:44.516   05 Jun 2027 11:25:48.181             3.665          1008.437
       139   05 Jun 2027 11:27:14.745   05 Jun 2027 11:27:19.449             4.704          2225.031
       140   06 Jun 2027 03:33:26.194   06 Jun 2027 03:33:46.618            20.424         10212.000
       141   06 Jun 2027 03:34:27.724   06 Jun 2027 03:34:39.589            11.865          5932.500
       142   06 Jun 2027 03:34:49.768   06 Jun 2027 03:35:10.372            20.604         10302.000
       143   06 Jun 2027 05:09:59.805   06 Jun 2027 05:12:16.935           137.130         68565.000
       144   06 Jun 2027 05:12:49.957   06 Jun 2027 05:13:01.505            11.548          5774.000
       145   06 Jun 2027 06:45:08.617   06 Jun 2027 06:46:27.925            79.308         39654.000
       146   06 Jun 2027 06:46:59.370   06 Jun 2027 06:47:27.325            27.955         13977.500
       147   06 Jun 2027 06:47:55.816   06 Jun 2027 06:48:01.008             5.192          2596.000
       148   06 Jun 2027 06:48:17.997   06 Jun 2027 06:48:18.489             0.492           246.000
       149   06 Jun 2027 06:51:29.934   06 Jun 2027 06:51:46.900            16.966          7662.093
       150   06 Jun 2027 06:51:49.767   06 Jun 2027 06:51:54.687             4.920            89.594
       151   06 Jun 2027 08:21:28.543   06 Jun 2027 08:21:58.440            29.897         14924.469
       152   06 Jun 2027 08:22:52.672   06 Jun 2027 08:22:54.338             1.666           813.281
       153   06 Jun 2027 08:23:45.051   06 Jun 2027 08:23:52.680             7.629          1524.813
       154   06 Jun 2027 08:24:46.661   06 Jun 2027 08:24:50.805             4.144          1392.063
       155   06 Jun 2027 08:25:36.425   06 Jun 2027 08:25:41.970             5.545          1234.125
       156   06 Jun 2027 08:26:21.662   06 Jun 2027 08:26:24.961             3.299          1240.375
       157   06 Jun 2027 08:27:13.828   06 Jun 2027 08:27:15.636             1.808           904.000
       158   06 Jun 2027 08:27:29.696   06 Jun 2027 08:27:32.624             2.928          1062.469
       159   06 Jun 2027 08:27:50.811   06 Jun 2027 08:27:50.923             0.112            56.000
       160   06 Jun 2027 09:59:03.335   06 Jun 2027 09:59:24.239            20.904         10393.531
       161   06 Jun 2027 10:00:06.544   06 Jun 2027 10:00:11.973             5.429           905.594
       162   06 Jun 2027 10:01:19.891   06 Jun 2027 10:01:22.871             2.980           957.969
       163   06 Jun 2027 10:02:22.995   06 Jun 2027 10:02:28.782             5.787          1590.125
       164   06 Jun 2027 10:02:45.504   06 Jun 2027 10:02:51.139             5.635           522.562
       165   06 Jun 2027 11:35:05.942   06 Jun 2027 11:35:19.743            13.801          6899.125
       166   06 Jun 2027 11:35:30.468   06 Jun 2027 11:35:30.889             0.421           210.500
       167   06 Jun 2027 11:35:53.950   06 Jun 2027 11:35:57.137             3.187           845.313
       168   06 Jun 2027 11:36:53.505   06 Jun 2027 11:36:59.475             5.970          1568.469
       169   06 Jun 2027 11:37:21.973   06 Jun 2027 11:37:22.062             0.089            44.500
       170   06 Jun 2027 11:37:31.584   06 Jun 2027 11:37:35.084             3.500           956.125
       171   06 Jun 2027 11:38:15.177   06 Jun 2027 11:38:22.583             7.406          1252.906
       172   06 Jun 2027 11:39:13.795   06 Jun 2027 11:39:17.294             3.499          1600.375
       173   07 Jun 2027 03:45:35.198   07 Jun 2027 03:46:21.513            46.315         23157.500
       174   07 Jun 2027 03:46:53.608   07 Jun 2027 03:47:05.380            11.772          5886.000
       175   07 Jun 2027 03:47:27.461   07 Jun 2027 03:47:27.461             0.000             0.000
       176   07 Jun 2027 03:47:38.549   07 Jun 2027 03:47:46.458             7.909          3954.500
       177   07 Jun 2027 05:22:10.327   07 Jun 2027 05:24:20.434           130.107         65053.500
       178   07 Jun 2027 06:57:20.276   07 Jun 2027 06:59:05.761           105.485         52742.500
       179   07 Jun 2027 06:59:34.987   07 Jun 2027 06:59:34.987             0.000             0.000
       180   07 Jun 2027 07:02:06.756   07 Jun 2027 07:02:15.664             8.908          4454.000
       181   07 Jun 2027 07:02:54.467   07 Jun 2027 07:03:16.088            21.621         10528.187
       182   07 Jun 2027 07:03:50.208   07 Jun 2027 07:03:51.728             1.520           760.000
       183   07 Jun 2027 08:33:41.297   07 Jun 2027 08:34:05.893            24.596         11978.750
       184   07 Jun 2027 08:34:55.704   07 Jun 2027 08:34:57.444             1.740           174.469
       185   07 Jun 2027 08:35:22.401   07 Jun 2027 08:35:25.354             2.953           286.438
       186   07 Jun 2027 08:35:47.093   07 Jun 2027 08:35:48.449             1.356           655.625
       187   07 Jun 2027 08:36:59.076   07 Jun 2027 08:37:06.248             7.172          1761.875
       188   07 Jun 2027 08:37:09.965   07 Jun 2027 08:37:12.258             2.293            87.250
       189   07 Jun 2027 08:38:43.827   07 Jun 2027 08:38:54.800            10.973          2446.750
       190   07 Jun 2027 08:39:07.386   07 Jun 2027 08:39:09.687             2.301           354.469
       191   07 Jun 2027 08:39:25.243   07 Jun 2027 08:39:26.019             0.776           386.656
       192   07 Jun 2027 10:10:58.210   07 Jun 2027 10:11:16.308            18.098          8557.437
       193   07 Jun 2027 10:11:24.868   07 Jun 2027 10:11:25.811             0.943           267.500
       194   07 Jun 2027 10:11:42.039   07 Jun 2027 10:11:43.598             1.559           412.406
       195   07 Jun 2027 10:11:48.622   07 Jun 2027 10:11:48.981             0.359           157.000
       196   07 Jun 2027 10:13:19.928   07 Jun 2027 10:13:26.572             6.644          2668.531
       197   07 Jun 2027 10:13:35.364   07 Jun 2027 10:13:37.470             2.106           114.844
       198   07 Jun 2027 10:13:58.300   07 Jun 2027 10:13:59.471             1.171           585.500
       199   07 Jun 2027 10:14:18.432   07 Jun 2027 10:14:20.529             2.097           642.812
       200   07 Jun 2027 10:14:28.599   07 Jun 2027 10:14:28.599             0.000             0.000
       201   07 Jun 2027 10:15:14.991   07 Jun 2027 10:15:18.434             3.443          1701.938
       202   07 Jun 2027 11:47:10.498   07 Jun 2027 11:47:24.359            13.861          6723.625
       203   07 Jun 2027 11:48:25.447   07 Jun 2027 11:48:33.905             8.458          1824.000
       204   07 Jun 2027 11:49:37.408   07 Jun 2027 11:49:42.710             5.302          1677.625
       205   07 Jun 2027 11:50:09.403   07 Jun 2027 11:50:11.092             1.689           834.156
       206   07 Jun 2027 11:51:00.776   07 Jun 2027 11:51:03.789             3.013          1305.812
       207   07 Jun 2027 11:51:36.111   07 Jun 2027 11:51:38.482             2.371           756.719
       208   08 Jun 2027 03:58:08.002   08 Jun 2027 03:58:55.650            47.648         23824.000
       209   08 Jun 2027 03:58:58.003   08 Jun 2027 03:59:10.660            12.657          6328.500
       210   08 Jun 2027 05:33:58.347   08 Jun 2027 05:36:02.193           123.846         61923.000
       211   08 Jun 2027 05:37:59.024   08 Jun 2027 05:38:06.724             7.700          3850.000
       212   08 Jun 2027 07:08:51.842   08 Jun 2027 07:10:49.534           117.692         58846.000
       213   08 Jun 2027 07:11:18.075   08 Jun 2027 07:11:28.602            10.527          4802.313
       214   08 Jun 2027 07:11:49.519   08 Jun 2027 07:11:51.794             2.275           561.375
       215   08 Jun 2027 07:12:28.907   08 Jun 2027 07:12:32.164             3.257          1159.781
       216   08 Jun 2027 07:15:33.291   08 Jun 2027 07:15:36.999             3.708          1854.000
       217   08 Jun 2027 07:15:45.898   08 Jun 2027 07:15:49.330             3.432          1716.000
       218   08 Jun 2027 08:45:19.239   08 Jun 2027 08:45:47.635            28.396         13652.625
       219   08 Jun 2027 08:47:26.880   08 Jun 2027 08:47:32.384             5.504          2074.438
       220   08 Jun 2027 08:48:39.199   08 Jun 2027 08:48:41.072             1.873           936.500
       221   08 Jun 2027 08:49:44.732   08 Jun 2027 08:49:52.093             7.361          3017.000
       222   08 Jun 2027 08:50:03.975   08 Jun 2027 08:50:09.101             5.126           371.312
       223   08 Jun 2027 08:50:32.014   08 Jun 2027 08:50:34.351             2.337           525.594
       224   08 Jun 2027 08:51:01.972   08 Jun 2027 08:51:06.161             4.189           863.156
       225   08 Jun 2027 08:51:32.722   08 Jun 2027 08:51:35.922             3.200           637.656
       226   08 Jun 2027 10:23:37.517   08 Jun 2027 10:23:54.196            16.679          8159.781
       227   08 Jun 2027 10:24:34.010   08 Jun 2027 10:24:38.005             3.995          1244.188
       228   08 Jun 2027 10:25:44.002   08 Jun 2027 10:25:54.813            10.811          2062.406
       229   08 Jun 2027 10:25:58.744   08 Jun 2027 10:26:01.101             2.357           122.844
       230   08 Jun 2027 10:26:19.438   08 Jun 2027 10:26:20.857             1.419           501.875
       231   08 Jun 2027 10:27:14.681   08 Jun 2027 10:27:16.054             1.373           686.500
       232   08 Jun 2027 10:27:26.955   08 Jun 2027 10:27:30.203             3.248          1336.156
       233   08 Jun 2027 11:59:04.186   08 Jun 2027 11:59:17.626            13.440          6100.969
       234   08 Jun 2027 11:59:44.166   08 Jun 2027 11:59:45.192             1.026           513.000
       235   09 Jun 2027 04:08:42.395   09 Jun 2027 04:09:19.201            36.806         18403.000
       236   09 Jun 2027 04:10:17.643   09 Jun 2027 04:10:38.205            20.562         10281.000
       237   09 Jun 2027 04:12:47.209   09 Jun 2027 04:12:57.787            10.578          5289.000
       238   09 Jun 2027 05:44:14.496   09 Jun 2027 05:45:05.030            50.534         25267.000
       239   09 Jun 2027 05:45:43.097   09 Jun 2027 05:47:03.346            80.249         40124.500
       240   09 Jun 2027 05:48:21.113   09 Jun 2027 05:48:21.113             0.000             0.000
       241   09 Jun 2027 05:49:31.291   09 Jun 2027 05:49:46.448            15.157          7578.500
       242   09 Jun 2027 05:49:54.282   09 Jun 2027 05:50:01.516             7.234          3617.000
       243   09 Jun 2027 07:20:32.966   09 Jun 2027 07:22:23.047           110.081         55040.500
       244   09 Jun 2027 07:23:20.571   09 Jun 2027 07:23:33.405            12.834          6417.000
       245   09 Jun 2027 07:24:24.303   09 Jun 2027 07:24:30.595             6.292          2707.187
       246   09 Jun 2027 07:27:08.378   09 Jun 2027 07:27:08.378             0.000             0.000
       247   09 Jun 2027 07:27:20.493   09 Jun 2027 07:27:24.631             4.138          2069.000
       248   09 Jun 2027 07:27:47.443   09 Jun 2027 07:27:47.443             0.000             0.000
       249   09 Jun 2027 08:57:38.933   09 Jun 2027 08:58:04.802            25.869         12737.656
       250   09 Jun 2027 08:58:44.558   09 Jun 2027 08:58:46.574             2.016           886.344
       251   09 Jun 2027 08:59:07.387   09 Jun 2027 08:59:08.538             1.151           461.688
       252   09 Jun 2027 08:59:30.233   09 Jun 2027 08:59:32.633             2.400           667.187
       253   09 Jun 2027 09:00:06.463   09 Jun 2027 09:00:08.399             1.936           675.406
       254   09 Jun 2027 09:00:36.363   09 Jun 2027 09:00:39.286             2.923           863.500
       255   09 Jun 2027 09:01:52.640   09 Jun 2027 09:01:52.640             0.000             0.000
       256   09 Jun 2027 09:02:33.271   09 Jun 2027 09:02:40.875             7.604          3321.688
       257   09 Jun 2027 09:03:52.076   09 Jun 2027 09:03:57.280             5.204          2014.313
       258   09 Jun 2027 10:35:35.750   09 Jun 2027 10:36:02.963            27.213          9062.406
       259   09 Jun 2027 10:37:07.060   09 Jun 2027 10:37:09.528             2.468          1158.125
       260   09 Jun 2027 10:37:45.056   09 Jun 2027 10:37:48.819             3.763          1062.813
       261   09 Jun 2027 10:38:19.613   09 Jun 2027 10:38:21.658             2.045           846.438
       262   09 Jun 2027 10:38:29.666   09 Jun 2027 10:38:38.159             8.493           250.250
       263   09 Jun 2027 10:38:45.246   09 Jun 2027 10:38:46.560             1.314           221.469
       264   09 Jun 2027 10:39:06.879   09 Jun 2027 10:39:08.972             2.093           543.062
       265   10 Jun 2027 04:20:25.473   10 Jun 2027 04:21:31.317            65.844         32922.000
       266   10 Jun 2027 04:22:22.004   10 Jun 2027 04:22:45.835            23.831         11915.500
       267   10 Jun 2027 04:23:58.308   10 Jun 2027 04:24:22.818            24.510         12255.000
       268   10 Jun 2027 05:55:23.358   10 Jun 2027 05:56:42.375            79.017         39508.500
       269   10 Jun 2027 05:57:17.106   10 Jun 2027 05:57:18.101             0.995           497.500
       270   10 Jun 2027 05:57:27.053   10 Jun 2027 05:57:34.432             7.379          3689.500
       271   10 Jun 2027 05:58:16.297   10 Jun 2027 05:58:24.580             8.283          4141.500
       272   10 Jun 2027 05:58:34.726   10 Jun 2027 05:58:37.219             2.493          1246.500
       273   10 Jun 2027 05:58:40.407   10 Jun 2027 05:58:47.026             6.619          3309.500
       274   10 Jun 2027 06:00:55.111   10 Jun 2027 06:01:02.586             7.475          3737.500
       275   10 Jun 2027 06:01:40.699   10 Jun 2027 06:01:49.530             8.831          4415.500
       276   10 Jun 2027 06:02:23.470   10 Jun 2027 06:02:28.592             5.122          2561.000
       277   10 Jun 2027 06:02:28.905   10 Jun 2027 06:02:30.565             1.660           830.000
       278   10 Jun 2027 06:03:26.009   10 Jun 2027 06:03:26.009             0.000             0.000
       279   10 Jun 2027 07:32:51.844   10 Jun 2027 07:34:21.902            90.058         45029.000
       280   10 Jun 2027 07:35:01.195   10 Jun 2027 07:35:16.854            15.659          7829.500
       281   10 Jun 2027 07:35:34.551   10 Jun 2027 07:35:35.663             1.112           556.000
       282   10 Jun 2027 07:36:05.593   10 Jun 2027 07:36:13.257             7.664          3714.437
       283   10 Jun 2027 07:37:32.158   10 Jun 2027 07:37:37.625             5.467          2402.844
       284   10 Jun 2027 07:39:31.099   10 Jun 2027 07:39:38.306             7.207          3406.125
       285   10 Jun 2027 09:09:36.612   10 Jun 2027 09:10:02.290            25.678         12422.313
       286   10 Jun 2027 09:10:06.767   10 Jun 2027 09:10:10.383             3.616             6.781
       287   10 Jun 2027 09:11:53.765   10 Jun 2027 09:11:59.489             5.724          2244.031
       288   10 Jun 2027 09:12:58.724   10 Jun 2027 09:13:04.458             5.734          1652.094
       289   10 Jun 2027 09:13:32.539   10 Jun 2027 09:13:34.472             1.933           709.156
       290   10 Jun 2027 09:13:36.295   10 Jun 2027 09:13:37.095             0.800             6.875
       291   10 Jun 2027 09:13:47.156   10 Jun 2027 09:13:47.814             0.658           290.625
       292   10 Jun 2027 09:14:40.947   10 Jun 2027 09:14:45.092             4.145          1660.406
       293   10 Jun 2027 09:15:10.879   10 Jun 2027 09:15:12.305             1.426           688.687
       294   10 Jun 2027 09:15:36.509   10 Jun 2027 09:15:38.112             1.603           756.375
       295   10 Jun 2027 09:16:08.882   10 Jun 2027 09:16:09.019             0.137            68.500
       296   10 Jun 2027 10:47:34.985   10 Jun 2027 10:47:49.617            14.632          7004.844
       297   10 Jun 2027 10:48:44.886   10 Jun 2027 10:48:49.044             4.158          1727.156
       298   10 Jun 2027 10:49:15.166   10 Jun 2027 10:49:15.166             0.000             0.000
       299   10 Jun 2027 10:49:21.941   10 Jun 2027 10:49:28.214             6.273           860.844
       300   10 Jun 2027 10:49:51.511   10 Jun 2027 10:49:57.927             6.416           728.031
       301   10 Jun 2027 10:50:08.596   10 Jun 2027 10:50:14.479             5.883           333.406
       302   10 Jun 2027 10:51:08.990   10 Jun 2027 10:51:13.819             4.829          1338.437
       303   11 Jun 2027 03:00:00.000   11 Jun 2027 03:00:05.675             5.675          2837.500
       304   11 Jun 2027 03:10:11.837   11 Jun 2027 03:10:43.298            31.461         15730.500
       305   11 Jun 2027 04:31:58.559   11 Jun 2027 04:32:38.762            40.203         20101.500
       306   11 Jun 2027 04:34:06.505   11 Jun 2027 04:34:24.950            18.445          9222.500
       307   11 Jun 2027 04:36:56.265   11 Jun 2027 04:37:00.408             4.143          2071.500
       308   11 Jun 2027 04:37:23.767   11 Jun 2027 04:37:23.767             0.000             0.000
       309   11 Jun 2027 04:37:28.964   11 Jun 2027 04:37:49.925            20.961         10480.500
       310   11 Jun 2027 06:06:51.361   11 Jun 2027 06:08:33.488           102.127         51063.500
       311   11 Jun 2027 06:10:30.887   11 Jun 2027 06:10:36.386             5.499          2749.500
       312   11 Jun 2027 06:11:53.450   11 Jun 2027 06:12:10.501            17.051          8525.500
       313   11 Jun 2027 06:12:45.531   11 Jun 2027 06:12:56.529            10.998          5499.000
       314   11 Jun 2027 06:15:30.230   11 Jun 2027 06:15:30.230             0.000             0.000
       315   11 Jun 2027 06:15:45.085   11 Jun 2027 06:15:53.145             8.060          4030.000
       316   11 Jun 2027 07:44:44.952   11 Jun 2027 07:46:22.272            97.320         47787.812
       317   11 Jun 2027 07:46:48.271   11 Jun 2027 07:46:58.853            10.582           812.469
       318   11 Jun 2027 07:47:34.395   11 Jun 2027 07:47:36.133             1.738           869.000
       319   11 Jun 2027 07:47:51.759   11 Jun 2027 07:47:52.127             0.368           184.000
       320   11 Jun 2027 07:48:46.580   11 Jun 2027 07:48:52.467             5.887          2247.656
       321   11 Jun 2027 07:50:48.477   11 Jun 2027 07:50:51.740             3.263          1631.500
       322   11 Jun 2027 07:51:26.459   11 Jun 2027 07:51:31.082             4.623          2311.500
       323   11 Jun 2027 09:21:28.879   11 Jun 2027 09:21:54.251            25.372         12439.562
       324   11 Jun 2027 09:22:43.381   11 Jun 2027 09:22:44.311             0.930           203.500
       325   11 Jun 2027 09:24:01.533   11 Jun 2027 09:24:06.530             4.997          2413.188
       326   11 Jun 2027 09:24:37.806   11 Jun 2027 09:24:41.297             3.491           861.250
       327   11 Jun 2027 09:25:46.280   11 Jun 2027 09:25:52.674             6.394          1773.531
       328   11 Jun 2027 09:26:01.062   11 Jun 2027 09:26:01.470             0.408            75.531
       329   11 Jun 2027 09:26:38.277   11 Jun 2027 09:26:38.948             0.671           335.500
       330   11 Jun 2027 09:27:12.783   11 Jun 2027 09:27:16.522             3.739          1869.500
       331   11 Jun 2027 09:27:25.897   11 Jun 2027 09:27:28.637             2.740           203.500
       332   11 Jun 2027 09:27:55.556   11 Jun 2027 09:28:00.374             4.818           677.375
       333   11 Jun 2027 10:59:35.217   11 Jun 2027 10:59:47.702            12.485          6242.500
       334   11 Jun 2027 11:00:40.367   11 Jun 2027 11:00:45.325             4.958          2385.906
       335   11 Jun 2027 11:00:49.528   11 Jun 2027 11:00:51.071             1.543            58.281
       336   11 Jun 2027 11:01:11.466   11 Jun 2027 11:01:13.433             1.967           525.781
       337   11 Jun 2027 11:01:51.910   11 Jun 2027 11:02:00.173             8.263          1154.000
       338   11 Jun 2027 11:02:21.540   11 Jun 2027 11:02:23.518             1.978           667.719
       339   11 Jun 2027 11:02:29.149   11 Jun 2027 11:02:38.010             8.861           129.094
       340   11 Jun 2027 11:03:30.002   11 Jun 2027 11:03:34.434             4.432          1624.750
       341   12 Jun 2027 03:09:55.418   12 Jun 2027 03:10:22.808            27.390         13695.000
       342   12 Jun 2027 03:10:48.655   12 Jun 2027 03:10:48.655             0.000             0.000
       343   12 Jun 2027 03:11:09.392   12 Jun 2027 03:11:23.724            14.332          7166.000
       344   12 Jun 2027 04:45:56.386   12 Jun 2027 04:47:51.493           115.107         57553.500
       345   12 Jun 2027 04:48:28.490   12 Jun 2027 04:48:32.292             3.802          1901.000
       346   12 Jun 2027 06:19:43.764   12 Jun 2027 06:21:28.013           104.249         52124.500
       347   12 Jun 2027 06:23:21.722   12 Jun 2027 06:23:24.698             2.976          1488.000
       348   12 Jun 2027 06:24:03.866   12 Jun 2027 06:24:10.188             6.322          3161.000
       349   12 Jun 2027 06:24:57.776   12 Jun 2027 06:24:57.776             0.000             0.000
       350   12 Jun 2027 06:25:05.069   12 Jun 2027 06:25:09.048             3.979          1989.500
       351   12 Jun 2027 06:27:55.759   12 Jun 2027 06:28:11.081            15.322          7661.000
       352   12 Jun 2027 06:28:14.134   12 Jun 2027 06:28:14.153             0.019             9.500
       353   12 Jun 2027 07:56:52.563   12 Jun 2027 07:57:47.364            54.801         26865.906
       354   12 Jun 2027 07:58:41.183   12 Jun 2027 07:58:43.285             2.102          1051.000
       355   12 Jun 2027 08:00:06.177   12 Jun 2027 08:00:11.661             5.484          2670.906
       356   12 Jun 2027 08:00:22.212   12 Jun 2027 08:00:23.245             1.033           329.719
       357   12 Jun 2027 08:00:54.035   12 Jun 2027 08:00:56.324             2.289           917.688
       358   12 Jun 2027 08:01:23.909   12 Jun 2027 08:01:25.536             1.627           233.344
       359   12 Jun 2027 08:01:52.512   12 Jun 2027 08:01:54.838             2.326           769.531
       360   12 Jun 2027 08:02:29.398   12 Jun 2027 08:02:32.473             3.075          1061.469
       361   12 Jun 2027 08:03:33.017   12 Jun 2027 08:03:38.819             5.802          1786.625
       362   12 Jun 2027 09:34:07.067   12 Jun 2027 09:34:24.599            17.532          8617.656
       363   12 Jun 2027 09:36:08.301   12 Jun 2027 09:36:12.124             3.823          1361.437
       364   12 Jun 2027 09:36:43.141   12 Jun 2027 09:36:50.420             7.279           733.500
       365   12 Jun 2027 09:37:44.229   12 Jun 2027 09:37:46.663             2.434          1071.563
       366   12 Jun 2027 09:38:12.787   12 Jun 2027 09:38:15.142             2.355           244.375
       367   12 Jun 2027 09:38:25.369   12 Jun 2027 09:38:26.200             0.831           319.594
       368   12 Jun 2027 09:39:40.596   12 Jun 2027 09:39:49.017             8.421          2324.875
       369   12 Jun 2027 11:10:49.116   12 Jun 2027 11:11:04.910            15.794          7166.219
       370   12 Jun 2027 11:11:37.318   12 Jun 2027 11:11:39.569             2.251           213.969
       371   12 Jun 2027 11:12:07.542   12 Jun 2027 11:12:09.595             2.053           762.563
       372   12 Jun 2027 11:12:18.175   12 Jun 2027 11:12:21.006             2.831            31.312
       373   12 Jun 2027 11:13:15.124   12 Jun 2027 11:13:18.688             3.564          1442.437
       374   12 Jun 2027 11:13:53.512   12 Jun 2027 11:13:55.116             1.604           713.812
       375   12 Jun 2027 11:14:43.983   12 Jun 2027 11:14:51.109             7.126          1475.375
       376   12 Jun 2027 11:15:12.751   12 Jun 2027 11:15:15.491             2.740           409.812
       377   12 Jun 2027 11:15:24.501   12 Jun 2027 11:15:27.928             3.427           244.875
       378   12 Jun 2027 11:15:37.858   12 Jun 2027 11:15:39.324             1.466           227.562
       379   13 Jun 2027 03:21:48.360   13 Jun 2027 03:22:09.267            20.907         10453.500
       380   13 Jun 2027 03:23:02.064   13 Jun 2027 03:23:02.064             0.000             0.000
       381   13 Jun 2027 03:23:34.964   13 Jun 2027 03:23:44.702             9.738          4869.000
       382   13 Jun 2027 04:58:09.263   13 Jun 2027 05:00:10.163           120.900         60450.000
       383   13 Jun 2027 05:00:26.265   13 Jun 2027 05:00:26.265             0.000             0.000
       384   13 Jun 2027 06:32:07.583   13 Jun 2027 06:33:56.420           108.837         54418.500
       385   13 Jun 2027 06:34:22.981   13 Jun 2027 06:34:34.890            11.909          5954.500
       386   13 Jun 2027 06:37:12.282   13 Jun 2027 06:37:24.047            11.765          5882.500
       387   13 Jun 2027 06:38:44.759   13 Jun 2027 06:38:51.853             7.094          3547.000
       388   13 Jun 2027 06:40:10.166   13 Jun 2027 06:40:12.825             2.659          1329.500
       389   13 Jun 2027 08:09:17.960   13 Jun 2027 08:10:17.446            59.486         29006.031
       390   13 Jun 2027 08:11:37.841   13 Jun 2027 08:11:42.848             5.007          2299.781
       391   13 Jun 2027 08:12:06.753   13 Jun 2027 08:12:07.321             0.568           175.969
       392   13 Jun 2027 08:12:44.807   13 Jun 2027 08:12:46.782             1.975           968.813
       393   13 Jun 2027 08:13:41.748   13 Jun 2027 08:13:45.758             4.010          1361.562
       394   13 Jun 2027 08:14:34.026   13 Jun 2027 08:14:34.026             0.000             0.000
       395   13 Jun 2027 08:15:14.061   13 Jun 2027 08:15:24.583            10.522          2703.781
       396   13 Jun 2027 08:15:53.295   13 Jun 2027 08:15:58.533             5.238           897.250
       397   13 Jun 2027 09:46:17.360   13 Jun 2027 09:46:30.781            13.421          6710.500
       398   13 Jun 2027 09:46:35.926   13 Jun 2027 09:46:42.923             6.997          2907.062
       399   13 Jun 2027 09:46:57.091   13 Jun 2027 09:47:00.909             3.818           261.938
       400   13 Jun 2027 09:47:30.950   13 Jun 2027 09:47:31.542             0.592           296.000
       401   13 Jun 2027 09:47:39.300   13 Jun 2027 09:47:39.661             0.361           180.500
       402   13 Jun 2027 09:48:07.766   13 Jun 2027 09:48:12.056             4.290          1583.000
       403   13 Jun 2027 09:48:16.774   13 Jun 2027 09:48:16.774             0.000             0.000
       404   13 Jun 2027 09:48:57.559   13 Jun 2027 09:49:01.377             3.818          1421.969
       405   13 Jun 2027 09:49:15.739   13 Jun 2027 09:49:17.536             1.797           448.813
       406   13 Jun 2027 09:49:41.211   13 Jun 2027 09:49:43.223             2.012           739.844
       407   13 Jun 2027 09:49:55.441   13 Jun 2027 09:49:56.503             1.062           356.531
       408   13 Jun 2027 09:50:03.687   13 Jun 2027 09:50:04.659             0.972           190.750
       409   13 Jun 2027 09:50:37.985   13 Jun 2027 09:50:44.391             6.406           827.719
       410   13 Jun 2027 09:51:30.307   13 Jun 2027 09:51:36.221             5.914          1281.406
       411   13 Jun 2027 11:23:03.911   13 Jun 2027 11:23:20.698            16.787          8263.219
       412   13 Jun 2027 11:23:54.189   13 Jun 2027 11:23:57.066             2.877          1034.062
       413   13 Jun 2027 11:25:16.415   13 Jun 2027 11:25:21.051             4.636          2047.344
       414   13 Jun 2027 11:25:49.072   13 Jun 2027 11:25:52.278             3.206           875.656
       415   13 Jun 2027 11:26:19.711   13 Jun 2027 11:26:23.738             4.027           764.656
       416   13 Jun 2027 11:26:42.402   13 Jun 2027 11:26:50.365             7.963           433.500
       417   13 Jun 2027 11:27:15.364   13 Jun 2027 11:27:17.176             1.812           343.000
