uniorb/output/strategy_1/Camera/Camera_KinoSat_110810.txt

KinoSat_110810
-------------------------
    Access    *     Start Time (UTCG)     *     Stop Time (UTCG)  *   Duration (s) *   Data (Mbytes)
         1   01 Jun 2027 04:23:32.640   01 Jun 2027 04:25:09.504            96.864         48432.000
         2   01 Jun 2027 04:25:27.317   01 Jun 2027 04:25:34.934             7.617          3808.500
         3   01 Jun 2027 04:26:27.120   01 Jun 2027 04:26:28.654             1.534           767.000
         4   01 Jun 2027 05:57:01.952   01 Jun 2027 05:59:21.899           139.947         69973.500
         5   01 Jun 2027 06:00:02.960   01 Jun 2027 06:00:03.018             0.058            29.000
         6   01 Jun 2027 06:00:16.963   01 Jun 2027 06:00:30.055            13.092          6546.000
         7   01 Jun 2027 06:02:10.569   01 Jun 2027 06:02:12.813             2.244          1122.000
         8   01 Jun 2027 06:02:36.243   01 Jun 2027 06:02:38.798             2.555          1277.500
         9   01 Jun 2027 06:03:26.780   01 Jun 2027 06:03:33.097             6.317          3158.500
        10   01 Jun 2027 06:04:27.521   01 Jun 2027 06:04:30.977             3.456          1728.000
        11   01 Jun 2027 06:05:15.318   01 Jun 2027 06:05:18.531             3.213          1606.500
        12   01 Jun 2027 06:05:25.943   01 Jun 2027 06:05:29.791             3.848          1924.000
        13   01 Jun 2027 06:05:32.445   01 Jun 2027 06:05:34.245             1.800           900.000
        14   01 Jun 2027 07:34:33.964   01 Jun 2027 07:36:53.168           139.204         69602.000
        15   01 Jun 2027 07:38:08.875   01 Jun 2027 07:38:18.255             9.380          4690.000
        16   01 Jun 2027 07:38:28.861   01 Jun 2027 07:38:46.299            17.438          8719.000
        17   01 Jun 2027 09:11:30.273   01 Jun 2027 09:13:14.268           103.995         51997.500
        18   01 Jun 2027 09:14:09.030   01 Jun 2027 09:14:41.363            32.333         16166.500
        19   01 Jun 2027 09:16:55.432   01 Jun 2027 09:17:02.258             6.826          3413.000
        20   01 Jun 2027 10:48:20.909   01 Jun 2027 10:50:35.956           135.047         67523.500
        21   02 Jun 2027 03:00:00.000   02 Jun 2027 03:00:04.636             4.636          2318.000
        22   02 Jun 2027 03:00:36.965   02 Jun 2027 03:00:48.832            11.867          5933.500
        23   02 Jun 2027 04:35:34.217   02 Jun 2027 04:36:40.673            66.456         33228.000
        24   02 Jun 2027 04:37:06.469   02 Jun 2027 04:37:49.767            43.298         21649.000
        25   02 Jun 2027 04:37:54.738   02 Jun 2027 04:38:02.365             7.627          3813.500
        26   02 Jun 2027 06:09:41.529   02 Jun 2027 06:11:17.407            95.878         47939.000
        27   02 Jun 2027 06:11:55.709   02 Jun 2027 06:11:57.719             2.010          1005.000
        28   02 Jun 2027 06:12:54.504   02 Jun 2027 06:12:55.437             0.933           466.500
        29   02 Jun 2027 06:15:44.200   02 Jun 2027 06:16:14.173            29.973         14986.500
        30   02 Jun 2027 06:17:18.192   02 Jun 2027 06:17:19.691             1.499           749.500
        31   02 Jun 2027 06:17:27.648   02 Jun 2027 06:17:27.738             0.090            45.000
        32   02 Jun 2027 07:46:40.015   02 Jun 2027 07:48:51.074           131.059         65529.500
        33   02 Jun 2027 07:50:45.021   02 Jun 2027 07:50:50.503             5.482          2741.000
        34   02 Jun 2027 09:24:19.235   02 Jun 2027 09:26:13.114           113.879         56939.500
        35   02 Jun 2027 09:26:57.553   02 Jun 2027 09:27:16.472            18.919          9459.500
        36   02 Jun 2027 09:27:28.254   02 Jun 2027 09:27:32.169             3.915          1957.500
        37   02 Jun 2027 09:28:21.113   02 Jun 2027 09:28:36.961            15.848          7924.000
        38   02 Jun 2027 11:00:23.967   02 Jun 2027 11:02:21.430           117.463         58731.500
        39   02 Jun 2027 11:04:16.813   02 Jun 2027 11:04:22.799             5.986          2993.000
        40   02 Jun 2027 11:04:40.384   02 Jun 2027 11:05:01.344            20.960         10480.000
        41   03 Jun 2027 03:11:13.449   03 Jun 2027 03:11:24.130            10.681          5340.500
        42   03 Jun 2027 03:12:32.690   03 Jun 2027 03:12:34.736             2.046          1023.000
        43   03 Jun 2027 03:12:41.863   03 Jun 2027 03:12:41.863             0.000             0.000
        44   03 Jun 2027 03:12:46.360   03 Jun 2027 03:12:52.231             5.871          2935.500
        45   03 Jun 2027 03:14:10.975   03 Jun 2027 03:14:14.276             3.301          1650.500
        46   03 Jun 2027 04:47:44.026   03 Jun 2027 04:49:48.820           124.794         62397.000
        47   03 Jun 2027 06:22:54.068   03 Jun 2027 06:24:13.072            79.004         39502.000
        48   03 Jun 2027 06:25:49.004   03 Jun 2027 06:26:09.197            20.193         10096.500
        49   03 Jun 2027 06:29:21.217   03 Jun 2027 06:29:29.387             8.170          4085.000
        50   03 Jun 2027 07:59:16.100   03 Jun 2027 08:00:50.454            94.354         47177.000
        51   03 Jun 2027 08:01:05.576   03 Jun 2027 08:01:33.959            28.383         14191.500
        52   03 Jun 2027 08:02:44.732   03 Jun 2027 08:03:00.710            15.978          7989.000
        53   03 Jun 2027 09:36:33.720   03 Jun 2027 09:38:28.591           114.871         57435.500
        54   03 Jun 2027 09:40:04.042   03 Jun 2027 09:40:16.278            12.236          6118.000
        55   03 Jun 2027 09:40:36.573   03 Jun 2027 09:40:40.646             4.073          2036.500
        56   03 Jun 2027 11:12:46.142   03 Jun 2027 11:13:38.528            52.386         25232.907
        57   03 Jun 2027 11:14:20.139   03 Jun 2027 11:14:22.112             1.973           986.500
        58   03 Jun 2027 11:15:18.524   03 Jun 2027 11:15:24.334             5.810          2053.219
        59   03 Jun 2027 11:16:20.716   03 Jun 2027 11:16:26.211             5.495          1708.469
        60   03 Jun 2027 11:17:02.940   03 Jun 2027 11:17:05.307             2.367          1100.844
        61   04 Jun 2027 03:23:53.254   04 Jun 2027 03:23:59.699             6.445          3222.500
        62   04 Jun 2027 03:24:15.607   04 Jun 2027 03:24:18.023             2.416          1208.000
        63   04 Jun 2027 03:24:26.406   04 Jun 2027 03:24:36.803            10.397          5198.500
        64   04 Jun 2027 03:25:27.380   04 Jun 2027 03:25:27.380             0.000             0.000
        65   04 Jun 2027 03:25:33.311   04 Jun 2027 03:25:50.577            17.266          8633.000
        66   04 Jun 2027 04:59:38.910   04 Jun 2027 05:01:08.242            89.332         44666.000
        67   04 Jun 2027 05:03:00.528   04 Jun 2027 05:03:18.324            17.796          8898.000
        68   04 Jun 2027 06:34:36.315   04 Jun 2027 06:36:16.961           100.646         50323.000
        69   04 Jun 2027 06:37:15.563   04 Jun 2027 06:37:30.685            15.122          7561.000
        70   04 Jun 2027 06:40:34.229   04 Jun 2027 06:40:40.155             5.926          2963.000
        71   04 Jun 2027 06:40:53.039   04 Jun 2027 06:41:00.765             7.726          3863.000
        72   04 Jun 2027 06:41:12.667   04 Jun 2027 06:41:20.866             8.199          4099.500
        73   04 Jun 2027 08:10:48.793   04 Jun 2027 08:12:10.805            82.012         38504.156
        74   04 Jun 2027 08:12:47.913   04 Jun 2027 08:12:49.981             2.068           816.719
        75   04 Jun 2027 08:13:01.801   04 Jun 2027 08:13:04.153             2.352           369.375
        76   04 Jun 2027 08:13:47.818   04 Jun 2027 08:13:52.211             4.393          1244.437
        77   04 Jun 2027 08:15:40.256   04 Jun 2027 08:15:47.571             7.315          3096.031
        78   04 Jun 2027 08:16:46.455   04 Jun 2027 08:16:50.236             3.781          1702.594
        79   04 Jun 2027 09:48:49.958   04 Jun 2027 09:49:10.698            20.740         10178.344
        80   04 Jun 2027 09:49:44.235   04 Jun 2027 09:49:46.736             2.501           916.656
        81   04 Jun 2027 09:50:02.177   04 Jun 2027 09:50:03.238             1.061           313.000
        82   04 Jun 2027 09:50:41.864   04 Jun 2027 09:50:51.663             9.799           359.469
        83   04 Jun 2027 09:51:11.491   04 Jun 2027 09:51:12.989             1.498           587.344
        84   04 Jun 2027 09:51:28.828   04 Jun 2027 09:51:32.492             3.664           494.969
        85   04 Jun 2027 09:52:19.725   04 Jun 2027 09:52:26.172             6.447          1390.156
        86   04 Jun 2027 11:24:29.825   04 Jun 2027 11:24:45.638            15.813          7314.906
        87   04 Jun 2027 11:25:49.243   04 Jun 2027 11:26:01.382            12.139          1850.094
        88   04 Jun 2027 11:26:15.439   04 Jun 2027 11:26:17.881             2.442           439.281
        89   04 Jun 2027 11:26:51.215   04 Jun 2027 11:26:53.709             2.494           581.375
        90   04 Jun 2027 11:27:20.424   04 Jun 2027 11:27:21.871             1.447           590.906
        91   04 Jun 2027 11:28:32.385   04 Jun 2027 11:28:35.603             3.218          1609.000
        92   04 Jun 2027 11:29:00.016   04 Jun 2027 11:29:02.039             2.023          1011.500
        93   04 Jun 2027 11:29:05.440   04 Jun 2027 11:29:09.953             4.513           398.188
        94   04 Jun 2027 11:29:35.064   04 Jun 2027 11:29:37.939             2.875           326.031
        95   05 Jun 2027 03:34:42.563   05 Jun 2027 03:35:23.625            41.062         20531.000
        96   05 Jun 2027 03:36:36.239   05 Jun 2027 03:36:38.653             2.414          1207.000
        97   05 Jun 2027 03:37:28.035   05 Jun 2027 03:37:28.035             0.000             0.000
        98   05 Jun 2027 03:37:34.548   05 Jun 2027 03:37:39.463             4.915          2457.500
        99   05 Jun 2027 03:37:53.804   05 Jun 2027 03:38:11.649            17.845          8922.500
       100   05 Jun 2027 05:10:14.942   05 Jun 2027 05:10:21.817             6.875          3437.500
       101   05 Jun 2027 05:11:24.698   05 Jun 2027 05:13:17.740           113.042         56521.000
       102   05 Jun 2027 06:46:10.009   05 Jun 2027 06:47:57.996           107.987         53993.500
       103   05 Jun 2027 06:49:19.917   05 Jun 2027 06:49:25.653             5.736          2868.000
       104   05 Jun 2027 06:51:09.399   05 Jun 2027 06:51:22.882            13.483          6741.500
       105   05 Jun 2027 06:52:58.974   05 Jun 2027 06:53:03.422             4.448          2224.000
       106   05 Jun 2027 06:53:19.078   05 Jun 2027 06:53:22.655             3.577          1788.500
       107   05 Jun 2027 08:23:10.237   05 Jun 2027 08:23:57.464            47.227         23399.938
       108   05 Jun 2027 08:24:19.962   05 Jun 2027 08:24:20.457             0.495           247.500
       109   05 Jun 2027 08:24:32.887   05 Jun 2027 08:24:35.240             2.353           844.000
       110   05 Jun 2027 08:25:13.458   05 Jun 2027 08:25:16.293             2.835           842.563
       111   05 Jun 2027 08:25:59.745   05 Jun 2027 08:26:01.952             2.207           730.094
       112   05 Jun 2027 08:26:16.022   05 Jun 2027 08:26:16.022             0.000             0.000
       113   05 Jun 2027 08:26:21.663   05 Jun 2027 08:26:23.418             1.755           615.969
       114   05 Jun 2027 08:27:07.931   05 Jun 2027 08:27:12.180             4.249          1024.313
       115   05 Jun 2027 08:27:28.109   05 Jun 2027 08:27:29.505             1.396           424.687
       116   05 Jun 2027 08:27:55.595   05 Jun 2027 08:27:56.435             0.840           420.000
       117   05 Jun 2027 08:27:56.960   05 Jun 2027 08:27:57.283             0.323           161.500
       118   05 Jun 2027 08:27:59.505   05 Jun 2027 08:28:04.486             4.981           319.656
       119   05 Jun 2027 08:28:11.100   05 Jun 2027 08:28:17.163             6.063           164.344
       120   05 Jun 2027 08:28:38.823   05 Jun 2027 08:28:41.706             2.883           623.812
       121   05 Jun 2027 10:01:11.466   05 Jun 2027 10:01:28.720            17.254          7941.594
       122   05 Jun 2027 10:02:41.628   05 Jun 2027 10:02:45.961             4.333          2106.469
       123   05 Jun 2027 10:02:59.463   05 Jun 2027 10:03:03.258             3.795           246.156
       124   05 Jun 2027 10:04:17.633   05 Jun 2027 10:04:23.615             5.982          2324.219
       125   05 Jun 2027 10:04:34.935   05 Jun 2027 10:04:38.229             3.294           295.844
       126   05 Jun 2027 11:34:25.637   05 Jun 2027 11:34:43.358            17.721          7976.219
       127   05 Jun 2027 11:36:22.865   05 Jun 2027 11:36:27.321             4.456          2008.438
       128   05 Jun 2027 11:36:28.710   05 Jun 2027 11:36:31.205             2.495            43.406
       129   05 Jun 2027 11:37:11.260   05 Jun 2027 11:37:17.239             5.979          1184.000
       130   05 Jun 2027 11:38:32.058   05 Jun 2027 11:38:36.226             4.168          1978.875
       131   05 Jun 2027 11:39:24.026   05 Jun 2027 11:39:27.481             3.455          1390.063
       132   05 Jun 2027 11:40:36.057   05 Jun 2027 11:40:40.624             4.567          1908.344
       133   05 Jun 2027 11:41:11.565   05 Jun 2027 11:41:13.236             1.671           414.125
       134   05 Jun 2027 11:41:59.380   05 Jun 2027 11:41:59.380             0.000             0.000
       135   05 Jun 2027 11:42:11.805   05 Jun 2027 11:42:14.968             3.163          1267.937
       136   06 Jun 2027 03:45:58.808   06 Jun 2027 03:46:30.233            31.425         15712.500
       137   06 Jun 2027 03:47:59.545   06 Jun 2027 03:48:23.462            23.917         11958.500
       138   06 Jun 2027 03:49:36.339   06 Jun 2027 03:49:45.748             9.409          4704.500
       139   06 Jun 2027 03:49:56.377   06 Jun 2027 03:49:56.377             0.000             0.000
       140   06 Jun 2027 03:50:54.558   06 Jun 2027 03:51:04.872            10.314          5157.000
       141   06 Jun 2027 05:21:06.689   06 Jun 2027 05:22:39.913            93.224         46612.000
       142   06 Jun 2027 05:23:08.018   06 Jun 2027 05:23:29.558            21.540         10770.000
       143   06 Jun 2027 05:23:55.828   06 Jun 2027 05:24:22.707            26.879         13439.500
       144   06 Jun 2027 05:24:47.660   06 Jun 2027 05:24:47.660             0.000             0.000
       145   06 Jun 2027 05:24:50.965   06 Jun 2027 05:24:59.915             8.950          4475.000
       146   06 Jun 2027 05:27:51.967   06 Jun 2027 05:28:05.080            13.113          6556.500
       147   06 Jun 2027 05:29:02.888   06 Jun 2027 05:29:10.825             7.937          3968.500
       148   06 Jun 2027 06:58:18.321   06 Jun 2027 06:59:53.964            95.643         47821.500
       149   06 Jun 2027 07:00:46.383   06 Jun 2027 07:00:56.596            10.213          4021.969
       150   06 Jun 2027 07:01:18.915   06 Jun 2027 07:01:20.382             1.467           697.469
       151   06 Jun 2027 07:01:49.582   06 Jun 2027 07:01:50.722             1.140           570.000
       152   06 Jun 2027 07:03:50.020   06 Jun 2027 07:03:50.020             0.000             0.000
       153   06 Jun 2027 07:04:23.095   06 Jun 2027 07:04:24.302             1.207           603.500
       154   06 Jun 2027 07:04:27.155   06 Jun 2027 07:04:38.034            10.879          4411.875
       155   06 Jun 2027 07:05:43.774   06 Jun 2027 07:05:44.318             0.544           272.000
       156   06 Jun 2027 08:35:15.684   06 Jun 2027 08:35:49.398            33.714         15903.594
       157   06 Jun 2027 08:36:11.990   06 Jun 2027 08:36:14.771             2.781           677.188
       158   06 Jun 2027 08:37:01.258   06 Jun 2027 08:37:04.512             3.254          1310.281
       159   06 Jun 2027 08:37:30.359   06 Jun 2027 08:37:36.248             5.889           790.156
       160   06 Jun 2027 08:39:04.089   06 Jun 2027 08:39:11.057             6.968          2745.031
       161   06 Jun 2027 08:39:22.271   06 Jun 2027 08:39:23.876             1.605           128.500
       162   06 Jun 2027 08:40:01.016   06 Jun 2027 08:40:06.532             5.516          1147.000
       163   06 Jun 2027 08:41:20.054   06 Jun 2027 08:41:24.277             4.223          2111.500
       164   06 Jun 2027 10:13:08.679   06 Jun 2027 10:13:28.387            19.708          8609.969
       165   06 Jun 2027 10:13:37.163   06 Jun 2027 10:13:38.505             1.342           272.938
       166   06 Jun 2027 10:14:27.840   06 Jun 2027 10:14:31.374             3.534          1541.719
       167   06 Jun 2027 10:14:47.894   06 Jun 2027 10:14:50.863             2.969           516.250
       168   06 Jun 2027 10:14:54.827   06 Jun 2027 10:14:57.240             2.413           123.875
       169   06 Jun 2027 10:16:03.800   06 Jun 2027 10:16:11.584             7.784          1919.406
       170   06 Jun 2027 10:16:22.193   06 Jun 2027 10:16:23.047             0.854           324.781
       171   06 Jun 2027 10:16:53.563   06 Jun 2027 10:16:55.561             1.998           953.625
       172   06 Jun 2027 11:46:36.792   06 Jun 2027 11:46:40.831             4.039          1785.281
       173   06 Jun 2027 11:47:21.087   06 Jun 2027 11:47:23.156             2.069           296.281
       174   06 Jun 2027 11:48:13.529   06 Jun 2027 11:48:13.954             0.425           212.500
       175   06 Jun 2027 11:48:22.510   06 Jun 2027 11:48:26.611             4.101          1629.031
       176   06 Jun 2027 11:48:33.509   06 Jun 2027 11:48:34.744             1.235           215.562
       177   06 Jun 2027 11:48:56.435   06 Jun 2027 11:48:56.435             0.000             0.000
       178   06 Jun 2027 11:49:05.806   06 Jun 2027 11:49:09.443             3.637           967.656
       179   06 Jun 2027 11:49:35.441   06 Jun 2027 11:49:37.420             1.979           397.594
       180   06 Jun 2027 11:51:22.462   06 Jun 2027 11:51:31.214             8.752          3097.781
       181   06 Jun 2027 11:52:38.651   06 Jun 2027 11:52:42.258             3.607          1803.500
       182   06 Jun 2027 11:53:08.666   06 Jun 2027 11:53:11.637             2.971          1066.031
       183   06 Jun 2027 11:54:04.266   06 Jun 2027 11:54:06.820             2.554          1073.375
       184   07 Jun 2027 03:57:43.851   07 Jun 2027 03:58:20.377            36.526         18263.000
       185   07 Jun 2027 03:59:47.050   07 Jun 2027 04:00:04.208            17.158          8579.000
       186   07 Jun 2027 04:01:38.546   07 Jun 2027 04:01:54.713            16.167          8083.500
       187   07 Jun 2027 04:02:44.308   07 Jun 2027 04:02:44.308             0.000             0.000
       188   07 Jun 2027 05:32:36.342   07 Jun 2027 05:34:51.609           135.267         67633.500
       189   07 Jun 2027 05:35:37.841   07 Jun 2027 05:35:47.217             9.376          4688.000
       190   07 Jun 2027 05:39:32.705   07 Jun 2027 05:39:32.705             0.000             0.000
       191   07 Jun 2027 05:39:45.731   07 Jun 2027 05:39:51.430             5.699          2849.500
       192   07 Jun 2027 05:41:26.102   07 Jun 2027 05:41:32.031             5.929          2964.500
       193   07 Jun 2027 07:10:19.770   07 Jun 2027 07:12:24.038           124.268         61291.438
       194   07 Jun 2027 07:13:34.777   07 Jun 2027 07:13:39.201             4.424          2210.594
       195   07 Jun 2027 07:13:54.094   07 Jun 2027 07:13:54.094             0.000             0.000
       196   07 Jun 2027 07:15:24.003   07 Jun 2027 07:15:30.126             6.123          3059.031
       197   07 Jun 2027 08:47:07.921   07 Jun 2027 08:47:16.253             8.332          4166.000
       198   07 Jun 2027 08:47:29.905   07 Jun 2027 08:47:51.865            21.960         10823.407
       199   07 Jun 2027 08:49:09.951   07 Jun 2027 08:49:16.274             6.323          2364.344
       200   07 Jun 2027 08:49:54.304   07 Jun 2027 08:49:56.020             1.716           858.000
       201   07 Jun 2027 08:50:21.230   07 Jun 2027 08:50:23.497             2.267           854.469
       202   07 Jun 2027 08:51:02.784   07 Jun 2027 08:51:09.422             6.638           862.812
       203   07 Jun 2027 08:51:23.675   07 Jun 2027 08:51:24.866             1.191           445.406
       204   07 Jun 2027 08:51:59.637   07 Jun 2027 08:52:02.184             2.547          1086.594
       205   07 Jun 2027 08:52:42.736   07 Jun 2027 08:52:46.187             3.451          1241.094
       206   07 Jun 2027 08:53:25.412   07 Jun 2027 08:53:25.412             0.000             0.000
       207   07 Jun 2027 08:53:42.774   07 Jun 2027 08:53:45.882             3.108          1111.094
       208   07 Jun 2027 10:25:10.263   07 Jun 2027 10:25:26.784            16.521          8203.250
       209   07 Jun 2027 10:26:35.287   07 Jun 2027 10:26:36.861             1.574           787.000
       210   07 Jun 2027 10:26:50.521   07 Jun 2027 10:26:53.863             3.342          1547.281
       211   07 Jun 2027 10:27:46.704   07 Jun 2027 10:27:52.638             5.934          1043.062
       212   07 Jun 2027 10:28:15.796   07 Jun 2027 10:28:18.092             2.296           723.688
       213   07 Jun 2027 10:28:56.959   07 Jun 2027 10:29:00.314             3.355          1162.063
       214   07 Jun 2027 11:59:02.238   07 Jun 2027 11:59:10.709             8.471          1785.406
       215   08 Jun 2027 04:11:30.623   08 Jun 2027 04:12:40.964            70.341         35170.500
       216   08 Jun 2027 05:45:20.232   08 Jun 2027 05:47:23.507           123.275         61637.500
       217   08 Jun 2027 05:49:22.942   08 Jun 2027 05:49:44.152            21.210         10605.000
       218   08 Jun 2027 05:52:18.540   08 Jun 2027 05:52:22.737             4.197          2098.500
       219   08 Jun 2027 05:53:39.597   08 Jun 2027 05:53:44.470             4.873          2436.500
       220   08 Jun 2027 07:22:23.066   08 Jun 2027 07:23:07.258            44.192         22096.000
       221   08 Jun 2027 07:23:27.147   08 Jun 2027 07:24:24.773            57.626         28813.000
       222   08 Jun 2027 07:25:39.483   08 Jun 2027 07:25:50.749            11.266          5633.000
       223   08 Jun 2027 07:26:28.939   08 Jun 2027 07:26:50.474            21.535         10767.500
       224   08 Jun 2027 07:27:50.293   08 Jun 2027 07:27:55.970             5.677          2838.500
       225   08 Jun 2027 08:59:17.960   08 Jun 2027 08:59:48.695            30.735         12825.813
       226   08 Jun 2027 09:01:17.525   08 Jun 2027 09:01:23.720             6.195          2738.656
       227   08 Jun 2027 09:02:23.221   08 Jun 2027 09:02:28.525             5.304          1859.406
       228   08 Jun 2027 09:02:53.397   08 Jun 2027 09:02:55.092             1.695           550.219
       229   08 Jun 2027 09:03:13.801   08 Jun 2027 09:03:16.956             3.155           198.031
       230   08 Jun 2027 09:03:53.699   08 Jun 2027 09:03:55.266             1.567           783.500
       231   08 Jun 2027 09:03:59.734   08 Jun 2027 09:04:00.859             1.125           504.344
       232   08 Jun 2027 09:04:43.765   08 Jun 2027 09:04:49.110             5.345          1000.281
       233   08 Jun 2027 09:05:18.367   08 Jun 2027 09:05:21.400             3.033           698.719
       234   08 Jun 2027 09:05:22.535   08 Jun 2027 09:05:22.799             0.264            35.469
       235   08 Jun 2027 10:36:23.892   08 Jun 2027 10:36:38.576            14.684          6754.156
       236   08 Jun 2027 10:36:51.221   08 Jun 2027 10:36:51.221             0.000             0.000
       237   08 Jun 2027 10:37:40.760   08 Jun 2027 10:37:44.405             3.645          1692.844
       238   08 Jun 2027 10:38:36.224   08 Jun 2027 10:38:43.278             7.054          1467.438
       239   08 Jun 2027 10:39:07.375   08 Jun 2027 10:39:09.437             2.062           563.219
       240   08 Jun 2027 10:40:01.699   08 Jun 2027 10:40:05.176             3.477          1523.969
       241   08 Jun 2027 10:40:26.470   08 Jun 2027 10:40:26.847             0.377           188.500
       242   08 Jun 2027 10:40:30.886   08 Jun 2027 10:40:31.582             0.696           209.656
       243   08 Jun 2027 10:40:56.046   08 Jun 2027 10:41:01.108             5.062           764.500
       244   09 Jun 2027 04:23:47.733   09 Jun 2027 04:25:43.784           116.051         58025.500
       245   09 Jun 2027 05:57:17.421   09 Jun 2027 05:59:11.257           113.836         56918.000
       246   09 Jun 2027 06:03:40.444   09 Jun 2027 06:03:40.444             0.000             0.000
       247   09 Jun 2027 06:04:16.992   09 Jun 2027 06:04:20.270             3.278          1639.000
       248   09 Jun 2027 06:04:41.672   09 Jun 2027 06:05:04.589            22.917         11458.500
       249   09 Jun 2027 07:34:48.793   09 Jun 2027 07:36:38.254           109.461         54138.625
       250   09 Jun 2027 07:38:57.021   09 Jun 2027 07:39:00.909             3.888          1944.000
       251   09 Jun 2027 07:40:08.274   09 Jun 2027 07:40:14.743             6.469          3234.500
       252   09 Jun 2027 07:41:06.514   09 Jun 2027 07:41:10.613             4.099          2027.781
       253   09 Jun 2027 09:11:45.276   09 Jun 2027 09:12:06.201            20.925         10462.500
       254   09 Jun 2027 09:12:46.646   09 Jun 2027 09:12:53.055             6.409          1428.125
       255   09 Jun 2027 09:13:56.880   09 Jun 2027 09:14:04.525             7.645          1814.719
       256   09 Jun 2027 09:14:33.043   09 Jun 2027 09:14:39.183             6.140           512.969
       257   09 Jun 2027 09:14:55.336   09 Jun 2027 09:14:59.942             4.606           471.125
       258   09 Jun 2027 09:15:13.784   09 Jun 2027 09:15:13.784             0.000             0.000
       259   09 Jun 2027 09:15:29.641   09 Jun 2027 09:15:43.564            13.923           853.969
       260   09 Jun 2027 09:16:20.258   09 Jun 2027 09:16:27.642             7.384          1146.688
       261   09 Jun 2027 09:16:31.816   09 Jun 2027 09:16:32.675             0.859            45.281
       262   09 Jun 2027 10:48:36.024   09 Jun 2027 10:48:55.629            19.605          9241.281
       263   09 Jun 2027 10:49:02.879   09 Jun 2027 10:49:04.083             1.204           128.156
       264   09 Jun 2027 10:49:42.113   09 Jun 2027 10:49:44.942             2.829          1176.406
       265   09 Jun 2027 10:49:58.542   09 Jun 2027 10:50:01.701             3.159           275.656
       266   09 Jun 2027 10:50:50.807   09 Jun 2027 10:50:53.588             2.781          1065.500
       267   09 Jun 2027 10:51:00.888   09 Jun 2027 10:51:02.157             1.269           228.125
       268   09 Jun 2027 10:51:41.156   09 Jun 2027 10:51:43.029             1.873           936.500
       269   09 Jun 2027 10:52:30.190   09 Jun 2027 10:52:32.491             2.301          1150.500
       270   09 Jun 2027 10:52:34.597   09 Jun 2027 10:52:37.737             3.140           671.312
       271   09 Jun 2027 10:53:06.756   09 Jun 2027 10:53:08.023             1.267           633.500
       272   10 Jun 2027 03:00:00.000   10 Jun 2027 03:00:09.725             9.725          4862.500
       273   10 Jun 2027 03:01:04.188   10 Jun 2027 03:01:05.238             1.050           525.000
       274   10 Jun 2027 04:35:49.786   10 Jun 2027 04:37:41.030           111.244         55622.000
       275   10 Jun 2027 04:38:18.457   10 Jun 2027 04:38:18.457             0.000             0.000
       276   10 Jun 2027 06:09:56.876   10 Jun 2027 06:11:35.192            98.316         49158.000
       277   10 Jun 2027 06:14:53.194   10 Jun 2027 06:15:08.212            15.018          7509.000
       278   10 Jun 2027 06:15:37.796   10 Jun 2027 06:15:42.892             5.096          2548.000
       279   10 Jun 2027 06:17:11.125   10 Jun 2027 06:17:11.125             0.000             0.000
       280   10 Jun 2027 06:17:35.111   10 Jun 2027 06:17:42.372             7.261          3630.500
       281   10 Jun 2027 07:46:55.098   10 Jun 2027 07:48:38.155           103.057         50306.750
       282   10 Jun 2027 07:49:57.819   10 Jun 2027 07:50:03.025             5.206          1629.094
       283   10 Jun 2027 07:50:48.499   10 Jun 2027 07:50:51.609             3.110          1357.625
       284   10 Jun 2027 07:51:14.576   10 Jun 2027 07:51:16.999             2.423           717.719
       285   10 Jun 2027 07:51:55.588   10 Jun 2027 07:51:57.344             1.756           581.906
       286   10 Jun 2027 07:52:14.191   10 Jun 2027 07:52:14.191             0.000             0.000
       287   10 Jun 2027 07:52:51.754   10 Jun 2027 07:52:57.253             5.499          1470.313
       288   10 Jun 2027 09:24:35.623   10 Jun 2027 09:24:58.111            22.488         11195.813
       289   10 Jun 2027 09:25:21.364   10 Jun 2027 09:25:23.949             2.585           674.687
       290   10 Jun 2027 09:25:29.834   10 Jun 2027 09:25:31.429             1.595           129.688
       291   10 Jun 2027 09:26:37.075   10 Jun 2027 09:26:41.117             4.042          1656.219
       292   10 Jun 2027 09:26:59.047   10 Jun 2027 09:27:01.914             2.867           534.625
       293   10 Jun 2027 09:27:43.654   10 Jun 2027 09:27:47.539             3.885          1103.656
       294   10 Jun 2027 09:28:35.691   10 Jun 2027 09:28:44.145             8.454          1504.750
       295   10 Jun 2027 11:00:38.519   10 Jun 2027 11:00:55.768            17.249          7995.469
       296   10 Jun 2027 11:01:24.531   10 Jun 2027 11:01:25.902             1.371           630.937
       297   10 Jun 2027 11:02:36.036   10 Jun 2027 11:02:42.044             6.008          1966.375
       298   10 Jun 2027 11:02:47.387   10 Jun 2027 11:02:47.901             0.514           166.969
       299   10 Jun 2027 11:03:04.467   10 Jun 2027 11:03:08.571             4.104           517.688
       300   10 Jun 2027 11:03:12.045   10 Jun 2027 11:03:12.450             0.405           108.562
       301   10 Jun 2027 11:04:31.486   10 Jun 2027 11:04:37.925             6.439          1894.438
       302   10 Jun 2027 11:04:57.597   10 Jun 2027 11:04:59.739             2.142           614.750
       303   11 Jun 2027 03:11:28.216   11 Jun 2027 03:11:46.283            18.067          9033.500
       304   11 Jun 2027 03:12:11.570   11 Jun 2027 03:12:15.509             3.939          1969.500
       305   11 Jun 2027 03:12:49.488   11 Jun 2027 03:12:59.244             9.756          4878.000
       306   11 Jun 2027 04:47:59.031   11 Jun 2027 04:49:06.764            67.733         33866.500
       307   11 Jun 2027 06:23:08.966   11 Jun 2027 06:25:22.329           133.363         66681.500
       308   11 Jun 2027 06:25:34.180   11 Jun 2027 06:25:48.455            14.275          7137.500
       309   11 Jun 2027 06:28:58.473   11 Jun 2027 06:29:17.456            18.983          9491.500
       310   11 Jun 2027 06:29:35.907   11 Jun 2027 06:29:36.550             0.643           321.500
       311   11 Jun 2027 07:59:31.169   11 Jun 2027 08:00:53.685            82.516         40373.687
       312   11 Jun 2027 08:01:49.004   11 Jun 2027 08:02:00.627            11.623          1530.594
       313   11 Jun 2027 08:02:09.489   11 Jun 2027 08:02:10.723             1.234            38.562
       314   11 Jun 2027 08:02:40.956   11 Jun 2027 08:02:42.236             1.280           640.000
       315   11 Jun 2027 08:03:57.408   11 Jun 2027 08:04:03.373             5.965          2653.906
       316   11 Jun 2027 08:04:47.685   11 Jun 2027 08:04:53.456             5.771          1384.750
       317   11 Jun 2027 09:36:47.769   11 Jun 2027 09:37:09.504            21.735         10442.000
       318   11 Jun 2027 09:37:24.739   11 Jun 2027 09:37:28.469             3.730           476.094
       319   11 Jun 2027 09:37:45.925   11 Jun 2027 09:37:51.366             5.441           397.219
       320   11 Jun 2027 09:38:38.704   11 Jun 2027 09:38:43.727             5.023          1479.313
       321   11 Jun 2027 09:38:58.564   11 Jun 2027 09:38:59.852             1.288           463.656
       322   11 Jun 2027 09:39:21.278   11 Jun 2027 09:39:21.278             0.000             0.000
       323   11 Jun 2027 09:40:00.265   11 Jun 2027 09:40:06.394             6.129          1598.375
       324   11 Jun 2027 09:40:26.776   11 Jun 2027 09:40:28.594             1.818           599.937
       325   11 Jun 2027 11:13:01.207   11 Jun 2027 11:13:17.055            15.848          7898.812
       326   11 Jun 2027 11:13:40.470   11 Jun 2027 11:13:40.470             0.000             0.000
       327   11 Jun 2027 11:13:45.146   11 Jun 2027 11:13:50.142             4.996           625.094
       328   11 Jun 2027 11:13:58.466   11 Jun 2027 11:13:59.430             0.964            94.531
       329   11 Jun 2027 11:14:52.183   11 Jun 2027 11:14:57.626             5.443          1648.531
       330   11 Jun 2027 11:15:41.126   11 Jun 2027 11:15:43.385             2.259           860.156
       331   11 Jun 2027 11:16:35.427   11 Jun 2027 11:16:40.319             4.892           984.875
       332   11 Jun 2027 11:17:20.287   11 Jun 2027 11:17:24.085             3.798          1170.656
       333   11 Jun 2027 11:17:27.175   11 Jun 2027 11:17:27.175             0.000             0.000
       334   12 Jun 2027 03:24:08.084   12 Jun 2027 03:24:51.551            43.467         21733.500
       335   12 Jun 2027 03:25:42.319   12 Jun 2027 03:25:49.703             7.384          3692.000
       336   12 Jun 2027 03:26:05.459   12 Jun 2027 03:26:06.215             0.756           378.000
       337   12 Jun 2027 03:26:14.976   12 Jun 2027 03:26:27.731            12.755          6377.500
       338   12 Jun 2027 04:59:53.565   12 Jun 2027 05:01:52.658           119.093         59546.500
       339   12 Jun 2027 05:02:08.154   12 Jun 2027 05:02:16.017             7.863          3931.500
       340   12 Jun 2027 05:02:44.096   12 Jun 2027 05:02:44.756             0.660           330.000
       341   12 Jun 2027 06:34:50.937   12 Jun 2027 06:36:45.912           114.975         57487.500
       342   12 Jun 2027 06:41:16.492   12 Jun 2027 06:41:33.227            16.735          8367.500
       343   12 Jun 2027 08:11:03.478   12 Jun 2027 08:11:37.364            33.886         16564.407
       344   12 Jun 2027 08:11:57.718   12 Jun 2027 08:12:01.991             4.273           636.062
       345   12 Jun 2027 08:12:57.100   12 Jun 2027 08:13:02.555             5.455          1412.938
       346   12 Jun 2027 08:14:49.990   12 Jun 2027 08:14:57.195             7.205          1995.156
       347   12 Jun 2027 08:15:13.030   12 Jun 2027 08:15:13.814             0.784           224.781
       348   12 Jun 2027 08:15:32.493   12 Jun 2027 08:15:33.500             1.007           211.531
       349   12 Jun 2027 08:16:42.389   12 Jun 2027 08:16:42.389             0.000             0.000
       350   12 Jun 2027 08:17:23.252   12 Jun 2027 08:17:28.900             5.648          2824.000
       351   12 Jun 2027 09:49:14.912   12 Jun 2027 09:49:33.479            18.567          8282.156
       352   12 Jun 2027 09:50:45.606   12 Jun 2027 09:50:51.756             6.150          2253.969
       353   12 Jun 2027 09:51:18.337   12 Jun 2027 09:51:20.913             2.576           820.281
       354   12 Jun 2027 09:51:31.314   12 Jun 2027 09:51:33.212             1.898           275.344
       355   12 Jun 2027 09:51:54.989   12 Jun 2027 09:51:57.836             2.847           272.500
       356   12 Jun 2027 09:52:09.317   12 Jun 2027 09:52:10.334             1.017           328.062
       357   12 Jun 2027 09:53:03.568   12 Jun 2027 09:53:07.354             3.786          1503.906
       358   12 Jun 2027 09:53:12.630   12 Jun 2027 09:53:15.075             2.445           164.875
       359   12 Jun 2027 11:24:44.333   12 Jun 2027 11:25:02.394            18.061          8353.562
       360   12 Jun 2027 11:26:05.339   12 Jun 2027 11:26:17.394            12.055          1901.656
       361   12 Jun 2027 11:26:30.167   12 Jun 2027 11:26:31.760             1.593           399.156
       362   12 Jun 2027 11:26:37.512   12 Jun 2027 11:26:41.117             3.605           179.750
       363   12 Jun 2027 11:26:50.937   12 Jun 2027 11:26:51.425             0.488           174.656
       364   12 Jun 2027 11:27:10.109   12 Jun 2027 11:27:11.329             1.220           583.875
       365   12 Jun 2027 11:27:35.161   12 Jun 2027 11:27:37.075             1.914           501.250
       366   12 Jun 2027 11:28:08.630   12 Jun 2027 11:28:08.630             0.000             0.000
       367   12 Jun 2027 11:28:28.518   12 Jun 2027 11:28:31.855             3.337          1087.438
       368   12 Jun 2027 11:28:50.679   12 Jun 2027 11:28:50.679             0.000             0.000
       369   12 Jun 2027 11:29:14.923   12 Jun 2027 11:29:17.852             2.929          1225.312
       370   12 Jun 2027 11:29:45.900   12 Jun 2027 11:29:50.109             4.209           862.063
       371   12 Jun 2027 11:29:52.656   12 Jun 2027 11:29:55.353             2.697            79.594
       372   13 Jun 2027 03:34:56.878   13 Jun 2027 03:35:22.909            26.031         13015.500
       373   13 Jun 2027 03:35:48.762   13 Jun 2027 03:35:51.204             2.442          1221.000
       374   13 Jun 2027 03:36:01.154   13 Jun 2027 03:36:05.738             4.584          2292.000
       375   13 Jun 2027 03:36:53.396   13 Jun 2027 03:37:00.356             6.960          3480.000
       376   13 Jun 2027 03:38:28.477   13 Jun 2027 03:38:31.659             3.182          1591.000
       377   13 Jun 2027 05:10:29.357   13 Jun 2027 05:10:37.236             7.879          3939.500
       378   13 Jun 2027 05:11:39.485   13 Jun 2027 05:13:39.955           120.470         60235.000
       379   13 Jun 2027 05:15:33.259   13 Jun 2027 05:15:50.677            17.418          8709.000
       380   13 Jun 2027 05:15:54.823   13 Jun 2027 05:15:56.680             1.857           928.500
       381   13 Jun 2027 06:46:24.555   13 Jun 2027 06:48:15.416           110.861         55430.500
       382   13 Jun 2027 06:48:49.659   13 Jun 2027 06:48:59.080             9.421          4710.500
       383   13 Jun 2027 06:49:22.597   13 Jun 2027 06:49:35.512            12.915          6457.500
       384   13 Jun 2027 06:52:44.015   13 Jun 2027 06:52:45.733             1.718           859.000
       385   13 Jun 2027 06:53:18.972   13 Jun 2027 06:53:33.807            14.835          7417.500
       386   13 Jun 2027 08:23:25.244   13 Jun 2027 08:24:12.082            46.838         20334.531
       387   13 Jun 2027 08:24:35.089   13 Jun 2027 08:24:36.541             1.452           718.969
       388   13 Jun 2027 08:24:47.587   13 Jun 2027 08:24:48.995             1.408           345.187
       389   13 Jun 2027 08:25:28.059   13 Jun 2027 08:25:31.380             3.321           843.312
       390   13 Jun 2027 08:27:30.091   13 Jun 2027 08:27:38.325             8.234          3084.563
       391   13 Jun 2027 08:27:54.298   13 Jun 2027 08:27:57.071             2.773           350.906
       392   13 Jun 2027 08:28:20.567   13 Jun 2027 08:28:22.671             2.104           544.906
       393   13 Jun 2027 08:28:42.294   13 Jun 2027 08:28:44.910             2.616           504.188
       394   13 Jun 2027 08:28:56.319   13 Jun 2027 08:28:57.515             1.196           315.062
       395   13 Jun 2027 08:29:26.261   13 Jun 2027 08:29:28.507             2.246           663.406
       396   13 Jun 2027 10:01:25.975   13 Jun 2027 10:01:49.520            23.545          8831.813
       397   13 Jun 2027 10:02:54.580   13 Jun 2027 10:02:58.701             4.121          1945.469
       398   13 Jun 2027 10:03:25.735   13 Jun 2027 10:03:37.904            12.169           844.813
       399   13 Jun 2027 10:04:07.711   13 Jun 2027 10:04:09.394             1.683           822.563
       400   13 Jun 2027 10:04:53.927   13 Jun 2027 10:04:56.981             3.054          1314.688
       401   13 Jun 2027 10:05:08.667   13 Jun 2027 10:05:11.438             2.771           248.844
       402   13 Jun 2027 10:05:12.709   13 Jun 2027 10:05:12.894             0.185            39.719
       403   13 Jun 2027 11:34:39.880   13 Jun 2027 11:34:53.477            13.597          6693.656
       404   13 Jun 2027 11:35:23.956   13 Jun 2027 11:35:25.994             2.038           952.469
       405   13 Jun 2027 11:36:41.652   13 Jun 2027 11:36:44.060             2.408           748.281
       406   13 Jun 2027 11:38:08.352   13 Jun 2027 11:38:13.938             5.586          2634.125
       407   13 Jun 2027 11:38:29.037   13 Jun 2027 11:38:30.412             1.375           471.844
       408   13 Jun 2027 11:39:36.484   13 Jun 2027 11:39:38.350             1.866           933.000
       409   13 Jun 2027 11:39:50.712   13 Jun 2027 11:39:58.213             7.501          1407.375
       410   13 Jun 2027 11:40:24.348   13 Jun 2027 11:40:26.492             2.144           816.719
       411   13 Jun 2027 11:41:09.817   13 Jun 2027 11:41:10.123             0.306           153.000
       412   13 Jun 2027 11:41:26.666   13 Jun 2027 11:41:35.940             9.274          1132.875
       413   13 Jun 2027 11:42:14.011   13 Jun 2027 11:42:18.030             4.019           877.156
       414   13 Jun 2027 11:42:25.587   13 Jun 2027 11:42:27.470             1.883           236.156
