uniorb/output/strategy_1/Camera/Camera_KinoSat_111707.txt

KinoSat_111707
-------------------------
    Access    *     Start Time (UTCG)     *     Stop Time (UTCG)  *   Duration (s) *   Data (Mbytes)
         1   01 Jun 2027 04:28:32.452   01 Jun 2027 04:30:44.718           132.266         66133.000
         2   01 Jun 2027 04:31:48.406   01 Jun 2027 04:32:07.166            18.760          9380.000
         3   01 Jun 2027 04:34:08.218   01 Jun 2027 04:34:10.522             2.304          1152.000
         4   01 Jun 2027 04:35:10.012   01 Jun 2027 04:35:20.959            10.947          5473.500
         5   01 Jun 2027 04:35:29.865   01 Jun 2027 04:36:06.208            36.343         18171.500
         6   01 Jun 2027 05:54:36.955   01 Jun 2027 05:55:08.079            31.124         15562.000
         7   01 Jun 2027 06:05:34.822   01 Jun 2027 06:06:52.389            77.567         38783.500
         8   01 Jun 2027 06:07:42.508   01 Jun 2027 06:07:53.337            10.829          5414.500
         9   01 Jun 2027 07:28:54.170   01 Jun 2027 07:31:17.286           143.116         71558.000
        10   01 Jun 2027 07:31:38.252   01 Jun 2027 07:31:41.469             3.217          1608.500
        11   01 Jun 2027 09:05:16.457   01 Jun 2027 09:05:34.825            18.368          9184.000
        12   01 Jun 2027 09:07:46.797   01 Jun 2027 09:08:07.106            20.309         10154.500
        13   01 Jun 2027 09:08:14.060   01 Jun 2027 09:08:32.210            18.150          9075.000
        14   01 Jun 2027 09:09:07.707   01 Jun 2027 09:09:29.985            22.278         11139.000
        15   01 Jun 2027 10:40:02.184   01 Jun 2027 10:40:37.754            35.570         17785.000
        16   01 Jun 2027 10:42:34.793   01 Jun 2027 10:43:05.173            30.380         15190.000
        17   01 Jun 2027 10:43:54.653   01 Jun 2027 10:44:45.738            51.085         25542.500
        18   01 Jun 2027 10:45:28.570   01 Jun 2027 10:45:41.650            13.080          6540.000
        19   01 Jun 2027 10:46:55.714   01 Jun 2027 10:47:34.833            39.119         19559.500
        20   02 Jun 2027 03:01:54.786   02 Jun 2027 03:02:24.910            30.124         15062.000
        21   02 Jun 2027 03:03:11.076   02 Jun 2027 03:03:12.605             1.529           764.500
        22   02 Jun 2027 03:03:23.089   02 Jun 2027 03:03:28.688             5.599          2799.500
        23   02 Jun 2027 03:04:17.108   02 Jun 2027 03:04:41.464            24.356         12178.000
        24   02 Jun 2027 03:05:41.652   02 Jun 2027 03:05:46.391             4.739          2369.500
        25   02 Jun 2027 03:05:55.703   02 Jun 2027 03:05:55.777             0.074            37.000
        26   02 Jun 2027 03:06:23.726   02 Jun 2027 03:06:40.545            16.819          8409.500
        27   02 Jun 2027 03:07:29.567   02 Jun 2027 03:07:36.341             6.774          3387.000
        28   02 Jun 2027 04:40:56.388   02 Jun 2027 04:42:01.066            64.678         32339.000
        29   02 Jun 2027 04:43:17.940   02 Jun 2027 04:43:32.369            14.429          7214.500
        30   02 Jun 2027 04:43:56.828   02 Jun 2027 04:44:03.046             6.218          3109.000
        31   02 Jun 2027 04:45:52.096   02 Jun 2027 04:45:55.091             2.995          1497.500
        32   02 Jun 2027 04:46:30.603   02 Jun 2027 04:46:40.420             9.817          4908.500
        33   02 Jun 2027 04:46:46.212   02 Jun 2027 04:46:49.146             2.934          1467.000
        34   02 Jun 2027 04:47:45.439   02 Jun 2027 04:48:10.863            25.424         12712.000
        35   02 Jun 2027 06:05:56.120   02 Jun 2027 06:06:32.467            36.347         18173.500
        36   02 Jun 2027 06:06:43.960   02 Jun 2027 06:06:45.251             1.291           645.500
        37   02 Jun 2027 06:07:02.586   02 Jun 2027 06:07:23.103            20.517         10258.500
        38   02 Jun 2027 06:17:36.719   02 Jun 2027 06:18:01.698            24.979         12489.500
        39   02 Jun 2027 06:18:21.842   02 Jun 2027 06:18:24.816             2.974          1487.000
        40   02 Jun 2027 06:18:38.488   02 Jun 2027 06:18:49.932            11.444          5722.000
        41   02 Jun 2027 06:18:56.164   02 Jun 2027 06:18:56.754             0.590           295.000
        42   02 Jun 2027 07:39:52.065   02 Jun 2027 07:41:07.953            75.888         37944.000
        43   02 Jun 2027 07:41:49.539   02 Jun 2027 07:42:06.419            16.880          8440.000
        44   02 Jun 2027 07:42:32.928   02 Jun 2027 07:42:54.733            21.805         10902.500
        45   02 Jun 2027 09:15:04.267   02 Jun 2027 09:15:42.592            38.325         19162.500
        46   02 Jun 2027 09:16:12.822   02 Jun 2027 09:16:29.246            16.424          8212.000
        47   02 Jun 2027 09:17:00.694   02 Jun 2027 09:17:21.407            20.713         10356.500
        48   02 Jun 2027 09:19:43.907   02 Jun 2027 09:19:43.907             0.000             0.000
        49   02 Jun 2027 09:20:59.638   02 Jun 2027 09:21:52.365            52.727         26363.500
        50   02 Jun 2027 10:52:09.258   02 Jun 2027 10:52:11.109             1.851           925.500
        51   02 Jun 2027 10:55:23.427   02 Jun 2027 10:55:25.840             2.413          1206.500
        52   02 Jun 2027 10:55:27.577   02 Jun 2027 10:57:05.158            97.581         48790.500
        53   02 Jun 2027 10:58:41.032   02 Jun 2027 10:58:47.855             6.823          3411.500
        54   03 Jun 2027 03:14:12.715   03 Jun 2027 03:15:23.595            70.880         35440.000
        55   03 Jun 2027 03:16:21.179   03 Jun 2027 03:16:21.179             0.000             0.000
        56   03 Jun 2027 03:16:44.478   03 Jun 2027 03:16:51.231             6.753          3376.500
        57   03 Jun 2027 03:17:00.121   03 Jun 2027 03:17:01.003             0.882           441.000
        58   03 Jun 2027 03:17:07.762   03 Jun 2027 03:17:08.955             1.193           596.500
        59   03 Jun 2027 03:18:08.049   03 Jun 2027 03:18:17.299             9.250          4625.000
        60   03 Jun 2027 03:18:26.213   03 Jun 2027 03:18:33.966             7.753          3876.500
        61   03 Jun 2027 03:19:00.480   03 Jun 2027 03:19:00.843             0.363           181.500
        62   03 Jun 2027 04:53:15.076   03 Jun 2027 04:54:42.052            86.976         43488.000
        63   03 Jun 2027 04:56:05.327   03 Jun 2027 04:56:21.146            15.819          7909.500
        64   03 Jun 2027 04:59:59.039   03 Jun 2027 05:00:13.536            14.497          7248.500
        65   03 Jun 2027 06:17:19.887   03 Jun 2027 06:17:38.180            18.293          9146.500
        66   03 Jun 2027 06:17:55.199   03 Jun 2027 06:17:55.199             0.000             0.000
        67   03 Jun 2027 06:18:30.986   03 Jun 2027 06:18:56.333            25.347         12673.500
        68   03 Jun 2027 06:19:18.444   03 Jun 2027 06:19:35.205            16.761          8380.500
        69   03 Jun 2027 06:29:33.712   03 Jun 2027 06:29:58.981            25.269         12634.500
        70   03 Jun 2027 07:51:35.185   03 Jun 2027 07:52:54.725            79.540         39770.000
        71   03 Jun 2027 07:54:38.369   03 Jun 2027 07:54:58.384            20.015         10007.500
        72   03 Jun 2027 09:26:30.918   03 Jun 2027 09:27:12.975            42.057         21028.500
        73   03 Jun 2027 09:28:00.366   03 Jun 2027 09:28:06.927             6.561          3280.500
        74   03 Jun 2027 09:32:29.080   03 Jun 2027 09:33:19.869            50.789         25394.500
        75   03 Jun 2027 09:33:51.988   03 Jun 2027 09:34:06.992            15.004          7502.000
        76   03 Jun 2027 11:04:11.519   03 Jun 2027 11:05:38.777            87.258         40720.125
        77   03 Jun 2027 11:06:20.396   03 Jun 2027 11:06:25.713             5.317          1165.313
        78   03 Jun 2027 11:07:02.927   03 Jun 2027 11:07:07.094             4.167           680.312
        79   03 Jun 2027 11:08:27.665   03 Jun 2027 11:08:32.514             4.849          2324.500
        80   03 Jun 2027 11:08:51.782   03 Jun 2027 11:08:52.310             0.528           264.000
        81   03 Jun 2027 11:09:04.746   03 Jun 2027 11:09:08.584             3.838           726.750
        82   03 Jun 2027 11:09:34.154   03 Jun 2027 11:09:37.189             3.035           799.062
        83   03 Jun 2027 11:10:20.034   03 Jun 2027 11:10:21.446             1.412           706.000
        84   03 Jun 2027 11:11:05.997   03 Jun 2027 11:11:10.684             4.687          1989.000
        85   03 Jun 2027 11:11:28.891   03 Jun 2027 11:11:38.514             9.623           568.969
        86   04 Jun 2027 03:26:58.686   04 Jun 2027 03:27:23.960            25.274         12637.000
        87   04 Jun 2027 03:27:26.289   04 Jun 2027 03:28:32.713            66.424         33212.000
        88   04 Jun 2027 05:05:20.928   04 Jun 2027 05:06:32.901            71.973         35986.500
        89   04 Jun 2027 05:06:46.020   04 Jun 2027 05:06:55.922             9.902          4951.000
        90   04 Jun 2027 05:07:08.429   04 Jun 2027 05:07:20.493            12.064          6032.000
        91   04 Jun 2027 05:08:25.201   04 Jun 2027 05:08:27.346             2.145          1072.500
        92   04 Jun 2027 06:29:25.927   04 Jun 2027 06:30:32.541            66.614         33307.000
        93   04 Jun 2027 08:03:13.337   04 Jun 2027 08:04:35.047            81.710         40777.063
        94   04 Jun 2027 08:05:56.761   04 Jun 2027 08:06:01.860             5.099          2442.000
        95   04 Jun 2027 08:07:37.665   04 Jun 2027 08:07:37.665             0.000             0.000
        96   04 Jun 2027 08:08:09.835   04 Jun 2027 08:08:19.452             9.617          3746.312
        97   04 Jun 2027 08:08:40.789   04 Jun 2027 08:08:40.789             0.000             0.000
        98   04 Jun 2027 09:38:05.209   04 Jun 2027 09:38:19.376            14.167          6747.500
        99   04 Jun 2027 09:40:31.514   04 Jun 2027 09:40:40.708             9.194          2849.094
       100   04 Jun 2027 09:41:16.394   04 Jun 2027 09:41:19.429             3.035           884.875
       101   04 Jun 2027 09:45:11.973   04 Jun 2027 09:45:27.270            15.297          6446.938
       102   04 Jun 2027 09:46:21.392   04 Jun 2027 09:46:23.806             2.414          1207.000
       103   04 Jun 2027 09:46:41.715   04 Jun 2027 09:46:43.436             1.721           385.000
       104   04 Jun 2027 11:16:14.559   04 Jun 2027 11:16:44.248            29.689          7102.000
       105   04 Jun 2027 11:16:58.476   04 Jun 2027 11:17:02.838             4.362           290.688
       106   04 Jun 2027 11:17:14.906   04 Jun 2027 11:17:17.319             2.413           369.187
       107   04 Jun 2027 11:17:54.168   04 Jun 2027 11:17:57.972             3.804           281.875
       108   04 Jun 2027 11:18:43.241   04 Jun 2027 11:18:46.266             3.025           948.844
       109   04 Jun 2027 11:19:15.146   04 Jun 2027 11:19:23.920             8.774           479.844
       110   04 Jun 2027 11:20:04.290   04 Jun 2027 11:20:09.669             5.379          1125.812
       111   04 Jun 2027 11:20:11.159   04 Jun 2027 11:20:11.882             0.723            41.094
       112   04 Jun 2027 11:20:43.761   04 Jun 2027 11:20:52.523             8.762           841.344
       113   04 Jun 2027 11:21:04.497   04 Jun 2027 11:21:06.443             1.946           347.000
       114   04 Jun 2027 11:21:36.493   04 Jun 2027 11:21:41.843             5.350           744.094
       115   04 Jun 2027 11:22:14.142   04 Jun 2027 11:22:18.754             4.612          1009.344
       116   04 Jun 2027 11:22:41.603   04 Jun 2027 11:22:42.930             1.327           656.969
       117   04 Jun 2027 11:23:19.285   04 Jun 2027 11:23:27.247             7.962          1129.312
       118   05 Jun 2027 03:39:31.332   05 Jun 2027 03:40:23.427            52.095         26047.500
       119   05 Jun 2027 03:40:33.402   05 Jun 2027 03:41:15.342            41.940         20970.000
       120   05 Jun 2027 03:41:15.891   05 Jun 2027 03:42:13.056            57.165         28582.500
       121   05 Jun 2027 03:44:20.687   05 Jun 2027 03:44:24.537             3.850          1925.000
       122   05 Jun 2027 05:17:55.590   05 Jun 2027 05:19:00.199            64.609         32304.500
       123   05 Jun 2027 05:19:10.711   05 Jun 2027 05:19:16.957             6.246          3123.000
       124   05 Jun 2027 05:20:49.935   05 Jun 2027 05:21:11.035            21.100         10550.000
       125   05 Jun 2027 06:41:21.142   05 Jun 2027 06:42:41.789            80.647         40323.500
       126   05 Jun 2027 06:43:22.250   05 Jun 2027 06:43:22.250             0.000             0.000
       127   05 Jun 2027 08:17:36.463   05 Jun 2027 08:18:14.625            38.162         19081.000
       128   05 Jun 2027 08:18:15.624   05 Jun 2027 08:18:22.874             7.250          2866.968
       129   05 Jun 2027 08:18:49.425   05 Jun 2027 08:18:51.058             1.633           474.094
       130   05 Jun 2027 08:20:12.355   05 Jun 2027 08:20:26.496            14.141          2342.344
       131   05 Jun 2027 09:51:08.979   05 Jun 2027 09:51:15.756             6.777          3388.500
       132   05 Jun 2027 09:51:48.616   05 Jun 2027 09:51:53.560             4.944          2064.281
       133   05 Jun 2027 09:54:40.851   05 Jun 2027 09:54:53.562            12.711          4515.000
       134   05 Jun 2027 09:55:36.954   05 Jun 2027 09:55:38.733             1.779           124.375
       135   05 Jun 2027 09:57:05.216   05 Jun 2027 09:57:11.492             6.276          2699.000
       136   05 Jun 2027 09:58:16.978   05 Jun 2027 09:58:24.488             7.510          1671.219
       137   05 Jun 2027 09:58:50.174   05 Jun 2027 09:58:51.906             1.732           422.656
       138   05 Jun 2027 09:59:41.154   05 Jun 2027 09:59:42.227             1.073           536.500
       139   05 Jun 2027 11:28:41.460   05 Jun 2027 11:28:55.942            14.482          6637.125
       140   05 Jun 2027 11:29:19.804   05 Jun 2027 11:29:22.411             2.607           602.469
       141   05 Jun 2027 11:30:45.313   05 Jun 2027 11:30:45.633             0.320           159.875
       142   05 Jun 2027 11:32:32.282   05 Jun 2027 11:32:40.213             7.931          3305.969
       143   05 Jun 2027 11:32:54.144   05 Jun 2027 11:32:58.719             4.575           259.781
       144   05 Jun 2027 11:33:15.162   05 Jun 2027 11:33:15.162             0.000             0.000
       145   05 Jun 2027 11:33:24.158   05 Jun 2027 11:33:25.663             1.505           722.031
       146   05 Jun 2027 11:33:31.974   05 Jun 2027 11:33:37.284             5.310           197.219
       147   05 Jun 2027 11:33:41.405   05 Jun 2027 11:33:45.524             4.119           128.781
       148   05 Jun 2027 11:34:26.267   05 Jun 2027 11:34:29.859             3.592          1054.812
       149   06 Jun 2027 03:51:31.255   06 Jun 2027 03:51:39.245             7.990          3995.000
       150   06 Jun 2027 03:51:46.202   06 Jun 2027 03:51:56.914            10.712          5356.000
       151   06 Jun 2027 03:53:40.906   06 Jun 2027 03:55:20.828            99.922         49961.000
       152   06 Jun 2027 03:56:54.798   06 Jun 2027 03:57:16.036            21.238         10619.000
       153   06 Jun 2027 05:29:34.456   06 Jun 2027 05:31:05.366            90.910         45455.000
       154   06 Jun 2027 05:31:08.981   06 Jun 2027 05:31:44.077            35.096         17548.000
       155   06 Jun 2027 05:33:42.482   06 Jun 2027 05:33:47.156             4.674          2337.000
       156   06 Jun 2027 06:53:13.131   06 Jun 2027 06:54:35.174            82.043         41021.500
       157   06 Jun 2027 08:29:40.678   06 Jun 2027 08:30:07.386            26.708         11428.312
       158   06 Jun 2027 08:30:24.777   06 Jun 2027 08:30:24.777             0.000             0.000
       159   06 Jun 2027 08:31:08.290   06 Jun 2027 08:31:12.140             3.850          1758.156
       160   06 Jun 2027 08:32:14.638   06 Jun 2027 08:32:19.800             5.162          1705.250
       161   06 Jun 2027 10:03:48.687   06 Jun 2027 10:04:01.689            13.002          5377.719
       162   06 Jun 2027 10:06:47.556   06 Jun 2027 10:06:57.019             9.463          4717.531
       163   06 Jun 2027 10:07:38.257   06 Jun 2027 10:07:39.999             1.742           459.062
       164   06 Jun 2027 10:08:50.461   06 Jun 2027 10:08:58.980             8.519          2183.187
       165   06 Jun 2027 10:09:13.979   06 Jun 2027 10:09:19.217             5.238           468.719
       166   06 Jun 2027 10:09:56.563   06 Jun 2027 10:09:59.168             2.605           476.156
       167   06 Jun 2027 10:11:07.145   06 Jun 2027 10:11:12.397             5.252          2124.281
       168   06 Jun 2027 11:40:47.312   06 Jun 2027 11:41:02.304            14.992          6276.000
       169   06 Jun 2027 11:42:36.561   06 Jun 2027 11:42:44.307             7.746          1359.563
       170   06 Jun 2027 11:43:06.665   06 Jun 2027 11:43:08.196             1.531           603.813
       171   06 Jun 2027 11:43:48.866   06 Jun 2027 11:43:52.761             3.895          1020.812
       172   06 Jun 2027 11:44:28.166   06 Jun 2027 11:44:34.558             6.392           992.344
       173   06 Jun 2027 11:45:12.180   06 Jun 2027 11:45:14.580             2.400           725.250
       174   06 Jun 2027 11:45:31.322   06 Jun 2027 11:45:32.625             1.303           456.063
       175   06 Jun 2027 11:45:45.512   06 Jun 2027 11:45:46.657             1.145           402.719
       176   06 Jun 2027 11:46:38.588   06 Jun 2027 11:46:42.241             3.653          1535.625
       177   06 Jun 2027 11:46:52.753   06 Jun 2027 11:46:53.771             1.018           328.500
       178   06 Jun 2027 11:47:23.156   06 Jun 2027 11:47:23.429             0.273           136.500
       179   07 Jun 2027 04:03:39.588   07 Jun 2027 04:04:39.718            60.130         30065.000
       180   07 Jun 2027 04:04:48.664   07 Jun 2027 04:04:57.585             8.921          4460.500
       181   07 Jun 2027 04:05:16.498   07 Jun 2027 04:06:07.577            51.079         25539.500
       182   07 Jun 2027 04:07:16.506   07 Jun 2027 04:07:28.628            12.122          6061.000
       183   07 Jun 2027 04:07:45.140   07 Jun 2027 04:07:55.405            10.265          5132.500
       184   07 Jun 2027 05:41:59.518   07 Jun 2027 05:42:26.457            26.939         13469.500
       185   07 Jun 2027 05:42:47.741   07 Jun 2027 05:43:53.179            65.438         32719.000
       186   07 Jun 2027 05:44:21.738   07 Jun 2027 05:44:32.916            11.178          5589.000
       187   07 Jun 2027 07:05:21.651   07 Jun 2027 07:07:07.300           105.649         52824.500
       188   07 Jun 2027 07:07:56.857   07 Jun 2027 07:07:56.857             0.000             0.000
       189   07 Jun 2027 08:41:51.552   07 Jun 2027 08:42:06.452            14.900          6643.343
       190   07 Jun 2027 08:43:34.352   07 Jun 2027 08:43:42.049             7.697          2719.812
       191   07 Jun 2027 08:44:16.657   07 Jun 2027 08:44:20.891             4.234           108.781
       192   07 Jun 2027 10:18:14.507   07 Jun 2027 10:18:35.571            21.064         10071.906
       193   07 Jun 2027 10:18:40.461   07 Jun 2027 10:18:46.019             5.558           139.312
       194   07 Jun 2027 10:18:52.891   07 Jun 2027 10:18:53.713             0.822           122.062
       195   07 Jun 2027 10:21:59.850   07 Jun 2027 10:22:11.626            11.776          5714.219
       196   07 Jun 2027 10:23:19.044   07 Jun 2027 10:23:25.483             6.439          2095.844
       197   07 Jun 2027 10:23:30.888   07 Jun 2027 10:23:32.723             1.835           168.906
       198   07 Jun 2027 11:53:23.302   07 Jun 2027 11:53:35.744            12.442          6166.313
       199   07 Jun 2027 11:55:59.007   07 Jun 2027 11:56:18.393            19.386          3973.938
       200   07 Jun 2027 11:57:10.843   07 Jun 2027 11:57:15.117             4.274          1150.156
       201   07 Jun 2027 11:57:36.915   07 Jun 2027 11:57:38.689             1.774           639.219
       202   07 Jun 2027 11:58:33.782   07 Jun 2027 11:58:37.518             3.736          1721.656
       203   08 Jun 2027 04:15:44.388   08 Jun 2027 04:15:58.273            13.885          6942.500
       204   08 Jun 2027 04:16:46.767   08 Jun 2027 04:18:20.132            93.365         46682.500
       205   08 Jun 2027 04:19:01.011   08 Jun 2027 04:19:02.493             1.482           741.000
       206   08 Jun 2027 04:21:48.273   08 Jun 2027 04:21:50.136             1.863           931.500
       207   08 Jun 2027 04:23:57.254   08 Jun 2027 04:24:17.779            20.525         10262.500
       208   08 Jun 2027 05:53:55.507   08 Jun 2027 05:54:33.451            37.944         18972.000
       209   08 Jun 2027 05:55:03.029   08 Jun 2027 05:56:02.604            59.575         29787.500
       210   08 Jun 2027 07:18:04.651   08 Jun 2027 07:19:55.664           111.013         55506.500
       211   08 Jun 2027 07:20:13.391   08 Jun 2027 07:20:13.391             0.000             0.000
       212   08 Jun 2027 08:53:47.700   08 Jun 2027 08:54:00.476            12.776          6388.000
       213   08 Jun 2027 08:55:25.161   08 Jun 2027 08:55:33.339             8.178          3643.844
       214   08 Jun 2027 08:56:18.358   08 Jun 2027 08:56:26.524             8.166          1406.844
       215   08 Jun 2027 10:28:45.212   08 Jun 2027 10:28:53.658             8.446          4067.875
       216   08 Jun 2027 10:30:41.193   08 Jun 2027 10:30:41.193             0.000             0.000
       217   08 Jun 2027 10:31:08.352   08 Jun 2027 10:31:16.138             7.786          3653.438
       218   08 Jun 2027 10:31:42.313   08 Jun 2027 10:31:44.449             2.136            74.063
       219   08 Jun 2027 10:32:40.414   08 Jun 2027 10:32:50.466            10.052          1528.125
       220   08 Jun 2027 10:33:08.052   08 Jun 2027 10:33:09.609             1.557           549.563
       221   08 Jun 2027 10:33:14.142   08 Jun 2027 10:33:15.823             1.681           120.281
       222   08 Jun 2027 10:33:46.875   08 Jun 2027 10:33:51.123             4.248           944.406
       223   08 Jun 2027 10:35:22.829   08 Jun 2027 10:35:27.239             4.410          2205.000
       224   09 Jun 2027 04:28:49.843   09 Jun 2027 04:30:50.342           120.499         60249.500
       225   09 Jun 2027 04:31:11.375   09 Jun 2027 04:31:18.374             6.999          3499.500
       226   09 Jun 2027 04:35:03.680   09 Jun 2027 04:35:13.151             9.471          4735.500
       227   09 Jun 2027 04:36:22.068   09 Jun 2027 04:36:33.589            11.521          5760.500
       228   09 Jun 2027 05:54:50.914   09 Jun 2027 05:55:26.685            35.771         17885.500
       229   09 Jun 2027 06:05:51.763   09 Jun 2027 06:06:52.011            60.248         30124.000
       230   09 Jun 2027 06:07:29.167   09 Jun 2027 06:07:29.167             0.000             0.000
       231   09 Jun 2027 07:28:52.016   09 Jun 2027 07:30:21.272            89.256         44628.000
       232   09 Jun 2027 09:04:23.713   09 Jun 2027 09:04:29.735             6.022          3011.000
       233   09 Jun 2027 09:05:33.365   09 Jun 2027 09:05:47.769            14.404          6856.593
       234   09 Jun 2027 09:05:56.926   09 Jun 2027 09:06:09.415            12.489           258.719
       235   09 Jun 2027 09:06:57.003   09 Jun 2027 09:07:01.408             4.405          1429.937
       236   09 Jun 2027 09:08:12.457   09 Jun 2027 09:08:16.421             3.964          1982.000
       237   09 Jun 2027 09:08:19.690   09 Jun 2027 09:08:21.261             1.571           197.031
       238   09 Jun 2027 09:09:26.373   09 Jun 2027 09:09:30.987             4.614          2003.719
       239   09 Jun 2027 10:40:18.873   09 Jun 2027 10:40:43.019            24.146          7450.844
       240   09 Jun 2027 10:42:43.333   09 Jun 2027 10:42:50.935             7.602          3444.719
       241   09 Jun 2027 10:45:59.470   09 Jun 2027 10:45:59.470             0.000             0.000
       242   09 Jun 2027 10:47:11.894   09 Jun 2027 10:47:33.624            21.730          7490.438
       243   09 Jun 2027 10:47:44.142   09 Jun 2027 10:47:47.526             3.384           328.688
       244   10 Jun 2027 03:02:12.921   10 Jun 2027 03:02:40.001            27.080         13540.000
       245   10 Jun 2027 03:02:53.273   10 Jun 2027 03:02:54.781             1.508           754.000
       246   10 Jun 2027 03:03:28.672   10 Jun 2027 03:03:30.535             1.863           931.500
       247   10 Jun 2027 03:03:43.164   10 Jun 2027 03:03:55.045            11.881          5940.500
       248   10 Jun 2027 03:03:56.559   10 Jun 2027 03:04:04.602             8.043          4021.500
       249   10 Jun 2027 03:05:16.904   10 Jun 2027 03:05:21.317             4.413          2206.500
       250   10 Jun 2027 03:06:11.716   10 Jun 2027 03:06:32.870            21.154         10577.000
       251   10 Jun 2027 03:07:03.568   10 Jun 2027 03:07:06.232             2.664          1332.000
       252   10 Jun 2027 03:07:52.983   10 Jun 2027 03:08:07.981            14.998          7499.000
       253   10 Jun 2027 03:08:26.155   10 Jun 2027 03:08:26.878             0.723           361.500
       254   10 Jun 2027 04:41:16.064   10 Jun 2027 04:42:31.106            75.042         37521.000
       255   10 Jun 2027 04:43:16.248   10 Jun 2027 04:43:20.385             4.137          2068.500
       256   10 Jun 2027 04:45:02.284   10 Jun 2027 04:45:02.284             0.000             0.000
       257   10 Jun 2027 04:45:24.074   10 Jun 2027 04:46:00.281            36.207         18103.500
       258   10 Jun 2027 04:48:03.680   10 Jun 2027 04:48:26.369            22.689         11344.500
       259   10 Jun 2027 06:06:12.332   10 Jun 2027 06:06:47.779            35.447         17723.500
       260   10 Jun 2027 06:06:59.456   10 Jun 2027 06:07:19.646            20.190         10095.000
       261   10 Jun 2027 06:17:54.377   10 Jun 2027 06:18:31.852            37.475         18737.500
       262   10 Jun 2027 06:19:04.897   10 Jun 2027 06:19:12.731             7.834          3917.000
       263   10 Jun 2027 07:40:08.147   10 Jun 2027 07:41:18.868            70.721         35351.219
       264   10 Jun 2027 07:43:42.440   10 Jun 2027 07:43:50.687             8.247          3710.156
       265   10 Jun 2027 07:44:21.915   10 Jun 2027 07:44:21.915             0.000             0.000
       266   10 Jun 2027 07:44:37.013   10 Jun 2027 07:44:42.546             5.533          1254.312
       267   10 Jun 2027 09:15:15.534   10 Jun 2027 09:15:28.083            12.549          5961.688
       268   10 Jun 2027 09:16:00.890   10 Jun 2027 09:16:02.843             1.953           711.813
       269   10 Jun 2027 09:17:17.094   10 Jun 2027 09:17:21.616             4.522          1219.656
       270   10 Jun 2027 09:19:55.009   10 Jun 2027 09:20:10.154            15.145          4309.656
       271   10 Jun 2027 09:20:40.385   10 Jun 2027 09:20:40.385             0.000             0.000
       272   10 Jun 2027 09:21:07.680   10 Jun 2027 09:21:13.531             5.851          1471.125
       273   10 Jun 2027 10:52:27.212   10 Jun 2027 10:52:37.904            10.692          4808.656
       274   10 Jun 2027 10:55:31.853   10 Jun 2027 10:55:33.448             1.595           388.594
       275   10 Jun 2027 10:55:55.218   10 Jun 2027 10:55:59.838             4.620           680.313
       276   10 Jun 2027 10:56:56.255   10 Jun 2027 10:56:56.294             0.039            19.500
       277   10 Jun 2027 10:57:05.972   10 Jun 2027 10:57:11.162             5.190           468.531
       278   10 Jun 2027 10:57:17.055   10 Jun 2027 10:57:18.315             1.260           180.625
       279   10 Jun 2027 10:57:27.329   10 Jun 2027 10:57:28.675             1.346           134.250
       280   10 Jun 2027 10:57:50.328   10 Jun 2027 10:57:50.660             0.332           166.000
       281   10 Jun 2027 10:58:18.531   10 Jun 2027 10:58:22.579             4.048           950.594
       282   10 Jun 2027 10:58:26.352   10 Jun 2027 10:58:26.787             0.435            62.688
       283   10 Jun 2027 10:59:03.218   10 Jun 2027 10:59:04.411             1.193           596.500
       284   10 Jun 2027 10:59:14.616   10 Jun 2027 10:59:20.073             5.457           697.594
       285   10 Jun 2027 10:59:33.333   10 Jun 2027 10:59:39.518             6.185           229.687
       286   11 Jun 2027 03:14:30.465   11 Jun 2027 03:15:03.472            33.007         16503.500
       287   11 Jun 2027 03:15:03.692   11 Jun 2027 03:15:40.552            36.860         18430.000
       288   11 Jun 2027 03:16:39.811   11 Jun 2027 03:16:44.180             4.369          2184.500
       289   11 Jun 2027 03:16:58.955   11 Jun 2027 03:17:11.625            12.670          6335.000
       290   11 Jun 2027 03:17:26.154   11 Jun 2027 03:17:41.946            15.792          7896.000
       291   11 Jun 2027 04:53:29.964   11 Jun 2027 04:54:41.608            71.644         35822.000
       292   11 Jun 2027 04:55:07.009   11 Jun 2027 04:55:11.005             3.996          1998.000
       293   11 Jun 2027 04:55:43.314   11 Jun 2027 04:55:49.143             5.829          2914.500
       294   11 Jun 2027 04:57:01.543   11 Jun 2027 04:57:13.188            11.645          5822.500
       295   11 Jun 2027 04:58:21.159   11 Jun 2027 04:58:39.715            18.556          9278.000
       296   11 Jun 2027 05:00:17.135   11 Jun 2027 05:00:30.473            13.338          6669.000
       297   11 Jun 2027 06:17:38.491   11 Jun 2027 06:18:21.581            43.090         21545.000
       298   11 Jun 2027 06:19:11.907   11 Jun 2027 06:19:28.744            16.837          8418.500
       299   11 Jun 2027 06:29:51.666   11 Jun 2027 06:30:13.651            21.985         10992.500
       300   11 Jun 2027 07:51:53.079   11 Jun 2027 07:52:54.955            61.876         30938.000
       301   11 Jun 2027 07:53:07.861   11 Jun 2027 07:53:12.107             4.246          2123.000
       302   11 Jun 2027 07:53:56.536   11 Jun 2027 07:54:00.065             3.529          1651.655
       303   11 Jun 2027 07:54:36.130   11 Jun 2027 07:54:36.130             0.000             0.000
       304   11 Jun 2027 07:55:31.689   11 Jun 2027 07:55:40.429             8.740          2863.250
       305   11 Jun 2027 07:56:06.918   11 Jun 2027 07:56:08.537             1.619           496.063
       306   11 Jun 2027 09:26:45.177   11 Jun 2027 09:26:57.178            12.001          4880.375
       307   11 Jun 2027 09:28:18.991   11 Jun 2027 09:28:23.001             4.010          1573.563
       308   11 Jun 2027 09:28:32.224   11 Jun 2027 09:28:37.253             5.029           267.125
       309   11 Jun 2027 09:30:22.889   11 Jun 2027 09:30:22.889             0.000             0.000
       310   11 Jun 2027 09:32:16.088   11 Jun 2027 09:32:38.434            22.346          6792.938
       311   11 Jun 2027 09:35:01.037   11 Jun 2027 09:35:10.495             9.458          3428.781
       312   11 Jun 2027 11:07:32.953   11 Jun 2027 11:07:32.953             0.000             0.000
       313   11 Jun 2027 11:08:05.266   11 Jun 2027 11:08:30.147            24.881         12054.844
       314   11 Jun 2027 11:10:35.186   11 Jun 2027 11:10:45.901            10.715          3907.469
       315   11 Jun 2027 11:11:22.029   11 Jun 2027 11:11:25.393             3.364          1014.500
       316   11 Jun 2027 11:11:54.050   11 Jun 2027 11:11:55.799             1.749           874.500
       317   12 Jun 2027 03:27:16.430   12 Jun 2027 03:27:40.890            24.460         12230.000
       318   12 Jun 2027 03:27:43.702   12 Jun 2027 03:28:48.154            64.452         32226.000
       319   12 Jun 2027 03:29:43.346   12 Jun 2027 03:30:25.398            42.052         21026.000
       320   12 Jun 2027 03:32:39.482   12 Jun 2027 03:32:45.335             5.853          2926.500
       321   12 Jun 2027 05:05:39.408   12 Jun 2027 05:06:56.946            77.538         38769.000
       322   12 Jun 2027 05:07:43.089   12 Jun 2027 05:07:58.500            15.411          7705.500
       323   12 Jun 2027 05:09:03.299   12 Jun 2027 05:09:18.660            15.361          7680.500
       324   12 Jun 2027 05:09:44.417   12 Jun 2027 05:10:10.161            25.744         12872.000
       325   12 Jun 2027 06:29:42.849   12 Jun 2027 06:30:24.674            41.825         20912.500
       326   12 Jun 2027 06:31:23.517   12 Jun 2027 06:31:44.460            20.943         10471.500
       327   12 Jun 2027 08:03:28.712   12 Jun 2027 08:04:08.737            40.025         19309.344
       328   12 Jun 2027 08:04:33.563   12 Jun 2027 08:04:35.977             2.414           561.062
       329   12 Jun 2027 08:05:26.703   12 Jun 2027 08:05:27.419             0.716           160.594
       330   12 Jun 2027 08:06:15.570   12 Jun 2027 08:06:19.026             3.456          1287.781
       331   12 Jun 2027 08:07:03.646   12 Jun 2027 08:07:03.646             0.000             0.000
       332   12 Jun 2027 08:07:53.510   12 Jun 2027 08:07:59.997             6.487          2705.875
       333   12 Jun 2027 08:08:27.489   12 Jun 2027 08:08:29.750             2.261           769.938
       334   12 Jun 2027 08:08:57.921   12 Jun 2027 08:08:57.921             0.000             0.000
       335   12 Jun 2027 09:39:29.651   12 Jun 2027 09:39:40.348            10.697          5150.156
       336   12 Jun 2027 09:40:01.280   12 Jun 2027 09:40:04.757             3.477           646.375
       337   12 Jun 2027 09:40:50.338   12 Jun 2027 09:40:52.821             2.483           529.812
       338   12 Jun 2027 09:42:54.961   12 Jun 2027 09:43:02.664             7.703          3368.844
       339   12 Jun 2027 09:43:17.517   12 Jun 2027 09:43:21.893             4.376           438.375
       340   12 Jun 2027 09:43:50.926   12 Jun 2027 09:43:54.465             3.539           883.562
       341   12 Jun 2027 09:47:21.892   12 Jun 2027 09:47:33.993            12.101          6019.719
       342   12 Jun 2027 11:16:32.700   12 Jun 2027 11:16:58.890            26.190          7343.000
       343   12 Jun 2027 11:17:14.312   12 Jun 2027 11:17:14.879             0.567           138.063
       344   12 Jun 2027 11:17:16.718   12 Jun 2027 11:17:17.856             1.138            50.031
       345   12 Jun 2027 11:18:47.768   12 Jun 2027 11:18:54.157             6.389          1817.656
       346   12 Jun 2027 11:19:32.360   12 Jun 2027 11:19:39.010             6.650           537.688
       347   12 Jun 2027 11:19:45.155   12 Jun 2027 11:19:48.495             3.340           185.344
       348   12 Jun 2027 11:20:18.407   12 Jun 2027 11:20:19.867             1.460           366.563
       349   12 Jun 2027 11:21:00.139   12 Jun 2027 11:21:08.391             8.252          1258.500
       350   12 Jun 2027 11:21:22.192   12 Jun 2027 11:21:24.132             1.940           431.281
       351   12 Jun 2027 11:22:03.745   12 Jun 2027 11:22:11.117             7.372          1086.781
       352   12 Jun 2027 11:22:41.582   12 Jun 2027 11:22:49.942             8.360           403.063
       353   12 Jun 2027 11:23:17.315   12 Jun 2027 11:23:20.319             3.004           855.406
       354   13 Jun 2027 03:39:50.838   13 Jun 2027 03:40:39.788            48.950         24475.000
       355   13 Jun 2027 03:40:49.627   13 Jun 2027 03:41:32.368            42.741         21370.500
       356   13 Jun 2027 03:41:33.088   13 Jun 2027 03:42:21.246            48.158         24079.000
       357   13 Jun 2027 05:18:13.320   13 Jun 2027 05:19:26.120            72.800         36400.000
       358   13 Jun 2027 05:20:21.515   13 Jun 2027 05:20:33.398            11.883          5941.500
       359   13 Jun 2027 06:41:37.842   13 Jun 2027 06:43:11.409            93.567         46783.500
       360   13 Jun 2027 06:43:46.074   13 Jun 2027 06:43:50.736             4.662          2331.000
       361   13 Jun 2027 08:17:57.415   13 Jun 2027 08:18:41.210            43.795         21838.562
       362   13 Jun 2027 08:20:45.999   13 Jun 2027 08:20:54.191             8.192          3565.938
       363   13 Jun 2027 09:52:34.091   13 Jun 2027 09:52:50.326            16.235          7007.781
       364   13 Jun 2027 09:54:59.273   13 Jun 2027 09:55:09.422            10.149          3886.906
       365   13 Jun 2027 09:55:53.206   13 Jun 2027 09:55:55.333             2.127           865.531
       366   13 Jun 2027 09:57:21.291   13 Jun 2027 09:57:28.292             7.001          2686.187
       367   13 Jun 2027 09:57:50.950   13 Jun 2027 09:57:52.607             1.657           650.844
       368   13 Jun 2027 09:58:29.954   13 Jun 2027 09:58:34.597             4.643          1167.094
       369   13 Jun 2027 09:59:13.234   13 Jun 2027 09:59:13.234             0.000             0.000
       370   13 Jun 2027 09:59:58.016   13 Jun 2027 09:59:59.323             1.307           653.500
       371   13 Jun 2027 11:28:58.751   13 Jun 2027 11:29:14.934            16.183          7229.281
       372   13 Jun 2027 11:29:36.197   13 Jun 2027 11:29:37.424             1.227           537.219
       373   13 Jun 2027 11:31:01.076   13 Jun 2027 11:31:04.714             3.638           169.906
       374   13 Jun 2027 11:31:36.858   13 Jun 2027 11:31:41.042             4.184           756.188
       375   13 Jun 2027 11:32:10.775   13 Jun 2027 11:32:16.847             6.072           427.313
       376   13 Jun 2027 11:33:21.164   13 Jun 2027 11:33:27.683             6.519          1921.156
       377   13 Jun 2027 11:34:08.692   13 Jun 2027 11:34:15.976             7.284           949.406
       378   13 Jun 2027 11:34:41.060   13 Jun 2027 11:34:45.250             4.190           652.063
       379   13 Jun 2027 11:34:50.432   13 Jun 2027 11:34:50.589             0.157            78.500
       380   13 Jun 2027 11:35:13.282   13 Jun 2027 11:35:15.576             2.294           792.594
       381   13 Jun 2027 11:35:25.994   13 Jun 2027 11:35:26.142             0.148            74.000
       382   13 Jun 2027 11:35:42.698   13 Jun 2027 11:35:43.467             0.769           384.500
