uniorb/output/strategy_1/Camera/Camera_KinoSat_111904.txt

KinoSat_111904
-------------------------
    Access    *     Start Time (UTCG)     *     Stop Time (UTCG)  *   Duration (s) *   Data (Mbytes)
         1   01 Jun 2027 03:10:25.965   01 Jun 2027 03:11:17.700            51.735         25867.500
         2   01 Jun 2027 03:11:50.304   01 Jun 2027 03:12:36.341            46.037         23018.500
         3   01 Jun 2027 03:14:07.679   01 Jun 2027 03:14:08.060             0.381           190.500
         4   01 Jun 2027 03:14:25.796   01 Jun 2027 03:14:39.544            13.748          6874.000
         5   01 Jun 2027 04:48:39.313   01 Jun 2027 04:49:39.981            60.668         30334.000
         6   01 Jun 2027 04:49:45.776   01 Jun 2027 04:50:13.539            27.763         13881.500
         7   01 Jun 2027 04:50:17.395   01 Jun 2027 04:50:30.644            13.249          6624.500
         8   01 Jun 2027 04:53:11.514   01 Jun 2027 04:53:18.369             6.855          3427.500
         9   01 Jun 2027 04:54:34.886   01 Jun 2027 04:54:43.646             8.760          4380.000
        10   01 Jun 2027 06:27:40.242   01 Jun 2027 06:29:42.744           122.502         61251.000
        11   01 Jun 2027 07:50:02.347   01 Jun 2027 07:51:35.482            93.135         46567.500
        12   01 Jun 2027 09:26:37.245   01 Jun 2027 09:28:24.781           107.536         53768.000
        13   01 Jun 2027 09:29:02.093   01 Jun 2027 09:29:02.093             0.000             0.000
        14   01 Jun 2027 11:01:46.202   01 Jun 2027 11:02:29.235            43.033         21516.500
        15   01 Jun 2027 11:05:38.326   01 Jun 2027 11:07:16.241            97.915         48957.500
        16   01 Jun 2027 11:08:21.722   01 Jun 2027 11:08:25.188             3.466          1733.000
        17   01 Jun 2027 11:08:29.033   01 Jun 2027 11:08:32.487             3.454          1727.000
        18   02 Jun 2027 03:22:22.519   02 Jun 2027 03:23:00.239            37.720         18860.000
        19   02 Jun 2027 03:23:19.058   02 Jun 2027 03:24:36.375            77.317         38658.500
        20   02 Jun 2027 03:27:37.048   02 Jun 2027 03:27:38.640             1.592           796.000
        21   02 Jun 2027 03:29:22.178   02 Jun 2027 03:29:33.541            11.363          5681.500
        22   02 Jun 2027 05:00:35.339   02 Jun 2027 05:01:31.213            55.874         27937.000
        23   02 Jun 2027 05:01:42.133   02 Jun 2027 05:02:18.269            36.136         18068.000
        24   02 Jun 2027 05:02:57.379   02 Jun 2027 05:03:02.109             4.730          2365.000
        25   02 Jun 2027 05:04:54.187   02 Jun 2027 05:04:58.090             3.903          1951.500
        26   02 Jun 2027 06:38:51.212   02 Jun 2027 06:40:15.208            83.996         41998.000
        27   02 Jun 2027 06:40:54.662   02 Jun 2027 06:41:08.808            14.146          7073.000
        28   02 Jun 2027 06:42:12.257   02 Jun 2027 06:42:12.257             0.000             0.000
        29   02 Jun 2027 08:02:13.350   02 Jun 2027 08:03:42.213            88.863         44431.500
        30   02 Jun 2027 08:05:00.129   02 Jun 2027 08:05:01.897             1.768           884.000
        31   02 Jun 2027 09:38:48.251   02 Jun 2027 09:39:04.079            15.828          7914.000
        32   02 Jun 2027 09:40:18.459   02 Jun 2027 09:41:10.115            51.656         25828.000
        33   02 Jun 2027 11:13:58.305   02 Jun 2027 11:15:07.864            69.559         34779.500
        34   02 Jun 2027 11:20:07.613   02 Jun 2027 11:20:19.420            11.807          5903.500
        35   02 Jun 2027 11:20:22.375   02 Jun 2027 11:20:34.121            11.746          5873.000
        36   03 Jun 2027 03:34:23.424   03 Jun 2027 03:36:08.666           105.242         52621.000
        37   03 Jun 2027 03:36:39.250   03 Jun 2027 03:36:39.640             0.390           195.000
        38   03 Jun 2027 03:39:43.122   03 Jun 2027 03:39:52.204             9.082          4541.000
        39   03 Jun 2027 03:40:02.842   03 Jun 2027 03:40:02.923             0.081            40.500
        40   03 Jun 2027 03:40:24.212   03 Jun 2027 03:40:31.214             7.002          3501.000
        41   03 Jun 2027 05:13:41.187   03 Jun 2027 05:15:12.611            91.424         45712.000
        42   03 Jun 2027 05:16:31.642   03 Jun 2027 05:16:51.979            20.337         10168.500
        43   03 Jun 2027 05:18:38.843   03 Jun 2027 05:18:50.219            11.376          5688.000
        44   03 Jun 2027 05:20:34.802   03 Jun 2027 05:21:22.109            47.307         23653.500
        45   03 Jun 2027 06:50:47.620   03 Jun 2027 06:51:29.631            42.011         21005.500
        46   03 Jun 2027 06:51:36.342   03 Jun 2027 06:52:07.060            30.718         15359.000
        47   03 Jun 2027 06:52:59.243   03 Jun 2027 06:53:01.944             2.701          1350.500
        48   03 Jun 2027 06:54:14.339   03 Jun 2027 06:54:23.542             9.203          4601.500
        49   03 Jun 2027 08:14:45.032   03 Jun 2027 08:16:50.945           125.913         62956.500
        50   03 Jun 2027 08:17:02.625   03 Jun 2027 08:17:03.428             0.803           401.500
        51   03 Jun 2027 09:50:55.996   03 Jun 2027 09:50:55.996             0.000             0.000
        52   03 Jun 2027 09:52:19.416   03 Jun 2027 09:53:13.473            54.057         27028.500
        53   03 Jun 2027 11:25:28.727   03 Jun 2027 11:26:02.451            33.724         16862.000
        54   03 Jun 2027 11:28:39.538   03 Jun 2027 11:28:41.086             1.548           774.000
        55   03 Jun 2027 11:31:54.879   03 Jun 2027 11:32:42.910            48.031         24015.500
        56   04 Jun 2027 03:47:04.470   04 Jun 2027 03:48:46.250           101.780         50890.000
        57   04 Jun 2027 03:50:11.978   04 Jun 2027 03:50:19.342             7.364          3682.000
        58   04 Jun 2027 03:52:00.791   04 Jun 2027 03:52:07.405             6.614          3307.000
        59   04 Jun 2027 05:25:49.589   04 Jun 2027 05:27:33.036           103.447         51723.500
        60   04 Jun 2027 05:31:53.809   04 Jun 2027 05:32:09.719            15.910          7955.000
        61   04 Jun 2027 05:32:49.714   04 Jun 2027 05:33:24.289            34.575         17287.500
        62   04 Jun 2027 06:51:27.008   04 Jun 2027 06:52:30.875            63.867         31933.500
        63   04 Jun 2027 07:02:45.692   04 Jun 2027 07:03:32.729            47.037         23518.500
        64   04 Jun 2027 08:25:21.048   04 Jun 2027 08:26:05.047            43.999         21358.095
        65   04 Jun 2027 08:27:37.109   04 Jun 2027 08:27:42.834             5.725          2224.969
        66   04 Jun 2027 08:30:00.843   04 Jun 2027 08:30:02.498             1.655           827.500
        67   04 Jun 2027 10:04:50.309   04 Jun 2027 10:05:10.727            20.418         10209.000
        68   04 Jun 2027 11:37:12.304   04 Jun 2027 11:37:39.932            27.628         10455.750
        69   04 Jun 2027 11:43:48.774   04 Jun 2027 11:43:48.774             0.000             0.000
        70   04 Jun 2027 11:44:00.949   04 Jun 2027 11:44:29.149            28.200         11906.781
        71   05 Jun 2027 03:59:11.609   05 Jun 2027 04:01:06.712           115.103         57551.500
        72   05 Jun 2027 04:01:35.768   05 Jun 2027 04:01:42.156             6.388          3194.000
        73   05 Jun 2027 04:02:22.228   05 Jun 2027 04:02:28.184             5.956          2978.000
        74   05 Jun 2027 04:03:52.793   05 Jun 2027 04:03:53.712             0.919           459.500
        75   05 Jun 2027 04:04:40.394   05 Jun 2027 04:04:59.287            18.893          9446.500
        76   05 Jun 2027 05:38:15.700   05 Jun 2027 05:39:54.617            98.917         49458.500
        77   05 Jun 2027 05:41:34.753   05 Jun 2027 05:41:41.512             6.759          3379.500
        78   05 Jun 2027 05:42:48.125   05 Jun 2027 05:42:55.832             7.707          3853.500
        79   05 Jun 2027 05:43:34.162   05 Jun 2027 05:43:37.973             3.811          1905.500
        80   05 Jun 2027 05:44:09.883   05 Jun 2027 05:44:11.602             1.719           859.500
        81   05 Jun 2027 05:45:04.333   05 Jun 2027 05:45:23.038            18.705          9352.500
        82   05 Jun 2027 07:03:05.225   05 Jun 2027 07:04:39.769            94.544         47272.000
        83   05 Jun 2027 07:14:45.206   05 Jun 2027 07:15:03.374            18.168          7955.125
        84   05 Jun 2027 08:37:03.994   05 Jun 2027 08:37:35.752            31.758         14469.812
        85   05 Jun 2027 08:39:00.027   05 Jun 2027 08:39:06.194             6.167          1958.000
        86   05 Jun 2027 08:41:55.717   05 Jun 2027 08:42:08.371            12.654          4729.875
        87   05 Jun 2027 10:12:00.330   05 Jun 2027 10:12:11.897            11.567          4783.281
        88   05 Jun 2027 10:15:08.297   05 Jun 2027 10:15:18.542            10.245          4713.062
        89   05 Jun 2027 10:15:38.911   05 Jun 2027 10:15:40.709             1.798           216.875
        90   05 Jun 2027 10:17:08.045   05 Jun 2027 10:17:08.935             0.890           445.000
        91   05 Jun 2027 11:55:40.136   05 Jun 2027 11:56:28.158            48.022         22365.969
        92   05 Jun 2027 11:56:45.499   05 Jun 2027 11:56:47.485             1.986           541.906
        93   06 Jun 2027 04:11:35.595   06 Jun 2027 04:11:57.469            21.874         10937.000
        94   06 Jun 2027 04:12:04.668   06 Jun 2027 04:12:34.553            29.885         14942.500
        95   06 Jun 2027 04:12:39.646   06 Jun 2027 04:13:31.154            51.508         25754.000
        96   06 Jun 2027 04:16:05.514   06 Jun 2027 04:16:06.744             1.230           615.000
        97   06 Jun 2027 05:50:20.053   06 Jun 2027 05:52:49.780           149.727         74863.500
        98   06 Jun 2027 05:53:40.858   06 Jun 2027 05:53:44.529             3.671          1835.500
        99   06 Jun 2027 05:54:46.138   06 Jun 2027 05:54:50.514             4.376          2188.000
       100   06 Jun 2027 05:57:14.926   06 Jun 2027 05:57:15.295             0.369           184.500
       101   06 Jun 2027 07:14:38.849   06 Jun 2027 07:16:16.114            97.265         48313.719
       102   06 Jun 2027 07:26:59.871   06 Jun 2027 07:27:12.562            12.691          5972.719
       103   06 Jun 2027 08:48:36.016   06 Jun 2027 08:49:08.537            32.521         13716.656
       104   06 Jun 2027 08:50:51.057   06 Jun 2027 08:50:57.244             6.187          3075.969
       105   06 Jun 2027 08:52:03.871   06 Jun 2027 08:52:07.217             3.346          1177.094
       106   06 Jun 2027 10:23:29.498   06 Jun 2027 10:23:48.958            19.460          5589.781
       107   06 Jun 2027 10:26:12.211   06 Jun 2027 10:26:12.211             0.000             0.000
       108   06 Jun 2027 10:27:05.100   06 Jun 2027 10:27:15.050             9.950          4972.062
       109   06 Jun 2027 10:29:08.422   06 Jun 2027 10:29:15.798             7.376          3460.781
       110   06 Jun 2027 10:32:27.336   06 Jun 2027 10:32:37.432            10.096          5019.188
       111   06 Jun 2027 10:32:41.653   06 Jun 2027 10:32:42.561             0.908            97.094
       112   07 Jun 2027 04:24:15.056   07 Jun 2027 04:24:28.032            12.976          6488.000
       113   07 Jun 2027 04:24:38.062   07 Jun 2027 04:25:28.052            49.990         24995.000
       114   07 Jun 2027 04:26:47.089   07 Jun 2027 04:27:42.759            55.670         27835.000
       115   07 Jun 2027 04:29:30.042   07 Jun 2027 04:29:30.042             0.000             0.000
       116   07 Jun 2027 04:29:31.112   07 Jun 2027 04:29:33.766             2.654          1327.000
       117   07 Jun 2027 06:02:46.357   07 Jun 2027 06:04:55.715           129.358         64679.000
       118   07 Jun 2027 06:06:00.686   07 Jun 2027 06:06:06.362             5.676          2838.000
       119   07 Jun 2027 07:26:34.955   07 Jun 2027 07:28:14.396            99.441         49720.500
       120   07 Jun 2027 07:28:33.217   07 Jun 2027 07:28:41.797             8.580          4045.250
       121   07 Jun 2027 09:02:35.183   07 Jun 2027 09:03:06.744            31.561         15638.281
       122   07 Jun 2027 09:03:10.819   07 Jun 2027 09:03:12.851             2.032           127.344
       123   07 Jun 2027 09:04:07.305   07 Jun 2027 09:04:12.032             4.727          1516.937
       124   07 Jun 2027 09:05:23.599   07 Jun 2027 09:05:28.467             4.868          2173.625
       125   07 Jun 2027 10:38:07.237   07 Jun 2027 10:38:25.652            18.415          8829.219
       126   07 Jun 2027 10:38:31.072   07 Jun 2027 10:38:33.057             1.985           150.187
       127   07 Jun 2027 10:40:05.055   07 Jun 2027 10:40:05.055             0.000             0.000
       128   07 Jun 2027 10:44:07.840   07 Jun 2027 10:44:28.162            20.322         10152.406
       129   07 Jun 2027 10:44:50.622   07 Jun 2027 10:44:53.219             2.597           197.656
       130   08 Jun 2027 03:00:49.477   08 Jun 2027 03:01:13.763            24.286         12143.000
       131   08 Jun 2027 03:02:16.436   08 Jun 2027 03:02:24.455             8.019          4009.500
       132   08 Jun 2027 03:02:44.434   08 Jun 2027 03:02:46.439             2.005          1002.500
       133   08 Jun 2027 03:03:36.801   08 Jun 2027 03:03:56.394            19.593          9796.500
       134   08 Jun 2027 03:05:22.476   08 Jun 2027 03:05:51.558            29.082         14541.000
       135   08 Jun 2027 04:36:48.811   08 Jun 2027 04:37:16.044            27.233         13616.500
       136   08 Jun 2027 04:37:26.718   08 Jun 2027 04:38:13.660            46.942         23471.000
       137   08 Jun 2027 04:39:07.776   08 Jun 2027 04:39:18.554            10.778          5389.000
       138   08 Jun 2027 04:40:01.562   08 Jun 2027 04:40:09.123             7.561          3780.500
       139   08 Jun 2027 04:40:44.297   08 Jun 2027 04:41:07.168            22.871         11435.500
       140   08 Jun 2027 06:15:05.268   08 Jun 2027 06:16:27.869            82.601         41300.500
       141   08 Jun 2027 06:18:25.776   08 Jun 2027 06:18:38.990            13.214          6607.000
       142   08 Jun 2027 07:38:27.783   08 Jun 2027 07:40:08.381           100.598         49646.625
       143   08 Jun 2027 07:40:55.793   08 Jun 2027 07:41:01.137             5.344          1301.937
       144   08 Jun 2027 09:14:48.659   08 Jun 2027 09:15:16.166            27.507         12509.250
       145   08 Jun 2027 10:48:51.639   08 Jun 2027 10:49:10.904            19.265          7884.250
       146   08 Jun 2027 10:50:43.629   08 Jun 2027 10:50:47.639             4.010          1972.844
       147   08 Jun 2027 10:52:00.228   08 Jun 2027 10:52:05.101             4.873          2059.750
       148   08 Jun 2027 10:54:12.276   08 Jun 2027 10:54:21.089             8.813          3297.469
       149   08 Jun 2027 10:54:59.535   08 Jun 2027 10:55:03.533             3.998           782.437
       150   08 Jun 2027 10:55:33.918   08 Jun 2027 10:55:34.299             0.381           190.500
       151   08 Jun 2027 10:56:11.045   08 Jun 2027 10:56:14.500             3.455          1567.250
       152   08 Jun 2027 10:56:18.574   08 Jun 2027 10:56:20.040             1.466            28.500
       153   08 Jun 2027 10:56:31.477   08 Jun 2027 10:56:35.697             4.220           357.406
       154   09 Jun 2027 03:10:41.808   09 Jun 2027 03:10:55.375            13.567          6783.500
       155   09 Jun 2027 03:10:59.534   09 Jun 2027 03:11:24.082            24.548         12274.000
       156   09 Jun 2027 03:12:05.294   09 Jun 2027 03:13:03.361            58.067         29033.500
       157   09 Jun 2027 03:13:15.679   09 Jun 2027 03:13:39.093            23.414         11707.000
       158   09 Jun 2027 03:16:28.394   09 Jun 2027 03:16:44.983            16.589          8294.500
       159   09 Jun 2027 03:17:27.722   09 Jun 2027 03:17:34.935             7.213          3606.500
       160   09 Jun 2027 04:48:55.777   09 Jun 2027 04:49:57.210            61.433         30716.500
       161   09 Jun 2027 04:50:02.855   09 Jun 2027 04:50:06.330             3.475          1737.500
       162   09 Jun 2027 04:50:34.163   09 Jun 2027 04:50:48.659            14.496          7248.000
       163   09 Jun 2027 04:52:36.946   09 Jun 2027 04:52:55.645            18.699          9349.500
       164   09 Jun 2027 06:27:57.864   09 Jun 2027 06:29:30.825            92.961         46480.500
       165   09 Jun 2027 07:50:28.951   09 Jun 2027 07:51:26.572            57.621         27982.469
       166   09 Jun 2027 07:52:09.308   09 Jun 2027 07:52:12.850             3.542          1082.187
       167   09 Jun 2027 09:26:55.182   09 Jun 2027 09:27:09.800            14.618          7055.969
       168   09 Jun 2027 11:02:03.568   09 Jun 2027 11:02:25.346            21.778          7994.875
       169   09 Jun 2027 11:03:08.038   09 Jun 2027 11:03:11.443             3.405           783.312
       170   09 Jun 2027 11:05:05.454   09 Jun 2027 11:05:05.454             0.000             0.000
       171   09 Jun 2027 11:05:40.995   09 Jun 2027 11:05:50.527             9.532          4394.375
       172   09 Jun 2027 11:05:56.048   09 Jun 2027 11:05:56.652             0.604            70.250
       173   09 Jun 2027 11:06:12.743   09 Jun 2027 11:06:14.833             2.090           502.844
       174   09 Jun 2027 11:07:03.122   09 Jun 2027 11:07:05.355             2.233           298.625
       175   09 Jun 2027 11:07:33.169   09 Jun 2027 11:07:34.034             0.865           432.500
       176   09 Jun 2027 11:07:50.925   09 Jun 2027 11:07:53.078             2.153           900.781
       177   09 Jun 2027 11:08:09.312   09 Jun 2027 11:08:13.285             3.973           497.719
       178   10 Jun 2027 03:22:40.213   10 Jun 2027 03:23:30.807            50.594         25297.000
       179   10 Jun 2027 03:23:34.187   10 Jun 2027 03:24:51.830            77.643         38821.500
       180   10 Jun 2027 03:26:26.917   10 Jun 2027 03:26:27.873             0.956           478.000
       181   10 Jun 2027 03:26:39.158   10 Jun 2027 03:26:39.158             0.000             0.000
       182   10 Jun 2027 03:27:47.669   10 Jun 2027 03:27:54.827             7.158          3579.000
       183   10 Jun 2027 03:29:39.094   10 Jun 2027 03:29:44.381             5.287          2643.500
       184   10 Jun 2027 05:00:53.654   10 Jun 2027 05:01:41.708            48.054         24027.000
       185   10 Jun 2027 05:02:00.135   10 Jun 2027 05:02:23.153            23.018         11509.000
       186   10 Jun 2027 05:02:43.769   10 Jun 2027 05:02:49.131             5.362          2681.000
       187   10 Jun 2027 05:03:48.234   10 Jun 2027 05:04:11.614            23.380         11690.000
       188   10 Jun 2027 06:39:07.568   10 Jun 2027 06:40:10.689            63.121         31560.500
       189   10 Jun 2027 06:40:31.684   10 Jun 2027 06:40:38.188             6.504          3252.000
       190   10 Jun 2027 06:41:08.733   10 Jun 2027 06:41:25.012            16.279          8139.500
       191   10 Jun 2027 08:02:29.498   10 Jun 2027 08:03:17.755            48.257         24128.500
       192   10 Jun 2027 08:04:06.822   10 Jun 2027 08:04:19.431            12.609          1825.436
       193   10 Jun 2027 09:39:05.852   10 Jun 2027 09:39:20.909            15.057          7528.500
       194   10 Jun 2027 09:40:39.450   10 Jun 2027 09:40:42.949             3.499          1749.500
       195   10 Jun 2027 09:41:02.711   10 Jun 2027 09:41:07.041             4.330          1592.781
       196   10 Jun 2027 09:42:06.583   10 Jun 2027 09:42:06.583             0.000             0.000
       197   10 Jun 2027 09:42:08.031   10 Jun 2027 09:42:14.349             6.318          1431.906
       198   10 Jun 2027 11:14:15.966   10 Jun 2027 11:14:24.781             8.815          4407.500
       199   10 Jun 2027 11:14:38.975   10 Jun 2027 11:14:45.840             6.865           978.000
       200   10 Jun 2027 11:15:18.436   10 Jun 2027 11:15:20.641             2.205           770.812
       201   10 Jun 2027 11:20:39.339   10 Jun 2027 11:20:51.751            12.412          6206.000
       202   11 Jun 2027 03:34:41.637   11 Jun 2027 03:35:04.830            23.193         11596.500
       203   11 Jun 2027 03:35:04.993   11 Jun 2027 03:36:31.135            86.142         43071.000
       204   11 Jun 2027 03:36:32.797   11 Jun 2027 03:36:40.462             7.665          3832.500
       205   11 Jun 2027 03:40:05.147   11 Jun 2027 03:40:10.261             5.114          2557.000
       206   11 Jun 2027 05:13:59.148   11 Jun 2027 05:15:31.198            92.050         46025.000
       207   11 Jun 2027 05:16:09.820   11 Jun 2027 05:16:27.478            17.658          8829.000
       208   11 Jun 2027 05:20:35.507   11 Jun 2027 05:20:39.833             4.326          2163.000
       209   11 Jun 2027 05:20:52.300   11 Jun 2027 05:21:38.607            46.307         23153.500
       210   11 Jun 2027 06:40:22.786   11 Jun 2027 06:40:25.081             2.295          1147.500
       211   11 Jun 2027 06:51:05.087   11 Jun 2027 06:51:47.161            42.074         21037.000
       212   11 Jun 2027 06:51:52.782   11 Jun 2027 06:52:45.270            52.488         26244.000
       213   11 Jun 2027 06:54:00.867   11 Jun 2027 06:54:16.222            15.355          7677.500
       214   11 Jun 2027 08:15:04.952   11 Jun 2027 08:15:37.487            32.535         16267.500
       215   11 Jun 2027 08:16:06.735   11 Jun 2027 08:16:17.843            11.108          3768.532
       216   11 Jun 2027 09:50:50.382   11 Jun 2027 09:51:04.513            14.131          6782.094
       217   11 Jun 2027 09:53:28.302   11 Jun 2027 09:53:28.302             0.000             0.000
       218   11 Jun 2027 09:54:16.876   11 Jun 2027 09:54:16.876             0.000             0.000
       219   11 Jun 2027 11:25:44.585   11 Jun 2027 11:26:01.628            17.043          7397.625
       220   11 Jun 2027 11:27:14.042   11 Jun 2027 11:27:18.928             4.886          2205.219
       221   11 Jun 2027 11:27:31.135   11 Jun 2027 11:27:37.374             6.239           381.469
       222   11 Jun 2027 11:28:29.629   11 Jun 2027 11:28:34.930             5.301          1632.969
       223   11 Jun 2027 11:32:30.033   11 Jun 2027 11:32:46.080            16.047          7346.969
       224   11 Jun 2027 11:32:56.513   11 Jun 2027 11:32:56.834             0.321            28.656
       225   12 Jun 2027 03:47:22.233   12 Jun 2027 03:49:27.348           125.115         62557.500
       226   12 Jun 2027 03:49:49.251   12 Jun 2027 03:49:56.945             7.694          3847.000
       227   12 Jun 2027 03:51:24.264   12 Jun 2027 03:51:39.436            15.172          7586.000
       228   12 Jun 2027 05:26:19.842   12 Jun 2027 05:27:46.898            87.056         43528.000
       229   12 Jun 2027 05:28:36.902   12 Jun 2027 05:28:59.266            22.364         11182.000
       230   12 Jun 2027 05:29:33.183   12 Jun 2027 05:29:38.815             5.632          2816.000
       231   12 Jun 2027 05:32:21.009   12 Jun 2027 05:32:26.728             5.719          2859.500
       232   12 Jun 2027 05:33:06.205   12 Jun 2027 05:33:06.205             0.000             0.000
       233   12 Jun 2027 05:33:08.755   12 Jun 2027 05:33:43.336            34.581         17290.500
       234   12 Jun 2027 06:51:40.398   12 Jun 2027 06:52:49.576            69.178         34589.000
       235   12 Jun 2027 07:03:03.666   12 Jun 2027 07:03:27.295            23.629         11544.814
       236   12 Jun 2027 08:25:40.726   12 Jun 2027 08:26:12.040            31.314         15657.000
       237   12 Jun 2027 08:26:55.894   12 Jun 2027 08:26:59.300             3.406          1411.250
       238   12 Jun 2027 08:28:09.132   12 Jun 2027 08:28:12.784             3.652           914.969
       239   12 Jun 2027 10:01:27.604   12 Jun 2027 10:01:42.526            14.922          7341.063
       240   12 Jun 2027 10:04:17.627   12 Jun 2027 10:04:28.682            11.055          3944.438
       241   12 Jun 2027 11:40:29.182   12 Jun 2027 11:40:52.818            23.636         11818.000
       242   12 Jun 2027 11:44:17.294   12 Jun 2027 11:44:45.729            28.435         10410.844
       243   12 Jun 2027 11:45:00.387   12 Jun 2027 11:45:02.098             1.711           439.031
       244   13 Jun 2027 03:59:30.281   13 Jun 2027 04:01:04.388            94.107         47053.500
       245   13 Jun 2027 04:01:05.350   13 Jun 2027 04:01:22.177            16.827          8413.500
       246   13 Jun 2027 04:01:42.887   13 Jun 2027 04:01:52.876             9.989          4994.500
       247   13 Jun 2027 04:02:28.505   13 Jun 2027 04:02:38.934            10.429          5214.500
       248   13 Jun 2027 04:04:22.147   13 Jun 2027 04:04:29.275             7.128          3564.000
       249   13 Jun 2027 05:38:35.326   13 Jun 2027 05:40:10.978            95.652         47826.000
       250   13 Jun 2027 05:42:16.153   13 Jun 2027 05:42:37.027            20.874         10437.000
       251   13 Jun 2027 05:43:48.793   13 Jun 2027 05:43:58.730             9.937          4968.500
       252   13 Jun 2027 05:45:23.198   13 Jun 2027 05:45:39.852            16.654          8327.000
       253   13 Jun 2027 07:03:23.328   13 Jun 2027 07:04:55.621            92.293         46146.500
       254   13 Jun 2027 07:15:03.068   13 Jun 2027 07:15:34.356            31.288         14350.218
       255   13 Jun 2027 08:37:20.336   13 Jun 2027 08:37:54.211            33.875         15702.562
       256   13 Jun 2027 08:39:54.086   13 Jun 2027 08:40:00.994             6.908          3311.844
       257   13 Jun 2027 08:42:13.061   13 Jun 2027 08:42:24.211            11.150          3718.063
       258   13 Jun 2027 10:12:53.642   13 Jun 2027 10:13:07.403            13.761          6258.250
       259   13 Jun 2027 10:14:37.570   13 Jun 2027 10:14:37.570             0.000             0.000
       260   13 Jun 2027 11:55:59.405   13 Jun 2027 11:56:58.342            58.937         27360.938
