uniorb/output/strategy_1/Camera/Camera_KinoSat_111009.txt

KinoSat_111009
-------------------------
    Access    *     Start Time (UTCG)     *     Stop Time (UTCG)  *   Duration (s) *   Data (Mbytes)
         1   01 Jun 2027 03:01:09.997   01 Jun 2027 03:01:48.909            38.912         19456.000
         2   01 Jun 2027 03:02:19.613   01 Jun 2027 03:02:19.613             0.000             0.000
         3   01 Jun 2027 03:03:02.562   01 Jun 2027 03:03:09.986             7.424          3712.000
         4   01 Jun 2027 03:03:53.053   01 Jun 2027 03:04:28.110            35.057         17528.500
         5   01 Jun 2027 04:25:04.788   01 Jun 2027 04:25:48.191            43.403         21701.500
         6   01 Jun 2027 04:26:34.203   01 Jun 2027 04:27:01.433            27.230         13615.000
         7   01 Jun 2027 04:27:17.176   01 Jun 2027 04:27:23.924             6.748          3374.000
         8   01 Jun 2027 06:00:59.739   01 Jun 2027 06:03:05.936           126.197         63098.500
         9   01 Jun 2027 06:03:55.751   01 Jun 2027 06:04:00.113             4.362          2181.000
        10   01 Jun 2027 07:35:54.972   01 Jun 2027 07:38:08.875           133.903         66951.500
        11   01 Jun 2027 07:38:57.762   01 Jun 2027 07:39:01.379             3.617          1808.500
        12   01 Jun 2027 07:41:37.861   01 Jun 2027 07:41:59.187            21.326         10663.000
        13   01 Jun 2027 07:42:33.051   01 Jun 2027 07:42:41.061             8.010          4005.000
        14   01 Jun 2027 09:12:15.311   01 Jun 2027 09:14:09.030           113.719         56859.500
        15   01 Jun 2027 09:14:41.363   01 Jun 2027 09:14:59.604            18.241          9120.500
        16   01 Jun 2027 09:18:13.247   01 Jun 2027 09:18:22.952             9.705          4852.500
        17   01 Jun 2027 10:50:31.908   01 Jun 2027 10:52:36.253           124.345         62172.500
        18   01 Jun 2027 10:52:37.611   01 Jun 2027 10:52:46.513             8.902          4451.000
        19   01 Jun 2027 10:54:13.925   01 Jun 2027 10:54:18.440             4.515          2257.500
        20   02 Jun 2027 03:01:50.849   02 Jun 2027 03:02:10.894            20.045         10022.500
        21   02 Jun 2027 03:13:06.298   02 Jun 2027 03:14:21.597            75.299         37649.500
        22   02 Jun 2027 03:15:14.672   02 Jun 2027 03:15:20.207             5.535          2767.500
        23   02 Jun 2027 03:15:53.446   02 Jun 2027 03:15:56.897             3.451          1725.500
        24   02 Jun 2027 04:35:42.295   02 Jun 2027 04:36:23.414            41.119         20559.500
        25   02 Jun 2027 06:11:17.253   02 Jun 2027 06:11:59.446            42.193         21096.500
        26   02 Jun 2027 06:12:43.737   02 Jun 2027 06:13:52.186            68.449         34224.500
        27   02 Jun 2027 06:15:02.000   02 Jun 2027 06:15:06.117             4.117          2058.500
        28   02 Jun 2027 06:16:43.862   02 Jun 2027 06:16:43.862             0.000             0.000
        29   02 Jun 2027 06:17:14.245   02 Jun 2027 06:17:18.417             4.172          2086.000
        30   02 Jun 2027 07:47:29.203   02 Jun 2027 07:49:31.530           122.327         61163.500
        31   02 Jun 2027 07:54:21.372   02 Jun 2027 07:54:41.762            20.390         10195.000
        32   02 Jun 2027 09:24:35.513   02 Jun 2027 09:26:49.304           133.791         66895.500
        33   02 Jun 2027 09:27:01.440   02 Jun 2027 09:27:09.334             7.894          3947.000
        34   02 Jun 2027 09:28:43.277   02 Jun 2027 09:28:51.424             8.147          4073.500
        35   02 Jun 2027 09:29:32.627   02 Jun 2027 09:29:32.627             0.000             0.000
        36   02 Jun 2027 09:30:34.242   02 Jun 2027 09:30:39.071             4.829          2414.500
        37   02 Jun 2027 11:02:33.641   02 Jun 2027 11:04:37.031           123.390         61695.000
        38   02 Jun 2027 11:05:01.344   02 Jun 2027 11:05:08.775             7.431          3715.500
        39   02 Jun 2027 11:05:14.425   02 Jun 2027 11:05:29.896            15.471          7735.500
        40   03 Jun 2027 03:13:25.190   03 Jun 2027 03:14:00.086            34.896         17448.000
        41   03 Jun 2027 03:25:09.340   03 Jun 2027 03:26:19.050            69.710         34855.000
        42   03 Jun 2027 04:47:23.225   03 Jun 2027 04:48:17.573            54.348         27174.000
        43   03 Jun 2027 04:51:48.399   03 Jun 2027 04:51:51.014             2.615          1307.500
        44   03 Jun 2027 06:22:23.985   03 Jun 2027 06:23:24.076            60.091         30045.500
        45   03 Jun 2027 06:24:13.072   03 Jun 2027 06:24:16.412             3.340          1670.000
        46   03 Jun 2027 06:24:27.745   03 Jun 2027 06:24:48.503            20.758         10379.000
        47   03 Jun 2027 06:25:10.832   03 Jun 2027 06:25:12.018             1.186           593.000
        48   03 Jun 2027 06:25:44.651   03 Jun 2027 06:25:49.004             4.353          2176.500
        49   03 Jun 2027 06:27:39.105   03 Jun 2027 06:27:39.754             0.649           324.500
        50   03 Jun 2027 06:27:47.826   03 Jun 2027 06:27:59.543            11.717          5858.500
        51   03 Jun 2027 06:28:22.338   03 Jun 2027 06:28:34.113            11.775          5887.500
        52   03 Jun 2027 06:29:13.361   03 Jun 2027 06:29:18.191             4.830          2415.000
        53   03 Jun 2027 06:30:32.408   03 Jun 2027 06:30:34.525             2.117          1058.500
        54   03 Jun 2027 07:59:49.158   03 Jun 2027 08:01:33.855           104.697         52348.500
        55   03 Jun 2027 08:02:40.191   03 Jun 2027 08:02:47.917             7.726          3863.000
        56   03 Jun 2027 08:02:59.220   03 Jun 2027 08:03:04.939             5.719          2859.500
        57   03 Jun 2027 08:05:37.371   03 Jun 2027 08:05:49.259            11.888          5944.000
        58   03 Jun 2027 08:07:07.540   03 Jun 2027 08:07:08.012             0.472           236.000
        59   03 Jun 2027 09:36:36.654   03 Jun 2027 09:38:28.481           111.827         55913.500
        60   03 Jun 2027 09:39:14.961   03 Jun 2027 09:39:23.874             8.913          4456.500
        61   03 Jun 2027 09:42:21.794   03 Jun 2027 09:42:23.175             1.381           690.500
        62   03 Jun 2027 09:42:29.182   03 Jun 2027 09:42:35.681             6.499          3249.500
        63   03 Jun 2027 11:14:33.964   03 Jun 2027 11:15:22.066            48.102         23790.846
        64   03 Jun 2027 11:16:04.485   03 Jun 2027 11:16:09.357             4.872          1190.531
        65   03 Jun 2027 11:16:27.713   03 Jun 2027 11:16:27.713             0.000             0.000
        66   03 Jun 2027 11:17:02.940   03 Jun 2027 11:17:07.106             4.166          1630.688
        67   03 Jun 2027 11:17:30.711   03 Jun 2027 11:17:33.537             2.826           714.313
        68   03 Jun 2027 11:18:17.719   03 Jun 2027 11:18:20.771             3.052          1380.688
        69   03 Jun 2027 11:18:32.189   03 Jun 2027 11:18:32.519             0.330           165.000
        70   04 Jun 2027 03:24:57.260   04 Jun 2027 03:25:27.380            30.120         15060.000
        71   04 Jun 2027 03:37:09.860   04 Jun 2027 03:37:41.608            31.748         15874.000
        72   04 Jun 2027 04:59:04.226   04 Jun 2027 05:00:17.810            73.584         36792.000
        73   04 Jun 2027 05:01:07.309   04 Jun 2027 05:01:08.618             1.309           654.500
        74   04 Jun 2027 05:02:01.077   04 Jun 2027 05:02:05.634             4.557          2278.500
        75   04 Jun 2027 05:03:15.820   04 Jun 2027 05:03:36.661            20.841         10420.500
        76   04 Jun 2027 05:04:12.573   04 Jun 2027 05:04:12.573             0.000             0.000
        77   04 Jun 2027 05:04:19.831   04 Jun 2027 05:04:31.963            12.132          6066.000
        78   04 Jun 2027 06:33:52.762   04 Jun 2027 06:35:40.138           107.376         53688.000
        79   04 Jun 2027 06:36:30.098   04 Jun 2027 06:36:30.098             0.000             0.000
        80   04 Jun 2027 06:37:30.685   04 Jun 2027 06:37:30.685             0.000             0.000
        81   04 Jun 2027 06:39:27.937   04 Jun 2027 06:39:38.154            10.217          5108.500
        82   04 Jun 2027 06:41:34.919   04 Jun 2027 06:41:49.730            14.811          7405.500
        83   04 Jun 2027 06:42:35.147   04 Jun 2027 06:42:40.746             5.599          2799.500
        84   04 Jun 2027 06:42:46.488   04 Jun 2027 06:42:53.918             7.430          3715.000
        85   04 Jun 2027 08:11:43.117   04 Jun 2027 08:12:47.913            64.796         31317.688
        86   04 Jun 2027 08:13:07.996   04 Jun 2027 08:13:11.123             3.127           627.594
        87   04 Jun 2027 08:13:44.529   04 Jun 2027 08:13:47.789             3.260           922.969
        88   04 Jun 2027 08:14:01.183   04 Jun 2027 08:14:04.106             2.923           417.656
        89   04 Jun 2027 08:14:34.411   04 Jun 2027 08:14:34.781             0.370           185.000
        90   04 Jun 2027 08:15:26.795   04 Jun 2027 08:15:31.332             4.537          2053.625
        91   04 Jun 2027 08:16:13.375   04 Jun 2027 08:16:15.482             2.107          1034.969
        92   04 Jun 2027 08:16:19.603   04 Jun 2027 08:16:23.611             4.008           128.781
        93   04 Jun 2027 08:17:09.175   04 Jun 2027 08:17:09.175             0.000             0.000
        94   04 Jun 2027 08:17:39.208   04 Jun 2027 08:17:39.357             0.149            74.500
        95   04 Jun 2027 08:17:51.044   04 Jun 2027 08:17:57.948             6.904          2476.656
        96   04 Jun 2027 08:18:25.140   04 Jun 2027 08:18:31.120             5.980           487.219
        97   04 Jun 2027 08:18:43.220   04 Jun 2027 08:18:43.990             0.770           335.281
        98   04 Jun 2027 09:48:27.834   04 Jun 2027 09:48:48.022            20.188          9386.906
        99   04 Jun 2027 09:49:27.103   04 Jun 2027 09:49:34.123             7.020          1221.281
       100   04 Jun 2027 09:49:41.606   04 Jun 2027 09:49:44.235             2.629            56.156
       101   04 Jun 2027 09:51:07.149   04 Jun 2027 09:51:11.491             4.342          2171.000
       102   04 Jun 2027 09:51:35.711   04 Jun 2027 09:51:37.270             1.559           779.500
       103   04 Jun 2027 09:52:48.316   04 Jun 2027 09:52:53.478             5.162          2330.187
       104   04 Jun 2027 09:52:56.122   04 Jun 2027 09:52:57.657             1.535            59.719
       105   04 Jun 2027 09:54:30.921   04 Jun 2027 09:54:37.893             6.972          2628.688
       106   04 Jun 2027 11:26:36.384   04 Jun 2027 11:26:53.709            17.325          8206.438
       107   04 Jun 2027 11:27:53.360   04 Jun 2027 11:27:56.724             3.364          1339.750
       108   04 Jun 2027 11:28:17.337   04 Jun 2027 11:28:19.324             1.987           125.906
       109   04 Jun 2027 11:28:39.184   04 Jun 2027 11:28:42.453             3.269           620.625
       110   04 Jun 2027 11:29:24.465   04 Jun 2027 11:29:26.479             2.014           980.375
       111   04 Jun 2027 11:29:57.823   04 Jun 2027 11:29:59.810             1.987           832.531
       112   04 Jun 2027 11:30:05.350   04 Jun 2027 11:30:07.560             2.210           153.000
       113   04 Jun 2027 11:30:37.787   04 Jun 2027 11:30:38.800             1.013           506.500
       114   05 Jun 2027 03:36:54.968   05 Jun 2027 03:37:34.548            39.580         19790.000
       115   05 Jun 2027 03:37:39.463   05 Jun 2027 03:37:53.804            14.341          7170.500
       116   05 Jun 2027 03:38:11.649   05 Jun 2027 03:38:11.649             0.000             0.000
       117   05 Jun 2027 03:38:37.936   05 Jun 2027 03:38:44.445             6.509          3254.500
       118   05 Jun 2027 05:12:52.226   05 Jun 2027 05:15:00.164           127.938         63969.000
       119   05 Jun 2027 05:15:35.166   05 Jun 2027 05:15:39.565             4.399          2199.500
       120   05 Jun 2027 05:16:11.402   05 Jun 2027 05:16:11.402             0.000             0.000
       121   05 Jun 2027 06:46:40.871   05 Jun 2027 06:48:27.595           106.724         53362.000
       122   05 Jun 2027 06:48:50.414   05 Jun 2027 06:48:51.636             1.222           611.000
       123   05 Jun 2027 06:49:58.294   05 Jun 2027 06:49:58.294             0.000             0.000
       124   05 Jun 2027 06:50:50.834   05 Jun 2027 06:50:53.594             2.760          1380.000
       125   05 Jun 2027 06:51:39.983   05 Jun 2027 06:51:47.220             7.237          3618.500
       126   05 Jun 2027 06:52:14.255   05 Jun 2027 06:52:14.255             0.000             0.000
       127   05 Jun 2027 06:54:12.619   05 Jun 2027 06:54:23.896            11.277          5638.500
       128   05 Jun 2027 08:23:50.286   05 Jun 2027 08:24:27.827            37.541         17221.093
       129   05 Jun 2027 08:25:03.378   05 Jun 2027 08:25:04.341             0.963           465.625
       130   05 Jun 2027 08:25:36.382   05 Jun 2027 08:25:39.836             3.454           789.875
       131   05 Jun 2027 08:26:31.698   05 Jun 2027 08:26:34.675             2.977          1143.625
       132   05 Jun 2027 08:27:14.519   05 Jun 2027 08:27:21.269             6.750           842.000
       133   05 Jun 2027 08:27:39.859   05 Jun 2027 08:27:42.613             2.754           367.188
       134   05 Jun 2027 08:27:53.252   05 Jun 2027 08:27:53.252             0.000             0.000
       135   05 Jun 2027 08:28:31.350   05 Jun 2027 08:28:38.823             7.473          1410.687
       136   05 Jun 2027 08:29:07.085   05 Jun 2027 08:29:09.207             2.122           883.188
       137   05 Jun 2027 08:29:15.709   05 Jun 2027 08:29:17.968             2.259           203.188
       138   05 Jun 2027 08:29:41.761   05 Jun 2027 08:29:42.470             0.709           329.750
       139   05 Jun 2027 08:30:29.362   05 Jun 2027 08:30:33.783             4.421          1465.375
       140   05 Jun 2027 08:30:56.067   05 Jun 2027 08:30:57.674             1.607           696.375
       141   05 Jun 2027 10:00:53.109   05 Jun 2027 10:01:11.466            18.357          7838.281
       142   05 Jun 2027 10:01:21.394   05 Jun 2027 10:01:24.387             2.993            80.375
       143   05 Jun 2027 10:02:27.543   05 Jun 2027 10:02:31.664             4.121          1929.500
       144   05 Jun 2027 10:02:42.093   05 Jun 2027 10:02:43.436             1.343           305.906
       145   05 Jun 2027 10:02:51.586   05 Jun 2027 10:02:52.102             0.516           254.688
       146   05 Jun 2027 10:03:27.488   05 Jun 2027 10:03:31.903             4.415           875.781
       147   05 Jun 2027 10:03:57.622   05 Jun 2027 10:04:03.817             6.195           162.750
       148   05 Jun 2027 10:04:44.226   05 Jun 2027 10:04:48.210             3.984          1262.781
       149   05 Jun 2027 10:04:55.573   05 Jun 2027 10:04:56.803             1.230           230.094
       150   05 Jun 2027 10:05:14.885   05 Jun 2027 10:05:15.982             1.097           548.500
       151   05 Jun 2027 10:06:24.471   05 Jun 2027 10:06:33.090             8.619          2148.344
       152   05 Jun 2027 10:06:48.311   05 Jun 2027 10:06:54.865             6.554           475.656
       153   05 Jun 2027 11:37:48.517   05 Jun 2027 11:38:02.071            13.554          6617.156
       154   05 Jun 2027 11:38:33.626   05 Jun 2027 11:38:36.226             2.600           986.094
       155   05 Jun 2027 11:39:24.026   05 Jun 2027 11:39:27.481             3.455          1390.063
       156   05 Jun 2027 11:40:28.975   05 Jun 2027 11:40:36.057             7.082          1921.312
       157   05 Jun 2027 11:40:37.761   05 Jun 2027 11:40:40.624             2.863            53.250
       158   05 Jun 2027 11:40:51.943   05 Jun 2027 11:40:52.690             0.747           353.719
       159   05 Jun 2027 11:41:31.231   05 Jun 2027 11:41:32.555             1.324           662.000
       160   05 Jun 2027 11:42:02.375   05 Jun 2027 11:42:10.463             8.088          1405.844
       161   05 Jun 2027 11:42:17.141   05 Jun 2027 11:42:17.679             0.538           208.688
       162   05 Jun 2027 11:42:28.933   05 Jun 2027 11:42:29.800             0.867           219.844
       163   05 Jun 2027 11:42:39.206   05 Jun 2027 11:42:39.921             0.715           293.937
       164   06 Jun 2027 03:48:47.607   06 Jun 2027 03:49:56.377            68.770         34385.000
       165   06 Jun 2027 05:25:10.006   06 Jun 2027 05:27:27.786           137.780         68890.000
       166   06 Jun 2027 05:27:37.266   06 Jun 2027 05:27:51.967            14.701          7350.500
       167   06 Jun 2027 06:59:01.674   06 Jun 2027 07:00:40.978            99.304         49652.000
       168   06 Jun 2027 07:01:11.078   06 Jun 2027 07:01:18.915             7.837          2053.406
       169   06 Jun 2027 07:03:50.020   06 Jun 2027 07:03:51.568             1.548           774.000
       170   06 Jun 2027 07:04:51.012   06 Jun 2027 07:05:02.649            11.637          5805.656
       171   06 Jun 2027 07:05:54.815   06 Jun 2027 07:05:59.940             5.125          1492.500
       172   06 Jun 2027 07:06:43.730   06 Jun 2027 07:06:43.730             0.000             0.000
       173   06 Jun 2027 08:36:16.806   06 Jun 2027 08:36:37.047            20.241          9398.250
       174   06 Jun 2027 08:36:42.826   06 Jun 2027 08:36:44.696             1.870            10.344
       175   06 Jun 2027 08:37:05.074   06 Jun 2027 08:37:09.080             4.006           551.312
       176   06 Jun 2027 08:38:00.450   06 Jun 2027 08:38:04.011             3.561           940.344
       177   06 Jun 2027 08:38:32.180   06 Jun 2027 08:38:35.853             3.673           463.313
       178   06 Jun 2027 08:39:07.516   06 Jun 2027 08:39:08.022             0.506            64.125
       179   06 Jun 2027 08:39:24.312   06 Jun 2027 08:39:26.950             2.638           463.406
       180   06 Jun 2027 08:40:10.373   06 Jun 2027 08:40:11.435             1.062           432.844
       181   06 Jun 2027 08:40:29.811   06 Jun 2027 08:40:30.385             0.574            90.687
       182   06 Jun 2027 08:41:05.135   06 Jun 2027 08:41:09.083             3.948          1085.937
       183   06 Jun 2027 08:41:33.210   06 Jun 2027 08:41:38.358             5.148           714.531
       184   06 Jun 2027 08:42:11.764   06 Jun 2027 08:42:14.711             2.947           946.625
       185   06 Jun 2027 08:42:38.448   06 Jun 2027 08:42:40.463             2.015           741.781
       186   06 Jun 2027 10:13:17.766   06 Jun 2027 10:13:37.163            19.397          8380.625
       187   06 Jun 2027 10:13:58.898   06 Jun 2027 10:14:08.526             9.628           297.125
       188   06 Jun 2027 10:14:47.894   06 Jun 2027 10:14:50.863             2.969           516.250
       189   06 Jun 2027 10:15:51.381   06 Jun 2027 10:15:54.611             3.230           979.750
       190   06 Jun 2027 10:16:12.287   06 Jun 2027 10:16:20.119             7.832           552.375
       191   06 Jun 2027 10:16:23.047   06 Jun 2027 10:16:25.534             2.487            26.687
       192   06 Jun 2027 10:16:42.877   06 Jun 2027 10:16:43.870             0.993           274.125
       193   06 Jun 2027 10:16:48.716   06 Jun 2027 10:16:49.885             1.169           151.438
       194   06 Jun 2027 10:17:03.955   06 Jun 2027 10:17:05.775             1.820           324.750
       195   06 Jun 2027 10:17:13.058   06 Jun 2027 10:17:15.971             2.913           227.594
       196   06 Jun 2027 10:17:57.868   06 Jun 2027 10:18:01.887             4.019           933.969
       197   06 Jun 2027 10:18:30.355   06 Jun 2027 10:18:32.865             2.510           873.562
       198   06 Jun 2027 11:50:02.453   06 Jun 2027 11:50:24.985            22.532          8692.000
       199   06 Jun 2027 11:50:29.967   06 Jun 2027 11:50:32.201             2.234           137.500
       200   06 Jun 2027 11:50:47.733   06 Jun 2027 11:50:48.788             1.055           473.313
       201   06 Jun 2027 11:51:27.878   06 Jun 2027 11:51:31.214             3.336          1221.562
       202   06 Jun 2027 11:52:37.766   06 Jun 2027 11:52:38.651             0.885           442.500
       203   06 Jun 2027 11:52:52.580   06 Jun 2027 11:52:57.684             5.104          1928.125
       204   06 Jun 2027 11:53:30.990   06 Jun 2027 11:53:32.956             1.966           952.437
       205   06 Jun 2027 11:54:10.819   06 Jun 2027 11:54:13.440             2.621          1183.219
       206   07 Jun 2027 04:00:36.282   07 Jun 2027 04:01:38.546            62.264         31132.000
       207   07 Jun 2027 04:02:44.308   07 Jun 2027 04:02:48.016             3.708          1854.000
       208   07 Jun 2027 05:37:13.461   07 Jun 2027 05:39:19.909           126.448         63224.000
       209   07 Jun 2027 05:40:05.823   07 Jun 2027 05:40:10.270             4.447          2223.500
       210   07 Jun 2027 05:40:16.398   07 Jun 2027 05:40:16.398             0.000             0.000
       211   07 Jun 2027 07:12:16.972   07 Jun 2027 07:14:25.612           128.640         64320.000
       212   07 Jun 2027 07:14:43.166   07 Jun 2027 07:14:48.069             4.903          2248.906
       213   07 Jun 2027 07:15:18.123   07 Jun 2027 07:15:20.234             2.111           936.281
       214   07 Jun 2027 07:18:42.282   07 Jun 2027 07:18:54.160            11.878          5939.000
       215   07 Jun 2027 07:18:57.946   07 Jun 2027 07:18:57.946             0.000             0.000
       216   07 Jun 2027 07:19:04.084   07 Jun 2027 07:19:07.472             3.388           638.594
       217   07 Jun 2027 08:48:40.047   07 Jun 2027 08:49:05.108            25.061         10618.937
       218   07 Jun 2027 08:50:07.889   07 Jun 2027 08:50:13.263             5.374           504.281
       219   07 Jun 2027 08:50:50.097   07 Jun 2027 08:50:52.842             2.745           332.344
       220   07 Jun 2027 08:51:21.029   07 Jun 2027 08:51:23.327             2.298           722.250
       221   07 Jun 2027 08:51:58.958   07 Jun 2027 08:52:01.330             2.372          1102.594
       222   07 Jun 2027 08:52:20.901   07 Jun 2027 08:52:22.368             1.467           611.594
       223   07 Jun 2027 08:53:02.230   07 Jun 2027 08:53:07.219             4.989          1059.813
       224   07 Jun 2027 08:53:25.941   07 Jun 2027 08:53:29.806             3.865           560.031
       225   07 Jun 2027 08:54:02.075   07 Jun 2027 08:54:04.683             2.608           946.500
       226   07 Jun 2027 08:54:27.567   07 Jun 2027 08:54:31.424             3.857           715.125
       227   07 Jun 2027 10:26:09.622   07 Jun 2027 10:26:32.558            22.936          7393.969
       228   07 Jun 2027 10:27:20.680   07 Jun 2027 10:27:26.484             5.804          1418.531
       229   07 Jun 2027 10:27:55.535   07 Jun 2027 10:28:02.129             6.594           756.125
       230   07 Jun 2027 10:28:19.773   07 Jun 2027 10:28:21.413             1.640           476.844
       231   07 Jun 2027 10:28:24.904   07 Jun 2027 10:28:26.696             1.792            50.406
       232   07 Jun 2027 10:28:40.691   07 Jun 2027 10:28:41.782             1.091           316.469
       233   07 Jun 2027 10:28:50.339   07 Jun 2027 10:28:53.204             2.865           267.406
       234   07 Jun 2027 10:29:12.467   07 Jun 2027 10:29:14.615             2.148           601.969
       235   07 Jun 2027 10:30:17.383   07 Jun 2027 10:30:24.146             6.763          1961.500
       236   08 Jun 2027 04:12:50.130   08 Jun 2027 04:14:01.123            70.993         35496.500
       237   08 Jun 2027 05:49:23.264   08 Jun 2027 05:51:40.718           137.454         68727.000
       238   08 Jun 2027 07:24:33.582   08 Jun 2027 07:26:28.939           115.357         57678.500
       239   08 Jun 2027 07:26:36.191   08 Jun 2027 07:26:49.613            13.422          3807.438
       240   08 Jun 2027 07:27:07.748   08 Jun 2027 07:27:10.773             3.025           566.719
       241   08 Jun 2027 07:30:35.673   08 Jun 2027 07:30:45.291             9.618          4809.000
       242   08 Jun 2027 07:30:50.313   08 Jun 2027 07:30:52.846             2.533          1266.500
       243   08 Jun 2027 07:30:57.168   08 Jun 2027 07:30:58.411             1.243           302.344
       244   08 Jun 2027 09:00:55.168   08 Jun 2027 09:01:17.525            22.357         10967.344
       245   08 Jun 2027 09:01:32.802   08 Jun 2027 09:01:37.959             5.157           477.406
       246   08 Jun 2027 09:02:19.364   08 Jun 2027 09:02:21.619             2.255           867.125
       247   08 Jun 2027 09:02:35.790   08 Jun 2027 09:02:37.078             1.288           442.844
       248   08 Jun 2027 09:03:01.291   08 Jun 2027 09:03:07.155             5.864           637.875
       249   08 Jun 2027 09:03:41.517   08 Jun 2027 09:03:45.806             4.289           913.344
       250   08 Jun 2027 09:05:13.384   08 Jun 2027 09:05:19.162             5.778          2593.406
       251   08 Jun 2027 09:05:57.726   08 Jun 2027 09:06:00.584             2.858          1205.125
       252   08 Jun 2027 09:06:58.926   08 Jun 2027 09:07:05.353             6.427          1819.281
       253   08 Jun 2027 10:38:13.402   08 Jun 2027 10:38:31.291            17.889          8504.469
       254   08 Jun 2027 10:39:24.551   08 Jun 2027 10:39:31.336             6.785          1510.219
       255   08 Jun 2027 10:39:44.167   08 Jun 2027 10:39:50.821             6.654           376.938
       256   08 Jun 2027 10:40:48.682   08 Jun 2027 10:40:53.220             4.538          1808.156
       257   08 Jun 2027 10:41:18.722   08 Jun 2027 10:41:22.335             3.613           708.625
       258   08 Jun 2027 10:41:59.952   08 Jun 2027 10:42:05.875             5.923          1175.531
       259   08 Jun 2027 10:42:08.356   08 Jun 2027 10:42:21.335            12.979            77.531
       260   08 Jun 2027 10:42:43.788   08 Jun 2027 10:42:45.178             1.390           626.563
       261   09 Jun 2027 03:01:25.279   09 Jun 2027 03:02:03.535            38.256         19128.000
       262   09 Jun 2027 03:03:27.197   09 Jun 2027 03:03:30.682             3.485          1742.500
       263   09 Jun 2027 03:04:06.972   09 Jun 2027 03:04:42.643            35.671         17835.500
       264   09 Jun 2027 04:25:19.727   09 Jun 2027 04:25:43.784            24.057         12028.500
       265   09 Jun 2027 04:26:17.568   09 Jun 2027 04:26:21.270             3.702          1851.000
       266   09 Jun 2027 04:26:49.071   09 Jun 2027 04:27:09.466            20.395         10197.500
       267   09 Jun 2027 06:01:42.120   09 Jun 2027 06:02:53.342            71.222         35611.000
       268   09 Jun 2027 06:03:42.422   09 Jun 2027 06:04:04.293            21.871         10935.500
       269   09 Jun 2027 06:04:45.670   09 Jun 2027 06:04:52.387             6.717          3358.500
       270   09 Jun 2027 07:36:08.486   09 Jun 2027 07:37:49.878           101.392         50696.000
       271   09 Jun 2027 07:39:14.304   09 Jun 2027 07:39:16.636             2.332          1166.000
       272   09 Jun 2027 07:41:31.443   09 Jun 2027 07:41:47.489            16.046          6742.438
       273   09 Jun 2027 07:42:57.514   09 Jun 2027 07:43:02.008             4.494          2084.219
       274   09 Jun 2027 09:12:30.898   09 Jun 2027 09:12:53.055            22.157         10814.813
       275   09 Jun 2027 09:13:16.701   09 Jun 2027 09:13:22.850             6.149           189.469
       276   09 Jun 2027 09:14:40.260   09 Jun 2027 09:14:44.028             3.768          1756.531
       277   09 Jun 2027 09:14:59.942   09 Jun 2027 09:15:00.931             0.989           143.937
       278   09 Jun 2027 09:15:21.180   09 Jun 2027 09:15:22.541             1.361           203.969
       279   09 Jun 2027 09:16:16.274   09 Jun 2027 09:16:20.258             3.984          1621.469
       280   09 Jun 2027 09:17:10.076   09 Jun 2027 09:17:12.072             1.996           998.000
       281   09 Jun 2027 09:17:45.747   09 Jun 2027 09:17:49.009             3.262          1576.594
       282   09 Jun 2027 09:18:12.135   09 Jun 2027 09:18:14.872             2.737           722.687
       283   09 Jun 2027 10:50:47.770   09 Jun 2027 10:51:03.981            16.211          7841.125
       284   09 Jun 2027 10:52:30.472   09 Jun 2027 10:52:37.737             7.265          2336.750
       285   09 Jun 2027 10:53:06.756   09 Jun 2027 10:53:08.568             1.812           725.281
       286   09 Jun 2027 10:53:29.076   09 Jun 2027 10:53:30.549             1.473           640.875
       287   09 Jun 2027 10:54:07.510   09 Jun 2027 10:54:24.796            17.286          1155.031
       288   09 Jun 2027 10:54:27.652   09 Jun 2027 10:54:28.751             1.099            67.281
       289   10 Jun 2027 03:02:04.789   10 Jun 2027 03:02:27.185            22.396         11198.000
       290   10 Jun 2027 03:13:21.472   10 Jun 2027 03:14:51.970            90.498         45249.000
       291   10 Jun 2027 03:15:26.537   10 Jun 2027 03:15:36.057             9.520          4760.000
       292   10 Jun 2027 04:35:57.222   10 Jun 2027 04:36:15.831            18.609          9304.500
       293   10 Jun 2027 04:37:41.030   10 Jun 2027 04:37:46.659             5.629          2814.500
       294   10 Jun 2027 04:38:10.457   10 Jun 2027 04:38:18.457             8.000          4000.000
       295   10 Jun 2027 04:40:22.188   10 Jun 2027 04:40:22.188             0.000             0.000
       296   10 Jun 2027 06:11:31.886   10 Jun 2027 06:12:15.741            43.855         21927.500
       297   10 Jun 2027 06:12:58.315   10 Jun 2027 06:13:41.516            43.201         21600.500
       298   10 Jun 2027 06:14:32.704   10 Jun 2027 06:14:43.929            11.225          5612.500
       299   10 Jun 2027 06:16:00.512   10 Jun 2027 06:16:21.943            21.431         10715.500
       300   10 Jun 2027 06:17:31.242   10 Jun 2027 06:17:31.242             0.000             0.000
       301   10 Jun 2027 07:47:44.511   10 Jun 2027 07:49:10.341            85.830         42673.938
       302   10 Jun 2027 07:49:51.951   10 Jun 2027 07:49:54.506             2.555          1194.031
       303   10 Jun 2027 07:50:59.667   10 Jun 2027 07:51:01.888             2.221          1110.500
       304   10 Jun 2027 07:51:04.592   10 Jun 2027 07:51:07.766             3.174           906.750
       305   10 Jun 2027 07:51:52.213   10 Jun 2027 07:51:55.588             3.375          1388.969
       306   10 Jun 2027 07:52:10.878   10 Jun 2027 07:52:13.773             2.895           477.813
       307   10 Jun 2027 07:53:19.634   10 Jun 2027 07:53:24.931             5.297          1908.000
       308   10 Jun 2027 07:53:27.543   10 Jun 2027 07:53:28.548             1.005            74.187
       309   10 Jun 2027 07:54:00.782   10 Jun 2027 07:54:07.058             6.276          1007.312
       310   10 Jun 2027 07:54:45.537   10 Jun 2027 07:54:47.822             2.285          1027.156
       311   10 Jun 2027 07:55:17.529   10 Jun 2027 07:55:18.952             1.423           617.344
       312   10 Jun 2027 09:24:50.881   10 Jun 2027 09:25:12.568            21.687         10607.937
       313   10 Jun 2027 09:25:25.684   10 Jun 2027 09:25:29.834             4.150            54.219
       314   10 Jun 2027 09:26:16.412   10 Jun 2027 09:26:25.713             9.301          1455.562
       315   10 Jun 2027 09:27:15.092   10 Jun 2027 09:27:18.048             2.956          1465.594
       316   10 Jun 2027 09:28:30.067   10 Jun 2027 09:28:35.691             5.624          2040.688
       317   10 Jun 2027 09:29:06.508   10 Jun 2027 09:29:14.176             7.668           963.031
       318   10 Jun 2027 09:29:17.093   10 Jun 2027 09:29:17.702             0.609            91.156
       319   10 Jun 2027 09:29:53.122   10 Jun 2027 09:29:55.239             2.117           979.906
       320   10 Jun 2027 11:02:48.872   10 Jun 2027 11:03:01.450            12.578          6289.000
       321   10 Jun 2027 11:03:02.487   10 Jun 2027 11:03:04.467             1.980           990.000
       322   10 Jun 2027 11:03:35.441   10 Jun 2027 11:03:37.690             2.249          1044.250
       323   10 Jun 2027 11:04:03.285   10 Jun 2027 11:04:03.285             0.000             0.000
       324   10 Jun 2027 11:04:29.244   10 Jun 2027 11:04:31.486             2.242          1121.000
       325   10 Jun 2027 11:04:37.925   10 Jun 2027 11:04:39.228             1.303           605.875
       326   10 Jun 2027 11:05:00.568   10 Jun 2027 11:05:01.961             1.393           290.719
       327   10 Jun 2027 11:05:20.066   10 Jun 2027 11:05:21.955             1.889           126.375
       328   10 Jun 2027 11:05:30.613   10 Jun 2027 11:05:31.452             0.839           218.063
       329   10 Jun 2027 11:05:44.624   10 Jun 2027 11:05:45.438             0.814           400.875
       330   10 Jun 2027 11:06:11.425   10 Jun 2027 11:06:14.192             2.767           468.656
       331   10 Jun 2027 11:06:42.481   10 Jun 2027 11:06:45.606             3.125           884.031
       332   11 Jun 2027 03:13:40.252   11 Jun 2027 03:14:27.285            47.033         23516.500
       333   11 Jun 2027 03:25:24.068   11 Jun 2027 03:26:33.163            69.095         34547.500
       334   11 Jun 2027 04:47:39.267   11 Jun 2027 04:48:17.198            37.931         18965.500
       335   11 Jun 2027 04:50:44.287   11 Jun 2027 04:50:44.287             0.000             0.000
       336   11 Jun 2027 04:52:02.711   11 Jun 2027 04:52:06.467             3.756          1878.000
       337   11 Jun 2027 06:22:38.647   11 Jun 2027 06:24:27.855           109.208         54604.000
       338   11 Jun 2027 06:24:42.222   11 Jun 2027 06:25:03.403            21.181         10590.500
       339   11 Jun 2027 06:29:28.864   11 Jun 2027 06:29:35.907             7.043          3521.500
       340   11 Jun 2027 08:00:04.440   11 Jun 2027 08:01:15.222            70.782         34705.469
       341   11 Jun 2027 08:01:42.247   11 Jun 2027 08:01:44.480             2.233           844.531
       342   11 Jun 2027 08:02:10.723   11 Jun 2027 08:02:15.163             4.440           678.719
       343   11 Jun 2027 08:03:01.278   11 Jun 2027 08:03:02.927             1.649           683.281
       344   11 Jun 2027 08:04:36.060   11 Jun 2027 08:04:38.223             2.163          1081.500
       345   11 Jun 2027 08:04:59.660   11 Jun 2027 08:05:13.250            13.590          2495.406
       346   11 Jun 2027 08:06:15.977   11 Jun 2027 08:06:19.505             3.528          1764.000
       347   11 Jun 2027 08:07:21.405   11 Jun 2027 08:07:21.902             0.497           248.500
       348   11 Jun 2027 09:36:51.445   11 Jun 2027 09:37:13.495            22.050         10856.719
       349   11 Jun 2027 09:38:03.678   11 Jun 2027 09:38:07.409             3.731           904.156
       350   11 Jun 2027 09:38:50.208   11 Jun 2027 09:38:53.116             2.908          1214.625
       351   11 Jun 2027 09:40:20.045   11 Jun 2027 09:40:26.776             6.731          1947.469
       352   11 Jun 2027 09:41:01.650   11 Jun 2027 09:41:01.650             0.000             0.000
       353   11 Jun 2027 09:41:49.023   11 Jun 2027 09:41:55.212             6.189          2570.219
       354   11 Jun 2027 09:42:10.340   11 Jun 2027 09:42:12.993             2.653           460.250
       355   11 Jun 2027 09:42:39.479   11 Jun 2027 09:42:41.930             2.451           827.687
       356   11 Jun 2027 09:43:18.424   11 Jun 2027 09:43:21.393             2.969          1140.438
       357   11 Jun 2027 11:14:49.411   11 Jun 2027 11:15:04.203            14.792          6792.500
       358   11 Jun 2027 11:15:35.288   11 Jun 2027 11:15:38.144             2.856           866.906
       359   11 Jun 2027 11:16:03.911   11 Jun 2027 11:16:05.651             1.740           737.625
       360   11 Jun 2027 11:16:33.016   11 Jun 2027 11:16:35.427             2.411           855.156
       361   11 Jun 2027 11:16:42.826   11 Jun 2027 11:16:43.765             0.939           231.219
       362   11 Jun 2027 11:17:17.824   11 Jun 2027 11:17:20.287             2.463          1047.406
       363   11 Jun 2027 11:18:00.704   11 Jun 2027 11:18:03.009             2.305          1152.500
       364   11 Jun 2027 11:18:23.118   11 Jun 2027 11:18:25.767             2.649           738.937
       365   12 Jun 2027 03:25:12.563   12 Jun 2027 03:26:05.459            52.896         26448.000
       366   12 Jun 2027 03:26:06.215   12 Jun 2027 03:26:14.976             8.761          4380.500
       367   12 Jun 2027 03:27:11.549   12 Jun 2027 03:27:15.562             4.013          2006.500
       368   12 Jun 2027 03:37:25.145   12 Jun 2027 03:37:56.823            31.678         15839.000
       369   12 Jun 2027 04:59:19.244   12 Jun 2027 05:00:32.349            73.105         36552.500
       370   12 Jun 2027 05:01:22.007   12 Jun 2027 05:01:24.516             2.509          1254.500
       371   12 Jun 2027 05:02:16.017   12 Jun 2027 05:02:44.096            28.079         14039.500
       372   12 Jun 2027 06:34:07.322   12 Jun 2027 06:35:55.869           108.547         54273.500
       373   12 Jun 2027 06:36:45.912   12 Jun 2027 06:36:45.912             0.000             0.000
       374   12 Jun 2027 06:37:58.580   12 Jun 2027 06:38:14.687            16.107          8053.500
       375   12 Jun 2027 06:40:24.950   12 Jun 2027 06:40:25.189             0.239           119.500
       376   12 Jun 2027 06:42:28.304   12 Jun 2027 06:42:44.891            16.587          8293.500
       377   12 Jun 2027 06:42:57.912   12 Jun 2027 06:42:58.411             0.499           249.500
       378   12 Jun 2027 06:43:00.363   12 Jun 2027 06:43:08.469             8.106          3623.968
       379   12 Jun 2027 08:11:58.501   12 Jun 2027 08:12:26.949            28.448         13633.562
       380   12 Jun 2027 08:13:49.291   12 Jun 2027 08:13:57.658             8.367          1985.500
       381   12 Jun 2027 08:15:05.837   12 Jun 2027 08:15:10.577             4.740          1991.562
       382   12 Jun 2027 08:15:55.250   12 Jun 2027 08:15:58.286             3.036          1319.375
       383   12 Jun 2027 08:16:46.553   12 Jun 2027 08:17:02.861            16.308          1508.344
       384   12 Jun 2027 08:17:51.192   12 Jun 2027 08:17:54.078             2.886          1443.000
       385   12 Jun 2027 08:18:06.012   12 Jun 2027 08:18:15.421             9.409           440.281
       386   12 Jun 2027 08:19:17.075   12 Jun 2027 08:19:23.247             6.172          1784.500
       387   12 Jun 2027 09:48:43.076   12 Jun 2027 09:49:01.341            18.265          8595.469
       388   12 Jun 2027 09:49:41.739   12 Jun 2027 09:49:48.347             6.608          1182.563
       389   12 Jun 2027 09:51:22.503   12 Jun 2027 09:51:27.567             5.064          2382.969
       390   12 Jun 2027 09:51:51.327   12 Jun 2027 09:51:53.990             2.663           742.500
       391   12 Jun 2027 09:52:15.443   12 Jun 2027 09:52:17.530             2.087           191.438
       392   12 Jun 2027 09:52:29.866   12 Jun 2027 09:52:29.866             0.000             0.000
       393   12 Jun 2027 09:52:57.465   12 Jun 2027 09:52:59.380             1.915           957.500
       394   12 Jun 2027 09:53:30.240   12 Jun 2027 09:53:34.721             4.481          1215.219
       395   12 Jun 2027 09:54:42.180   12 Jun 2027 09:54:45.660             3.480          1740.000
       396   12 Jun 2027 09:55:17.527   12 Jun 2027 09:55:25.911             8.384          1363.531
       397   12 Jun 2027 11:26:52.049   12 Jun 2027 11:27:05.607            13.558          5869.906
       398   12 Jun 2027 11:27:19.121   12 Jun 2027 11:27:21.749             2.628           422.312
       399   12 Jun 2027 11:27:53.720   12 Jun 2027 11:27:57.236             3.516           889.469
       400   12 Jun 2027 11:28:28.518   12 Jun 2027 11:28:28.518             0.000             0.000
       401   12 Jun 2027 11:28:33.987   12 Jun 2027 11:28:37.161             3.174           792.406
       402   12 Jun 2027 11:28:47.224   12 Jun 2027 11:28:47.717             0.493           150.625
       403   12 Jun 2027 11:29:13.197   12 Jun 2027 11:29:14.923             1.726           703.687
       404   12 Jun 2027 11:29:45.900   12 Jun 2027 11:29:50.109             4.209           862.063
       405   12 Jun 2027 11:30:11.609   12 Jun 2027 11:30:12.457             0.848           424.000
       406   12 Jun 2027 11:30:28.889   12 Jun 2027 11:30:34.478             5.589           681.781
       407   12 Jun 2027 11:30:43.517   12 Jun 2027 11:30:51.539             8.022           230.156
       408   13 Jun 2027 03:37:10.007   13 Jun 2027 03:37:42.593            32.586         16293.000
       409   13 Jun 2027 03:37:50.966   13 Jun 2027 03:37:54.169             3.203          1601.500
       410   13 Jun 2027 03:38:08.871   13 Jun 2027 03:38:26.575            17.704          8852.000
       411   13 Jun 2027 05:13:07.858   13 Jun 2027 05:15:15.045           127.187         63593.500
       412   13 Jun 2027 05:15:50.677   13 Jun 2027 05:15:54.823             4.146          2073.000
       413   13 Jun 2027 05:15:56.680   13 Jun 2027 05:15:59.146             2.466          1233.000
       414   13 Jun 2027 06:46:56.030   13 Jun 2027 06:48:49.659           113.629         56814.500
       415   13 Jun 2027 06:48:59.080   13 Jun 2027 06:48:59.080             0.000             0.000
       416   13 Jun 2027 06:49:22.597   13 Jun 2027 06:49:27.552             4.955          2477.500
       417   13 Jun 2027 06:51:08.512   13 Jun 2027 06:51:09.970             1.458           729.000
       418   13 Jun 2027 06:51:45.409   13 Jun 2027 06:52:04.301            18.892          9446.000
       419   13 Jun 2027 08:24:05.602   13 Jun 2027 08:24:35.089            29.487         13703.656
       420   13 Jun 2027 08:25:26.774   13 Jun 2027 08:25:28.059             1.285           584.438
       421   13 Jun 2027 08:25:53.096   13 Jun 2027 08:25:56.221             3.125           753.594
       422   13 Jun 2027 08:26:48.986   13 Jun 2027 08:26:50.380             1.394           697.000
       423   13 Jun 2027 08:27:22.520   13 Jun 2027 08:27:27.197             4.677          1430.625
       424   13 Jun 2027 08:28:35.810   13 Jun 2027 08:28:41.151             5.341          2144.156
       425   13 Jun 2027 08:28:46.237   13 Jun 2027 08:28:46.973             0.736           158.938
       426   13 Jun 2027 08:28:59.966   13 Jun 2027 08:29:04.540             4.574           355.438
       427   13 Jun 2027 08:30:10.888   13 Jun 2027 08:30:19.729             8.841          1940.031
       428   13 Jun 2027 08:30:54.760   13 Jun 2027 08:30:57.128             2.368          1094.719
       429   13 Jun 2027 10:01:09.247   13 Jun 2027 10:01:25.550            16.303          7767.562
       430   13 Jun 2027 10:03:19.576   13 Jun 2027 10:03:25.735             6.159          2154.563
       431   13 Jun 2027 10:03:41.389   13 Jun 2027 10:03:43.137             1.748           489.188
       432   13 Jun 2027 10:04:35.464   13 Jun 2027 10:04:38.759             3.295          1488.375
       433   13 Jun 2027 10:05:02.056   13 Jun 2027 10:05:03.197             1.141           373.594
       434   13 Jun 2027 10:05:13.935   13 Jun 2027 10:05:16.252             2.317           335.562
       435   13 Jun 2027 10:05:37.199   13 Jun 2027 10:05:37.868             0.669           272.250
       436   13 Jun 2027 10:06:12.787   13 Jun 2027 10:06:12.787             0.000             0.000
       437   13 Jun 2027 10:06:16.044   13 Jun 2027 10:06:18.367             2.323           739.531
       438   13 Jun 2027 10:07:10.352   13 Jun 2027 10:07:12.327             1.975           987.500
       439   13 Jun 2027 11:38:02.926   13 Jun 2027 11:38:16.708            13.782          6543.937
       440   13 Jun 2027 11:38:33.954   13 Jun 2027 11:38:35.623             1.669           153.656
       441   13 Jun 2027 11:38:59.703   13 Jun 2027 11:39:01.274             1.571           708.344
       442   13 Jun 2027 11:39:43.803   13 Jun 2027 11:39:47.080             3.277           884.156
       443   13 Jun 2027 11:39:58.213   13 Jun 2027 11:40:04.025             5.812           347.906
       444   13 Jun 2027 11:40:28.669   13 Jun 2027 11:40:29.098             0.429           135.031
       445   13 Jun 2027 11:41:01.461   13 Jun 2027 11:41:06.541             5.080           537.438
       446   13 Jun 2027 11:41:23.383   13 Jun 2027 11:41:25.904             2.521           526.312
       447   13 Jun 2027 11:41:50.031   13 Jun 2027 11:41:54.245             4.214           440.344
       448   13 Jun 2027 11:42:27.470   13 Jun 2027 11:42:27.470             0.000             0.000
       449   13 Jun 2027 11:42:52.192   13 Jun 2027 11:42:55.902             3.710          1193.156
