uniorb/output/strategy_1/Camera/Camera_KinoSat_110403.txt

KinoSat_110403
-------------------------
    Access    *     Start Time (UTCG)     *     Stop Time (UTCG)  *   Duration (s) *   Data (Mbytes)
         1   01 Jun 2027 04:11:35.238   01 Jun 2027 04:13:31.568           116.330         58165.000
         2   01 Jun 2027 04:15:45.680   01 Jun 2027 04:16:12.013            26.333         13166.500
         3   01 Jun 2027 04:16:34.983   01 Jun 2027 04:16:55.750            20.767         10383.500
         4   01 Jun 2027 04:17:24.485   01 Jun 2027 04:17:48.430            23.945         11972.500
         5   01 Jun 2027 04:17:56.904   01 Jun 2027 04:17:58.971             2.067          1033.500
         6   01 Jun 2027 05:47:55.073   01 Jun 2027 05:51:00.498           185.425         92712.500
         7   01 Jun 2027 05:52:22.153   01 Jun 2027 05:52:51.113            28.960         14480.000
         8   01 Jun 2027 07:25:21.588   01 Jun 2027 07:28:12.219           170.631         85315.500
         9   01 Jun 2027 07:28:30.635   01 Jun 2027 07:28:38.571             7.936          3968.000
        10   01 Jun 2027 07:29:19.994   01 Jun 2027 07:29:28.214             8.220          4110.000
        11   01 Jun 2027 09:01:25.239   01 Jun 2027 09:03:24.451           119.212         59606.000
        12   01 Jun 2027 09:03:32.094   01 Jun 2027 09:03:33.387             1.293           646.500
        13   01 Jun 2027 09:04:11.523   01 Jun 2027 09:04:34.525            23.002         11501.000
        14   01 Jun 2027 09:05:17.244   01 Jun 2027 09:05:23.246             6.002          3001.000
        15   01 Jun 2027 09:05:40.741   01 Jun 2027 09:05:56.136            15.395          7697.500
        16   01 Jun 2027 09:05:59.246   01 Jun 2027 09:06:00.578             1.332           666.000
        17   02 Jun 2027 04:23:04.517   02 Jun 2027 04:25:31.938           147.421         73710.500
        18   02 Jun 2027 04:26:26.780   02 Jun 2027 04:30:20.228           233.448        116724.000
        19   02 Jun 2027 05:59:34.806   02 Jun 2027 06:01:48.586           133.780         66890.000
        20   02 Jun 2027 06:03:46.500   02 Jun 2027 06:03:52.951             6.451          3225.500
        21   02 Jun 2027 06:05:00.651   02 Jun 2027 06:05:58.650            57.999         28999.500
        22   02 Jun 2027 07:37:52.696   02 Jun 2027 07:40:40.687           167.991         83995.500
        23   02 Jun 2027 07:41:02.603   02 Jun 2027 07:41:25.884            23.281         11640.500
        24   02 Jun 2027 09:13:18.249   02 Jun 2027 09:15:42.662           144.413         72206.500
        25   02 Jun 2027 09:16:27.586   02 Jun 2027 09:16:35.309             7.723          3861.500
        26   02 Jun 2027 09:16:39.837   02 Jun 2027 09:16:50.865            11.028          5514.000
        27   02 Jun 2027 09:17:08.851   02 Jun 2027 09:17:12.319             3.468          1734.000
        28   02 Jun 2027 09:17:41.792   02 Jun 2027 09:17:43.251             1.459           729.500
        29   02 Jun 2027 09:17:50.355   02 Jun 2027 09:18:08.405            18.050          9025.000
        30   03 Jun 2027 03:00:00.000   03 Jun 2027 03:04:36.943           276.943        138471.500
        31   03 Jun 2027 04:34:48.430   03 Jun 2027 04:37:34.935           166.505         83252.500
        32   03 Jun 2027 04:38:27.268   03 Jun 2027 04:38:41.212            13.944          6972.000
        33   03 Jun 2027 04:39:29.774   03 Jun 2027 04:39:56.423            26.649         13324.500
        34   03 Jun 2027 04:40:53.777   03 Jun 2027 04:41:03.555             9.778          4889.000
        35   03 Jun 2027 04:41:34.160   03 Jun 2027 04:42:09.656            35.496         17748.000
        36   03 Jun 2027 04:42:20.713   03 Jun 2027 04:42:20.881             0.168            84.000
        37   03 Jun 2027 06:11:54.561   03 Jun 2027 06:14:14.294           139.733         69866.500
        38   03 Jun 2027 06:14:34.275   03 Jun 2027 06:14:34.886             0.611           305.500
        39   03 Jun 2027 06:15:14.833   03 Jun 2027 06:15:23.756             8.923          4461.500
        40   03 Jun 2027 06:15:25.238   03 Jun 2027 06:15:25.979             0.741           370.500
        41   03 Jun 2027 06:15:49.527   03 Jun 2027 06:15:57.003             7.476          3738.000
        42   03 Jun 2027 07:49:50.029   03 Jun 2027 07:52:34.034           164.005         82002.500
        43   03 Jun 2027 07:52:55.304   03 Jun 2027 07:53:14.402            19.098          9549.000
        44   03 Jun 2027 07:53:22.345   03 Jun 2027 07:53:25.713             3.368          1684.000
        45   03 Jun 2027 07:53:44.673   03 Jun 2027 07:53:48.209             3.536          1768.000
        46   03 Jun 2027 09:22:55.496   03 Jun 2027 09:24:48.615           113.119         56559.500
        47   03 Jun 2027 09:25:12.608   03 Jun 2027 09:25:41.398            28.790         14395.000
        48   03 Jun 2027 09:26:30.127   03 Jun 2027 09:26:47.275            17.148          8574.000
        49   03 Jun 2027 09:28:02.116   03 Jun 2027 09:28:09.463             7.347          3673.500
        50   03 Jun 2027 09:28:48.629   03 Jun 2027 09:28:59.270            10.641          5320.500
        51   04 Jun 2027 03:09:36.263   04 Jun 2027 03:11:33.285           117.022         58511.000
        52   04 Jun 2027 03:11:41.347   04 Jun 2027 03:14:54.973           193.626         96813.000
        53   04 Jun 2027 03:16:36.667   04 Jun 2027 03:16:59.355            22.688         11344.000
        54   04 Jun 2027 03:17:34.838   04 Jun 2027 03:17:34.939             0.101            50.500
        55   04 Jun 2027 03:17:41.430   04 Jun 2027 03:17:43.892             2.462          1231.000
        56   04 Jun 2027 04:47:05.932   04 Jun 2027 04:48:58.005           112.073         56036.500
        57   04 Jun 2027 04:50:02.844   04 Jun 2027 04:50:12.426             9.582          4791.000
        58   04 Jun 2027 04:50:53.475   04 Jun 2027 04:51:01.749             8.274          4137.000
        59   04 Jun 2027 04:53:45.591   04 Jun 2027 04:54:24.538            38.947         19473.500
        60   04 Jun 2027 06:23:50.609   04 Jun 2027 06:25:49.459           118.850         59425.000
        61   04 Jun 2027 06:26:39.385   04 Jun 2027 06:27:24.845            45.460         22730.000
        62   04 Jun 2027 06:28:12.547   04 Jun 2027 06:28:26.459            13.912          6956.000
        63   04 Jun 2027 06:29:16.886   04 Jun 2027 06:29:32.632            15.746          7873.000
        64   04 Jun 2027 06:29:57.649   04 Jun 2027 06:30:03.033             5.384          2692.000
        65   04 Jun 2027 06:30:06.856   04 Jun 2027 06:30:12.261             5.405          2702.500
        66   04 Jun 2027 08:01:49.326   04 Jun 2027 08:03:48.793           119.467         59733.500
        67   04 Jun 2027 08:05:01.671   04 Jun 2027 08:05:12.730            11.059          5529.500
        68   04 Jun 2027 08:05:44.687   04 Jun 2027 08:05:54.618             9.931          4965.500
        69   04 Jun 2027 09:35:26.854   04 Jun 2027 09:35:51.479            24.625         12312.500
        70   04 Jun 2027 09:36:57.997   04 Jun 2027 09:36:58.537             0.540           270.000
        71   04 Jun 2027 09:37:25.197   04 Jun 2027 09:37:50.716            25.519         12759.500
        72   04 Jun 2027 09:39:37.260   04 Jun 2027 09:39:49.982            12.722          6361.000
        73   04 Jun 2027 09:40:28.229   04 Jun 2027 09:40:33.607             5.378          2689.000
        74   04 Jun 2027 09:40:52.103   04 Jun 2027 09:41:06.235            14.132          7066.000
        75   04 Jun 2027 09:42:08.388   04 Jun 2027 09:42:10.531             2.143          1071.500
        76   05 Jun 2027 03:21:05.198   05 Jun 2027 03:24:42.169           216.971        108485.500
        77   05 Jun 2027 03:25:01.734   05 Jun 2027 03:25:19.282            17.548          8774.000
        78   05 Jun 2027 03:26:37.979   05 Jun 2027 03:26:49.519            11.540          5770.000
        79   05 Jun 2027 03:27:02.667   05 Jun 2027 03:27:17.695            15.028          7514.000
        80   05 Jun 2027 03:28:37.163   05 Jun 2027 03:29:09.189            32.026         16013.000
        81   05 Jun 2027 03:29:58.495   05 Jun 2027 03:30:14.266            15.771          7885.500
        82   05 Jun 2027 04:58:59.732   05 Jun 2027 05:01:24.739           145.007         72503.500
        83   05 Jun 2027 05:01:37.312   05 Jun 2027 05:01:46.980             9.668          4834.000
        84   05 Jun 2027 05:02:02.628   05 Jun 2027 05:02:05.628             3.000          1500.000
        85   05 Jun 2027 05:02:14.474   05 Jun 2027 05:02:34.790            20.316         10158.000
        86   05 Jun 2027 05:05:21.384   05 Jun 2027 05:05:48.097            26.713         13356.500
        87   05 Jun 2027 05:06:20.372   05 Jun 2027 05:06:25.120             4.748          2374.000
        88   05 Jun 2027 06:35:43.911   05 Jun 2027 06:38:09.944           146.033         73016.500
        89   05 Jun 2027 06:38:52.536   05 Jun 2027 06:39:04.062            11.526          5763.000
        90   05 Jun 2027 06:39:32.914   05 Jun 2027 06:39:42.633             9.719          4859.500
        91   05 Jun 2027 06:42:02.320   05 Jun 2027 06:42:27.082            24.762         12381.000
        92   05 Jun 2027 08:13:37.439   05 Jun 2027 08:14:56.812            79.373         39686.500
        93   05 Jun 2027 08:16:06.161   05 Jun 2027 08:16:13.710             7.549          3774.500
        94   05 Jun 2027 08:16:48.865   05 Jun 2027 08:16:50.262             1.397           698.500
        95   05 Jun 2027 08:16:56.589   05 Jun 2027 08:17:05.817             9.228          4614.000
        96   05 Jun 2027 08:17:43.249   05 Jun 2027 08:17:47.343             4.094          2047.000
        97   05 Jun 2027 08:17:53.848   05 Jun 2027 08:17:59.451             5.603          2801.500
        98   05 Jun 2027 09:49:35.332   05 Jun 2027 09:49:49.336            14.004          7002.000
        99   05 Jun 2027 09:50:14.637   05 Jun 2027 09:50:21.747             7.110          3555.000
       100   05 Jun 2027 09:51:12.274   05 Jun 2027 09:51:22.084             9.810          4905.000
       101   05 Jun 2027 09:52:02.626   05 Jun 2027 09:52:10.634             8.008          4004.000
       102   05 Jun 2027 09:52:18.735   05 Jun 2027 09:52:21.227             2.492          1246.000
       103   05 Jun 2027 09:52:56.270   05 Jun 2027 09:53:07.543            11.273          5636.500
       104   05 Jun 2027 09:53:37.828   05 Jun 2027 09:53:53.533            15.705          7852.500
       105   06 Jun 2027 03:33:58.207   06 Jun 2027 03:38:19.725           261.518        130759.000
       106   06 Jun 2027 03:39:04.627   06 Jun 2027 03:39:08.680             4.053          2026.500
       107   06 Jun 2027 03:39:09.990   06 Jun 2027 03:39:14.070             4.080          2040.000
       108   06 Jun 2027 03:39:47.011   06 Jun 2027 03:40:00.510            13.499          6749.500
       109   06 Jun 2027 03:40:19.834   06 Jun 2027 03:40:37.954            18.120          9060.000
       110   06 Jun 2027 03:41:37.913   06 Jun 2027 03:41:50.056            12.143          6071.500
       111   06 Jun 2027 03:42:28.351   06 Jun 2027 03:42:28.875             0.524           262.000
       112   06 Jun 2027 05:11:08.397   06 Jun 2027 05:13:51.762           163.365         81682.500
       113   06 Jun 2027 05:15:12.312   06 Jun 2027 05:15:36.043            23.731         11865.500
       114   06 Jun 2027 05:16:03.743   06 Jun 2027 05:16:13.324             9.581          4790.500
       115   06 Jun 2027 05:17:59.208   06 Jun 2027 05:18:22.366            23.158         11579.000
       116   06 Jun 2027 06:48:22.619   06 Jun 2027 06:50:35.437           132.818         66409.000
       117   06 Jun 2027 06:50:54.933   06 Jun 2027 06:51:12.730            17.797          8898.500
       118   06 Jun 2027 06:51:54.687   06 Jun 2027 06:52:07.160            12.473          6236.500
       119   06 Jun 2027 06:52:26.411   06 Jun 2027 06:52:28.907             2.496          1248.000
       120   06 Jun 2027 06:53:33.902   06 Jun 2027 06:53:50.602            16.700          8350.000
       121   06 Jun 2027 08:25:03.300   06 Jun 2027 08:25:44.731            41.431         20715.500
       122   06 Jun 2027 08:26:05.765   06 Jun 2027 08:26:11.428             5.663          2831.500
       123   06 Jun 2027 08:27:06.738   06 Jun 2027 08:27:29.194            22.456         11228.000
       124   06 Jun 2027 08:28:01.126   06 Jun 2027 08:28:03.348             2.222          1111.000
       125   06 Jun 2027 08:28:17.936   06 Jun 2027 08:28:21.721             3.785          1892.500
       126   06 Jun 2027 08:28:39.416   06 Jun 2027 08:28:45.188             5.772          2886.000
       127   06 Jun 2027 10:00:15.965   06 Jun 2027 10:00:29.737            13.772          6886.000
       128   06 Jun 2027 10:02:01.554   06 Jun 2027 10:02:05.636             4.082          2041.000
       129   06 Jun 2027 10:03:20.919   06 Jun 2027 10:03:50.310            29.391         14695.500
       130   06 Jun 2027 10:04:42.578   06 Jun 2027 10:04:57.588            15.010          7505.000
       131   07 Jun 2027 03:46:25.068   07 Jun 2027 03:51:06.019           280.951        140475.500
       132   07 Jun 2027 03:52:02.396   07 Jun 2027 03:52:12.797            10.401          5200.500
       133   07 Jun 2027 03:52:21.704   07 Jun 2027 03:52:38.191            16.487          8243.500
       134   07 Jun 2027 03:52:56.372   07 Jun 2027 03:52:56.372             0.000             0.000
       135   07 Jun 2027 03:53:26.141   07 Jun 2027 03:53:43.192            17.051          8525.500
       136   07 Jun 2027 03:54:24.273   07 Jun 2027 03:54:27.170             2.897          1448.500
       137   07 Jun 2027 05:23:32.871   07 Jun 2027 05:26:23.087           170.216         85108.000
       138   07 Jun 2027 05:28:23.699   07 Jun 2027 05:29:07.629            43.930         21965.000
       139   07 Jun 2027 05:30:00.885   07 Jun 2027 05:30:14.881            13.996          6998.000
       140   07 Jun 2027 07:00:30.769   07 Jun 2027 07:02:54.467           143.698         71849.000
       141   07 Jun 2027 07:03:17.760   07 Jun 2027 07:03:31.334            13.574          6787.000
       142   07 Jun 2027 07:03:51.728   07 Jun 2027 07:03:59.075             7.347          3673.500
       143   07 Jun 2027 07:04:49.145   07 Jun 2027 07:05:05.762            16.617          8308.500
       144   07 Jun 2027 08:37:18.024   07 Jun 2027 08:38:04.425            46.401         23200.500
       145   07 Jun 2027 08:39:01.987   07 Jun 2027 08:39:17.205            15.218          7609.000
       146   07 Jun 2027 08:39:29.165   07 Jun 2027 08:39:30.074             0.909           454.500
       147   07 Jun 2027 08:39:50.287   07 Jun 2027 08:39:54.696             4.409          2204.500
       148   07 Jun 2027 08:40:24.860   07 Jun 2027 08:40:32.758             7.898          3949.000
       149   07 Jun 2027 08:40:44.554   07 Jun 2027 08:40:59.427            14.873          7436.500
       150   07 Jun 2027 10:15:28.465   07 Jun 2027 10:15:32.629             4.164          2082.000
       151   07 Jun 2027 10:16:22.971   07 Jun 2027 10:16:29.042             6.071          3035.500
       152   08 Jun 2027 03:59:37.879   08 Jun 2027 04:04:22.319           284.440        142220.000
       153   08 Jun 2027 04:04:24.802   08 Jun 2027 04:04:29.884             5.082          2541.000
       154   08 Jun 2027 04:05:06.403   08 Jun 2027 04:05:23.586            17.183          8591.500
       155   08 Jun 2027 04:05:23.730   08 Jun 2027 04:05:37.118            13.388          6694.000
       156   08 Jun 2027 04:06:18.770   08 Jun 2027 04:06:27.135             8.365          4182.500
       157   08 Jun 2027 05:35:58.395   08 Jun 2027 05:38:45.967           167.572         83786.000
       158   08 Jun 2027 05:39:31.097   08 Jun 2027 05:39:44.092            12.995          6497.500
       159   08 Jun 2027 05:41:43.346   08 Jun 2027 05:41:45.962             2.616          1308.000
       160   08 Jun 2027 05:42:19.240   08 Jun 2027 05:42:20.857             1.617           808.500
       161   08 Jun 2027 07:13:32.438   08 Jun 2027 07:15:53.976           141.538         70769.000
       162   08 Jun 2027 07:15:58.490   08 Jun 2027 07:15:59.865             1.375           687.500
       163   08 Jun 2027 07:16:12.866   08 Jun 2027 07:16:21.088             8.222          4111.000
       164   08 Jun 2027 07:16:39.825   08 Jun 2027 07:16:43.164             3.339          1669.500
       165   08 Jun 2027 07:17:38.884   08 Jun 2027 07:17:45.935             7.051          3525.500
       166   08 Jun 2027 08:49:35.805   08 Jun 2027 08:50:03.988            28.183         14091.500
       167   08 Jun 2027 08:50:30.991   08 Jun 2027 08:50:56.052            25.061         12530.500
       168   08 Jun 2027 08:52:19.689   08 Jun 2027 08:52:30.202            10.513          5256.500
       169   08 Jun 2027 08:52:39.172   08 Jun 2027 08:52:50.014            10.842          5421.000
       170   08 Jun 2027 08:53:10.436   08 Jun 2027 08:53:14.814             4.378          2189.000
       171   09 Jun 2027 04:11:49.842   09 Jun 2027 04:16:45.817           295.975        147987.500
       172   09 Jun 2027 04:18:03.978   09 Jun 2027 04:18:19.671            15.693          7846.500
       173   09 Jun 2027 05:48:08.473   09 Jun 2027 05:51:15.845           187.372         93686.000
       174   09 Jun 2027 05:52:16.157   09 Jun 2027 05:52:36.325            20.168         10084.000
       175   09 Jun 2027 07:25:36.433   09 Jun 2027 07:27:53.295           136.862         68431.000
       176   09 Jun 2027 07:28:08.670   09 Jun 2027 07:28:21.347            12.677          6338.500
       177   09 Jun 2027 07:29:12.333   09 Jun 2027 07:29:24.098            11.765          5882.500
       178   09 Jun 2027 07:29:53.533   09 Jun 2027 07:30:08.999            15.466          7733.000
       179   09 Jun 2027 09:01:39.903   09 Jun 2027 09:02:09.397            29.494         14747.000
       180   09 Jun 2027 09:02:54.712   09 Jun 2027 09:03:09.900            15.188          7594.000
       181   09 Jun 2027 09:04:16.967   09 Jun 2027 09:04:26.426             9.459          4729.500
       182   09 Jun 2027 09:04:41.022   09 Jun 2027 09:04:47.129             6.107          3053.500
       183   09 Jun 2027 09:05:05.952   09 Jun 2027 09:05:09.116             3.164          1582.000
       184   09 Jun 2027 09:05:26.635   09 Jun 2027 09:05:31.795             5.160          2580.000
       185   09 Jun 2027 09:06:17.413   09 Jun 2027 09:06:32.695            15.282          7641.000
       186   10 Jun 2027 04:23:18.857   10 Jun 2027 04:29:40.933           382.076        191038.000
       187   10 Jun 2027 05:59:49.316   10 Jun 2027 06:02:54.721           185.405         92702.500
       188   10 Jun 2027 06:06:05.774   10 Jun 2027 06:06:13.331             7.557          3778.500
       189   10 Jun 2027 07:38:07.467   10 Jun 2027 07:40:20.453           132.986         66493.000
       190   10 Jun 2027 07:40:47.630   10 Jun 2027 07:41:14.575            26.945         13472.500
       191   10 Jun 2027 09:13:32.694   10 Jun 2027 09:14:24.418            51.724         25862.000
       192   10 Jun 2027 09:16:15.863   10 Jun 2027 09:16:42.310            26.447         13223.500
       193   10 Jun 2027 09:18:50.999   10 Jun 2027 09:18:55.851             4.852          2426.000
       194   11 Jun 2027 03:00:11.323   11 Jun 2027 03:04:15.165           243.842        121921.000
       195   11 Jun 2027 03:04:26.789   11 Jun 2027 03:04:27.019             0.230           115.000
       196   11 Jun 2027 03:04:34.165   11 Jun 2027 03:04:51.769            17.604          8802.000
       197   11 Jun 2027 04:35:03.157   11 Jun 2027 04:36:56.265           113.108         56554.000
       198   11 Jun 2027 04:37:07.715   11 Jun 2027 04:37:08.403             0.688           344.000
       199   11 Jun 2027 04:37:43.087   11 Jun 2027 04:37:54.280            11.193          5596.500
       200   11 Jun 2027 04:38:15.812   11 Jun 2027 04:38:27.794            11.982          5991.000
       201   11 Jun 2027 04:38:51.748   11 Jun 2027 04:38:51.849             0.101            50.500
       202   11 Jun 2027 04:39:02.604   11 Jun 2027 04:39:17.223            14.619          7309.500
       203   11 Jun 2027 04:40:04.221   11 Jun 2027 04:40:04.619             0.398           199.000
       204   11 Jun 2027 04:42:16.910   11 Jun 2027 04:42:35.559            18.649          9324.500
       205   11 Jun 2027 06:12:09.189   11 Jun 2027 06:14:49.680           160.491         80245.500
       206   11 Jun 2027 06:15:40.158   11 Jun 2027 06:15:48.072             7.914          3957.000
       207   11 Jun 2027 06:16:01.904   11 Jun 2027 06:16:05.089             3.185          1592.500
       208   11 Jun 2027 06:16:28.073   11 Jun 2027 06:17:06.559            38.486         19243.000
       209   11 Jun 2027 07:50:04.725   11 Jun 2027 07:52:01.609           116.884         58442.000
       210   11 Jun 2027 09:23:10.482   11 Jun 2027 09:23:46.289            35.807         17903.500
       211   11 Jun 2027 09:24:03.978   11 Jun 2027 09:24:12.505             8.527          4263.500
       212   11 Jun 2027 09:25:19.485   11 Jun 2027 09:25:30.339            10.854          5427.000
       213   11 Jun 2027 09:26:31.940   11 Jun 2027 09:27:03.511            31.571         15785.500
       214   11 Jun 2027 09:28:58.603   11 Jun 2027 09:29:13.590            14.987          7493.500
       215   11 Jun 2027 09:30:50.354   11 Jun 2027 09:30:59.293             8.939          4469.500
       216   12 Jun 2027 03:09:50.420   12 Jun 2027 03:11:48.095           117.675         58837.500
       217   12 Jun 2027 03:11:55.837   12 Jun 2027 03:13:39.116           103.279         51639.500
       218   12 Jun 2027 03:14:22.434   12 Jun 2027 03:14:36.355            13.921          6960.500
       219   12 Jun 2027 03:15:15.391   12 Jun 2027 03:15:23.991             8.600          4300.000
       220   12 Jun 2027 03:15:29.997   12 Jun 2027 03:16:14.714            44.717         22358.500
       221   12 Jun 2027 04:47:20.427   12 Jun 2027 04:48:59.297            98.870         49435.000
       222   12 Jun 2027 04:50:01.829   12 Jun 2027 04:50:04.402             2.573          1286.500
       223   12 Jun 2027 04:53:59.901   12 Jun 2027 04:54:39.128            39.227         19613.500
       224   12 Jun 2027 06:24:05.192   12 Jun 2027 06:27:12.247           187.055         93527.500
       225   12 Jun 2027 06:27:33.265   12 Jun 2027 06:27:39.649             6.384          3192.000
       226   12 Jun 2027 06:28:17.002   12 Jun 2027 06:28:21.127             4.125          2062.500
       227   12 Jun 2027 06:30:00.063   12 Jun 2027 06:30:17.503            17.440          8720.000
       228   12 Jun 2027 06:30:21.324   12 Jun 2027 06:30:38.694            17.370          8685.000
       229   12 Jun 2027 08:02:03.970   12 Jun 2027 08:03:27.660            83.690         41845.000
       230   12 Jun 2027 08:04:41.615   12 Jun 2027 08:04:49.829             8.214          4107.000
       231   12 Jun 2027 08:05:40.081   12 Jun 2027 08:05:53.270            13.189          6594.500
       232   12 Jun 2027 08:06:11.712   12 Jun 2027 08:06:13.071             1.359           679.500
       233   12 Jun 2027 09:35:41.484   12 Jun 2027 09:36:06.143            24.659         12329.500
       234   12 Jun 2027 09:36:33.327   12 Jun 2027 09:36:43.141             9.814          4907.000
       235   12 Jun 2027 09:37:40.142   12 Jun 2027 09:37:42.220             2.078          1039.000
       236   12 Jun 2027 09:38:04.967   12 Jun 2027 09:38:22.093            17.126          8563.000
       237   12 Jun 2027 09:39:05.500   12 Jun 2027 09:39:11.903             6.403          3201.500
       238   12 Jun 2027 09:39:35.259   12 Jun 2027 09:39:49.017            13.758          6879.000
       239   12 Jun 2027 09:41:05.753   12 Jun 2027 09:41:20.830            15.077          7538.500
       240   12 Jun 2027 09:42:03.035   12 Jun 2027 09:42:11.610             8.575          4287.500
       241   12 Jun 2027 09:42:56.281   12 Jun 2027 09:43:06.048             9.767          4883.500
       242   13 Jun 2027 03:21:19.628   13 Jun 2027 03:24:57.406           217.778        108889.000
       243   13 Jun 2027 03:25:16.720   13 Jun 2027 03:25:33.910            17.190          8595.000
       244   13 Jun 2027 03:26:52.592   13 Jun 2027 03:27:17.414            24.822         12411.000
       245   13 Jun 2027 03:28:32.260   13 Jun 2027 03:28:53.493            21.233         10616.500
       246   13 Jun 2027 03:30:12.925   13 Jun 2027 03:30:30.975            18.050          9025.000
       247   13 Jun 2027 04:59:14.417   13 Jun 2027 05:01:39.229           144.812         72406.000
       248   13 Jun 2027 05:02:21.444   13 Jun 2027 05:02:28.724             7.280          3640.000
       249   13 Jun 2027 05:03:21.132   13 Jun 2027 05:03:24.853             3.721          1860.500
       250   13 Jun 2027 05:03:55.135   13 Jun 2027 05:04:05.931            10.796          5398.000
       251   13 Jun 2027 05:04:44.291   13 Jun 2027 05:05:04.371            20.080         10040.000
       252   13 Jun 2027 05:06:13.230   13 Jun 2027 05:06:18.902             5.672          2836.000
       253   13 Jun 2027 06:35:58.841   13 Jun 2027 06:38:24.425           145.584         72792.000
       254   13 Jun 2027 06:39:08.749   13 Jun 2027 06:39:22.845            14.096          7048.000
       255   13 Jun 2027 06:40:12.825   13 Jun 2027 06:40:29.113            16.288          8144.000
       256   13 Jun 2027 06:42:16.875   13 Jun 2027 06:42:41.581            24.706         12353.000
       257   13 Jun 2027 08:13:51.997   13 Jun 2027 08:15:12.204            80.207         40103.500
       258   13 Jun 2027 08:16:20.479   13 Jun 2027 08:16:23.879             3.400          1700.000
       259   13 Jun 2027 08:16:42.318   13 Jun 2027 08:16:43.509             1.191           595.500
       260   13 Jun 2027 08:16:49.933   13 Jun 2027 08:16:55.753             5.820          2910.000
       261   13 Jun 2027 08:17:15.287   13 Jun 2027 08:17:21.924             6.637          3318.500
       262   13 Jun 2027 08:17:56.773   13 Jun 2027 08:18:14.035            17.262          8631.000
       263   13 Jun 2027 09:49:50.003   13 Jun 2027 09:50:04.659            14.656          7328.000
       264   13 Jun 2027 09:51:52.310   13 Jun 2027 09:52:17.278            24.968         12484.000
       265   13 Jun 2027 09:53:11.480   13 Jun 2027 09:53:24.137            12.657          6328.500
       266   13 Jun 2027 09:53:53.903   13 Jun 2027 09:54:09.450            15.547          7773.500
