uniorb/output/strategy_1/Camera/Camera_KinoSat_110708.txt

KinoSat_110708
-------------------------
    Access    *     Start Time (UTCG)     *     Stop Time (UTCG)  *   Duration (s) *   Data (Mbytes)
         1   01 Jun 2027 03:09:38.426   01 Jun 2027 03:10:29.692            51.266         25633.000
         2   01 Jun 2027 03:11:34.269   01 Jun 2027 03:11:34.269             0.000             0.000
         3   01 Jun 2027 03:12:13.872   01 Jun 2027 03:12:20.037             6.165          3082.500
         4   01 Jun 2027 03:12:47.740   01 Jun 2027 03:13:02.893            15.153          7576.500
         5   01 Jun 2027 03:13:27.124   01 Jun 2027 03:13:34.003             6.879          3439.500
         6   01 Jun 2027 03:14:13.261   01 Jun 2027 03:14:18.102             4.841          2420.500
         7   01 Jun 2027 04:44:59.319   01 Jun 2027 04:45:56.893            57.574         28787.000
         8   01 Jun 2027 04:46:30.400   01 Jun 2027 04:46:52.521            22.121         11060.500
         9   01 Jun 2027 04:47:00.269   01 Jun 2027 04:47:15.917            15.648          7824.000
        10   01 Jun 2027 04:48:41.811   01 Jun 2027 04:48:42.422             0.611           305.500
        11   01 Jun 2027 04:49:54.573   01 Jun 2027 04:50:07.172            12.599          6299.500
        12   01 Jun 2027 04:50:29.232   01 Jun 2027 04:50:35.350             6.118          3059.000
        13   01 Jun 2027 04:50:44.825   01 Jun 2027 04:50:51.728             6.903          3451.500
        14   01 Jun 2027 06:21:27.982   01 Jun 2027 06:22:54.263            86.281         43140.500
        15   01 Jun 2027 06:23:31.559   01 Jun 2027 06:23:45.434            13.875          6937.500
        16   01 Jun 2027 06:23:57.053   01 Jun 2027 06:23:57.362             0.309           154.500
        17   01 Jun 2027 06:24:14.210   01 Jun 2027 06:24:33.069            18.859          9429.500
        18   01 Jun 2027 06:24:43.372   01 Jun 2027 06:24:57.590            14.218          7109.000
        19   01 Jun 2027 06:28:58.284   01 Jun 2027 06:28:58.826             0.542           271.000
        20   01 Jun 2027 07:58:33.390   01 Jun 2027 08:00:46.512           133.122         66561.000
        21   01 Jun 2027 08:02:12.513   01 Jun 2027 08:02:37.367            24.854         12427.000
        22   01 Jun 2027 09:36:27.452   01 Jun 2027 09:38:13.055           105.603         52801.500
        23   01 Jun 2027 09:39:10.458   01 Jun 2027 09:39:17.715             7.257          3628.500
        24   01 Jun 2027 09:39:36.680   01 Jun 2027 09:39:46.739            10.059          5029.500
        25   01 Jun 2027 09:40:02.184   01 Jun 2027 09:40:02.547             0.363           181.500
        26   01 Jun 2027 09:40:14.634   01 Jun 2027 09:40:20.292             5.658          2829.000
        27   01 Jun 2027 11:09:35.256   01 Jun 2027 11:12:03.800           148.544         74272.000
        28   01 Jun 2027 11:16:20.929   01 Jun 2027 11:16:46.888            25.959         12979.500
        29   02 Jun 2027 03:21:14.327   02 Jun 2027 03:21:19.933             5.606          2803.000
        30   02 Jun 2027 03:22:15.129   02 Jun 2027 03:22:20.786             5.657          2828.500
        31   02 Jun 2027 03:23:32.865   02 Jun 2027 03:23:39.520             6.655          3327.500
        32   02 Jun 2027 03:25:36.178   02 Jun 2027 03:25:45.845             9.667          4833.500
        33   02 Jun 2027 04:56:08.364   02 Jun 2027 04:58:10.769           122.405         61202.500
        34   02 Jun 2027 04:58:17.238   02 Jun 2027 04:58:40.536            23.298         11649.000
        35   02 Jun 2027 05:02:25.350   02 Jun 2027 05:02:34.690             9.340          4670.000
        36   02 Jun 2027 05:03:09.885   02 Jun 2027 05:03:18.017             8.132          4066.000
        37   02 Jun 2027 05:04:23.024   02 Jun 2027 05:04:31.976             8.952          4476.000
        38   02 Jun 2027 06:33:41.802   02 Jun 2027 06:34:51.662            69.860         34930.000
        39   02 Jun 2027 06:35:46.967   02 Jun 2027 06:36:14.718            27.751         13875.500
        40   02 Jun 2027 06:36:39.564   02 Jun 2027 06:36:46.665             7.101          3550.500
        41   02 Jun 2027 06:37:08.322   02 Jun 2027 06:37:08.322             0.000             0.000
        42   02 Jun 2027 06:38:49.129   02 Jun 2027 06:39:13.002            23.873         11936.500
        43   02 Jun 2027 06:39:50.262   02 Jun 2027 06:39:51.693             1.431           715.500
        44   02 Jun 2027 08:10:24.275   02 Jun 2027 08:12:44.120           139.845         69922.500
        45   02 Jun 2027 08:14:17.622   02 Jun 2027 08:14:30.730            13.108          6554.000
        46   02 Jun 2027 08:16:44.417   02 Jun 2027 08:16:57.999            13.582          6791.000
        47   02 Jun 2027 09:48:27.348   02 Jun 2027 09:50:42.161           134.813         67406.500
        48   02 Jun 2027 11:22:04.329   02 Jun 2027 11:24:09.021           124.692         62346.000
        49   03 Jun 2027 03:32:43.802   03 Jun 2027 03:33:20.548            36.746         18373.000
        50   03 Jun 2027 05:07:39.006   03 Jun 2027 05:09:56.303           137.297         68648.500
        51   03 Jun 2027 05:10:45.940   03 Jun 2027 05:10:55.708             9.768          4884.000
        52   03 Jun 2027 05:14:16.769   03 Jun 2027 05:14:23.755             6.986          3493.000
        53   03 Jun 2027 05:14:47.246   03 Jun 2027 05:14:50.897             3.651          1825.500
        54   03 Jun 2027 05:16:33.327   03 Jun 2027 05:16:34.488             1.161           580.500
        55   03 Jun 2027 06:45:35.753   03 Jun 2027 06:46:09.331            33.578         16789.000
        56   03 Jun 2027 06:46:43.137   03 Jun 2027 06:47:47.282            64.145         32072.500
        57   03 Jun 2027 06:48:46.914   03 Jun 2027 06:49:14.197            27.283         13641.500
        58   03 Jun 2027 06:51:22.109   03 Jun 2027 06:51:41.856            19.747          9873.500
        59   03 Jun 2027 08:22:27.435   03 Jun 2027 08:24:00.236            92.801         46400.500
        60   03 Jun 2027 08:25:27.964   03 Jun 2027 08:26:21.168            53.204         26602.000
        61   03 Jun 2027 08:26:54.699   03 Jun 2027 08:27:02.041             7.342          3671.000
        62   03 Jun 2027 08:27:26.480   03 Jun 2027 08:27:35.728             9.248          4624.000
        63   03 Jun 2027 10:00:13.888   03 Jun 2027 10:01:36.333            82.445         41222.500
        64   03 Jun 2027 10:02:46.149   03 Jun 2027 10:02:58.315            12.166          5825.626
        65   03 Jun 2027 10:03:20.336   03 Jun 2027 10:03:20.734             0.398           199.000
        66   03 Jun 2027 10:04:13.769   03 Jun 2027 10:04:19.400             5.631          1883.281
        67   03 Jun 2027 10:04:32.475   03 Jun 2027 10:04:33.425             0.950           408.594
        68   03 Jun 2027 11:36:13.375   03 Jun 2027 11:36:18.507             5.132          2382.500
        69   03 Jun 2027 11:37:07.842   03 Jun 2027 11:37:12.546             4.704           859.844
        70   03 Jun 2027 11:37:59.358   03 Jun 2027 11:38:02.275             2.917          1192.750
        71   03 Jun 2027 11:38:43.422   03 Jun 2027 11:38:43.422             0.000             0.000
        72   03 Jun 2027 11:39:13.391   03 Jun 2027 11:39:19.385             5.994          2222.375
        73   03 Jun 2027 11:40:20.622   03 Jun 2027 11:40:26.098             5.476          1913.656
        74   04 Jun 2027 03:46:46.938   04 Jun 2027 03:47:10.494            23.556         11778.000
        75   04 Jun 2027 03:48:31.793   04 Jun 2027 03:48:31.793             0.000             0.000
        76   04 Jun 2027 03:48:33.635   04 Jun 2027 03:48:36.917             3.282          1641.000
        77   04 Jun 2027 03:48:43.860   04 Jun 2027 03:48:53.110             9.250          4625.000
        78   04 Jun 2027 03:49:43.754   04 Jun 2027 03:49:48.667             4.913          2456.500
        79   04 Jun 2027 03:50:13.512   04 Jun 2027 03:50:34.991            21.479         10739.500
        80   04 Jun 2027 05:20:33.029   04 Jun 2027 05:22:40.322           127.293         63646.500
        81   04 Jun 2027 05:27:46.780   04 Jun 2027 05:28:11.969            25.189         12594.500
        82   04 Jun 2027 06:57:55.826   04 Jun 2027 06:58:34.479            38.653         19326.500
        83   04 Jun 2027 06:59:47.348   04 Jun 2027 07:01:16.134            88.786         44393.000
        84   04 Jun 2027 07:02:03.409   04 Jun 2027 07:02:18.989            15.580          7790.000
        85   04 Jun 2027 07:02:31.068   04 Jun 2027 07:02:36.267             5.199          2599.500
        86   04 Jun 2027 08:35:00.411   04 Jun 2027 08:35:50.134            49.723         24449.499
        87   04 Jun 2027 08:37:09.654   04 Jun 2027 08:37:20.553            10.899          2253.062
        88   04 Jun 2027 08:38:31.280   04 Jun 2027 08:38:38.303             7.023          2195.906
        89   04 Jun 2027 08:39:24.189   04 Jun 2027 08:39:24.189             0.000             0.000
        90   04 Jun 2027 08:40:10.996   04 Jun 2027 08:40:17.562             6.566          2896.656
        91   04 Jun 2027 10:11:44.663   04 Jun 2027 10:12:03.821            19.158          9455.937
        92   04 Jun 2027 10:12:35.731   04 Jun 2027 10:12:40.683             4.952           997.187
        93   04 Jun 2027 10:13:10.320   04 Jun 2027 10:13:11.303             0.983           491.500
        94   04 Jun 2027 10:13:17.127   04 Jun 2027 10:13:19.082             1.955           414.813
        95   04 Jun 2027 10:14:12.675   04 Jun 2027 10:14:24.750            12.075          1374.969
        96   04 Jun 2027 10:15:04.237   04 Jun 2027 10:15:08.079             3.842          1002.000
        97   04 Jun 2027 10:15:25.882   04 Jun 2027 10:15:27.922             2.040           101.250
        98   04 Jun 2027 10:15:43.829   04 Jun 2027 10:15:46.566             2.737           497.094
        99   04 Jun 2027 10:15:50.822   04 Jun 2027 10:15:51.124             0.302           133.000
       100   04 Jun 2027 11:47:00.530   04 Jun 2027 11:47:09.570             9.040          3158.562
       101   04 Jun 2027 11:49:09.341   04 Jun 2027 11:49:14.811             5.470          2306.188
       102   04 Jun 2027 11:49:18.971   04 Jun 2027 11:49:20.028             1.057           130.000
       103   04 Jun 2027 11:49:50.455   04 Jun 2027 11:49:54.992             4.537           950.844
       104   04 Jun 2027 11:50:11.761   04 Jun 2027 11:50:11.761             0.000             0.000
       105   04 Jun 2027 11:50:35.938   04 Jun 2027 11:50:40.388             4.450          1093.313
       106   04 Jun 2027 11:50:48.159   04 Jun 2027 11:50:49.260             1.101           153.531
       107   05 Jun 2027 03:59:01.182   05 Jun 2027 03:59:53.278            52.096         26048.000
       108   05 Jun 2027 04:00:02.778   05 Jun 2027 04:00:02.854             0.076            38.000
       109   05 Jun 2027 04:00:05.879   05 Jun 2027 04:00:05.879             0.000             0.000
       110   05 Jun 2027 04:02:28.671   05 Jun 2027 04:02:35.647             6.976          3488.000
       111   05 Jun 2027 05:31:18.104   05 Jun 2027 05:31:36.973            18.869          9434.500
       112   05 Jun 2027 05:33:05.197   05 Jun 2027 05:35:14.732           129.535         64767.500
       113   05 Jun 2027 05:35:44.381   05 Jun 2027 05:35:45.099             0.718           359.000
       114   05 Jun 2027 05:37:25.298   05 Jun 2027 05:37:26.289             0.991           495.500
       115   05 Jun 2027 05:39:31.763   05 Jun 2027 05:39:39.292             7.529          3764.500
       116   05 Jun 2027 05:40:15.207   05 Jun 2027 05:40:17.723             2.516          1258.000
       117   05 Jun 2027 05:40:50.781   05 Jun 2027 05:40:53.249             2.468          1234.000
       118   05 Jun 2027 05:41:00.714   05 Jun 2027 05:41:03.322             2.608          1304.000
       119   05 Jun 2027 07:10:09.661   05 Jun 2027 07:12:20.502           130.841         65413.750
       120   05 Jun 2027 07:13:50.789   05 Jun 2027 07:13:59.142             8.353          2538.125
       121   05 Jun 2027 07:14:31.806   05 Jun 2027 07:14:34.482             2.676          1020.750
       122   05 Jun 2027 07:15:49.917   05 Jun 2027 07:15:54.952             5.035          2357.344
       123   05 Jun 2027 08:47:05.844   05 Jun 2027 08:47:32.972            27.128         13563.156
       124   05 Jun 2027 08:48:22.152   05 Jun 2027 08:48:27.794             5.642          1152.125
       125   05 Jun 2027 08:48:37.166   05 Jun 2027 08:48:37.435             0.269           134.500
       126   05 Jun 2027 08:48:51.289   05 Jun 2027 08:48:54.209             2.920           535.344
       127   05 Jun 2027 08:49:24.954   05 Jun 2027 08:49:27.806             2.852           172.781
       128   05 Jun 2027 08:50:15.978   05 Jun 2027 08:50:23.397             7.419          1419.969
       129   05 Jun 2027 08:50:34.424   05 Jun 2027 08:50:34.424             0.000             0.000
       130   05 Jun 2027 08:50:56.178   05 Jun 2027 08:51:00.930             4.752          1024.406
       131   05 Jun 2027 08:51:27.142   05 Jun 2027 08:51:29.721             2.579           740.906
       132   05 Jun 2027 08:51:42.230   05 Jun 2027 08:51:45.353             3.123           297.406
       133   05 Jun 2027 10:23:52.446   05 Jun 2027 10:24:13.440            20.994          8892.594
       134   05 Jun 2027 10:24:44.772   05 Jun 2027 10:24:47.007             2.235           684.531
       135   05 Jun 2027 10:24:49.269   05 Jun 2027 10:24:51.135             1.866            70.688
       136   05 Jun 2027 10:25:07.295   05 Jun 2027 10:25:09.428             2.133           220.406
       137   05 Jun 2027 10:25:54.993   05 Jun 2027 10:25:59.160             4.167          1319.813
       138   05 Jun 2027 10:26:01.208   05 Jun 2027 10:26:01.378             0.170            64.000
       139   05 Jun 2027 10:26:19.831   05 Jun 2027 10:26:26.571             6.740           576.656
       140   05 Jun 2027 10:26:51.033   05 Jun 2027 10:26:52.708             1.675           623.937
       141   05 Jun 2027 10:27:24.618   05 Jun 2027 10:27:27.182             2.564           246.594
       142   05 Jun 2027 10:27:59.755   05 Jun 2027 10:28:00.569             0.814           407.000
       143   05 Jun 2027 10:28:31.020   05 Jun 2027 10:28:34.014             2.994          1338.500
       144   06 Jun 2027 04:11:11.698   06 Jun 2027 04:12:02.065            50.367         25183.500
       145   06 Jun 2027 04:12:23.675   06 Jun 2027 04:12:28.977             5.302          2651.000
       146   06 Jun 2027 04:13:56.353   06 Jun 2027 04:14:10.967            14.614          7307.000
       147   06 Jun 2027 04:14:38.283   06 Jun 2027 04:14:38.283             0.000             0.000
       148   06 Jun 2027 05:46:16.581   06 Jun 2027 05:48:44.109           147.528         73764.000
       149   06 Jun 2027 05:49:47.136   06 Jun 2027 05:49:47.136             0.000             0.000
       150   06 Jun 2027 05:51:51.939   06 Jun 2027 05:52:01.670             9.731          4865.500
       151   06 Jun 2027 05:52:55.000   06 Jun 2027 05:53:04.431             9.431          4715.500
       152   06 Jun 2027 07:22:38.302   06 Jun 2027 07:24:05.855            87.553         43776.500
       153   06 Jun 2027 07:24:13.745   06 Jun 2027 07:24:40.685            26.940         12889.500
       154   06 Jun 2027 07:25:22.495   06 Jun 2027 07:25:30.682             8.187          1290.469
       155   06 Jun 2027 07:25:40.230   06 Jun 2027 07:25:41.400             1.170           298.375
       156   06 Jun 2027 07:26:27.061   06 Jun 2027 07:26:30.047             2.986          1426.906
       157   06 Jun 2027 07:27:16.692   06 Jun 2027 07:27:17.057             0.365           182.500
       158   06 Jun 2027 07:28:12.720   06 Jun 2027 07:28:20.978             8.258          3013.156
       159   06 Jun 2027 09:00:08.876   06 Jun 2027 09:00:32.367            23.491         11632.000
       160   06 Jun 2027 09:01:46.867   06 Jun 2027 09:01:51.920             5.053          2319.219
       161   06 Jun 2027 09:02:06.696   06 Jun 2027 09:02:10.769             4.073           297.187
       162   06 Jun 2027 09:02:23.070   06 Jun 2027 09:02:24.346             1.276           191.406
       163   06 Jun 2027 09:03:23.409   06 Jun 2027 09:03:28.567             5.158          1845.719
       164   06 Jun 2027 09:03:52.866   06 Jun 2027 09:03:54.536             1.670           671.313
       165   06 Jun 2027 10:36:13.466   06 Jun 2027 10:36:29.984            16.518          7977.656
       166   06 Jun 2027 10:36:46.260   06 Jun 2027 10:36:50.620             4.360           435.500
       167   06 Jun 2027 10:36:50.988   06 Jun 2027 10:36:53.216             2.228             7.125
       168   06 Jun 2027 10:37:14.308   06 Jun 2027 10:37:15.069             0.761           327.250
       169   06 Jun 2027 10:37:39.097   06 Jun 2027 10:37:39.927             0.830           358.625
       170   06 Jun 2027 10:38:04.242   06 Jun 2027 10:38:07.712             3.470           759.844
       171   06 Jun 2027 10:38:38.329   06 Jun 2027 10:38:41.900             3.571           956.781
       172   06 Jun 2027 10:38:50.218   06 Jun 2027 10:38:51.107             0.889            32.406
       173   06 Jun 2027 10:38:55.249   06 Jun 2027 10:39:00.492             5.243            20.062
       174   06 Jun 2027 10:39:21.838   06 Jun 2027 10:39:25.641             3.803           383.094
       175   06 Jun 2027 10:39:33.573   06 Jun 2027 10:39:44.740            11.167           230.125
       176   06 Jun 2027 10:40:20.910   06 Jun 2027 10:40:23.254             2.344          1021.375
       177   07 Jun 2027 04:23:53.210   07 Jun 2027 04:24:02.853             9.643          4821.500
       178   07 Jun 2027 04:24:47.069   07 Jun 2027 04:26:17.994            90.925         45462.500
       179   07 Jun 2027 05:58:26.612   07 Jun 2027 06:00:21.176           114.564         57282.000
       180   07 Jun 2027 06:00:31.936   07 Jun 2027 06:00:35.809             3.873          1936.500
       181   07 Jun 2027 06:00:46.838   07 Jun 2027 06:00:54.741             7.903          3951.500
       182   07 Jun 2027 06:04:07.618   07 Jun 2027 06:04:07.618             0.000             0.000
       183   07 Jun 2027 06:04:35.496   07 Jun 2027 06:04:41.805             6.309          3154.500
       184   07 Jun 2027 07:34:42.250   07 Jun 2027 07:35:32.234            49.984         24992.000
       185   07 Jun 2027 07:35:53.134   07 Jun 2027 07:36:59.737            66.603         33301.500
       186   07 Jun 2027 07:38:21.144   07 Jun 2027 07:38:26.236             5.092          2546.000
       187   07 Jun 2027 07:39:09.797   07 Jun 2027 07:39:19.317             9.520          4220.562
       188   07 Jun 2027 07:39:38.182   07 Jun 2027 07:39:40.342             2.160           467.188
       189   07 Jun 2027 07:40:25.012   07 Jun 2027 07:40:30.060             5.048          1314.625
       190   07 Jun 2027 09:12:14.389   07 Jun 2027 09:12:43.344            28.955         12654.969
       191   07 Jun 2027 09:12:57.413   07 Jun 2027 09:13:01.323             3.910           101.156
       192   07 Jun 2027 09:13:05.642   07 Jun 2027 09:13:05.955             0.313           134.969
       193   07 Jun 2027 09:13:35.507   07 Jun 2027 09:13:43.568             8.061           670.125
       194   07 Jun 2027 09:13:48.647   07 Jun 2027 09:13:52.379             3.732            17.281
       195   07 Jun 2027 09:14:41.909   07 Jun 2027 09:14:47.283             5.374          1129.375
       196   07 Jun 2027 09:15:43.555   07 Jun 2027 09:15:49.305             5.750          1575.906
       197   07 Jun 2027 10:48:15.673   07 Jun 2027 10:48:30.042            14.369          6193.375
       198   07 Jun 2027 10:48:44.737   07 Jun 2027 10:48:44.737             0.000             0.000
       199   07 Jun 2027 10:48:49.812   07 Jun 2027 10:48:52.051             2.239           223.813
       200   07 Jun 2027 10:49:37.817   07 Jun 2027 10:49:42.240             4.423          1430.188
       201   07 Jun 2027 10:50:08.810   07 Jun 2027 10:50:10.304             1.494           696.250
       202   07 Jun 2027 10:50:57.275   07 Jun 2027 10:50:58.845             1.570           744.812
       203   07 Jun 2027 10:51:33.102   07 Jun 2027 10:51:37.237             4.135           973.313
       204   07 Jun 2027 10:52:14.275   07 Jun 2027 10:52:19.477             5.202          1157.438
       205   07 Jun 2027 10:52:49.407   07 Jun 2027 10:52:53.419             4.012           740.125
       206   07 Jun 2027 10:53:06.510   07 Jun 2027 10:53:08.782             2.272           400.594
       207   08 Jun 2027 03:00:00.000   08 Jun 2027 03:00:15.486            15.486          7743.000
       208   08 Jun 2027 04:34:59.956   08 Jun 2027 04:36:43.089           103.133         51566.500
       209   08 Jun 2027 04:38:27.737   08 Jun 2027 04:38:37.918            10.181          5090.500
       210   08 Jun 2027 04:38:48.408   08 Jun 2027 04:38:59.736            11.328          5664.000
       211   08 Jun 2027 06:09:51.263   08 Jun 2027 06:11:12.062            80.799         40399.500
       212   08 Jun 2027 06:11:16.399   08 Jun 2027 06:11:22.507             6.108          3054.000
       213   08 Jun 2027 06:11:56.636   08 Jun 2027 06:12:03.115             6.479          3239.500
       214   08 Jun 2027 06:12:42.059   08 Jun 2027 06:12:43.918             1.859           929.500
       215   08 Jun 2027 06:13:06.170   08 Jun 2027 06:13:17.380            11.210          5605.000
       216   08 Jun 2027 06:15:40.957   08 Jun 2027 06:15:40.957             0.000             0.000
       217   08 Jun 2027 06:16:37.273   08 Jun 2027 06:16:51.672            14.399          7199.500
       218   08 Jun 2027 07:46:26.876   08 Jun 2027 07:48:21.199           114.323         56667.781
       219   08 Jun 2027 07:48:54.952   08 Jun 2027 07:48:57.727             2.775          1054.781
       220   08 Jun 2027 07:50:12.672   08 Jun 2027 07:50:18.102             5.430          2240.281
       221   08 Jun 2027 07:50:41.706   08 Jun 2027 07:50:44.864             3.158           526.313
       222   08 Jun 2027 07:51:18.288   08 Jun 2027 07:51:19.841             1.553           776.500
       223   08 Jun 2027 07:52:21.259   08 Jun 2027 07:52:27.220             5.961          2187.313
       224   08 Jun 2027 09:24:44.481   08 Jun 2027 09:25:05.561            21.080         10433.437
       225   08 Jun 2027 09:25:42.286   08 Jun 2027 09:25:47.906             5.620           970.375
       226   08 Jun 2027 09:26:19.710   08 Jun 2027 09:26:21.641             1.931           912.437
       227   08 Jun 2027 09:26:44.151   08 Jun 2027 09:26:47.285             3.134           662.375
       228   08 Jun 2027 09:27:36.299   08 Jun 2027 09:27:41.217             4.918          1415.969
       229   08 Jun 2027 09:27:58.290   08 Jun 2027 09:27:59.459             1.169           509.531
       230   08 Jun 2027 09:28:24.964   08 Jun 2027 09:28:27.873             2.909           797.031
       231   08 Jun 2027 10:58:44.185   08 Jun 2027 10:58:58.116            13.931          6944.687
       232   08 Jun 2027 11:00:04.374   08 Jun 2027 11:00:06.919             2.545          1081.906
       233   08 Jun 2027 11:00:35.300   08 Jun 2027 11:00:41.109             5.809           837.844
       234   08 Jun 2027 11:00:53.277   08 Jun 2027 11:00:54.357             1.080           346.313
       235   08 Jun 2027 11:01:58.968   08 Jun 2027 11:02:03.709             4.741          1787.563
       236   08 Jun 2027 11:02:08.767   08 Jun 2027 11:02:09.912             1.145           115.594
       237   08 Jun 2027 11:02:56.416   08 Jun 2027 11:02:58.752             2.336          1168.000
       238   08 Jun 2027 11:03:58.889   08 Jun 2027 11:04:03.295             4.406          2164.531
       239   08 Jun 2027 11:05:17.731   08 Jun 2027 11:05:22.186             4.455          2167.750
       240   08 Jun 2027 11:05:24.545   08 Jun 2027 11:05:24.784             0.239            16.469
       241   09 Jun 2027 03:09:53.111   09 Jun 2027 03:10:08.703            15.592          7796.000
       242   09 Jun 2027 03:11:28.732   09 Jun 2027 03:11:32.326             3.594          1797.000
       243   09 Jun 2027 03:12:34.541   09 Jun 2027 03:12:34.541             0.000             0.000
       244   09 Jun 2027 03:13:05.642   09 Jun 2027 03:13:12.971             7.329          3664.500
       245   09 Jun 2027 03:13:41.975   09 Jun 2027 03:13:48.617             6.642          3321.000
       246   09 Jun 2027 04:45:13.255   09 Jun 2027 04:46:11.859            58.604         29302.000
       247   09 Jun 2027 04:46:44.995   09 Jun 2027 04:48:00.783            75.788         37894.000
       248   09 Jun 2027 04:50:22.298   09 Jun 2027 04:50:22.298             0.000             0.000
       249   09 Jun 2027 04:50:40.344   09 Jun 2027 04:50:41.660             1.316           658.000
       250   09 Jun 2027 04:50:51.778   09 Jun 2027 04:51:06.925            15.147          7573.500
       251   09 Jun 2027 06:21:43.093   09 Jun 2027 06:22:52.147            69.054         34527.000
       252   09 Jun 2027 06:23:05.696   09 Jun 2027 06:23:08.854             3.158          1579.000
       253   09 Jun 2027 06:23:59.198   09 Jun 2027 06:24:26.592            27.394         13697.000
       254   09 Jun 2027 06:26:19.990   09 Jun 2027 06:26:40.377            20.387         10193.500
       255   09 Jun 2027 06:29:13.061   09 Jun 2027 06:29:13.627             0.566           283.000
       256   09 Jun 2027 07:58:47.939   09 Jun 2027 08:00:06.940            79.001         37661.750
       257   09 Jun 2027 08:01:28.203   09 Jun 2027 08:01:29.163             0.960           480.000
       258   09 Jun 2027 08:01:38.925   09 Jun 2027 08:01:38.925             0.000             0.000
       259   09 Jun 2027 08:02:24.793   09 Jun 2027 08:02:29.693             4.900          2450.000
       260   09 Jun 2027 08:02:58.214   09 Jun 2027 08:02:58.214             0.000             0.000
       261   09 Jun 2027 08:03:11.528   09 Jun 2027 08:03:14.921             3.393          1535.719
       262   09 Jun 2027 08:03:37.935   09 Jun 2027 08:03:41.837             3.902           695.563
       263   09 Jun 2027 08:03:54.319   09 Jun 2027 08:03:56.565             2.246           390.063
       264   09 Jun 2027 08:04:17.810   09 Jun 2027 08:04:18.121             0.311           155.500
       265   09 Jun 2027 08:04:37.874   09 Jun 2027 08:04:38.370             0.496           248.000
       266   09 Jun 2027 08:04:54.101   09 Jun 2027 08:04:54.356             0.255           127.500
       267   09 Jun 2027 09:36:42.142   09 Jun 2027 09:37:03.060            20.918         10386.093
       268   09 Jun 2027 09:37:28.800   09 Jun 2027 09:37:33.733             4.933           200.125
       269   09 Jun 2027 09:38:01.007   09 Jun 2027 09:38:03.230             2.223           852.313
       270   09 Jun 2027 09:38:22.044   09 Jun 2027 09:38:24.645             2.601           493.187
       271   09 Jun 2027 09:39:25.564   09 Jun 2027 09:39:30.134             4.570          1802.938
       272   09 Jun 2027 09:40:37.251   09 Jun 2027 09:40:41.798             4.547          2097.406
       273   09 Jun 2027 11:09:50.533   09 Jun 2027 11:10:07.124            16.591          7308.719
       274   09 Jun 2027 11:10:59.735   09 Jun 2027 11:11:04.262             4.527           312.875
       275   09 Jun 2027 11:11:37.834   09 Jun 2027 11:11:39.392             1.558           385.031
       276   09 Jun 2027 11:11:42.552   09 Jun 2027 11:11:45.438             2.886            98.750
       277   09 Jun 2027 11:12:18.757   09 Jun 2027 11:12:21.134             2.377           901.656
       278   09 Jun 2027 11:12:35.363   09 Jun 2027 11:12:38.263             2.900           197.687
       279   09 Jun 2027 11:13:19.244   09 Jun 2027 11:13:24.088             4.844          1280.656
       280   09 Jun 2027 11:14:00.221   09 Jun 2027 11:14:02.404             2.183          1021.906
       281   09 Jun 2027 11:14:31.329   09 Jun 2027 11:14:33.647             2.318           629.688
       282   09 Jun 2027 11:14:46.124   09 Jun 2027 11:14:48.303             2.179           310.938
       283   09 Jun 2027 11:15:17.191   09 Jun 2027 11:15:18.905             1.714           753.437
       284   09 Jun 2027 11:16:35.260   09 Jun 2027 11:16:39.741             4.481          1484.969
       285   10 Jun 2027 03:21:28.930   10 Jun 2027 03:22:27.071            58.141         29070.500
       286   10 Jun 2027 03:26:15.911   10 Jun 2027 03:26:15.911             0.000             0.000
       287   10 Jun 2027 04:56:22.820   10 Jun 2027 04:58:24.119           121.299         60649.500
       288   10 Jun 2027 04:59:54.918   10 Jun 2027 04:59:57.343             2.425          1212.500
       289   10 Jun 2027 05:01:00.659   10 Jun 2027 05:01:09.871             9.212          4606.000
       290   10 Jun 2027 05:01:16.491   10 Jun 2027 05:01:18.241             1.750           875.000
       291   10 Jun 2027 05:01:56.666   10 Jun 2027 05:02:08.723            12.057          6028.500
       292   10 Jun 2027 05:04:24.237   10 Jun 2027 05:04:32.465             8.228          4114.000
       293   10 Jun 2027 05:04:39.663   10 Jun 2027 05:04:49.375             9.712          4856.000
       294   10 Jun 2027 06:33:56.402   10 Jun 2027 06:35:08.761            72.359         36179.500
       295   10 Jun 2027 06:36:03.002   10 Jun 2027 06:36:34.516            31.514         15757.000
       296   10 Jun 2027 06:37:37.912   10 Jun 2027 06:37:57.286            19.374          9687.000
       297   10 Jun 2027 06:41:16.642   10 Jun 2027 06:41:16.980             0.338           169.000
       298   10 Jun 2027 08:10:38.883   10 Jun 2027 08:11:34.162            55.279         26852.344
       299   10 Jun 2027 08:12:28.239   10 Jun 2027 08:12:33.378             5.139          1480.281
       300   10 Jun 2027 08:13:10.096   10 Jun 2027 08:13:12.492             2.396          1036.000
       301   10 Jun 2027 08:14:25.847   10 Jun 2027 08:14:31.133             5.286          2292.344
       302   10 Jun 2027 08:14:34.873   10 Jun 2027 08:14:38.075             3.202            73.406
       303   10 Jun 2027 08:14:46.377   10 Jun 2027 08:14:46.698             0.321            42.781
       304   10 Jun 2027 08:15:35.945   10 Jun 2027 08:15:38.991             3.046          1267.281
       305   10 Jun 2027 08:15:44.942   10 Jun 2027 08:15:45.859             0.917           102.313
       306   10 Jun 2027 08:16:24.434   10 Jun 2027 08:16:29.076             4.642          1101.781
       307   10 Jun 2027 09:48:42.016   10 Jun 2027 09:49:01.097            19.081          9540.500
       308   10 Jun 2027 09:49:23.409   10 Jun 2027 09:49:25.515             2.106          1010.656
       309   10 Jun 2027 09:49:47.299   10 Jun 2027 09:49:48.546             1.247           248.344
       310   10 Jun 2027 09:50:14.066   10 Jun 2027 09:50:17.642             3.576           797.500
       311   10 Jun 2027 09:50:28.447   10 Jun 2027 09:50:28.447             0.000             0.000
       312   10 Jun 2027 09:51:18.640   10 Jun 2027 09:51:24.507             5.867          1784.844
       313   10 Jun 2027 09:51:54.719   10 Jun 2027 09:51:57.400             2.681           924.844
       314   10 Jun 2027 09:52:01.168   10 Jun 2027 09:52:02.569             1.401            85.969
       315   10 Jun 2027 09:52:04.034   10 Jun 2027 09:52:04.629             0.595            22.906
       316   10 Jun 2027 09:52:26.426   10 Jun 2027 09:52:26.544             0.118            59.000
       317   10 Jun 2027 11:22:19.281   10 Jun 2027 11:22:22.138             2.857          1221.906
       318   10 Jun 2027 11:23:48.290   10 Jun 2027 11:23:54.505             6.215          2501.469
       319   10 Jun 2027 11:24:58.944   10 Jun 2027 11:25:04.613             5.669          2013.719
       320   10 Jun 2027 11:25:17.705   10 Jun 2027 11:25:18.788             1.083           409.125
       321   10 Jun 2027 11:25:38.465   10 Jun 2027 11:25:38.465             0.000             0.000
       322   10 Jun 2027 11:26:12.583   10 Jun 2027 11:26:18.572             5.989          1615.531
       323   10 Jun 2027 11:26:43.466   10 Jun 2027 11:26:43.466             0.000             0.000
       324   10 Jun 2027 11:27:08.234   10 Jun 2027 11:27:18.213             9.979          1155.188
       325   10 Jun 2027 11:27:43.994   10 Jun 2027 11:27:43.994             0.000             0.000
       326   10 Jun 2027 11:27:48.866   10 Jun 2027 11:27:49.756             0.890           445.000
       327   10 Jun 2027 11:29:30.570   10 Jun 2027 11:29:37.928             7.358          3611.125
       328   11 Jun 2027 03:32:58.178   11 Jun 2027 03:33:40.229            42.051         21025.500
       329   11 Jun 2027 03:37:33.256   11 Jun 2027 03:37:43.363            10.107          5053.500
       330   11 Jun 2027 05:07:53.477   11 Jun 2027 05:10:10.673           137.196         68598.000
       331   11 Jun 2027 05:11:00.690   11 Jun 2027 05:11:09.918             9.228          4614.000
       332   11 Jun 2027 05:11:26.908   11 Jun 2027 05:11:35.724             8.816          4408.000
       333   11 Jun 2027 05:16:42.318   11 Jun 2027 05:16:42.318             0.000             0.000
       334   11 Jun 2027 05:17:18.069   11 Jun 2027 05:17:19.375             1.306           653.000
       335   11 Jun 2027 06:45:50.313   11 Jun 2027 06:47:40.628           110.315         55157.500
       336   11 Jun 2027 06:48:24.988   11 Jun 2027 06:48:29.636             4.648          2324.000
       337   11 Jun 2027 06:48:42.596   11 Jun 2027 06:48:50.897             8.301          4150.500
       338   11 Jun 2027 06:48:55.617   11 Jun 2027 06:49:01.841             6.224          3112.000
       339   11 Jun 2027 06:51:02.913   11 Jun 2027 06:51:22.717            19.804          9902.000
       340   11 Jun 2027 06:51:36.269   11 Jun 2027 06:51:37.814             1.545           635.531
       341   11 Jun 2027 08:22:43.905   11 Jun 2027 08:23:29.103            45.198         22105.094
       342   11 Jun 2027 08:23:55.258   11 Jun 2027 08:23:56.500             1.242           565.031
       343   11 Jun 2027 08:24:52.835   11 Jun 2027 08:24:57.121             4.286          1132.000
       344   11 Jun 2027 08:25:03.688   11 Jun 2027 08:25:03.688             0.000             0.000
       345   11 Jun 2027 08:25:36.302   11 Jun 2027 08:25:42.275             5.973          1140.000
       346   11 Jun 2027 08:26:13.854   11 Jun 2027 08:26:16.955             3.101           986.844
       347   11 Jun 2027 08:27:16.669   11 Jun 2027 08:27:20.799             4.130          1784.281
       348   11 Jun 2027 08:28:25.767   11 Jun 2027 08:28:29.489             3.722          1746.531
       349   11 Jun 2027 10:00:28.389   11 Jun 2027 10:00:45.153            16.764          8228.875
       350   11 Jun 2027 10:00:51.525   11 Jun 2027 10:00:52.727             1.202           153.031
       351   11 Jun 2027 10:01:24.603   11 Jun 2027 10:01:24.603             0.000             0.000
       352   11 Jun 2027 10:01:43.581   11 Jun 2027 10:01:49.312             5.731          1337.969
       353   11 Jun 2027 10:02:17.924   11 Jun 2027 10:02:21.358             3.434           839.656
       354   11 Jun 2027 10:02:21.729   11 Jun 2027 10:02:24.320             2.591            11.594
       355   11 Jun 2027 10:03:18.529   11 Jun 2027 10:03:21.340             2.811          1405.500
       356   11 Jun 2027 10:03:29.613   11 Jun 2027 10:03:32.319             2.706           461.219
       357   11 Jun 2027 10:03:52.456   11 Jun 2027 10:03:55.887             3.431           531.125
       358   11 Jun 2027 10:04:00.759   11 Jun 2027 10:04:01.105             0.346           152.250
       359   11 Jun 2027 11:34:42.298   11 Jun 2027 11:34:48.555             6.257          1643.437
       360   11 Jun 2027 11:35:36.780   11 Jun 2027 11:35:41.944             5.164          1323.250
       361   11 Jun 2027 11:36:27.923   11 Jun 2027 11:36:29.132             1.209           178.750
       362   11 Jun 2027 11:36:58.180   11 Jun 2027 11:37:00.577             2.397           782.437
       363   11 Jun 2027 11:37:19.632   11 Jun 2027 11:37:20.769             1.137           464.781
       364   11 Jun 2027 11:37:36.849   11 Jun 2027 11:37:40.104             3.255           449.187
       365   11 Jun 2027 11:38:54.598   11 Jun 2027 11:38:59.266             4.668          2176.031
       366   11 Jun 2027 11:39:29.819   11 Jun 2027 11:39:31.823             2.004           954.781
       367   11 Jun 2027 11:39:55.023   11 Jun 2027 11:39:57.302             2.279           644.250
       368   12 Jun 2027 03:47:01.699   12 Jun 2027 03:47:25.084            23.385         11692.500
       369   12 Jun 2027 03:48:20.273   12 Jun 2027 03:48:21.743             1.470           735.000
       370   12 Jun 2027 03:49:08.939   12 Jun 2027 03:49:26.954            18.015          9007.500
       371   12 Jun 2027 03:49:32.628   12 Jun 2027 03:49:40.866             8.238          4119.000
       372   12 Jun 2027 03:50:03.476   12 Jun 2027 03:50:03.476             0.000             0.000
       373   12 Jun 2027 03:50:19.382   12 Jun 2027 03:50:29.867            10.485          5242.500
       374   12 Jun 2027 05:20:47.107   12 Jun 2027 05:22:55.041           127.934         63967.000
       375   12 Jun 2027 05:23:30.634   12 Jun 2027 05:23:39.955             9.321          4660.500
       376   12 Jun 2027 05:25:18.125   12 Jun 2027 05:25:18.125             0.000             0.000
       377   12 Jun 2027 05:26:20.061   12 Jun 2027 05:26:26.465             6.404          3202.000
       378   12 Jun 2027 05:26:49.228   12 Jun 2027 05:26:49.228             0.000             0.000
       379   12 Jun 2027 05:27:51.519   12 Jun 2027 05:28:13.453            21.934         10967.000
       380   12 Jun 2027 05:28:59.266   12 Jun 2027 05:29:20.601            21.335         10667.500
       381   12 Jun 2027 06:58:11.009   12 Jun 2027 06:58:48.993            37.984         18992.000
       382   12 Jun 2027 07:00:01.984   12 Jun 2027 07:01:29.186            87.202         43601.000
       383   12 Jun 2027 07:01:38.822   12 Jun 2027 07:01:41.676             2.854          1427.000
       384   12 Jun 2027 07:02:44.570   12 Jun 2027 07:02:45.198             0.628           314.000
       385   12 Jun 2027 07:03:13.810   12 Jun 2027 07:03:22.502             8.692          2571.063
       386   12 Jun 2027 08:35:14.969   12 Jun 2027 08:35:26.239            11.270          5635.000
       387   12 Jun 2027 08:35:31.325   12 Jun 2027 08:35:54.966            23.641         10413.156
       388   12 Jun 2027 08:36:12.063   12 Jun 2027 08:36:13.630             1.567           488.469
       389   12 Jun 2027 08:36:24.984   12 Jun 2027 08:36:27.152             2.168            26.969
       390   12 Jun 2027 08:36:58.490   12 Jun 2027 08:37:00.541             2.051           558.188
       391   12 Jun 2027 08:37:07.527   12 Jun 2027 08:37:08.481             0.954           218.313
       392   12 Jun 2027 08:37:43.740   12 Jun 2027 08:37:47.124             3.384          1101.844
       393   12 Jun 2027 08:38:34.926   12 Jun 2027 08:38:35.554             0.628           314.000
       394   12 Jun 2027 08:40:01.065   12 Jun 2027 08:40:09.984             8.919          3467.781
       395   12 Jun 2027 08:40:21.241   12 Jun 2027 08:40:21.966             0.725           186.594
       396   12 Jun 2027 08:40:45.020   12 Jun 2027 08:40:46.498             1.478           720.438
       397   12 Jun 2027 10:11:59.553   12 Jun 2027 10:12:19.329            19.776          7990.000
       398   12 Jun 2027 10:13:02.144   12 Jun 2027 10:13:04.943             2.799          1336.906
       399   12 Jun 2027 10:14:15.761   12 Jun 2027 10:14:20.900             5.139          1934.531
       400   12 Jun 2027 10:15:18.856   12 Jun 2027 10:15:36.381            17.525          1792.063
       401   12 Jun 2027 10:15:42.409   12 Jun 2027 10:15:48.413             6.004           133.594
       402   12 Jun 2027 10:15:54.371   12 Jun 2027 10:15:54.371             0.000             0.000
       403   12 Jun 2027 10:16:28.030   12 Jun 2027 10:16:31.313             3.283          1202.094
       404   12 Jun 2027 10:16:39.708   12 Jun 2027 10:16:40.740             1.032           262.344
       405   12 Jun 2027 11:47:15.639   12 Jun 2027 11:47:21.756             6.117          1910.656
       406   12 Jun 2027 11:49:30.452   12 Jun 2027 11:49:35.703             5.251          2125.656
       407   12 Jun 2027 11:50:07.308   12 Jun 2027 11:50:13.209             5.901           987.656
       408   12 Jun 2027 11:50:52.600   12 Jun 2027 11:50:57.861             5.261          1153.438
       409   13 Jun 2027 03:59:15.956   13 Jun 2027 04:00:08.686            52.730         26365.000
       410   13 Jun 2027 05:33:19.929   13 Jun 2027 05:35:37.945           138.016         69008.000
       411   13 Jun 2027 05:39:54.534   13 Jun 2027 05:39:54.534             0.000             0.000
       412   13 Jun 2027 05:40:30.704   13 Jun 2027 05:40:43.942            13.238          6619.000
       413   13 Jun 2027 05:41:14.138   13 Jun 2027 05:41:17.927             3.789          1894.500
       414   13 Jun 2027 07:10:24.515   13 Jun 2027 07:12:48.105           143.590         69895.031
       415   13 Jun 2027 07:14:24.061   13 Jun 2027 07:14:24.589             0.528           264.000
       416   13 Jun 2027 07:15:09.647   13 Jun 2027 07:15:18.896             9.249          4142.687
       417   13 Jun 2027 07:15:47.050   13 Jun 2027 07:15:49.459             2.409           671.594
       418   13 Jun 2027 08:47:20.449   13 Jun 2027 08:47:49.537            29.088         14219.719
       419   13 Jun 2027 08:49:59.480   13 Jun 2027 08:50:07.250             7.770          3506.094
       420   13 Jun 2027 08:50:39.378   13 Jun 2027 08:50:43.101             3.723           884.594
       421   13 Jun 2027 08:51:28.503   13 Jun 2027 08:51:36.815             8.312          1418.812
       422   13 Jun 2027 08:52:04.174   13 Jun 2027 08:52:10.415             6.241           826.063
       423   13 Jun 2027 10:24:07.006   13 Jun 2027 10:24:24.228            17.222          8010.313
       424   13 Jun 2027 10:25:33.160   13 Jun 2027 10:25:35.989             2.829          1414.500
       425   13 Jun 2027 10:26:26.809   13 Jun 2027 10:26:30.510             3.701          1754.188
       426   13 Jun 2027 10:27:07.388   13 Jun 2027 10:27:12.386             4.998          1130.469
       427   13 Jun 2027 10:27:17.735   13 Jun 2027 10:27:23.481             5.746           104.437
       428   13 Jun 2027 10:28:01.042   13 Jun 2027 10:28:05.473             4.431           654.125
       429   13 Jun 2027 10:28:44.196   13 Jun 2027 10:28:44.973             0.777           388.500
