uniorb/output/strategy_1/Camera/Camera_KinoSat_111006.txt

KinoSat_111006
-------------------------
    Access    *     Start Time (UTCG)     *     Stop Time (UTCG)  *   Duration (s) *   Data (Mbytes)
         1   01 Jun 2027 03:17:34.896   01 Jun 2027 03:18:32.992            58.096         29048.000
         2   01 Jun 2027 03:29:48.508   01 Jun 2027 03:30:47.351            58.843         29421.500
         3   01 Jun 2027 04:52:03.419   01 Jun 2027 04:53:08.487            65.068         32534.000
         4   01 Jun 2027 04:56:21.434   01 Jun 2027 04:56:34.675            13.241          6620.500
         5   01 Jun 2027 04:56:44.653   01 Jun 2027 04:56:44.653             0.000             0.000
         6   01 Jun 2027 06:26:56.244   01 Jun 2027 06:28:58.284           122.040         61020.000
         7   01 Jun 2027 06:30:43.963   01 Jun 2027 06:30:51.988             8.025          4012.500
         8   01 Jun 2027 06:33:30.428   01 Jun 2027 06:33:30.428             0.000             0.000
         9   01 Jun 2027 06:34:20.227   01 Jun 2027 06:34:22.763             2.536          1268.000
        10   01 Jun 2027 06:34:59.329   01 Jun 2027 06:35:14.215            14.886          7443.000
        11   01 Jun 2027 08:04:30.741   01 Jun 2027 08:06:16.758           106.017         53008.500
        12   01 Jun 2027 08:07:55.694   01 Jun 2027 08:08:07.692            11.998          5999.000
        13   01 Jun 2027 08:08:58.276   01 Jun 2027 08:09:05.572             7.296          3648.000
        14   01 Jun 2027 08:09:54.802   01 Jun 2027 08:09:57.053             2.251          1125.500
        15   01 Jun 2027 08:10:57.601   01 Jun 2027 08:11:30.379            32.778         16389.000
        16   01 Jun 2027 09:41:13.547   01 Jun 2027 09:43:12.648           119.101         59550.500
        17   01 Jun 2027 09:43:58.761   01 Jun 2027 09:44:02.065             3.304          1652.000
        18   01 Jun 2027 09:46:43.100   01 Jun 2027 09:46:43.100             0.000             0.000
        19   01 Jun 2027 09:47:48.894   01 Jun 2027 09:47:48.894             0.000             0.000
        20   01 Jun 2027 11:19:17.841   01 Jun 2027 11:21:44.460           146.619         73309.500
        21   01 Jun 2027 11:21:53.394   01 Jun 2027 11:21:53.394             0.000             0.000
        22   01 Jun 2027 11:22:14.525   01 Jun 2027 11:22:23.627             9.102          4551.000
        23   01 Jun 2027 11:23:17.691   01 Jun 2027 11:23:17.858             0.167            83.500
        24   02 Jun 2027 03:29:40.755   02 Jun 2027 03:29:57.860            17.105          8552.500
        25   02 Jun 2027 03:30:16.802   02 Jun 2027 03:30:31.115            14.313          7156.500
        26   02 Jun 2027 03:30:42.111   02 Jun 2027 03:30:54.771            12.660          6330.000
        27   02 Jun 2027 03:42:03.077   02 Jun 2027 03:42:21.945            18.868          9434.000
        28   02 Jun 2027 05:03:31.896   02 Jun 2027 05:05:43.825           131.929         65964.500
        29   02 Jun 2027 05:08:55.281   02 Jun 2027 05:08:55.281             0.000             0.000
        30   02 Jun 2027 06:38:26.303   02 Jun 2027 06:39:50.262            83.959         41979.500
        31   02 Jun 2027 06:40:59.572   02 Jun 2027 06:41:05.826             6.254          3127.000
        32   02 Jun 2027 06:41:46.344   02 Jun 2027 06:41:56.612            10.268          5134.000
        33   02 Jun 2027 06:42:12.384   02 Jun 2027 06:42:27.990            15.606          7803.000
        34   02 Jun 2027 06:45:09.281   02 Jun 2027 06:45:14.863             5.582          2791.000
        35   02 Jun 2027 06:46:12.416   02 Jun 2027 06:46:20.459             8.043          4021.500
        36   02 Jun 2027 06:47:22.577   02 Jun 2027 06:47:29.495             6.918          3459.000
        37   02 Jun 2027 06:47:53.567   02 Jun 2027 06:47:55.475             1.908           954.000
        38   02 Jun 2027 08:16:25.560   02 Jun 2027 08:18:15.725           110.165         55082.500
        39   02 Jun 2027 08:18:35.997   02 Jun 2027 08:19:16.046            40.049         20024.500
        40   02 Jun 2027 08:22:09.506   02 Jun 2027 08:22:19.246             9.740          4870.000
        41   02 Jun 2027 08:23:39.138   02 Jun 2027 08:23:47.420             8.282          4141.000
        42   02 Jun 2027 09:53:21.941   02 Jun 2027 09:54:36.676            74.735         37367.500
        43   02 Jun 2027 09:55:36.737   02 Jun 2027 09:56:09.533            32.796         16398.000
        44   02 Jun 2027 09:56:27.420   02 Jun 2027 09:56:28.007             0.587           293.500
        45   02 Jun 2027 09:56:58.848   02 Jun 2027 09:57:05.264             6.416          3208.000
        46   02 Jun 2027 09:59:12.146   02 Jun 2027 09:59:31.656            19.510          9755.000
        47   02 Jun 2027 11:30:55.189   02 Jun 2027 11:32:56.374           121.185         60592.500
        48   03 Jun 2027 03:41:36.861   03 Jun 2027 03:41:58.715            21.854         10927.000
        49   03 Jun 2027 03:42:18.278   03 Jun 2027 03:42:18.278             0.000             0.000
        50   03 Jun 2027 03:42:25.243   03 Jun 2027 03:42:38.323            13.080          6540.000
        51   03 Jun 2027 05:17:49.828   03 Jun 2027 05:20:19.380           149.552         74776.000
        52   03 Jun 2027 06:51:21.275   03 Jun 2027 06:53:29.692           128.417         64208.500
        53   03 Jun 2027 06:54:46.503   03 Jun 2027 06:54:55.687             9.184          4592.000
        54   03 Jun 2027 06:59:55.131   03 Jun 2027 06:59:56.112             0.981           490.500
        55   03 Jun 2027 08:28:47.298   03 Jun 2027 08:31:00.179           132.881         66440.500
        56   03 Jun 2027 08:33:14.233   03 Jun 2027 08:33:33.789            19.556          9778.000
        57   03 Jun 2027 08:34:55.653   03 Jun 2027 08:34:55.653             0.000             0.000
        58   03 Jun 2027 10:05:50.909   03 Jun 2027 10:07:13.532            82.623         40899.345
        59   03 Jun 2027 10:07:34.798   03 Jun 2027 10:07:37.359             2.561           396.812
        60   03 Jun 2027 10:09:21.002   03 Jun 2027 10:09:30.822             9.820          3220.781
        61   03 Jun 2027 10:11:11.180   03 Jun 2027 10:11:17.351             6.171          3085.500
        62   03 Jun 2027 11:42:37.127   03 Jun 2027 11:42:56.374            19.247          8427.500
        63   03 Jun 2027 11:44:05.696   03 Jun 2027 11:44:10.176             4.480          2166.313
        64   03 Jun 2027 11:45:20.974   03 Jun 2027 11:45:26.295             5.321          2208.875
        65   03 Jun 2027 11:46:48.081   03 Jun 2027 11:46:53.680             5.599          2555.813
        66   04 Jun 2027 03:53:28.627   04 Jun 2027 03:54:20.246            51.619         25809.500
        67   04 Jun 2027 03:55:30.958   04 Jun 2027 03:55:30.958             0.000             0.000
        68   04 Jun 2027 05:29:52.945   04 Jun 2027 05:32:05.581           132.636         66318.000
        69   04 Jun 2027 05:32:21.386   04 Jun 2027 05:32:26.707             5.321          2660.500
        70   04 Jun 2027 05:32:57.261   04 Jun 2027 05:32:58.636             1.375           687.500
        71   04 Jun 2027 05:33:22.793   04 Jun 2027 05:33:27.193             4.400          2200.000
        72   04 Jun 2027 07:02:04.634   04 Jun 2027 07:02:15.644            11.010          5505.000
        73   04 Jun 2027 07:03:58.607   04 Jun 2027 07:05:31.914            93.307         46653.500
        74   04 Jun 2027 07:05:36.361   04 Jun 2027 07:05:49.842            13.481          6740.500
        75   04 Jun 2027 07:06:29.968   04 Jun 2027 07:06:34.664             4.696          2348.000
        76   04 Jun 2027 07:10:14.599   04 Jun 2027 07:10:16.631             2.032          1016.000
        77   04 Jun 2027 07:10:17.289   04 Jun 2027 07:10:30.118            12.829          6414.500
        78   04 Jun 2027 07:11:43.637   04 Jun 2027 07:11:52.738             9.101          4550.500
        79   04 Jun 2027 08:40:58.888   04 Jun 2027 08:41:30.341            31.453         15726.500
        80   04 Jun 2027 08:42:11.338   04 Jun 2027 08:42:16.485             5.147          1624.219
        81   04 Jun 2027 08:43:12.189   04 Jun 2027 08:43:19.827             7.638          1648.875
        82   04 Jun 2027 08:43:33.090   04 Jun 2027 08:43:35.207             2.117           408.344
        83   04 Jun 2027 08:43:58.231   04 Jun 2027 08:43:58.967             0.736           219.063
        84   04 Jun 2027 08:44:39.577   04 Jun 2027 08:44:40.728             1.151           406.812
        85   04 Jun 2027 08:45:22.657   04 Jun 2027 08:45:25.394             2.737          1226.094
        86   04 Jun 2027 08:46:13.494   04 Jun 2027 08:46:21.953             8.459          1257.969
        87   04 Jun 2027 08:46:28.368   04 Jun 2027 08:46:33.988             5.620            87.781
        88   04 Jun 2027 08:47:25.879   04 Jun 2027 08:47:28.377             2.498          1004.094
        89   04 Jun 2027 10:17:59.834   04 Jun 2027 10:18:18.995            19.161          8984.188
        90   04 Jun 2027 10:19:18.040   04 Jun 2027 10:19:22.044             4.004          1193.313
        91   04 Jun 2027 10:20:11.288   04 Jun 2027 10:20:15.777             4.489           941.406
        92   04 Jun 2027 10:20:58.834   04 Jun 2027 10:21:06.068             7.234           533.687
        93   04 Jun 2027 10:21:24.579   04 Jun 2027 10:21:29.808             5.229           578.469
        94   04 Jun 2027 10:21:48.396   04 Jun 2027 10:21:50.450             2.054           487.719
        95   04 Jun 2027 10:21:59.905   04 Jun 2027 10:22:00.947             1.042           295.469
        96   04 Jun 2027 10:22:21.647   04 Jun 2027 10:22:21.786             0.139            69.500
        97   04 Jun 2027 10:22:36.721   04 Jun 2027 10:22:38.739             2.018           990.969
        98   04 Jun 2027 11:54:41.733   04 Jun 2027 11:54:57.983            16.250          6075.094
        99   04 Jun 2027 11:55:16.371   04 Jun 2027 11:55:22.146             5.775           506.625
       100   04 Jun 2027 11:55:25.856   04 Jun 2027 11:55:25.856             0.000             0.000
       101   04 Jun 2027 11:55:36.887   04 Jun 2027 11:55:38.385             1.498           371.156
       102   04 Jun 2027 11:55:40.746   04 Jun 2027 11:55:41.152             0.406            73.781
       103   04 Jun 2027 11:56:23.778   04 Jun 2027 11:56:23.808             0.030            15.000
       104   04 Jun 2027 11:56:57.570   04 Jun 2027 11:57:00.930             3.360          1591.282
       105   04 Jun 2027 11:57:05.212   04 Jun 2027 11:57:07.378             2.166           133.813
       106   04 Jun 2027 11:57:34.109   04 Jun 2027 11:57:35.847             1.738           673.531
       107   04 Jun 2027 11:58:13.935   04 Jun 2027 11:58:13.935             0.000             0.000
       108   04 Jun 2027 11:58:29.208   04 Jun 2027 11:58:35.492             6.284          1667.531
       109   04 Jun 2027 11:58:48.153   04 Jun 2027 11:58:49.706             1.553           204.094
       110   05 Jun 2027 04:05:33.847   05 Jun 2027 04:06:22.582            48.735         24367.500
       111   05 Jun 2027 04:06:42.213   05 Jun 2027 04:06:43.247             1.034           517.000
       112   05 Jun 2027 04:07:32.922   05 Jun 2027 04:07:32.922             0.000             0.000
       113   05 Jun 2027 04:08:19.499   05 Jun 2027 04:08:19.499             0.000             0.000
       114   05 Jun 2027 05:42:02.881   05 Jun 2027 05:43:59.339           116.458         58229.000
       115   05 Jun 2027 05:44:49.442   05 Jun 2027 05:45:22.853            33.411         16705.500
       116   05 Jun 2027 07:17:10.256   05 Jun 2027 07:19:18.901           128.645         63620.969
       117   05 Jun 2027 07:21:51.968   05 Jun 2027 07:21:57.748             5.780          2890.000
       118   05 Jun 2027 07:22:04.969   05 Jun 2027 07:22:12.409             7.440          2095.437
       119   05 Jun 2027 07:22:33.323   05 Jun 2027 07:22:33.323             0.000             0.000
       120   05 Jun 2027 07:23:12.522   05 Jun 2027 07:23:16.935             4.413          1795.812
       121   05 Jun 2027 08:53:31.528   05 Jun 2027 08:53:53.897            22.369         10560.094
       122   05 Jun 2027 08:54:17.842   05 Jun 2027 08:54:22.777             4.935           679.563
       123   05 Jun 2027 08:55:27.414   05 Jun 2027 08:55:31.359             3.945          1788.969
       124   05 Jun 2027 08:56:05.309   05 Jun 2027 08:56:09.386             4.077           742.375
       125   05 Jun 2027 08:56:37.534   05 Jun 2027 08:56:39.413             1.879           699.750
       126   05 Jun 2027 08:57:00.370   05 Jun 2027 08:57:01.003             0.633           316.500
       127   05 Jun 2027 08:57:07.271   05 Jun 2027 08:57:08.921             1.650           479.250
       128   05 Jun 2027 08:57:21.423   05 Jun 2027 08:57:21.423             0.000             0.000
       129   05 Jun 2027 08:57:46.294   05 Jun 2027 08:57:51.262             4.968          1167.906
       130   05 Jun 2027 08:58:26.915   05 Jun 2027 08:58:30.032             3.117          1114.156
       131   05 Jun 2027 08:58:44.610   05 Jun 2027 08:58:44.905             0.295           147.500
       132   05 Jun 2027 08:58:59.926   05 Jun 2027 08:59:01.705             1.779           611.125
       133   05 Jun 2027 08:59:36.257   05 Jun 2027 08:59:39.990             3.733          1079.750
       134   05 Jun 2027 10:30:58.045   05 Jun 2027 10:31:14.774            16.729          8227.813
       135   05 Jun 2027 10:31:34.027   05 Jun 2027 10:31:37.197             3.170           570.844
       136   05 Jun 2027 10:31:43.104   05 Jun 2027 10:31:45.353             2.249           184.594
       137   05 Jun 2027 10:31:57.392   05 Jun 2027 10:31:58.572             1.180           241.750
       138   05 Jun 2027 10:32:28.776   05 Jun 2027 10:32:31.245             2.469           943.875
       139   05 Jun 2027 10:32:49.020   05 Jun 2027 10:32:49.323             0.303           125.969
       140   05 Jun 2027 10:33:08.937   05 Jun 2027 10:33:10.676             1.739           612.937
       141   05 Jun 2027 10:33:47.101   05 Jun 2027 10:33:55.470             8.369           968.969
       142   05 Jun 2027 10:34:54.624   05 Jun 2027 10:34:59.405             4.781          1848.562
       143   06 Jun 2027 04:17:37.104   06 Jun 2027 04:18:45.478            68.374         34187.000
       144   06 Jun 2027 04:20:22.321   06 Jun 2027 04:20:27.900             5.579          2789.500
       145   06 Jun 2027 05:54:06.048   06 Jun 2027 05:56:23.501           137.453         68726.500
       146   06 Jun 2027 07:29:17.171   06 Jun 2027 07:31:04.089           106.918         53211.157
       147   06 Jun 2027 07:31:46.336   06 Jun 2027 07:31:46.620             0.284           142.000
       148   06 Jun 2027 07:32:44.419   06 Jun 2027 07:32:50.579             6.160          2586.031
       149   06 Jun 2027 07:34:06.323   06 Jun 2027 07:34:08.249             1.926           963.000
       150   06 Jun 2027 07:34:56.852   06 Jun 2027 07:35:04.517             7.665          2861.656
       151   06 Jun 2027 07:35:18.593   06 Jun 2027 07:35:19.842             1.249           439.875
       152   06 Jun 2027 07:35:37.311   06 Jun 2027 07:35:41.567             4.256           373.062
       153   06 Jun 2027 09:05:14.004   06 Jun 2027 09:05:38.436            24.432          9857.906
       154   06 Jun 2027 09:07:06.400   06 Jun 2027 09:07:13.989             7.589           983.281
       155   06 Jun 2027 09:07:29.958   06 Jun 2027 09:07:30.950             0.992           225.531
       156   06 Jun 2027 09:07:58.354   06 Jun 2027 09:07:59.792             1.438           542.625
       157   06 Jun 2027 09:08:32.453   06 Jun 2027 09:08:33.273             0.820           410.000
       158   06 Jun 2027 09:08:44.387   06 Jun 2027 09:08:46.086             1.699           730.219
       159   06 Jun 2027 09:09:28.997   06 Jun 2027 09:09:33.520             4.523          1340.969
       160   06 Jun 2027 09:09:59.243   06 Jun 2027 09:10:02.674             3.431           747.000
       161   06 Jun 2027 10:43:04.875   06 Jun 2027 10:43:22.467            17.592          8225.125
       162   06 Jun 2027 10:44:09.932   06 Jun 2027 10:44:13.112             3.180          1401.187
       163   06 Jun 2027 10:45:07.602   06 Jun 2027 10:45:12.409             4.807          1702.813
       164   06 Jun 2027 10:46:24.343   06 Jun 2027 10:46:32.333             7.990          2247.937
       165   06 Jun 2027 10:46:46.928   06 Jun 2027 10:46:50.133             3.205           370.469
       166   06 Jun 2027 10:47:21.698   06 Jun 2027 10:47:23.865             2.167           986.406
       167   07 Jun 2027 03:06:06.509   07 Jun 2027 03:07:14.488            67.979         33989.500
       168   07 Jun 2027 03:08:51.048   07 Jun 2027 03:08:52.031             0.983           491.500
       169   07 Jun 2027 03:09:33.703   07 Jun 2027 03:09:40.311             6.608          3304.000
       170   07 Jun 2027 04:30:03.784   07 Jun 2027 04:30:47.516            43.732         21866.000
       171   07 Jun 2027 06:05:50.362   07 Jun 2027 06:07:29.521            99.159         49579.500
       172   07 Jun 2027 06:08:46.048   07 Jun 2027 06:08:54.817             8.769          4384.500
       173   07 Jun 2027 06:08:59.241   07 Jun 2027 06:09:03.854             4.613          2306.500
       174   07 Jun 2027 06:09:38.454   07 Jun 2027 06:10:02.151            23.697         11848.500
       175   07 Jun 2027 07:40:33.391   07 Jun 2027 07:42:12.452            99.061         49530.500
       176   07 Jun 2027 07:42:28.258   07 Jun 2027 07:42:32.512             4.254           517.969
       177   07 Jun 2027 07:42:44.672   07 Jun 2027 07:42:46.690             2.018           358.406
       178   07 Jun 2027 07:43:02.450   07 Jun 2027 07:43:03.474             1.024           118.063
       179   07 Jun 2027 07:43:53.171   07 Jun 2027 07:43:56.433             3.262          1553.031
       180   07 Jun 2027 07:44:35.358   07 Jun 2027 07:44:37.998             2.640          1169.219
       181   07 Jun 2027 07:46:14.312   07 Jun 2027 07:46:14.312             0.000             0.000
       182   07 Jun 2027 07:46:39.428   07 Jun 2027 07:46:50.780            11.352          3699.781
       183   07 Jun 2027 07:47:26.970   07 Jun 2027 07:47:35.030             8.060          1130.937
       184   07 Jun 2027 09:17:18.876   07 Jun 2027 09:17:43.456            24.580         11248.656
       185   07 Jun 2027 09:18:10.819   07 Jun 2027 09:18:13.950             3.131            40.344
       186   07 Jun 2027 09:19:15.668   07 Jun 2027 09:19:16.637             0.969           318.812
       187   07 Jun 2027 09:19:42.572   07 Jun 2027 09:19:44.221             1.649           569.750
       188   07 Jun 2027 09:20:08.016   07 Jun 2027 09:20:13.481             5.465           500.875
       189   07 Jun 2027 09:20:44.969   07 Jun 2027 09:20:46.941             1.972           590.187
       190   07 Jun 2027 09:21:14.236   07 Jun 2027 09:21:17.515             3.279           852.969
       191   07 Jun 2027 09:21:49.273   07 Jun 2027 09:21:51.506             2.233           950.594
       192   07 Jun 2027 09:22:12.210   07 Jun 2027 09:22:18.362             6.152           296.500
       193   07 Jun 2027 09:22:36.100   07 Jun 2027 09:22:37.266             1.166           255.531
       194   07 Jun 2027 09:23:22.282   07 Jun 2027 09:23:24.630             2.348           990.531
       195   07 Jun 2027 09:23:32.550   07 Jun 2027 09:23:35.727             3.177           247.500
       196   07 Jun 2027 10:55:35.182   07 Jun 2027 10:55:54.859            19.677          9296.344
       197   07 Jun 2027 10:57:14.138   07 Jun 2027 10:57:18.192             4.054          1918.625
       198   07 Jun 2027 10:57:34.986   07 Jun 2027 10:57:36.659             1.673            93.375
       199   07 Jun 2027 10:58:50.732   07 Jun 2027 10:59:02.752            12.020          2208.500
       200   08 Jun 2027 03:06:29.423   08 Jun 2027 03:07:07.232            37.809         18904.500
       201   08 Jun 2027 03:18:04.632   08 Jun 2027 03:19:01.573            56.941         28470.500
       202   08 Jun 2027 03:19:36.659   08 Jun 2027 03:19:42.409             5.750          2875.000
       203   08 Jun 2027 04:40:41.620   08 Jun 2027 04:41:19.952            38.332         19166.000
       204   08 Jun 2027 04:42:19.242   08 Jun 2027 04:42:20.545             1.303           651.500
       205   08 Jun 2027 04:45:09.333   08 Jun 2027 04:45:14.497             5.164          2582.000
       206   08 Jun 2027 06:15:50.932   08 Jun 2027 06:17:04.835            73.903         36951.500
       207   08 Jun 2027 06:17:35.228   08 Jun 2027 06:17:41.565             6.337          3168.500
       208   08 Jun 2027 06:18:00.075   08 Jun 2027 06:18:19.314            19.239          9619.500
       209   08 Jun 2027 06:20:34.211   08 Jun 2027 06:20:35.114             0.903           451.500
       210   08 Jun 2027 06:21:05.492   08 Jun 2027 06:21:19.763            14.271          7135.500
       211   08 Jun 2027 06:21:35.836   08 Jun 2027 06:21:40.751             4.915          2457.500
       212   08 Jun 2027 06:22:08.865   08 Jun 2027 06:22:15.697             6.832          3416.000
       213   08 Jun 2027 07:52:38.192   08 Jun 2027 07:53:52.517            74.325         37162.500
       214   08 Jun 2027 07:53:57.981   08 Jun 2027 07:54:03.050             5.069           658.032
       215   08 Jun 2027 07:54:31.134   08 Jun 2027 07:54:32.376             1.242           479.625
       216   08 Jun 2027 07:55:36.552   08 Jun 2027 07:55:43.566             7.014          1974.000
       217   08 Jun 2027 07:55:52.131   08 Jun 2027 07:55:59.174             7.043           245.156
       218   08 Jun 2027 07:57:35.520   08 Jun 2027 07:57:41.746             6.226          2972.906
       219   08 Jun 2027 07:58:33.017   08 Jun 2027 07:58:35.868             2.851          1145.969
       220   08 Jun 2027 07:59:58.703   08 Jun 2027 07:59:59.275             0.572           286.000
       221   08 Jun 2027 09:29:39.233   08 Jun 2027 09:30:03.374            24.141          9144.375
       222   08 Jun 2027 09:31:20.135   08 Jun 2027 09:31:22.101             1.966           849.875
       223   08 Jun 2027 09:32:00.542   08 Jun 2027 09:32:02.254             1.712           856.000
       224   08 Jun 2027 09:32:19.920   08 Jun 2027 09:32:21.729             1.809           843.594
       225   08 Jun 2027 09:32:38.290   08 Jun 2027 09:32:38.673             0.383           191.500
       226   08 Jun 2027 09:32:49.305   08 Jun 2027 09:32:56.320             7.015           658.281
       227   08 Jun 2027 09:33:24.901   08 Jun 2027 09:33:29.489             4.588           886.844
       228   08 Jun 2027 09:33:53.263   08 Jun 2027 09:33:56.952             3.689           640.625
       229   08 Jun 2027 09:34:06.235   08 Jun 2027 09:34:09.321             3.086           215.656
       230   08 Jun 2027 09:35:02.922   08 Jun 2027 09:35:05.717             2.795          1010.562
       231   08 Jun 2027 11:07:32.802   08 Jun 2027 11:07:47.868            15.066          6855.688
       232   08 Jun 2027 11:08:18.250   08 Jun 2027 11:08:22.183             3.933           919.500
       233   08 Jun 2027 11:08:55.510   08 Jun 2027 11:08:58.109             2.599           981.219
       234   08 Jun 2027 11:09:34.248   08 Jun 2027 11:09:37.452             3.204           790.312
       235   08 Jun 2027 11:09:59.035   08 Jun 2027 11:10:02.609             3.574           674.469
       236   08 Jun 2027 11:10:17.382   08 Jun 2027 11:10:19.691             2.309           461.656
       237   08 Jun 2027 11:10:53.449   08 Jun 2027 11:10:55.672             2.223           777.500
       238   08 Jun 2027 11:11:10.174   08 Jun 2027 11:11:11.659             1.485           391.313
       239   09 Jun 2027 03:17:50.003   09 Jun 2027 03:18:45.448            55.445         27722.500
       240   09 Jun 2027 03:30:03.728   09 Jun 2027 03:31:02.144            58.416         29208.000
       241   09 Jun 2027 04:52:17.552   09 Jun 2027 04:53:12.534            54.982         27491.000
       242   09 Jun 2027 04:55:00.551   09 Jun 2027 04:55:03.239             2.688          1344.000
       243   09 Jun 2027 04:56:30.280   09 Jun 2027 04:56:35.675             5.395          2697.500
       244   09 Jun 2027 04:57:01.032   09 Jun 2027 04:57:10.733             9.701          4850.500
       245   09 Jun 2027 06:27:10.981   09 Jun 2027 06:28:45.410            94.429         47214.500
       246   09 Jun 2027 06:29:21.558   09 Jun 2027 06:29:37.983            16.425          8212.500
       247   09 Jun 2027 06:31:49.012   09 Jun 2027 06:31:56.068             7.056          3528.000
       248   09 Jun 2027 06:33:21.163   09 Jun 2027 06:33:33.471            12.308          6154.000
       249   09 Jun 2027 06:34:43.274   09 Jun 2027 06:34:43.585             0.311           155.500
       250   09 Jun 2027 06:35:29.471   09 Jun 2027 06:35:30.873             1.402           701.000
       251   09 Jun 2027 08:04:45.633   09 Jun 2027 08:05:25.739            40.106         20053.000
       252   09 Jun 2027 08:06:32.988   09 Jun 2027 08:06:39.447             6.459          3229.500
       253   09 Jun 2027 08:07:27.651   09 Jun 2027 08:07:32.400             4.749          1694.439
       254   09 Jun 2027 08:07:42.715   09 Jun 2027 08:07:42.853             0.138            69.000
       255   09 Jun 2027 08:07:46.331   09 Jun 2027 08:07:53.476             7.145           198.344
       256   09 Jun 2027 08:08:22.649   09 Jun 2027 08:08:29.340             6.691           905.312
       257   09 Jun 2027 08:08:35.366   09 Jun 2027 08:08:36.342             0.976           188.313
       258   09 Jun 2027 08:09:17.051   09 Jun 2027 08:09:18.474             1.423           673.750
       259   09 Jun 2027 08:10:10.643   09 Jun 2027 08:10:13.193             2.550          1275.000
       260   09 Jun 2027 08:10:26.182   09 Jun 2027 08:10:32.007             5.825           627.312
       261   09 Jun 2027 08:10:58.585   09 Jun 2027 08:11:02.757             4.172           722.125
       262   09 Jun 2027 08:12:06.354   09 Jun 2027 08:12:08.089             1.735           867.500
       263   09 Jun 2027 09:41:28.655   09 Jun 2027 09:41:44.535            15.880          7940.000
       264   09 Jun 2027 09:42:28.022   09 Jun 2027 09:42:35.077             7.055          2205.594
       265   09 Jun 2027 09:42:53.422   09 Jun 2027 09:42:55.019             1.597           476.063
       266   09 Jun 2027 09:43:32.219   09 Jun 2027 09:43:33.078             0.859           135.062
       267   09 Jun 2027 09:44:18.129   09 Jun 2027 09:44:19.452             1.323           507.750
       268   09 Jun 2027 09:45:06.192   09 Jun 2027 09:45:07.090             0.898           449.000
       269   09 Jun 2027 09:45:39.804   09 Jun 2027 09:45:43.363             3.559          1779.500
       270   09 Jun 2027 09:46:33.278   09 Jun 2027 09:46:35.415             2.137          1068.500
       271   09 Jun 2027 09:46:57.732   09 Jun 2027 09:47:01.332             3.600          1259.594
       272   09 Jun 2027 09:48:00.438   09 Jun 2027 09:48:04.335             3.897          1847.062
       273   09 Jun 2027 11:19:32.483   09 Jun 2027 11:19:45.812            13.329          6272.844
       274   09 Jun 2027 11:20:04.139   09 Jun 2027 11:20:09.755             5.616           572.719
       275   09 Jun 2027 11:20:17.672   09 Jun 2027 11:20:19.213             1.541           247.406
       276   09 Jun 2027 11:21:32.603   09 Jun 2027 11:21:37.832             5.229          2254.844
       277   09 Jun 2027 11:21:56.823   09 Jun 2027 11:21:59.155             2.332           572.156
       278   09 Jun 2027 11:22:08.280   09 Jun 2027 11:22:15.095             6.815           278.750
       279   09 Jun 2027 11:23:29.680   09 Jun 2027 11:23:34.466             4.786          2330.781
       280   09 Jun 2027 11:23:37.982   09 Jun 2027 11:23:39.115             1.133            69.906
       281   10 Jun 2027 03:29:55.630   10 Jun 2027 03:30:57.010            61.380         30690.000
       282   10 Jun 2027 03:31:47.824   10 Jun 2027 03:31:47.824             0.000             0.000
       283   10 Jun 2027 03:42:18.939   10 Jun 2027 03:42:36.669            17.730          8865.000
       284   10 Jun 2027 05:03:46.489   10 Jun 2027 05:05:26.947           100.458         50229.000
       285   10 Jun 2027 05:05:59.433   10 Jun 2027 05:06:32.659            33.226         16613.000
       286   10 Jun 2027 06:38:40.840   10 Jun 2027 06:40:04.626            83.786         41893.000
       287   10 Jun 2027 06:41:34.072   10 Jun 2027 06:41:55.696            21.624         10812.000
       288   10 Jun 2027 06:42:09.569   10 Jun 2027 06:42:12.654             3.085          1542.500
       289   10 Jun 2027 06:45:25.059   10 Jun 2027 06:45:31.004             5.945          2972.500
       290   10 Jun 2027 06:46:28.464   10 Jun 2027 06:46:35.390             6.926          3463.000
       291   10 Jun 2027 06:47:26.923   10 Jun 2027 06:47:44.480            17.557          8778.500
       292   10 Jun 2027 08:16:40.860   10 Jun 2027 08:17:11.890            31.030         12727.500
       293   10 Jun 2027 08:18:53.955   10 Jun 2027 08:19:01.571             7.616          2592.281
       294   10 Jun 2027 08:19:09.363   10 Jun 2027 08:19:11.497             2.134           235.250
       295   10 Jun 2027 08:19:33.335   10 Jun 2027 08:19:35.549             2.214           682.438
       296   10 Jun 2027 08:20:10.889   10 Jun 2027 08:20:14.016             3.127          1024.969
       297   10 Jun 2027 08:21:49.340   10 Jun 2027 08:21:55.607             6.267          2451.406
       298   10 Jun 2027 08:22:46.575   10 Jun 2027 08:22:59.217            12.642          1537.188
       299   10 Jun 2027 08:23:16.633   10 Jun 2027 08:23:19.515             2.882           544.250
       300   10 Jun 2027 08:23:44.004   10 Jun 2027 08:23:46.507             2.503           390.594
       301   10 Jun 2027 08:24:09.562   10 Jun 2027 08:24:09.609             0.047            23.500
       302   10 Jun 2027 09:53:36.153   10 Jun 2027 09:53:55.188            19.035          9172.281
       303   10 Jun 2027 09:54:00.637   10 Jun 2027 09:54:06.530             5.893            93.562
       304   10 Jun 2027 09:55:22.697   10 Jun 2027 09:55:26.931             4.234          2106.313
       305   10 Jun 2027 09:55:41.537   10 Jun 2027 09:55:42.596             1.059           366.625
       306   10 Jun 2027 09:56:10.759   10 Jun 2027 09:56:13.810             3.051           837.781
       307   10 Jun 2027 09:56:52.303   10 Jun 2027 09:56:56.814             4.511          1107.781
       308   10 Jun 2027 09:57:22.788   10 Jun 2027 09:57:24.792             2.004           727.469
       309   10 Jun 2027 09:57:49.578   10 Jun 2027 09:57:52.631             3.053           774.563
       310   10 Jun 2027 09:57:54.970   10 Jun 2027 09:57:57.497             2.527            73.094
       311   10 Jun 2027 09:58:05.207   10 Jun 2027 09:58:06.075             0.868            52.750
       312   10 Jun 2027 09:59:32.347   10 Jun 2027 09:59:37.631             5.284          2611.031
       313   10 Jun 2027 11:31:09.984   10 Jun 2027 11:31:28.911            18.927          6402.469
       314   10 Jun 2027 11:31:48.628   10 Jun 2027 11:31:53.518             4.890           434.937
       315   10 Jun 2027 11:32:19.343   10 Jun 2027 11:32:23.116             3.773           775.875
       316   10 Jun 2027 11:33:29.891   10 Jun 2027 11:33:34.555             4.664          2086.719
       317   10 Jun 2027 11:33:53.228   10 Jun 2027 11:33:54.833             1.605           418.781
       318   10 Jun 2027 11:34:09.755   10 Jun 2027 11:34:10.789             1.034           466.313
       319   10 Jun 2027 11:34:51.633   10 Jun 2027 11:34:55.592             3.959           689.844
       320   10 Jun 2027 11:35:11.568   10 Jun 2027 11:35:11.568             0.000             0.000
       321   10 Jun 2027 11:35:32.417   10 Jun 2027 11:35:36.163             3.746          1116.156
       322   11 Jun 2027 03:41:52.032   11 Jun 2027 03:42:34.703            42.671         21335.500
       323   11 Jun 2027 03:42:53.389   11 Jun 2027 03:42:53.389             0.000             0.000
       324   11 Jun 2027 03:43:19.555   11 Jun 2027 03:43:23.690             4.135          2067.500
       325   11 Jun 2027 05:18:04.379   11 Jun 2027 05:20:34.886           150.507         75253.500
       326   11 Jun 2027 06:51:36.835   11 Jun 2027 06:52:59.450            82.615         41307.500
       327   11 Jun 2027 06:53:45.722   11 Jun 2027 06:54:09.548            23.826         11913.000
       328   11 Jun 2027 06:55:31.739   11 Jun 2027 06:55:49.165            17.426          8713.000
       329   11 Jun 2027 06:55:59.024   11 Jun 2027 06:56:00.239             1.215           607.500
       330   11 Jun 2027 06:56:26.183   11 Jun 2027 06:56:32.468             6.285          3142.500
       331   11 Jun 2027 06:57:54.773   11 Jun 2027 06:58:00.632             5.859          2929.500
       332   11 Jun 2027 06:59:53.549   11 Jun 2027 07:00:08.513            14.964          6552.593
       333   11 Jun 2027 08:29:02.859   11 Jun 2027 08:29:34.328            31.469         15333.281
       334   11 Jun 2027 08:32:00.957   11 Jun 2027 08:32:06.627             5.670          2253.594
       335   11 Jun 2027 08:32:11.150   11 Jun 2027 08:32:14.962             3.812           141.344
       336   11 Jun 2027 08:32:17.999   11 Jun 2027 08:32:19.397             1.398            94.906
       337   11 Jun 2027 08:32:54.681   11 Jun 2027 08:32:58.699             4.018           722.875
       338   11 Jun 2027 08:33:23.581   11 Jun 2027 08:33:26.904             3.323           677.375
       339   11 Jun 2027 08:33:48.668   11 Jun 2027 08:33:49.866             1.198           599.000
       340   11 Jun 2027 08:34:11.024   11 Jun 2027 08:34:11.024             0.000             0.000
       341   11 Jun 2027 08:34:36.749   11 Jun 2027 08:34:39.070             2.321          1160.500
       342   11 Jun 2027 10:06:05.345   11 Jun 2027 10:06:08.292             2.947          1473.500
       343   11 Jun 2027 10:06:23.760   11 Jun 2027 10:06:41.943            18.183          7285.937
       344   11 Jun 2027 10:08:01.427   11 Jun 2027 10:08:06.095             4.668          1616.469
       345   11 Jun 2027 10:08:22.366   11 Jun 2027 10:08:23.108             0.742           371.000
       346   11 Jun 2027 10:09:15.192   11 Jun 2027 10:09:20.803             5.611          1708.750
       347   11 Jun 2027 10:09:41.336   11 Jun 2027 10:09:42.617             1.281           375.937
       348   11 Jun 2027 10:09:53.047   11 Jun 2027 10:09:53.958             0.911           209.750
       349   11 Jun 2027 10:09:58.594   11 Jun 2027 10:09:59.889             1.295           144.875
       350   11 Jun 2027 10:10:23.601   11 Jun 2027 10:10:27.228             3.627           727.188
       351   11 Jun 2027 10:11:06.830   11 Jun 2027 10:11:09.560             2.730          1237.562
       352   11 Jun 2027 10:11:51.346   11 Jun 2027 10:11:55.798             4.452          1305.812
       353   11 Jun 2027 11:42:53.317   11 Jun 2027 11:43:05.745            12.428          6065.531
       354   11 Jun 2027 11:44:20.423   11 Jun 2027 11:44:26.984             6.561          2333.688
       355   11 Jun 2027 11:45:04.866   11 Jun 2027 11:45:09.289             4.423          1169.937
       356   11 Jun 2027 11:45:47.823   11 Jun 2027 11:45:52.348             4.525          1111.750
       357   11 Jun 2027 11:46:29.401   11 Jun 2027 11:46:29.514             0.113            56.500
       358   11 Jun 2027 11:47:03.728   11 Jun 2027 11:47:08.104             4.376          2170.594
       359   12 Jun 2027 03:53:43.360   12 Jun 2027 03:54:37.523            54.163         27081.500
       360   12 Jun 2027 03:55:13.026   12 Jun 2027 03:55:16.409             3.383          1691.500
       361   12 Jun 2027 03:55:49.879   12 Jun 2027 03:55:49.879             0.000             0.000
       362   12 Jun 2027 05:30:10.428   12 Jun 2027 05:32:20.713           130.285         65142.500
       363   12 Jun 2027 05:33:12.556   12 Jun 2027 05:33:14.362             1.806           903.000
       364   12 Jun 2027 07:02:20.005   12 Jun 2027 07:02:29.480             9.475          4737.500
       365   12 Jun 2027 07:04:15.598   12 Jun 2027 07:06:13.982           118.384         59192.000
       366   12 Jun 2027 07:06:21.200   12 Jun 2027 07:06:21.200             0.000             0.000
       367   12 Jun 2027 07:06:46.331   12 Jun 2027 07:06:52.675             6.344          1870.625
       368   12 Jun 2027 07:08:51.041   12 Jun 2027 07:08:51.041             0.000             0.000
       369   12 Jun 2027 07:09:21.360   12 Jun 2027 07:09:22.541             1.181           590.500
       370   12 Jun 2027 07:10:31.068   12 Jun 2027 07:10:43.607            12.539          6197.375
       371   12 Jun 2027 07:11:23.538   12 Jun 2027 07:11:26.192             2.654          1247.844
       372   12 Jun 2027 07:12:05.896   12 Jun 2027 07:12:07.627             1.731           865.500
       373   12 Jun 2027 08:41:13.974   12 Jun 2027 08:41:40.737            26.763         13208.594
       374   12 Jun 2027 08:43:30.302   12 Jun 2027 08:43:35.257             4.955          2477.500
       375   12 Jun 2027 08:43:47.965   12 Jun 2027 08:43:50.949             2.984           597.281
       376   12 Jun 2027 08:44:10.505   12 Jun 2027 08:44:11.564             1.059           366.187
       377   12 Jun 2027 08:44:18.273   12 Jun 2027 08:44:19.007             0.734           209.656
       378   12 Jun 2027 08:44:54.274   12 Jun 2027 08:44:55.255             0.981           357.063
       379   12 Jun 2027 08:45:25.255   12 Jun 2027 08:45:25.736             0.481           240.500
       380   12 Jun 2027 08:45:29.420   12 Jun 2027 08:45:34.205             4.785           788.500
       381   12 Jun 2027 08:45:37.130   12 Jun 2027 08:45:37.551             0.421            90.813
       382   12 Jun 2027 08:46:12.396   12 Jun 2027 08:46:16.306             3.910          1088.906
       383   12 Jun 2027 08:47:09.039   12 Jun 2027 08:47:15.833             6.794          1300.656
       384   12 Jun 2027 10:18:18.974   12 Jun 2027 10:18:37.159            18.185          9047.906
       385   12 Jun 2027 10:20:08.177   12 Jun 2027 10:20:16.243             8.066          1109.406
       386   12 Jun 2027 10:20:47.615   12 Jun 2027 10:20:53.306             5.691           980.375
       387   12 Jun 2027 10:21:02.050   12 Jun 2027 10:21:04.465             2.415           172.937
       388   12 Jun 2027 10:21:11.984   12 Jun 2027 10:21:14.022             2.038           105.406
       389   12 Jun 2027 10:21:20.424   12 Jun 2027 10:21:22.813             2.389           200.062
       390   12 Jun 2027 10:21:37.479   12 Jun 2027 10:21:38.458             0.979           193.281
       391   12 Jun 2027 10:22:03.661   12 Jun 2027 10:22:06.159             2.498           480.688
       392   12 Jun 2027 10:22:14.619   12 Jun 2027 10:22:16.532             1.913           264.375
       393   12 Jun 2027 10:23:04.995   12 Jun 2027 10:23:07.955             2.960          1111.313
       394   12 Jun 2027 10:23:12.339   12 Jun 2027 10:23:13.046             0.707           129.781
       395   12 Jun 2027 11:54:56.852   12 Jun 2027 11:55:15.981            19.129          8078.063
       396   12 Jun 2027 11:55:31.568   12 Jun 2027 11:55:38.845             7.277           468.500
       397   12 Jun 2027 11:56:27.931   12 Jun 2027 11:56:33.771             5.840          1533.938
       398   12 Jun 2027 11:57:50.481   12 Jun 2027 11:57:56.011             5.530          2245.500
       399   12 Jun 2027 11:58:56.050   12 Jun 2027 11:58:59.621             3.571          1785.500
       400   12 Jun 2027 11:59:07.758   12 Jun 2027 11:59:09.297             1.539           345.000
       401   13 Jun 2027 04:05:49.392   13 Jun 2027 04:06:39.035            49.643         24821.500
       402   13 Jun 2027 05:42:18.043   13 Jun 2027 05:44:38.636           140.593         70296.500
       403   13 Jun 2027 05:44:46.975   13 Jun 2027 05:44:49.827             2.852          1426.000
       404   13 Jun 2027 07:17:25.800   13 Jun 2027 07:19:38.422           132.622         65941.594
       405   13 Jun 2027 07:21:36.851   13 Jun 2027 07:21:39.953             3.102          1551.000
       406   13 Jun 2027 07:22:30.561   13 Jun 2027 07:22:31.036             0.475           237.500
       407   13 Jun 2027 07:23:47.875   13 Jun 2027 07:24:00.050            12.175          5730.812
       408   13 Jun 2027 08:53:47.470   13 Jun 2027 08:54:12.067            24.597         12028.125
       409   13 Jun 2027 08:54:32.786   13 Jun 2027 08:54:42.628             9.842           624.594
       410   13 Jun 2027 08:55:42.719   13 Jun 2027 08:55:47.926             5.207          1848.000
       411   13 Jun 2027 08:56:01.863   13 Jun 2027 08:56:03.938             2.075           112.531
       412   13 Jun 2027 08:56:20.815   13 Jun 2027 08:56:24.084             3.269           475.406
       413   13 Jun 2027 08:57:00.609   13 Jun 2027 08:57:02.343             1.734           857.500
       414   13 Jun 2027 08:57:21.685   13 Jun 2027 08:57:24.962             3.277           201.156
       415   13 Jun 2027 08:58:21.026   13 Jun 2027 08:58:24.638             3.612          1752.000
       416   13 Jun 2027 08:58:45.058   13 Jun 2027 08:58:46.575             1.517           106.656
       417   13 Jun 2027 08:58:59.210   13 Jun 2027 08:59:00.319             1.109           267.406
       418   13 Jun 2027 08:59:14.849   13 Jun 2027 08:59:16.637             1.788           454.063
       419   13 Jun 2027 10:31:12.921   13 Jun 2027 10:31:30.186            17.265          7925.719
       420   13 Jun 2027 10:31:44.605   13 Jun 2027 10:31:48.868             4.263           395.375
       421   13 Jun 2027 10:32:09.869   13 Jun 2027 10:32:11.522             1.653           656.281
       422   13 Jun 2027 10:32:45.614   13 Jun 2027 10:32:47.829             2.215           390.188
       423   13 Jun 2027 10:33:21.154   13 Jun 2027 10:33:22.959             1.805           891.187
       424   13 Jun 2027 10:33:49.598   13 Jun 2027 10:33:53.189             3.591           573.250
       425   13 Jun 2027 10:33:59.103   13 Jun 2027 10:34:01.349             2.246           184.812
       426   13 Jun 2027 10:34:15.222   13 Jun 2027 10:34:16.685             1.463           433.531
       427   13 Jun 2027 10:35:09.349   13 Jun 2027 10:35:12.738             3.389          1589.187
       428   13 Jun 2027 10:35:18.503   13 Jun 2027 10:35:27.111             8.608            19.125
       429   13 Jun 2027 10:35:36.073   13 Jun 2027 10:35:37.483             1.410           280.063
