uniorb/output/strategy_1/Camera/Camera_KinoSat_110303.txt

KinoSat_110303
-------------------------
    Access    *     Start Time (UTCG)     *     Stop Time (UTCG)  *   Duration (s) *   Data (Mbytes)
         1   01 Jun 2027 04:15:33.279   01 Jun 2027 04:17:48.430           135.151         67575.500
         2   01 Jun 2027 04:20:03.572   01 Jun 2027 04:20:18.386            14.814          7407.000
         3   01 Jun 2027 04:21:35.416   01 Jun 2027 04:22:20.287            44.871         22435.500
         4   01 Jun 2027 04:22:27.516   01 Jun 2027 04:22:37.954            10.438          5219.000
         5   01 Jun 2027 05:52:21.050   01 Jun 2027 05:56:03.864           222.814        111407.000
         6   01 Jun 2027 05:56:38.359   01 Jun 2027 05:56:49.776            11.417          5708.500
         7   01 Jun 2027 05:57:49.865   01 Jun 2027 05:57:54.489             4.624          2312.000
         8   01 Jun 2027 05:58:38.593   01 Jun 2027 05:58:50.997            12.404          6202.000
         9   01 Jun 2027 07:30:24.780   01 Jun 2027 07:33:21.775           176.995         88497.500
        10   01 Jun 2027 09:04:15.256   01 Jun 2027 09:06:39.029           143.773         71886.500
        11   01 Jun 2027 09:07:27.504   01 Jun 2027 09:07:27.504             0.000             0.000
        12   01 Jun 2027 09:07:55.255   01 Jun 2027 09:08:22.620            27.365         13682.500
        13   01 Jun 2027 09:09:26.668   01 Jun 2027 09:09:27.393             0.725           362.500
        14   01 Jun 2027 09:09:52.754   01 Jun 2027 09:10:09.623            16.869          8434.500
        15   02 Jun 2027 04:27:36.207   02 Jun 2027 04:34:23.336           407.129        203564.500
        16   02 Jun 2027 04:34:36.610   02 Jun 2027 04:34:36.719             0.109            54.500
        17   02 Jun 2027 06:04:30.630   02 Jun 2027 06:07:36.884           186.254         93127.000
        18   02 Jun 2027 06:07:50.399   02 Jun 2027 06:07:57.848             7.449          3724.500
        19   02 Jun 2027 06:08:38.517   02 Jun 2027 06:08:41.405             2.888          1444.000
        20   02 Jun 2027 06:09:13.268   02 Jun 2027 06:09:24.602            11.334          5667.000
        21   02 Jun 2027 06:10:03.703   02 Jun 2027 06:10:26.260            22.557         11278.500
        22   02 Jun 2027 07:41:36.974   02 Jun 2027 07:44:11.741           154.767         77383.500
        23   02 Jun 2027 07:44:16.694   02 Jun 2027 07:44:27.880            11.186          5593.000
        24   02 Jun 2027 07:45:40.141   02 Jun 2027 07:45:57.549            17.408          8704.000
        25   02 Jun 2027 09:16:38.471   02 Jun 2027 09:17:21.691            43.220         21610.000
        26   02 Jun 2027 09:18:18.159   02 Jun 2027 09:19:56.807            98.648         49324.000
        27   02 Jun 2027 09:20:23.087   02 Jun 2027 09:21:06.422            43.335         21667.500
        28   03 Jun 2027 03:01:07.930   03 Jun 2027 03:06:52.040           344.110        172055.000
        29   03 Jun 2027 03:07:30.638   03 Jun 2027 03:07:56.113            25.475         12737.500
        30   03 Jun 2027 03:08:58.448   03 Jun 2027 03:09:12.378            13.930          6965.000
        31   03 Jun 2027 03:09:53.296   03 Jun 2027 03:10:15.494            22.198         11099.000
        32   03 Jun 2027 03:10:59.863   03 Jun 2027 03:11:01.854             1.991           995.500
        33   03 Jun 2027 04:40:01.928   03 Jun 2027 04:42:20.713           138.785         69392.500
        34   03 Jun 2027 04:43:45.946   03 Jun 2027 04:44:34.218            48.272         24136.000
        35   03 Jun 2027 04:45:08.408   03 Jun 2027 04:45:25.423            17.015          8507.500
        36   03 Jun 2027 04:45:45.717   03 Jun 2027 04:45:55.019             9.302          4651.000
        37   03 Jun 2027 06:16:58.056   03 Jun 2027 06:19:15.823           137.767         68883.500
        38   03 Jun 2027 06:19:34.035   03 Jun 2027 06:19:35.237             1.202           601.000
        39   03 Jun 2027 06:19:53.077   03 Jun 2027 06:20:02.639             9.562          4781.000
        40   03 Jun 2027 06:20:42.154   03 Jun 2027 06:20:59.840            17.686          8843.000
        41   03 Jun 2027 06:21:55.291   03 Jun 2027 06:22:04.479             9.188          4594.000
        42   03 Jun 2027 06:22:13.422   03 Jun 2027 06:22:21.249             7.827          3913.500
        43   03 Jun 2027 07:53:48.464   03 Jun 2027 07:56:13.275           144.811         72405.500
        44   03 Jun 2027 07:56:45.634   03 Jun 2027 07:57:01.441            15.807          7903.500
        45   03 Jun 2027 07:57:16.306   03 Jun 2027 07:57:26.406            10.100          5050.000
        46   03 Jun 2027 07:58:02.042   03 Jun 2027 07:58:02.042             0.000             0.000
        47   03 Jun 2027 07:58:16.559   03 Jun 2027 07:58:21.042             4.483          2241.500
        48   03 Jun 2027 09:31:25.581   03 Jun 2027 09:33:08.508           102.927         51463.500
        49   04 Jun 2027 03:15:20.771   04 Jun 2027 03:20:05.372           284.601        142300.500
        50   04 Jun 2027 03:20:35.483   04 Jun 2027 03:20:37.637             2.154          1077.000
        51   04 Jun 2027 03:20:53.726   04 Jun 2027 03:21:26.239            32.513         16256.500
        52   04 Jun 2027 03:22:54.978   04 Jun 2027 03:22:57.097             2.119          1059.500
        53   04 Jun 2027 04:52:08.781   04 Jun 2027 04:54:07.550           118.769         59384.500
        54   04 Jun 2027 04:55:48.292   04 Jun 2027 04:56:22.791            34.499         17249.500
        55   04 Jun 2027 04:56:35.402   04 Jun 2027 04:56:51.742            16.340          8170.000
        56   04 Jun 2027 04:57:31.732   04 Jun 2027 04:57:37.517             5.785          2892.500
        57   04 Jun 2027 04:58:30.599   04 Jun 2027 04:58:51.512            20.913         10456.500
        58   04 Jun 2027 06:29:49.792   04 Jun 2027 06:32:10.150           140.358         70179.000
        59   04 Jun 2027 06:32:23.971   04 Jun 2027 06:32:40.127            16.156          8078.000
        60   04 Jun 2027 06:33:12.477   04 Jun 2027 06:33:13.138             0.661           330.500
        61   04 Jun 2027 06:33:15.263   04 Jun 2027 06:33:16.356             1.093           546.500
        62   04 Jun 2027 06:34:10.398   04 Jun 2027 06:34:17.165             6.767          3383.500
        63   04 Jun 2027 08:05:50.965   04 Jun 2027 08:07:32.295           101.330         50665.000
        64   04 Jun 2027 08:07:54.501   04 Jun 2027 08:07:55.492             0.991           495.500
        65   04 Jun 2027 08:08:24.473   04 Jun 2027 08:08:39.731            15.258          7629.000
        66   04 Jun 2027 08:09:26.855   04 Jun 2027 08:09:32.711             5.856          2928.000
        67   04 Jun 2027 08:09:45.828   04 Jun 2027 08:09:57.029            11.201          5600.500
        68   05 Jun 2027 03:28:21.834   05 Jun 2027 03:32:17.847           236.013        118006.500
        69   05 Jun 2027 03:32:25.423   05 Jun 2027 03:32:45.785            20.362         10181.000
        70   05 Jun 2027 03:33:14.407   05 Jun 2027 03:33:22.472             8.065          4032.500
        71   05 Jun 2027 03:34:31.167   05 Jun 2027 03:34:58.768            27.601         13800.500
        72   05 Jun 2027 05:04:44.418   05 Jun 2027 05:06:45.706           121.288         60644.000
        73   05 Jun 2027 05:06:57.369   05 Jun 2027 05:07:23.050            25.681         12840.500
        74   05 Jun 2027 05:08:47.658   05 Jun 2027 05:09:00.192            12.534          6267.000
        75   05 Jun 2027 05:09:10.080   05 Jun 2027 05:09:21.798            11.718          5859.000
        76   05 Jun 2027 05:09:33.643   05 Jun 2027 05:09:36.403             2.760          1380.000
        77   05 Jun 2027 05:10:24.358   05 Jun 2027 05:10:41.317            16.959          8479.500
        78   05 Jun 2027 06:41:59.491   05 Jun 2027 06:44:10.720           131.229         65614.500
        79   05 Jun 2027 06:44:21.897   05 Jun 2027 06:44:27.991             6.094          3047.000
        80   05 Jun 2027 06:45:05.776   05 Jun 2027 06:45:18.227            12.451          6225.500
        81   05 Jun 2027 06:45:26.615   05 Jun 2027 06:45:26.615             0.000             0.000
        82   05 Jun 2027 06:45:34.331   05 Jun 2027 06:45:53.178            18.847          9423.500
        83   05 Jun 2027 08:18:14.387   05 Jun 2027 08:19:26.122            71.735         35867.500
        84   05 Jun 2027 08:20:09.927   05 Jun 2027 08:20:14.626             4.699          2349.500
        85   05 Jun 2027 08:20:38.467   05 Jun 2027 08:20:51.345            12.878          6439.000
        86   05 Jun 2027 08:22:27.917   05 Jun 2027 08:22:43.457            15.540          7770.000
        87   05 Jun 2027 08:22:57.059   05 Jun 2027 08:22:57.790             0.731           365.500
        88   06 Jun 2027 03:40:03.615   06 Jun 2027 03:44:27.688           264.073        132036.500
        89   06 Jun 2027 03:44:45.531   06 Jun 2027 03:44:45.531             0.000             0.000
        90   06 Jun 2027 03:44:56.874   06 Jun 2027 03:45:20.995            24.121         12060.500
        91   06 Jun 2027 03:45:51.647   06 Jun 2027 03:45:51.647             0.000             0.000
        92   06 Jun 2027 03:45:53.610   06 Jun 2027 03:46:30.447            36.837         18418.500
        93   06 Jun 2027 03:46:39.771   06 Jun 2027 03:47:06.037            26.266         13133.000
        94   06 Jun 2027 05:16:16.237   06 Jun 2027 05:19:49.575           213.338        106669.000
        95   06 Jun 2027 05:21:38.412   06 Jun 2027 05:22:03.283            24.871         12435.500
        96   06 Jun 2027 06:54:29.101   06 Jun 2027 06:57:11.274           162.173         81086.500
        97   06 Jun 2027 06:58:08.256   06 Jun 2027 06:58:27.822            19.566          9783.000
        98   06 Jun 2027 08:29:56.830   06 Jun 2027 08:30:53.502            56.672         28336.000
        99   06 Jun 2027 08:31:17.896   06 Jun 2027 08:31:18.641             0.745           372.500
       100   06 Jun 2027 08:31:30.131   06 Jun 2027 08:31:30.131             0.000             0.000
       101   06 Jun 2027 08:31:36.751   06 Jun 2027 08:31:38.944             2.193          1096.500
       102   06 Jun 2027 08:33:22.289   06 Jun 2027 08:33:56.573            34.284         17142.000
       103   06 Jun 2027 08:34:30.831   06 Jun 2027 08:34:32.681             1.850           925.000
       104   06 Jun 2027 08:34:37.256   06 Jun 2027 08:34:43.269             6.013          3006.500
       105   06 Jun 2027 08:35:17.087   06 Jun 2027 08:35:19.136             2.049          1024.500
       106   07 Jun 2027 03:51:36.942   07 Jun 2027 03:56:17.993           281.051        140525.500
       107   07 Jun 2027 03:57:15.239   07 Jun 2027 03:57:26.243            11.004          5502.000
       108   07 Jun 2027 03:58:55.991   07 Jun 2027 03:59:10.926            14.935          7467.500
       109   07 Jun 2027 05:28:38.231   07 Jun 2027 05:32:07.878           209.647        104823.500
       110   07 Jun 2027 05:32:15.790   07 Jun 2027 05:32:16.450             0.660           330.000
       111   07 Jun 2027 05:32:28.963   07 Jun 2027 05:32:45.428            16.465          8232.500
       112   07 Jun 2027 05:34:21.198   07 Jun 2027 05:34:45.929            24.731         12365.500
       113   07 Jun 2027 07:06:38.327   07 Jun 2027 07:09:13.527           155.200         77600.000
       114   07 Jun 2027 07:09:26.351   07 Jun 2027 07:09:37.209            10.858          5429.000
       115   07 Jun 2027 08:39:51.780   07 Jun 2027 08:40:44.554            52.774         26387.000
       116   07 Jun 2027 08:40:59.427   07 Jun 2027 08:41:01.122             1.695           847.500
       117   07 Jun 2027 08:41:32.284   07 Jun 2027 08:41:45.035            12.751          6375.500
       118   07 Jun 2027 08:42:12.098   07 Jun 2027 08:42:35.525            23.427         11713.500
       119   07 Jun 2027 08:44:10.038   07 Jun 2027 08:44:29.194            19.156          9578.000
       120   07 Jun 2027 08:45:41.172   07 Jun 2027 08:45:42.462             1.290           645.000
       121   07 Jun 2027 08:45:51.963   07 Jun 2027 08:45:53.789             1.826           913.000
       122   07 Jun 2027 08:46:23.483   07 Jun 2027 08:46:34.112            10.629          5314.500
       123   07 Jun 2027 08:47:21.251   07 Jun 2027 08:47:33.872            12.621          6310.500
       124   08 Jun 2027 04:03:46.275   08 Jun 2027 04:09:25.331           339.056        169528.000
       125   08 Jun 2027 04:10:12.344   08 Jun 2027 04:10:33.274            20.930         10465.000
       126   08 Jun 2027 04:10:52.024   08 Jun 2027 04:11:08.868            16.844          8422.000
       127   08 Jun 2027 04:11:11.520   08 Jun 2027 04:11:11.949             0.429           214.500
       128   08 Jun 2027 05:40:42.834   08 Jun 2027 05:43:50.203           187.369         93684.500
       129   08 Jun 2027 05:45:11.271   08 Jun 2027 05:45:28.452            17.181          8590.500
       130   08 Jun 2027 05:46:07.834   08 Jun 2027 05:46:34.763            26.929         13464.500
       131   08 Jun 2027 07:18:36.481   08 Jun 2027 07:21:01.370           144.889         72444.500
       132   08 Jun 2027 07:21:20.686   08 Jun 2027 07:21:24.758             4.072          2036.000
       133   08 Jun 2027 07:21:40.892   08 Jun 2027 07:21:45.825             4.933          2466.500
       134   08 Jun 2027 07:22:24.098   08 Jun 2027 07:22:32.844             8.746          4373.000
       135   08 Jun 2027 08:52:10.689   08 Jun 2027 08:52:39.172            28.483         14241.500
       136   08 Jun 2027 08:52:50.014   08 Jun 2027 08:53:10.436            20.422         10211.000
       137   08 Jun 2027 08:55:57.788   08 Jun 2027 08:56:07.184             9.396          4698.000
       138   08 Jun 2027 08:56:27.017   08 Jun 2027 08:56:33.206             6.189          3094.500
       139   08 Jun 2027 08:56:47.637   08 Jun 2027 08:56:49.693             2.056          1028.000
       140   08 Jun 2027 08:57:02.687   08 Jun 2027 08:57:05.875             3.188          1594.000
       141   08 Jun 2027 08:57:49.132   08 Jun 2027 08:58:01.403            12.271          6135.500
       142   08 Jun 2027 08:58:16.362   08 Jun 2027 08:58:23.489             7.127          3563.500
       143   08 Jun 2027 08:59:11.730   08 Jun 2027 08:59:17.000             5.270          2635.000
       144   08 Jun 2027 08:59:23.546   08 Jun 2027 08:59:28.194             4.648          2324.000
       145   09 Jun 2027 04:15:48.211   09 Jun 2027 04:22:35.127           406.916        203458.000
       146   09 Jun 2027 05:52:35.809   09 Jun 2027 05:56:09.224           213.415        106707.500
       147   09 Jun 2027 05:56:12.707   09 Jun 2027 05:56:19.522             6.815          3407.500
       148   09 Jun 2027 05:58:36.827   09 Jun 2027 05:58:56.757            19.930          9965.000
       149   09 Jun 2027 07:30:39.622   09 Jun 2027 07:33:04.364           144.742         72371.000
       150   09 Jun 2027 07:33:14.122   09 Jun 2027 07:33:21.301             7.179          3589.500
       151   09 Jun 2027 07:33:38.115   09 Jun 2027 07:33:40.916             2.801          1400.500
       152   09 Jun 2027 09:04:29.736   09 Jun 2027 09:04:54.935            25.199         12599.500
       153   09 Jun 2027 09:05:19.803   09 Jun 2027 09:05:28.259             8.456          4228.000
       154   09 Jun 2027 09:06:21.767   09 Jun 2027 09:06:35.962            14.195          7097.500
       155   09 Jun 2027 09:07:47.416   09 Jun 2027 09:08:09.530            22.114         11057.000
       156   09 Jun 2027 09:08:58.619   09 Jun 2027 09:09:04.433             5.814          2907.000
       157   09 Jun 2027 09:09:43.118   09 Jun 2027 09:09:47.321             4.203          2101.500
       158   09 Jun 2027 09:09:52.528   09 Jun 2027 09:09:55.957             3.429          1714.500
       159   09 Jun 2027 09:10:24.716   09 Jun 2027 09:10:45.907            21.191         10595.500
       160   10 Jun 2027 04:27:51.071   10 Jun 2027 04:34:11.530           380.459        190229.500
       161   10 Jun 2027 04:35:01.187   10 Jun 2027 04:35:03.095             1.908           954.000
       162   10 Jun 2027 06:04:45.451   10 Jun 2027 06:07:38.969           173.518         86759.000
       163   10 Jun 2027 06:08:14.822   10 Jun 2027 06:08:24.846            10.024          5012.000
       164   10 Jun 2027 06:08:44.408   10 Jun 2027 06:08:53.594             9.186          4593.000
       165   10 Jun 2027 06:09:32.308   10 Jun 2027 06:09:41.238             8.930          4465.000
       166   10 Jun 2027 06:10:46.343   10 Jun 2027 06:11:05.712            19.369          9684.500
       167   10 Jun 2027 07:41:51.904   10 Jun 2027 07:44:14.735           142.831         71415.500
       168   10 Jun 2027 07:44:44.592   10 Jun 2027 07:44:53.089             8.497          4248.500
       169   10 Jun 2027 07:45:28.157   10 Jun 2027 07:45:36.517             8.360          4180.000
       170   10 Jun 2027 07:46:39.631   10 Jun 2027 07:46:44.954             5.323          2661.500
       171   10 Jun 2027 09:16:53.466   10 Jun 2027 09:17:26.884            33.418         16709.000
       172   10 Jun 2027 09:19:08.908   10 Jun 2027 09:19:36.406            27.498         13749.000
       173   10 Jun 2027 09:21:26.086   10 Jun 2027 09:21:33.037             6.951          3475.500
       174   11 Jun 2027 03:01:22.740   11 Jun 2027 03:05:37.483           254.743        127371.500
       175   11 Jun 2027 03:06:49.116   11 Jun 2027 03:06:49.116             0.000             0.000
       176   11 Jun 2027 03:07:32.913   11 Jun 2027 03:07:34.569             1.656           828.000
       177   11 Jun 2027 03:07:58.010   11 Jun 2027 03:08:11.306            13.296          6648.000
       178   11 Jun 2027 03:08:58.039   11 Jun 2027 03:09:14.035            15.996          7998.000
       179   11 Jun 2027 03:10:07.504   11 Jun 2027 03:10:30.001            22.497         11248.500
       180   11 Jun 2027 03:11:14.518   11 Jun 2027 03:11:16.551             2.033          1016.500
       181   11 Jun 2027 04:40:16.957   11 Jun 2027 04:42:27.444           130.487         65243.500
       182   11 Jun 2027 04:42:35.403   11 Jun 2027 04:42:43.271             7.868          3934.000
       183   11 Jun 2027 04:45:22.646   11 Jun 2027 04:46:19.955            57.309         28654.500
       184   11 Jun 2027 04:46:34.497   11 Jun 2027 04:46:51.622            17.125          8562.500
       185   11 Jun 2027 06:17:12.723   11 Jun 2027 06:19:58.360           165.637         82818.500
       186   11 Jun 2027 06:19:59.104   11 Jun 2027 06:20:00.446             1.342           671.000
       187   11 Jun 2027 06:20:16.600   11 Jun 2027 06:20:17.348             0.748           374.000
       188   11 Jun 2027 06:20:39.472   11 Jun 2027 06:20:41.241             1.769           884.500
       189   11 Jun 2027 06:21:16.604   11 Jun 2027 06:21:29.965            13.361          6680.500
       190   11 Jun 2027 06:21:50.288   11 Jun 2027 06:22:10.802            20.514         10257.000
       191   11 Jun 2027 07:54:03.172   11 Jun 2027 07:55:50.657           107.485         53742.500
       192   11 Jun 2027 07:56:44.130   11 Jun 2027 07:56:56.050            11.920          5960.000
       193   11 Jun 2027 07:57:20.595   11 Jun 2027 07:57:21.738             1.143           571.500
       194   11 Jun 2027 07:57:31.175   11 Jun 2027 07:57:41.227            10.052          5026.000
       195   11 Jun 2027 07:58:16.692   11 Jun 2027 07:58:25.153             8.461          4230.500
       196   11 Jun 2027 09:31:40.310   11 Jun 2027 09:32:13.163            32.853         16426.500
       197   12 Jun 2027 03:15:44.910   12 Jun 2027 03:19:31.525           226.615        113307.500
       198   12 Jun 2027 03:20:10.815   12 Jun 2027 03:20:23.207            12.392          6196.000
       199   12 Jun 2027 03:21:40.921   12 Jun 2027 03:21:59.009            18.088          9044.000
       200   12 Jun 2027 03:23:09.613   12 Jun 2027 03:23:11.906             2.293          1146.500
       201   12 Jun 2027 04:52:24.731   12 Jun 2027 04:53:59.901            95.170         47585.000
       202   12 Jun 2027 04:54:22.333   12 Jun 2027 04:55:39.660            77.327         38663.500
       203   12 Jun 2027 04:56:00.974   12 Jun 2027 04:56:03.058             2.084          1042.000
       204   12 Jun 2027 04:58:25.947   12 Jun 2027 04:59:06.335            40.388         20194.000
       205   12 Jun 2027 06:30:05.171   12 Jun 2027 06:32:25.139           139.968         69984.000
       206   12 Jun 2027 06:32:38.644   12 Jun 2027 06:32:54.752            16.108          8054.000
       207   12 Jun 2027 06:33:28.113   12 Jun 2027 06:33:30.320             2.207          1103.500
       208   12 Jun 2027 06:33:59.612   12 Jun 2027 06:34:08.548             8.936          4468.000
       209   12 Jun 2027 06:34:16.493   12 Jun 2027 06:34:28.743            12.250          6125.000
       210   12 Jun 2027 08:06:05.654   12 Jun 2027 08:07:18.937            73.283         36641.500
       211   12 Jun 2027 08:07:46.867   12 Jun 2027 08:07:54.674             7.807          3903.500
       212   12 Jun 2027 08:08:10.911   12 Jun 2027 08:08:10.911             0.000             0.000
       213   12 Jun 2027 08:08:18.934   12 Jun 2027 08:08:22.255             3.321          1660.500
       214   12 Jun 2027 08:08:39.107   12 Jun 2027 08:08:45.117             6.010          3005.000
       215   12 Jun 2027 08:09:47.611   12 Jun 2027 08:10:02.293            14.682          7341.000
       216   12 Jun 2027 08:10:30.299   12 Jun 2027 08:10:43.684            13.385          6692.500
       217   13 Jun 2027 03:28:36.454   13 Jun 2027 03:32:32.539           236.085        118042.500
       218   13 Jun 2027 03:33:20.181   13 Jun 2027 03:33:29.007             8.826          4413.000
       219   13 Jun 2027 03:33:37.149   13 Jun 2027 03:33:37.149             0.000             0.000
       220   13 Jun 2027 03:34:06.103   13 Jun 2027 03:34:08.023             1.920           960.000
       221   13 Jun 2027 03:34:46.372   13 Jun 2027 03:35:13.542            27.170         13585.000
       222   13 Jun 2027 05:04:59.385   13 Jun 2027 05:07:40.996           161.611         80805.500
       223   13 Jun 2027 05:08:25.952   13 Jun 2027 05:08:37.791            11.839          5919.500
       224   13 Jun 2027 05:09:17.569   13 Jun 2027 05:09:22.153             4.584          2292.000
       225   13 Jun 2027 05:10:07.448   13 Jun 2027 05:10:22.797            15.349          7674.500
       226   13 Jun 2027 05:10:42.728   13 Jun 2027 05:10:42.999             0.271           135.500
       227   13 Jun 2027 05:10:55.803   13 Jun 2027 05:11:12.040            16.237          8118.500
       228   13 Jun 2027 06:42:13.966   13 Jun 2027 06:45:04.929           170.963         85481.500
       229   13 Jun 2027 06:45:20.292   13 Jun 2027 06:45:24.384             4.092          2046.000
       230   13 Jun 2027 06:46:08.591   13 Jun 2027 06:46:36.067            27.476         13738.000
       231   13 Jun 2027 08:18:29.625   13 Jun 2027 08:19:29.955            60.330         30165.000
       232   13 Jun 2027 08:19:54.036   13 Jun 2027 08:20:13.945            19.909          9954.500
       233   13 Jun 2027 08:21:34.044   13 Jun 2027 08:21:40.037             5.993          2996.500
       234   13 Jun 2027 08:22:46.356   13 Jun 2027 08:23:09.170            22.814         11407.000
