uniorb/output/strategy_1/Camera/Camera_KinoSat_111903.txt

KinoSat_111903
-------------------------
    Access    *     Start Time (UTCG)     *     Stop Time (UTCG)  *   Duration (s) *   Data (Mbytes)
         1   01 Jun 2027 03:20:00.432   01 Jun 2027 03:22:12.552           132.120         66060.000
         2   01 Jun 2027 03:23:45.783   01 Jun 2027 03:23:49.250             3.467          1733.500
         3   01 Jun 2027 03:24:31.186   01 Jun 2027 03:24:32.517             1.331           665.500
         4   01 Jun 2027 03:25:47.434   01 Jun 2027 03:26:13.193            25.759         12879.500
         5   01 Jun 2027 04:58:08.455   01 Jun 2027 04:59:10.388            61.933         30966.500
         6   01 Jun 2027 04:59:16.876   01 Jun 2027 04:59:41.370            24.494         12247.000
         7   01 Jun 2027 05:03:09.118   01 Jun 2027 05:03:19.710            10.592          5296.000
         8   01 Jun 2027 06:36:27.026   01 Jun 2027 06:36:59.241            32.215         16107.500
         9   01 Jun 2027 06:37:16.080   01 Jun 2027 06:38:17.602            61.522         30761.000
        10   01 Jun 2027 06:38:47.278   01 Jun 2027 06:38:54.661             7.383          3691.500
        11   01 Jun 2027 07:59:49.511   01 Jun 2027 08:02:19.292           149.781         74890.500
        12   01 Jun 2027 09:36:21.440   01 Jun 2027 09:37:20.847            59.407         29703.500
        13   01 Jun 2027 11:11:31.326   01 Jun 2027 11:13:09.113            97.787         48893.500
        14   01 Jun 2027 11:17:58.175   01 Jun 2027 11:18:07.675             9.500          4750.000
        15   02 Jun 2027 03:31:57.786   02 Jun 2027 03:33:55.620           117.834         58917.000
        16   02 Jun 2027 03:34:31.147   02 Jun 2027 03:34:51.633            20.486         10243.000
        17   02 Jun 2027 03:37:28.790   02 Jun 2027 03:37:32.487             3.697          1848.500
        18   02 Jun 2027 03:38:39.034   02 Jun 2027 03:38:53.421            14.387          7193.500
        19   02 Jun 2027 05:11:15.141   02 Jun 2027 05:12:19.585            64.444         32222.000
        20   02 Jun 2027 05:13:45.028   02 Jun 2027 05:14:28.122            43.094         21547.000
        21   02 Jun 2027 05:16:14.763   02 Jun 2027 05:16:23.173             8.410          4205.000
        22   02 Jun 2027 06:48:23.427   02 Jun 2027 06:49:03.043            39.616         19808.000
        23   02 Jun 2027 06:49:23.244   02 Jun 2027 06:50:18.742            55.498         27749.000
        24   02 Jun 2027 06:50:35.860   02 Jun 2027 06:50:37.788             1.928           964.000
        25   02 Jun 2027 06:51:52.952   02 Jun 2027 06:51:56.785             3.833          1916.500
        26   02 Jun 2027 08:12:25.318   02 Jun 2027 08:14:32.567           127.249         63624.500
        27   02 Jun 2027 09:49:47.603   02 Jun 2027 09:50:48.058            60.455         30227.500
        28   02 Jun 2027 11:23:10.673   02 Jun 2027 11:25:03.719           113.046         56523.000
        29   02 Jun 2027 11:26:01.494   02 Jun 2027 11:26:11.165             9.671          4835.500
        30   02 Jun 2027 11:29:49.684   02 Jun 2027 11:30:15.388            25.704         12852.000
        31   03 Jun 2027 03:44:38.171   03 Jun 2027 03:46:19.139           100.968         50484.000
        32   03 Jun 2027 03:46:50.857   03 Jun 2027 03:46:55.976             5.119          2559.500
        33   03 Jun 2027 03:51:08.429   03 Jun 2027 03:51:09.312             0.883           441.500
        34   03 Jun 2027 05:23:19.250   03 Jun 2027 05:25:16.523           117.273         58636.500
        35   03 Jun 2027 05:29:46.454   03 Jun 2027 05:29:51.191             4.737          2368.500
        36   03 Jun 2027 05:30:20.644   03 Jun 2027 05:30:56.262            35.618         17809.000
        37   03 Jun 2027 06:49:10.941   03 Jun 2027 06:49:58.728            47.787         23893.500
        38   03 Jun 2027 07:00:19.653   03 Jun 2027 07:01:09.036            49.383         24691.500
        39   03 Jun 2027 07:03:10.414   03 Jun 2027 07:03:10.414             0.000             0.000
        40   03 Jun 2027 08:22:58.391   03 Jun 2027 08:25:11.377           132.986         66493.000
        41   03 Jun 2027 09:58:33.473   03 Jun 2027 09:59:12.091            38.618         19309.000
        42   03 Jun 2027 09:59:58.890   03 Jun 2027 10:00:21.510            22.620         11310.000
        43   03 Jun 2027 11:39:06.794   03 Jun 2027 11:40:21.966            75.172         37502.282
        44   03 Jun 2027 11:41:06.045   03 Jun 2027 11:41:14.086             8.041          1212.031
        45   03 Jun 2027 11:41:38.109   03 Jun 2027 11:41:39.490             1.381           690.500
        46   03 Jun 2027 11:41:52.418   03 Jun 2027 11:41:55.094             2.676           413.875
        47   03 Jun 2027 11:42:13.839   03 Jun 2027 11:42:17.231             3.392           326.156
        48   04 Jun 2027 03:56:44.226   04 Jun 2027 03:58:28.532           104.306         52153.000
        49   04 Jun 2027 03:59:06.875   04 Jun 2027 03:59:16.354             9.479          4739.500
        50   04 Jun 2027 03:59:45.611   04 Jun 2027 03:59:56.169            10.558          5279.000
        51   04 Jun 2027 04:00:55.390   04 Jun 2027 04:00:55.390             0.000             0.000
        52   04 Jun 2027 04:01:40.479   04 Jun 2027 04:01:45.417             4.938          2469.000
        53   04 Jun 2027 05:35:48.546   04 Jun 2027 05:37:29.152           100.606         50303.000
        54   04 Jun 2027 05:37:46.151   04 Jun 2027 05:37:47.217             1.066           533.000
        55   04 Jun 2027 05:39:21.226   04 Jun 2027 05:39:23.639             2.413          1206.500
        56   04 Jun 2027 05:41:03.650   04 Jun 2027 05:41:11.735             8.085          4042.500
        57   04 Jun 2027 07:00:40.620   04 Jun 2027 07:02:11.926            91.306         45653.000
        58   04 Jun 2027 07:12:22.976   04 Jun 2027 07:13:00.492            37.516         18758.000
        59   04 Jun 2027 08:34:36.522   04 Jun 2027 08:35:15.193            38.671         19335.500
        60   04 Jun 2027 08:37:11.115   04 Jun 2027 08:37:26.359            15.244          6207.187
        61   04 Jun 2027 08:39:35.322   04 Jun 2027 08:39:35.322             0.000             0.000
        62   04 Jun 2027 10:09:39.635   04 Jun 2027 10:09:53.732            14.097          6428.719
        63   04 Jun 2027 10:12:25.241   04 Jun 2027 10:12:34.725             9.484          4108.750
        64   04 Jun 2027 10:14:42.110   04 Jun 2027 10:14:42.566             0.456           228.000
        65   04 Jun 2027 11:53:22.017   04 Jun 2027 11:54:18.444            56.427         23070.750
        66   05 Jun 2027 04:09:04.695   05 Jun 2027 04:09:19.859            15.164          7582.000
        67   05 Jun 2027 04:10:23.173   05 Jun 2027 04:12:10.561           107.388         53694.000
        68   05 Jun 2027 04:13:12.222   05 Jun 2027 04:13:12.850             0.628           314.000
        69   05 Jun 2027 04:14:35.844   05 Jun 2027 04:14:44.192             8.348          4174.000
        70   05 Jun 2027 05:47:50.811   05 Jun 2027 05:49:35.793           104.982         52491.000
        71   05 Jun 2027 05:50:20.430   05 Jun 2027 05:50:28.619             8.189          4094.500
        72   05 Jun 2027 05:52:16.048   05 Jun 2027 05:52:35.946            19.898          9949.000
        73   05 Jun 2027 05:52:41.000   05 Jun 2027 05:52:58.487            17.487          8743.500
        74   05 Jun 2027 05:54:48.748   05 Jun 2027 05:54:50.868             2.120          1060.000
        75   05 Jun 2027 07:12:11.311   05 Jun 2027 07:13:38.390            87.079         43539.500
        76   05 Jun 2027 07:14:07.051   05 Jun 2027 07:14:11.147             4.096          1887.344
        77   05 Jun 2027 07:24:25.352   05 Jun 2027 07:24:44.585            19.233          7347.250
        78   05 Jun 2027 08:46:20.285   05 Jun 2027 08:46:47.934            27.649         13533.094
        79   05 Jun 2027 08:48:23.453   05 Jun 2027 08:48:27.794             4.341          2093.062
        80   05 Jun 2027 08:49:27.806   05 Jun 2027 08:49:30.539             2.733           865.844
        81   05 Jun 2027 08:51:21.779   05 Jun 2027 08:51:29.721             7.942          3293.313
        82   05 Jun 2027 10:22:02.987   05 Jun 2027 10:22:02.987             0.000             0.000
        83   05 Jun 2027 10:23:06.815   05 Jun 2027 10:23:07.534             0.719           359.500
        84   05 Jun 2027 10:23:41.178   05 Jun 2027 10:23:41.178             0.000             0.000
        85   05 Jun 2027 10:27:29.813   05 Jun 2027 10:28:06.296            36.483         17509.437
        86   06 Jun 2027 04:21:47.289   06 Jun 2027 04:22:58.607            71.318         35659.000
        87   06 Jun 2027 04:24:26.438   06 Jun 2027 04:24:51.557            25.119         12559.500
        88   06 Jun 2027 04:25:00.359   06 Jun 2027 04:25:12.485            12.126          6063.000
        89   06 Jun 2027 04:25:57.696   06 Jun 2027 04:26:00.094             2.398          1199.000
        90   06 Jun 2027 04:27:02.343   06 Jun 2027 04:27:02.343             0.000             0.000
        91   06 Jun 2027 06:00:14.682   06 Jun 2027 06:02:47.274           152.592         76296.000
        92   06 Jun 2027 06:04:03.334   06 Jun 2027 06:04:07.043             3.709          1854.500
        93   06 Jun 2027 07:24:10.364   06 Jun 2027 07:25:44.072            93.708         46769.031
        94   06 Jun 2027 07:26:09.175   06 Jun 2027 07:26:09.175             0.000             0.000
        95   06 Jun 2027 09:00:07.055   06 Jun 2027 09:00:37.894            30.839         15419.500
        96   06 Jun 2027 09:01:46.645   06 Jun 2027 09:01:51.920             5.275          2365.969
        97   06 Jun 2027 09:03:02.848   06 Jun 2027 09:03:06.414             3.566           983.062
        98   06 Jun 2027 10:33:56.724   06 Jun 2027 10:34:15.367            18.643          6128.781
        99   06 Jun 2027 10:35:14.149   06 Jun 2027 10:35:20.092             5.943           715.437
       100   06 Jun 2027 10:36:12.467   06 Jun 2027 10:36:15.326             2.859          1168.812
       101   06 Jun 2027 10:40:01.954   06 Jun 2027 10:40:01.954             0.000             0.000
       102   06 Jun 2027 10:40:37.165   06 Jun 2027 10:40:51.620            14.455          7227.500
       103   06 Jun 2027 10:41:46.930   06 Jun 2027 10:41:52.255             5.325          2594.406
       104   06 Jun 2027 10:41:59.802   06 Jun 2027 10:42:00.401             0.599           235.844
       105   06 Jun 2027 10:42:24.884   06 Jun 2027 10:42:28.534             3.650           111.062
       106   07 Jun 2027 03:00:00.000   07 Jun 2027 03:00:22.162            22.162         11081.000
       107   07 Jun 2027 03:00:26.793   07 Jun 2027 03:00:29.175             2.382          1191.000
       108   07 Jun 2027 03:00:46.798   07 Jun 2027 03:00:54.508             7.710          3855.000
       109   07 Jun 2027 03:01:03.257   07 Jun 2027 03:01:09.563             6.306          3153.000
       110   07 Jun 2027 04:34:32.128   07 Jun 2027 04:34:51.838            19.710          9855.000
       111   07 Jun 2027 04:35:07.135   07 Jun 2027 04:36:00.043            52.908         26454.000
       112   07 Jun 2027 04:36:01.838   07 Jun 2027 04:36:16.974            15.136          7568.000
       113   07 Jun 2027 04:36:27.485   07 Jun 2027 04:36:43.769            16.284          8142.000
       114   07 Jun 2027 04:37:42.500   07 Jun 2027 04:37:44.870             2.370          1185.000
       115   07 Jun 2027 04:39:11.544   07 Jun 2027 04:39:11.544             0.000             0.000
       116   07 Jun 2027 04:39:47.513   07 Jun 2027 04:39:56.751             9.238          4619.000
       117   07 Jun 2027 04:40:29.859   07 Jun 2027 04:40:32.560             2.701          1350.500
       118   07 Jun 2027 06:12:40.264   07 Jun 2027 06:14:23.703           103.439         51719.500
       119   07 Jun 2027 06:15:04.364   07 Jun 2027 06:15:05.758             1.394           697.000
       120   07 Jun 2027 06:16:14.557   07 Jun 2027 06:16:30.895            16.338          8169.000
       121   07 Jun 2027 07:36:04.969   07 Jun 2027 07:37:43.478            98.509         48358.906
       122   07 Jun 2027 07:38:13.457   07 Jun 2027 07:38:13.457             0.000             0.000
       123   07 Jun 2027 07:38:22.025   07 Jun 2027 07:38:26.236             4.211          1010.063
       124   07 Jun 2027 09:12:29.070   07 Jun 2027 09:12:49.990            20.920         10460.000
       125   07 Jun 2027 09:12:56.188   07 Jun 2027 09:13:02.857             6.669          3334.500
       126   07 Jun 2027 09:13:18.299   07 Jun 2027 09:13:21.010             2.711          1262.656
       127   07 Jun 2027 10:46:17.182   07 Jun 2027 10:46:31.914            14.732          5826.563
       128   07 Jun 2027 10:47:14.389   07 Jun 2027 10:47:16.732             2.343           879.375
       129   07 Jun 2027 10:48:26.107   07 Jun 2027 10:48:30.042             3.935           737.594
       130   07 Jun 2027 10:49:18.290   07 Jun 2027 10:49:36.156            17.866          1507.750
       131   07 Jun 2027 10:49:48.557   07 Jun 2027 10:49:52.293             3.736           319.625
       132   07 Jun 2027 10:51:00.704   07 Jun 2027 10:51:04.914             4.210          1680.375
       133   07 Jun 2027 10:51:51.107   07 Jun 2027 10:51:54.725             3.618          1414.688
       134   07 Jun 2027 10:52:53.419   07 Jun 2027 10:52:56.659             3.240           656.844
       135   07 Jun 2027 10:53:17.359   07 Jun 2027 10:53:22.730             5.371           646.875
       136   07 Jun 2027 10:53:51.935   07 Jun 2027 10:53:55.209             3.274           860.719
       137   08 Jun 2027 03:08:17.000   08 Jun 2027 03:08:54.628            37.628         18814.000
       138   08 Jun 2027 03:09:46.174   08 Jun 2027 03:10:05.726            19.552          9776.000
       139   08 Jun 2027 03:11:14.130   08 Jun 2027 03:11:18.929             4.799          2399.500
       140   08 Jun 2027 03:11:46.042   08 Jun 2027 03:11:46.042             0.000             0.000
       141   08 Jun 2027 03:12:06.226   08 Jun 2027 03:12:22.839            16.613          8306.500
       142   08 Jun 2027 03:13:14.801   08 Jun 2027 03:13:17.849             3.048          1524.000
       143   08 Jun 2027 04:46:40.318   08 Jun 2027 04:47:31.744            51.426         25713.000
       144   08 Jun 2027 04:47:37.875   08 Jun 2027 04:48:18.183            40.308         20154.000
       145   08 Jun 2027 04:49:10.735   08 Jun 2027 04:49:20.332             9.597          4798.500
       146   08 Jun 2027 04:49:35.127   08 Jun 2027 04:49:44.077             8.950          4475.000
       147   08 Jun 2027 04:52:12.984   08 Jun 2027 04:52:13.677             0.693           346.500
       148   08 Jun 2027 04:52:25.005   08 Jun 2027 04:52:32.232             7.227          3613.500
       149   08 Jun 2027 06:24:58.447   08 Jun 2027 06:26:29.893            91.446         45723.000
       150   08 Jun 2027 06:27:41.241   08 Jun 2027 06:27:46.579             5.338          2669.000
       151   08 Jun 2027 06:28:19.918   08 Jun 2027 06:28:21.358             1.440           720.000
       152   08 Jun 2027 07:47:52.337   08 Jun 2027 07:49:12.687            80.350         39367.407
       153   08 Jun 2027 07:50:36.136   08 Jun 2027 07:50:39.659             3.523          1761.500
       154   08 Jun 2027 09:24:32.554   08 Jun 2027 09:24:48.517            15.963          7211.875
       155   08 Jun 2027 09:25:01.900   08 Jun 2027 09:25:02.082             0.182            91.000
       156   08 Jun 2027 09:25:17.205   08 Jun 2027 09:25:17.205             0.000             0.000
       157   08 Jun 2027 09:25:25.149   08 Jun 2027 09:25:27.288             2.139           897.625
       158   08 Jun 2027 09:25:42.038   08 Jun 2027 09:25:42.038             0.000             0.000
       159   08 Jun 2027 09:26:53.960   08 Jun 2027 09:27:06.557            12.597          2460.500
       160   08 Jun 2027 10:59:31.837   08 Jun 2027 10:59:49.641            17.804          7109.625
       161   08 Jun 2027 11:00:45.937   08 Jun 2027 11:00:45.937             0.000             0.000
       162   08 Jun 2027 11:02:55.689   08 Jun 2027 11:03:08.438            12.749          4800.125
       163   08 Jun 2027 11:05:32.383   08 Jun 2027 11:05:40.288             7.905          3746.344
       164   08 Jun 2027 11:05:50.272   08 Jun 2027 11:05:50.272             0.000             0.000
       165   08 Jun 2027 11:06:15.389   08 Jun 2027 11:06:17.302             1.913           945.000
       166   09 Jun 2027 03:20:17.888   09 Jun 2027 03:22:25.616           127.728         63864.000
       167   09 Jun 2027 03:27:25.770   09 Jun 2027 03:27:28.386             2.616          1308.000
       168   09 Jun 2027 04:58:26.198   09 Jun 2027 04:59:27.355            61.157         30578.500
       169   09 Jun 2027 04:59:34.071   09 Jun 2027 04:59:56.467            22.396         11198.000
       170   09 Jun 2027 05:00:29.082   09 Jun 2027 05:00:33.428             4.346          2173.000
       171   09 Jun 2027 05:01:57.794   09 Jun 2027 05:02:09.772            11.978          5989.000
       172   09 Jun 2027 05:02:29.612   09 Jun 2027 05:02:44.617            15.005          7502.500
       173   09 Jun 2027 05:03:54.448   09 Jun 2027 05:03:57.777             3.329          1664.500
       174   09 Jun 2027 06:36:43.571   09 Jun 2027 06:38:15.541            91.970         45985.000
       175   09 Jun 2027 06:40:28.282   09 Jun 2027 06:40:32.545             4.263          2131.500
       176   09 Jun 2027 08:00:06.940   09 Jun 2027 08:00:38.123            31.183         15591.500
       177   09 Jun 2027 08:00:43.916   09 Jun 2027 08:00:51.907             7.991          3160.688
       178   09 Jun 2027 08:01:08.595   09 Jun 2027 08:01:14.561             5.966           414.062
       179   09 Jun 2027 08:02:53.357   09 Jun 2027 08:02:53.357             0.000             0.000
       180   09 Jun 2027 09:36:39.183   09 Jun 2027 09:36:56.577            17.394          8697.000
       181   09 Jun 2027 09:39:07.139   09 Jun 2027 09:39:07.139             0.000             0.000
       182   09 Jun 2027 11:11:49.768   09 Jun 2027 11:12:03.368            13.600          6370.375
       183   09 Jun 2027 11:14:37.527   09 Jun 2027 11:14:48.303            10.776          4570.375
       184   09 Jun 2027 11:17:59.827   09 Jun 2027 11:17:59.827             0.000             0.000
       185   09 Jun 2027 11:18:06.837   09 Jun 2027 11:18:20.806            13.969          5614.250
       186   10 Jun 2027 03:32:15.174   10 Jun 2027 03:34:17.227           122.053         61026.500
       187   10 Jun 2027 03:34:41.036   10 Jun 2027 03:35:07.159            26.123         13061.500
       188   10 Jun 2027 05:11:32.925   10 Jun 2027 05:12:58.650            85.725         42862.500
       189   10 Jun 2027 05:16:31.756   10 Jun 2027 05:16:38.636             6.880          3440.000
       190   10 Jun 2027 05:18:02.868   10 Jun 2027 05:18:11.339             8.471          4235.500
       191   10 Jun 2027 05:18:30.035   10 Jun 2027 05:19:12.068            42.033         21016.500
       192   10 Jun 2027 06:48:40.545   10 Jun 2027 06:49:21.042            40.497         20248.500
       193   10 Jun 2027 06:49:38.631   10 Jun 2027 06:50:16.648            38.017         19008.500
       194   10 Jun 2027 06:51:41.284   10 Jun 2027 06:51:48.905             7.621          3810.500
       195   10 Jun 2027 08:12:08.556   10 Jun 2027 08:12:44.100            35.544         16775.343
       196   10 Jun 2027 08:13:40.836   10 Jun 2027 08:13:47.199             6.363           925.469
       197   10 Jun 2027 09:48:31.517   10 Jun 2027 09:48:46.115            14.598          6831.156
       198   10 Jun 2027 11:23:25.336   10 Jun 2027 11:23:48.290            22.954         11225.531
       199   10 Jun 2027 11:30:06.454   10 Jun 2027 11:30:30.178            23.724         11565.187
       200   11 Jun 2027 03:44:56.503   11 Jun 2027 03:46:34.280            97.777         48888.500
       201   11 Jun 2027 03:47:05.368   11 Jun 2027 03:47:31.291            25.923         12961.500
       202   11 Jun 2027 03:49:52.697   11 Jun 2027 03:50:09.073            16.376          8188.000
       203   11 Jun 2027 05:23:37.157   11 Jun 2027 05:24:52.444            75.287         37643.500
       204   11 Jun 2027 05:25:39.119   11 Jun 2027 05:25:47.893             8.774          4387.000
       205   11 Jun 2027 05:27:08.478   11 Jun 2027 05:27:10.489             2.011          1005.500
       206   11 Jun 2027 05:30:01.556   11 Jun 2027 05:30:14.418            12.862          6431.000
       207   11 Jun 2027 06:49:24.474   11 Jun 2027 06:50:18.347            53.873         26936.500
       208   11 Jun 2027 07:00:37.389   11 Jun 2027 07:01:28.329            50.940         25470.000
       209   11 Jun 2027 07:01:44.660   11 Jun 2027 07:01:52.088             7.428          3714.000
       210   11 Jun 2027 08:23:14.218   11 Jun 2027 08:23:44.079            29.861         14276.406
       211   11 Jun 2027 08:24:26.798   11 Jun 2027 08:24:26.798             0.000             0.000
       212   11 Jun 2027 08:24:32.085   11 Jun 2027 08:24:34.324             2.239           916.250
       213   11 Jun 2027 08:25:42.710   11 Jun 2027 08:25:56.039            13.329          1927.688
       214   11 Jun 2027 08:27:22.049   11 Jun 2027 08:27:26.298             4.249          1239.750
       215   11 Jun 2027 10:02:38.678   11 Jun 2027 10:03:00.612            21.934         10967.000
       216   11 Jun 2027 10:04:14.689   11 Jun 2027 10:04:25.009            10.320          4930.344
       217   11 Jun 2027 11:35:01.449   11 Jun 2027 11:35:11.237             9.788          4105.375
       218   11 Jun 2027 11:35:49.400   11 Jun 2027 11:35:53.356             3.956          1096.188
       219   11 Jun 2027 11:36:53.371   11 Jun 2027 11:36:55.043             1.672           797.156
       220   11 Jun 2027 11:38:29.565   11 Jun 2027 11:38:33.817             4.252          1974.281
       221   11 Jun 2027 11:39:36.404   11 Jun 2027 11:39:41.180             4.776          1715.313
       222   11 Jun 2027 11:40:19.114   11 Jun 2027 11:40:27.079             7.965          1018.875
       223   11 Jun 2027 11:41:46.870   11 Jun 2027 11:41:52.074             5.204          2186.531
       224   11 Jun 2027 11:41:54.129   11 Jun 2027 11:41:54.142             0.013             6.500
       225   11 Jun 2027 11:42:07.469   11 Jun 2027 11:42:09.880             2.411           474.188
       226   11 Jun 2027 11:42:32.704   11 Jun 2027 11:42:32.704             0.000             0.000
       227   12 Jun 2027 03:57:02.601   12 Jun 2027 03:58:57.716           115.115         57557.500
       228   12 Jun 2027 04:00:02.775   12 Jun 2027 04:00:12.878            10.103          5051.500
       229   12 Jun 2027 04:00:49.825   12 Jun 2027 04:00:49.825             0.000             0.000
       230   12 Jun 2027 04:01:22.600   12 Jun 2027 04:01:23.282             0.682           341.000
       231   12 Jun 2027 04:02:13.788   12 Jun 2027 04:02:15.480             1.692           846.000
       232   12 Jun 2027 05:36:07.367   12 Jun 2027 05:38:00.805           113.438         56719.000
       233   12 Jun 2027 05:39:51.320   12 Jun 2027 05:39:54.406             3.086          1543.000
       234   12 Jun 2027 05:42:31.452   12 Jun 2027 05:42:31.452             0.000             0.000
       235   12 Jun 2027 05:42:54.583   12 Jun 2027 05:43:14.965            20.382         10191.000
       236   12 Jun 2027 07:00:57.701   12 Jun 2027 07:02:19.027            81.326         40663.000
       237   12 Jun 2027 07:12:38.050   12 Jun 2027 07:12:51.811            13.761          6880.500
       238   12 Jun 2027 08:34:56.456   12 Jun 2027 08:35:26.239            29.783         13596.406
       239   12 Jun 2027 08:35:37.090   12 Jun 2027 08:35:37.090             0.000             0.000
       240   12 Jun 2027 08:37:28.482   12 Jun 2027 08:37:28.482             0.000             0.000
       241   12 Jun 2027 08:38:33.441   12 Jun 2027 08:38:45.960            12.519          5380.281
       242   12 Jun 2027 08:38:59.657   12 Jun 2027 08:39:01.484             1.827           350.219
       243   12 Jun 2027 10:10:55.384   12 Jun 2027 10:11:15.320            19.936          7241.781
       244   12 Jun 2027 10:13:00.295   12 Jun 2027 10:13:04.943             4.648          2129.875
       245   12 Jun 2027 10:15:00.079   12 Jun 2027 10:15:10.973            10.894          2563.312
       246   12 Jun 2027 11:53:37.934   12 Jun 2027 11:54:20.098            42.164         20236.781
       247   13 Jun 2027 04:09:22.813   13 Jun 2027 04:10:28.514            65.701         32850.500
       248   13 Jun 2027 04:10:32.438   13 Jun 2027 04:10:56.897            24.459         12229.500
       249   13 Jun 2027 04:13:04.182   13 Jun 2027 04:13:14.813            10.631          5315.500
       250   13 Jun 2027 04:13:30.781   13 Jun 2027 04:13:32.690             1.909           954.500
       251   13 Jun 2027 04:14:38.667   13 Jun 2027 04:14:42.425             3.758          1879.000
       252   13 Jun 2027 05:48:09.625   13 Jun 2027 05:50:18.198           128.573         64286.500
       253   13 Jun 2027 05:52:40.928   13 Jun 2027 05:52:50.907             9.979          4989.500
       254   13 Jun 2027 05:52:55.558   13 Jun 2027 05:53:13.228            17.670          8835.000
       255   13 Jun 2027 05:55:07.484   13 Jun 2027 05:55:09.227             1.743           871.500
       256   13 Jun 2027 07:12:30.004   13 Jun 2027 07:14:14.047           104.043         50343.282
       257   13 Jun 2027 07:24:46.200   13 Jun 2027 07:25:01.773            15.573          6752.250
       258   13 Jun 2027 08:46:36.459   13 Jun 2027 08:47:04.318            27.859         13929.500
       259   13 Jun 2027 08:48:39.737   13 Jun 2027 08:48:46.488             6.751          3202.344
       260   13 Jun 2027 08:49:46.121   13 Jun 2027 08:49:51.455             5.334           888.750
       261   13 Jun 2027 08:51:45.060   13 Jun 2027 08:51:56.899            11.839          3464.969
       262   13 Jun 2027 10:22:18.959   13 Jun 2027 10:22:40.478            21.519          8064.625
       263   13 Jun 2027 10:24:02.897   13 Jun 2027 10:24:07.006             4.109          1140.094
       264   13 Jun 2027 10:25:51.594   13 Jun 2027 10:25:58.486             6.892          1716.562
       265   13 Jun 2027 10:26:16.367   13 Jun 2027 10:26:17.417             1.050            34.844
       266   13 Jun 2027 10:27:26.223   13 Jun 2027 10:27:33.437             7.214          1847.594
       267   13 Jun 2027 10:30:13.208   13 Jun 2027 10:30:21.696             8.488          4244.000
