uniorb/output/strategy_1/Camera/Camera_KinoSat_110508.txt

KinoSat_110508
-------------------------
    Access    *     Start Time (UTCG)     *     Stop Time (UTCG)  *   Duration (s) *   Data (Mbytes)
         1   01 Jun 2027 03:19:43.881   01 Jun 2027 03:20:51.089            67.208         33604.000
         2   01 Jun 2027 03:21:24.768   01 Jun 2027 03:21:28.767             3.999          1999.500
         3   01 Jun 2027 03:22:01.289   01 Jun 2027 03:22:22.246            20.957         10478.500
         4   01 Jun 2027 03:22:41.546   01 Jun 2027 03:22:51.670            10.124          5062.000
         5   01 Jun 2027 03:23:07.097   01 Jun 2027 03:23:07.097             0.000             0.000
         6   01 Jun 2027 04:54:41.631   01 Jun 2027 04:56:51.152           129.521         64760.500
         7   01 Jun 2027 04:57:23.975   01 Jun 2027 04:57:39.308            15.333          7666.500
         8   01 Jun 2027 04:58:13.594   01 Jun 2027 04:58:17.098             3.504          1752.000
         9   01 Jun 2027 04:59:30.560   01 Jun 2027 04:59:57.179            26.619         13309.500
        10   01 Jun 2027 05:00:29.483   01 Jun 2027 05:00:41.838            12.355          6177.500
        11   01 Jun 2027 05:01:39.642   01 Jun 2027 05:01:43.059             3.417          1708.500
        12   01 Jun 2027 06:30:53.732   01 Jun 2027 06:33:15.819           142.087         71043.500
        13   01 Jun 2027 06:33:54.507   01 Jun 2027 06:34:01.864             7.357          3678.500
        14   01 Jun 2027 06:34:28.541   01 Jun 2027 06:34:41.643            13.102          6551.000
        15   01 Jun 2027 06:34:58.947   01 Jun 2027 06:35:13.935            14.988          7494.000
        16   01 Jun 2027 06:36:25.716   01 Jun 2027 06:36:34.229             8.513          4256.500
        17   01 Jun 2027 06:36:58.104   01 Jun 2027 06:37:20.119            22.015         11007.500
        18   01 Jun 2027 08:08:54.099   01 Jun 2027 08:11:33.323           159.224         79612.000
        19   01 Jun 2027 09:44:35.109   01 Jun 2027 09:46:43.100           127.991         63995.500
        20   01 Jun 2027 09:47:41.411   01 Jun 2027 09:47:46.627             5.216          2608.000
        21   01 Jun 2027 09:48:33.629   01 Jun 2027 09:48:45.988            12.359          6179.500
        22   01 Jun 2027 09:49:14.786   01 Jun 2027 09:49:21.882             7.096          3548.000
        23   02 Jun 2027 03:30:19.932   02 Jun 2027 03:30:25.872             5.940          2970.000
        24   02 Jun 2027 03:31:29.479   02 Jun 2027 03:35:56.169           266.690        133345.000
        25   02 Jun 2027 05:06:15.434   02 Jun 2027 05:09:15.843           180.409         90204.500
        26   02 Jun 2027 05:09:39.971   02 Jun 2027 05:10:03.648            23.677         11838.500
        27   02 Jun 2027 05:12:19.585   02 Jun 2027 05:12:30.294            10.709          5354.500
        28   02 Jun 2027 05:12:55.848   02 Jun 2027 05:12:57.897             2.049          1024.500
        29   02 Jun 2027 05:13:06.085   02 Jun 2027 05:13:22.958            16.873          8436.500
        30   02 Jun 2027 05:13:44.425   02 Jun 2027 05:13:45.028             0.603           301.500
        31   02 Jun 2027 06:43:14.774   02 Jun 2027 06:45:45.786           151.012         75506.000
        32   02 Jun 2027 06:46:45.936   02 Jun 2027 06:46:51.974             6.038          3019.000
        33   02 Jun 2027 06:47:02.937   02 Jun 2027 06:47:13.683            10.746          5373.000
        34   02 Jun 2027 06:47:19.788   02 Jun 2027 06:47:24.594             4.806          2403.000
        35   02 Jun 2027 08:21:15.792   02 Jun 2027 08:24:10.028           174.236         87118.000
        36   02 Jun 2027 08:24:34.312   02 Jun 2027 08:24:43.459             9.147          4573.500
        37   02 Jun 2027 08:25:07.943   02 Jun 2027 08:25:12.440             4.497          2248.500
        38   02 Jun 2027 09:54:31.112   02 Jun 2027 09:56:28.876           117.764         58882.000
        39   02 Jun 2027 09:57:05.264   02 Jun 2027 09:57:24.314            19.050          9525.000
        40   02 Jun 2027 09:58:44.257   02 Jun 2027 09:58:57.888            13.631          6815.500
        41   02 Jun 2027 09:59:41.172   02 Jun 2027 09:59:49.797             8.625          4312.500
        42   02 Jun 2027 10:01:35.144   02 Jun 2027 10:01:57.818            22.674         11337.000
        43   03 Jun 2027 03:41:12.790   03 Jun 2027 03:42:39.829            87.039         43519.500
        44   03 Jun 2027 03:43:12.951   03 Jun 2027 03:46:30.014           197.063         98531.500
        45   03 Jun 2027 03:46:36.962   03 Jun 2027 03:46:46.168             9.206          4603.000
        46   03 Jun 2027 03:46:58.041   03 Jun 2027 03:47:01.415             3.374          1687.000
        47   03 Jun 2027 03:47:39.097   03 Jun 2027 03:48:09.128            30.031         15015.500
        48   03 Jun 2027 05:18:22.905   03 Jun 2027 05:20:47.940           145.035         72517.500
        49   03 Jun 2027 05:24:17.707   03 Jun 2027 05:25:21.698            63.991         31995.500
        50   03 Jun 2027 05:25:48.439   03 Jun 2027 05:25:48.992             0.553           276.500
        51   03 Jun 2027 06:55:20.304   03 Jun 2027 06:58:02.961           162.657         81328.500
        52   03 Jun 2027 06:58:43.767   03 Jun 2027 06:59:02.523            18.756          9378.000
        53   03 Jun 2027 06:59:28.628   03 Jun 2027 06:59:30.346             1.718           859.000
        54   03 Jun 2027 07:00:21.157   03 Jun 2027 07:00:37.239            16.082          8041.000
        55   03 Jun 2027 07:01:14.917   03 Jun 2027 07:01:25.857            10.940          5470.000
        56   03 Jun 2027 08:33:13.347   03 Jun 2027 08:35:37.451           144.104         72052.000
        57   03 Jun 2027 08:35:57.397   03 Jun 2027 08:36:06.454             9.057          4528.500
        58   03 Jun 2027 08:36:25.113   03 Jun 2027 08:36:34.725             9.612          4806.000
        59   03 Jun 2027 10:06:40.613   03 Jun 2027 10:08:07.713            87.100         43550.000
        60   03 Jun 2027 10:08:38.369   03 Jun 2027 10:08:50.776            12.407          6203.500
        61   03 Jun 2027 10:10:11.858   03 Jun 2027 10:10:21.603             9.745          4872.500
        62   03 Jun 2027 10:10:34.341   03 Jun 2027 10:10:45.563            11.222          5611.000
        63   03 Jun 2027 10:11:35.847   03 Jun 2027 10:11:41.259             5.412          2706.000
        64   03 Jun 2027 10:12:05.284   03 Jun 2027 10:12:18.470            13.186          6593.000
        65   03 Jun 2027 10:13:12.447   03 Jun 2027 10:13:23.280            10.833          5416.500
        66   03 Jun 2027 10:13:48.567   03 Jun 2027 10:13:51.984             3.417          1708.500
        67   03 Jun 2027 10:14:10.655   03 Jun 2027 10:14:12.606             1.951           975.500
        68   04 Jun 2027 03:52:41.619   04 Jun 2027 03:57:59.160           317.541        158770.500
        69   04 Jun 2027 03:58:30.759   04 Jun 2027 03:58:48.212            17.453          8726.500
        70   04 Jun 2027 04:00:09.701   04 Jun 2027 04:00:14.788             5.087          2543.500
        71   04 Jun 2027 04:00:55.930   04 Jun 2027 04:01:22.482            26.552         13276.000
        72   04 Jun 2027 04:01:30.850   04 Jun 2027 04:01:33.745             2.895          1447.500
        73   04 Jun 2027 05:30:24.185   04 Jun 2027 05:33:12.158           167.973         83986.500
        74   04 Jun 2027 05:34:15.314   04 Jun 2027 05:34:19.418             4.104          2052.000
        75   04 Jun 2027 05:34:42.898   04 Jun 2027 05:34:52.008             9.110          4555.000
        76   04 Jun 2027 05:35:01.020   04 Jun 2027 05:35:15.655            14.635          7317.500
        77   04 Jun 2027 05:35:33.062   04 Jun 2027 05:35:50.160            17.098          8549.000
        78   04 Jun 2027 05:37:34.012   04 Jun 2027 05:37:46.151            12.139          6069.500
        79   04 Jun 2027 07:07:12.367   04 Jun 2027 07:09:32.382           140.015         70007.500
        80   04 Jun 2027 07:10:16.430   04 Jun 2027 07:10:32.672            16.242          8121.000
        81   04 Jun 2027 07:11:12.166   04 Jun 2027 07:11:25.647            13.481          6740.500
        82   04 Jun 2027 07:11:28.986   04 Jun 2027 07:11:41.661            12.675          6337.500
        83   04 Jun 2027 07:12:16.774   04 Jun 2027 07:12:36.616            19.842          9921.000
        84   04 Jun 2027 07:13:20.244   04 Jun 2027 07:13:21.354             1.110           555.000
        85   04 Jun 2027 07:13:34.897   04 Jun 2027 07:13:47.056            12.159          6079.500
        86   04 Jun 2027 08:45:14.058   04 Jun 2027 08:45:52.704            38.646         19323.000
        87   04 Jun 2027 08:45:57.858   04 Jun 2027 08:46:01.934             4.076          2038.000
        88   04 Jun 2027 08:46:12.076   04 Jun 2027 08:46:13.494             1.418           709.000
        89   04 Jun 2027 08:46:25.559   04 Jun 2027 08:46:46.992            21.433         10716.500
        90   04 Jun 2027 08:47:59.620   04 Jun 2027 08:48:00.668             1.048           524.000
        91   04 Jun 2027 08:48:12.391   04 Jun 2027 08:48:13.196             0.805           402.500
        92   04 Jun 2027 08:48:39.176   04 Jun 2027 08:48:49.813            10.637          5318.500
        93   04 Jun 2027 10:19:06.732   04 Jun 2027 10:19:18.040            11.308          5654.000
        94   04 Jun 2027 10:19:43.863   04 Jun 2027 10:20:00.546            16.683          8341.500
        95   04 Jun 2027 10:21:18.271   04 Jun 2027 10:21:24.579             6.308          3154.000
        96   04 Jun 2027 10:21:39.990   04 Jun 2027 10:21:44.954             4.964          2482.000
        97   04 Jun 2027 10:22:00.947   04 Jun 2027 10:22:21.578            20.631         10315.500
        98   04 Jun 2027 10:23:41.634   04 Jun 2027 10:23:44.268             2.634          1317.000
        99   04 Jun 2027 10:24:50.407   04 Jun 2027 10:25:09.158            18.751          9375.500
       100   04 Jun 2027 10:25:30.365   04 Jun 2027 10:25:34.743             4.378          2189.000
       101   05 Jun 2027 04:05:24.957   05 Jun 2027 04:10:04.984           280.027        140013.500
       102   05 Jun 2027 04:10:11.048   05 Jun 2027 04:10:23.173            12.125          6062.500
       103   05 Jun 2027 04:12:54.088   05 Jun 2027 04:13:39.437            45.349         22674.500
       104   05 Jun 2027 05:42:27.441   05 Jun 2027 05:45:02.006           154.565         77282.500
       105   05 Jun 2027 05:45:54.184   05 Jun 2027 05:46:14.799            20.615         10307.500
       106   05 Jun 2027 05:47:21.695   05 Jun 2027 05:47:36.171            14.476          7238.000
       107   05 Jun 2027 05:47:45.969   05 Jun 2027 05:48:20.140            34.171         17085.500
       108   05 Jun 2027 05:49:00.279   05 Jun 2027 05:49:15.516            15.237          7618.500
       109   05 Jun 2027 07:19:22.192   05 Jun 2027 07:21:51.968           149.776         74888.000
       110   05 Jun 2027 07:21:57.748   05 Jun 2027 07:22:15.234            17.486          8743.000
       111   05 Jun 2027 07:23:21.175   05 Jun 2027 07:23:24.862             3.687          1843.500
       112   05 Jun 2027 07:23:39.561   05 Jun 2027 07:23:48.541             8.980          4490.000
       113   05 Jun 2027 07:25:23.928   05 Jun 2027 07:25:43.722            19.794          9897.000
       114   05 Jun 2027 08:56:28.504   05 Jun 2027 08:57:07.271            38.767         19383.500
       115   05 Jun 2027 08:57:24.056   05 Jun 2027 08:57:30.315             6.259          3129.500
       116   05 Jun 2027 08:58:16.537   05 Jun 2027 08:58:26.915            10.378          5189.000
       117   05 Jun 2027 08:58:30.032   05 Jun 2027 08:58:30.032             0.000             0.000
       118   05 Jun 2027 08:58:55.214   05 Jun 2027 08:59:22.944            27.730         13865.000
       119   05 Jun 2027 09:01:03.951   05 Jun 2027 09:01:15.394            11.443          5721.500
       120   05 Jun 2027 10:31:27.657   05 Jun 2027 10:31:34.027             6.370          3185.000
       121   05 Jun 2027 10:31:54.137   05 Jun 2027 10:32:05.851            11.714          5857.000
       122   05 Jun 2027 10:33:10.676   05 Jun 2027 10:33:16.094             5.418          2709.000
       123   05 Jun 2027 10:33:47.101   05 Jun 2027 10:34:09.146            22.045         11022.500
       124   05 Jun 2027 10:35:42.276   05 Jun 2027 10:36:12.566            30.290         15145.000
       125   06 Jun 2027 04:17:21.276   06 Jun 2027 04:22:22.516           301.240        150620.000
       126   06 Jun 2027 04:22:58.607   06 Jun 2027 04:23:52.999            54.392         27196.000
       127   06 Jun 2027 04:24:06.919   06 Jun 2027 04:24:19.997            13.078          6539.000
       128   06 Jun 2027 04:25:09.748   06 Jun 2027 04:25:19.617             9.869          4934.500
       129   06 Jun 2027 04:25:22.817   06 Jun 2027 04:25:25.887             3.070          1535.000
       130   06 Jun 2027 04:25:43.872   06 Jun 2027 04:25:53.683             9.811          4905.500
       131   06 Jun 2027 05:54:53.465   06 Jun 2027 05:57:19.969           146.504         73252.000
       132   06 Jun 2027 05:58:08.795   06 Jun 2027 05:59:00.092            51.297         25648.500
       133   06 Jun 2027 05:59:51.467   06 Jun 2027 06:00:00.711             9.244          4622.000
       134   06 Jun 2027 06:00:43.127   06 Jun 2027 06:01:10.161            27.034         13517.000
       135   06 Jun 2027 07:31:49.486   06 Jun 2027 07:34:28.369           158.883         79441.500
       136   06 Jun 2027 07:35:09.494   06 Jun 2027 07:35:18.593             9.099          4549.500
       137   06 Jun 2027 07:36:45.653   06 Jun 2027 07:36:59.183            13.530          6765.000
       138   06 Jun 2027 07:37:14.873   06 Jun 2027 07:37:17.983             3.110          1555.000
       139   06 Jun 2027 07:37:36.041   06 Jun 2027 07:37:37.064             1.023           511.500
       140   06 Jun 2027 09:08:40.326   06 Jun 2027 09:09:10.118            29.792         14896.000
       141   06 Jun 2027 09:09:35.339   06 Jun 2027 09:09:43.617             8.278          4139.000
       142   06 Jun 2027 09:11:22.545   06 Jun 2027 09:11:40.543            17.998          8999.000
       143   06 Jun 2027 09:11:53.966   06 Jun 2027 09:11:59.147             5.181          2590.500
       144   06 Jun 2027 09:12:05.281   06 Jun 2027 09:12:07.668             2.387          1193.500
       145   06 Jun 2027 09:12:29.474   06 Jun 2027 09:12:37.299             7.825          3912.500
       146   06 Jun 2027 09:13:03.964   06 Jun 2027 09:13:12.548             8.584          4292.000
       147   06 Jun 2027 10:46:13.667   06 Jun 2027 10:46:24.343            10.676          5338.000
       148   06 Jun 2027 10:47:02.218   06 Jun 2027 10:47:17.721            15.503          7751.500
       149   06 Jun 2027 10:48:15.295   06 Jun 2027 10:48:17.514             2.219          1109.500
       150   07 Jun 2027 04:30:00.851   07 Jun 2027 04:35:13.906           313.055        156527.500
       151   07 Jun 2027 04:35:44.857   07 Jun 2027 04:36:00.076            15.219          7609.500
       152   07 Jun 2027 04:36:50.396   07 Jun 2027 04:36:59.398             9.002          4501.000
       153   07 Jun 2027 04:37:06.456   07 Jun 2027 04:37:09.775             3.319          1659.500
       154   07 Jun 2027 04:37:48.013   07 Jun 2027 04:37:48.537             0.524           262.000
       155   07 Jun 2027 06:06:59.360   07 Jun 2027 06:09:30.563           151.203         75601.500
       156   07 Jun 2027 06:11:18.486   07 Jun 2027 06:11:45.998            27.512         13756.000
       157   07 Jun 2027 06:13:15.974   07 Jun 2027 06:13:36.893            20.919         10459.500
       158   07 Jun 2027 07:44:37.998   07 Jun 2027 07:47:01.041           143.043         71521.500
       159   07 Jun 2027 07:47:58.501   07 Jun 2027 07:47:59.655             1.154           577.000
       160   07 Jun 2027 07:48:39.242   07 Jun 2027 07:48:56.164            16.922          8461.000
       161   07 Jun 2027 09:20:43.520   07 Jun 2027 09:21:25.093            41.573         20786.500
       162   07 Jun 2027 09:22:55.990   07 Jun 2027 09:23:15.360            19.370          9685.000
       163   07 Jun 2027 09:24:54.103   07 Jun 2027 09:25:05.319            11.216          5608.000
       164   07 Jun 2027 10:59:27.010   07 Jun 2027 10:59:30.167             3.157          1578.500
       165   08 Jun 2027 03:08:03.391   08 Jun 2027 03:11:38.421           215.030        107515.000
       166   08 Jun 2027 04:43:13.455   08 Jun 2027 04:44:57.759           104.304         52152.000
       167   08 Jun 2027 04:45:12.910   08 Jun 2027 04:45:35.882            22.972         11486.000
       168   08 Jun 2027 04:47:50.199   08 Jun 2027 04:48:12.095            21.896         10948.000
       169   08 Jun 2027 04:48:19.771   08 Jun 2027 04:48:39.551            19.780          9890.000
       170   08 Jun 2027 04:49:05.508   08 Jun 2027 04:49:10.735             5.227          2613.500
       171   08 Jun 2027 04:49:48.741   08 Jun 2027 04:49:50.244             1.503           751.500
       172   08 Jun 2027 06:19:35.465   08 Jun 2027 06:21:35.836           120.371         60185.500
       173   08 Jun 2027 06:22:15.697   08 Jun 2027 06:22:26.353            10.656          5328.000
       174   08 Jun 2027 06:22:51.208   08 Jun 2027 06:23:14.417            23.209         11604.500
       175   08 Jun 2027 06:23:47.570   08 Jun 2027 06:23:50.381             2.811          1405.500
       176   08 Jun 2027 06:24:33.695   08 Jun 2027 06:24:53.030            19.335          9667.500
       177   08 Jun 2027 06:25:44.029   08 Jun 2027 06:25:46.309             2.280          1140.000
       178   08 Jun 2027 07:56:53.703   08 Jun 2027 07:58:36.544           102.841         51420.500
       179   08 Jun 2027 07:59:05.792   08 Jun 2027 07:59:13.829             8.037          4018.500
       180   08 Jun 2027 07:59:59.275   08 Jun 2027 08:00:11.450            12.175          6087.500
       181   08 Jun 2027 08:00:24.303   08 Jun 2027 08:00:29.744             5.441          2720.500
       182   08 Jun 2027 08:01:26.128   08 Jun 2027 08:01:28.974             2.846          1423.000
       183   08 Jun 2027 09:33:05.446   08 Jun 2027 09:33:37.388            31.942         15971.000
       184   08 Jun 2027 09:34:04.553   08 Jun 2027 09:34:23.726            19.173          9586.500
       185   08 Jun 2027 09:36:02.540   08 Jun 2027 09:36:11.963             9.423          4711.500
       186   08 Jun 2027 09:36:35.615   08 Jun 2027 09:36:55.072            19.457          9728.500
       187   09 Jun 2027 03:19:58.354   09 Jun 2027 03:23:13.215           194.861         97430.500
       188   09 Jun 2027 03:23:17.161   09 Jun 2027 03:23:27.308            10.147          5073.500
       189   09 Jun 2027 03:23:36.977   09 Jun 2027 03:23:37.721             0.744           372.000
       190   09 Jun 2027 04:54:55.884   09 Jun 2027 04:57:12.265           136.381         68190.500
       191   09 Jun 2027 04:58:22.015   09 Jun 2027 04:58:22.835             0.820           410.000
       192   09 Jun 2027 04:58:54.281   09 Jun 2027 04:59:08.803            14.522          7261.000
       193   09 Jun 2027 04:59:45.753   09 Jun 2027 05:00:06.920            21.167         10583.500
       194   09 Jun 2027 05:00:34.477   09 Jun 2027 05:00:38.186             3.709          1854.500
       195   09 Jun 2027 05:01:06.986   09 Jun 2027 05:01:37.913            30.927         15463.500
       196   09 Jun 2027 05:01:54.320   09 Jun 2027 05:01:57.722             3.402          1701.000
       197   09 Jun 2027 06:31:08.249   09 Jun 2027 06:34:04.741           176.492         88246.000
       198   09 Jun 2027 06:34:28.411   09 Jun 2027 06:34:30.113             1.702           851.000
       199   09 Jun 2027 06:34:54.232   09 Jun 2027 06:34:56.320             2.088          1044.000
       200   09 Jun 2027 06:35:30.873   09 Jun 2027 06:35:47.553            16.680          8340.000
       201   09 Jun 2027 06:36:01.637   09 Jun 2027 06:36:07.394             5.757          2878.500
       202   09 Jun 2027 06:36:45.399   09 Jun 2027 06:36:54.382             8.983          4491.500
       203   09 Jun 2027 08:09:09.174   09 Jun 2027 08:10:13.193            64.019         32009.500
       204   09 Jun 2027 08:10:26.182   09 Jun 2027 08:10:32.007             5.825          2912.500
       205   09 Jun 2027 08:11:03.379   09 Jun 2027 08:11:12.203             8.824          4412.000
       206   09 Jun 2027 08:11:34.668   09 Jun 2027 08:11:46.527            11.859          5929.500
       207   09 Jun 2027 08:12:24.742   09 Jun 2027 08:12:28.905             4.163          2081.500
       208   09 Jun 2027 08:12:40.130   09 Jun 2027 08:12:45.876             5.746          2873.000
       209   09 Jun 2027 09:44:49.382   09 Jun 2027 09:45:32.595            43.213         21606.500
       210   09 Jun 2027 09:47:01.332   09 Jun 2027 09:47:16.242            14.910          7455.000
       211   09 Jun 2027 09:47:48.186   09 Jun 2027 09:47:56.128             7.942          3971.000
       212   09 Jun 2027 09:48:50.016   09 Jun 2027 09:49:00.572            10.556          5278.000
       213   09 Jun 2027 09:49:29.739   09 Jun 2027 09:49:35.612             5.873          2936.500
       214   09 Jun 2027 09:49:47.945   09 Jun 2027 09:49:48.659             0.714           357.000
       215   09 Jun 2027 09:50:03.048   09 Jun 2027 09:50:15.931            12.883          6441.500
       216   10 Jun 2027 03:30:34.362   10 Jun 2027 03:30:40.808             6.446          3223.000
       217   10 Jun 2027 03:31:44.069   10 Jun 2027 03:34:35.649           171.580         85790.000
       218   10 Jun 2027 03:34:46.941   10 Jun 2027 03:34:57.285            10.344          5172.000
       219   10 Jun 2027 03:34:58.820   10 Jun 2027 03:35:11.403            12.583          6291.500
       220   10 Jun 2027 03:35:17.791   10 Jun 2027 03:35:21.048             3.257          1628.500
       221   10 Jun 2027 03:35:41.305   10 Jun 2027 03:35:54.799            13.494          6747.000
       222   10 Jun 2027 05:06:29.622   10 Jun 2027 05:09:00.613           150.991         75495.500
       223   10 Jun 2027 05:09:34.208   10 Jun 2027 05:09:57.923            23.715         11857.500
       224   10 Jun 2027 05:11:18.893   10 Jun 2027 05:11:33.838            14.945          7472.500
       225   10 Jun 2027 05:12:28.532   10 Jun 2027 05:12:31.893             3.361          1680.500
       226   10 Jun 2027 05:12:45.304   10 Jun 2027 05:12:48.953             3.649          1824.500
       227   10 Jun 2027 05:13:59.097   10 Jun 2027 05:14:02.910             3.813          1906.500
       228   10 Jun 2027 06:43:29.508   10 Jun 2027 06:46:00.532           151.024         75512.000
       229   10 Jun 2027 06:47:44.480   10 Jun 2027 06:48:00.598            16.118          8059.000
       230   10 Jun 2027 06:48:07.028   10 Jun 2027 06:48:22.913            15.885          7942.500
       231   10 Jun 2027 08:21:30.608   10 Jun 2027 08:22:34.044            63.436         31718.000
       232   10 Jun 2027 08:22:59.217   10 Jun 2027 08:23:11.029            11.812          5906.000
       233   10 Jun 2027 08:24:06.317   10 Jun 2027 08:24:17.019            10.702          5351.000
       234   10 Jun 2027 08:24:48.120   10 Jun 2027 08:24:51.045             2.925          1462.500
       235   10 Jun 2027 08:25:07.283   10 Jun 2027 08:25:08.227             0.944           472.000
       236   10 Jun 2027 08:25:22.140   10 Jun 2027 08:25:27.103             4.963          2481.500
       237   10 Jun 2027 09:54:45.329   10 Jun 2027 09:55:28.424            43.095         21547.500
       238   10 Jun 2027 09:57:22.353   10 Jun 2027 09:57:25.859             3.506          1753.000
       239   10 Jun 2027 09:57:43.855   10 Jun 2027 09:57:57.497            13.642          6821.000
       240   10 Jun 2027 09:59:26.874   10 Jun 2027 09:59:47.609            20.735         10367.500
       241   10 Jun 2027 10:01:10.311   10 Jun 2027 10:01:14.569             4.258          2129.000
       242   10 Jun 2027 10:01:30.857   10 Jun 2027 10:01:50.065            19.208          9604.000
       243   11 Jun 2027 03:41:26.549   11 Jun 2027 03:42:59.000            92.451         46225.500
       244   11 Jun 2027 03:43:27.436   11 Jun 2027 03:44:53.806            86.370         43185.000
       245   11 Jun 2027 03:46:34.280   11 Jun 2027 03:46:56.410            22.130         11065.000
       246   11 Jun 2027 03:47:18.113   11 Jun 2027 03:47:35.769            17.656          8828.000
       247   11 Jun 2027 03:49:22.149   11 Jun 2027 03:49:30.461             8.312          4156.000
       248   11 Jun 2027 05:18:37.656   11 Jun 2027 05:21:10.267           152.611         76305.500
       249   11 Jun 2027 05:22:38.000   11 Jun 2027 05:22:53.795            15.795          7897.500
       250   11 Jun 2027 05:23:24.056   11 Jun 2027 05:23:27.778             3.722          1861.000
       251   11 Jun 2027 05:24:28.829   11 Jun 2027 05:25:15.273            46.444         23222.000
       252   11 Jun 2027 06:55:34.960   11 Jun 2027 06:58:30.826           175.866         87933.000
       253   11 Jun 2027 06:59:51.556   11 Jun 2027 07:00:11.899            20.343         10171.500
       254   11 Jun 2027 07:00:20.291   11 Jun 2027 07:00:30.308            10.017          5008.500
       255   11 Jun 2027 07:01:39.145   11 Jun 2027 07:01:43.591             4.446          2223.000
       256   11 Jun 2027 08:33:27.977   11 Jun 2027 08:34:06.151            38.174         19087.000
       257   11 Jun 2027 08:34:33.846   11 Jun 2027 08:34:36.749             2.903          1451.500
       258   11 Jun 2027 08:35:10.266   11 Jun 2027 08:35:32.869            22.603         11301.500
       259   11 Jun 2027 08:37:03.877   11 Jun 2027 08:37:14.618            10.741          5370.500
       260   11 Jun 2027 10:06:55.694   11 Jun 2027 10:07:24.171            28.477         14238.500
       261   11 Jun 2027 10:09:48.015   11 Jun 2027 10:10:11.502            23.487         11743.500
       262   11 Jun 2027 10:11:00.197   11 Jun 2027 10:11:01.714             1.517           758.500
       263   11 Jun 2027 10:11:09.560   11 Jun 2027 10:11:19.609            10.049          5024.500
       264   11 Jun 2027 10:12:01.856   11 Jun 2027 10:12:20.010            18.154          9077.000
       265   11 Jun 2027 10:13:26.349   11 Jun 2027 10:13:27.408             1.059           529.500
       266   11 Jun 2027 10:13:49.259   11 Jun 2027 10:14:04.842            15.583          7791.500
       267   12 Jun 2027 03:52:55.938   12 Jun 2027 03:57:52.881           296.943        148471.500
       268   12 Jun 2027 03:59:18.070   12 Jun 2027 03:59:25.962             7.892          3946.000
       269   12 Jun 2027 04:01:10.518   12 Jun 2027 04:01:30.196            19.678          9839.000
       270   12 Jun 2027 04:01:49.707   12 Jun 2027 04:01:49.707             0.000             0.000
       271   12 Jun 2027 05:30:38.917   12 Jun 2027 05:33:03.781           144.864         72432.000
       272   12 Jun 2027 05:33:42.909   12 Jun 2027 05:34:03.425            20.516         10258.000
       273   12 Jun 2027 05:36:09.414   12 Jun 2027 05:36:29.696            20.282         10141.000
       274   12 Jun 2027 05:36:42.803   12 Jun 2027 05:37:17.735            34.932         17466.000
       275   12 Jun 2027 07:07:27.111   12 Jun 2027 07:10:18.618           171.507         85753.500
       276   12 Jun 2027 07:11:08.044   12 Jun 2027 07:11:15.410             7.366          3683.000
       277   12 Jun 2027 07:12:07.627   12 Jun 2027 07:12:07.627             0.000             0.000
       278   12 Jun 2027 07:12:14.073   12 Jun 2027 07:12:24.075            10.002          5001.000
       279   12 Jun 2027 07:12:56.963   12 Jun 2027 07:13:03.935             6.972          3486.000
       280   12 Jun 2027 07:13:10.064   12 Jun 2027 07:13:15.103             5.039          2519.500
       281   12 Jun 2027 08:45:29.162   12 Jun 2027 08:46:10.026            40.864         20432.000
       282   12 Jun 2027 08:46:28.508   12 Jun 2027 08:46:40.286            11.778          5889.000
       283   12 Jun 2027 08:47:22.196   12 Jun 2027 08:47:34.395            12.199          6099.500
       284   12 Jun 2027 08:48:15.522   12 Jun 2027 08:48:16.798             1.276           638.000
       285   12 Jun 2027 08:48:29.491   12 Jun 2027 08:48:34.700             5.209          2604.500
       286   12 Jun 2027 08:49:10.930   12 Jun 2027 08:49:17.334             6.404          3202.000
       287   12 Jun 2027 08:49:18.250   12 Jun 2027 08:49:31.973            13.723          6861.500
       288   12 Jun 2027 10:19:21.442   12 Jun 2027 10:19:40.851            19.409          9704.500
       289   12 Jun 2027 10:20:16.243   12 Jun 2027 10:20:47.615            31.372         15686.000
       290   12 Jun 2027 10:22:51.500   12 Jun 2027 10:22:59.628             8.128          4064.000
       291   12 Jun 2027 10:23:45.962   12 Jun 2027 10:23:56.361            10.399          5199.500
       292   12 Jun 2027 10:24:27.813   12 Jun 2027 10:24:41.350            13.537          6768.500
       293   12 Jun 2027 10:25:33.248   12 Jun 2027 10:25:45.554            12.306          6153.000
       294   13 Jun 2027 04:05:39.539   13 Jun 2027 04:10:17.493           277.954        138977.000
       295   13 Jun 2027 04:10:45.788   13 Jun 2027 04:10:58.905            13.117          6558.500
       296   13 Jun 2027 04:11:59.192   13 Jun 2027 04:12:28.944            29.752         14876.000
       297   13 Jun 2027 04:12:41.145   13 Jun 2027 04:12:54.818            13.673          6836.500
       298   13 Jun 2027 04:13:28.194   13 Jun 2027 04:13:29.018             0.824           412.000
       299   13 Jun 2027 05:42:42.217   13 Jun 2027 05:45:09.201           146.984         73492.000
       300   13 Jun 2027 05:46:09.415   13 Jun 2027 05:46:14.408             4.993          2496.500
       301   13 Jun 2027 05:46:30.959   13 Jun 2027 05:46:43.122            12.163          6081.500
       302   13 Jun 2027 05:47:11.111   13 Jun 2027 05:47:35.844            24.733         12366.500
       303   13 Jun 2027 05:49:30.163   13 Jun 2027 05:50:02.117            31.954         15977.000
       304   13 Jun 2027 07:19:37.033   13 Jun 2027 07:22:06.666           149.633         74816.500
       305   13 Jun 2027 07:22:10.088   13 Jun 2027 07:22:18.239             8.151          4075.500
       306   13 Jun 2027 07:22:46.572   13 Jun 2027 07:22:47.042             0.470           235.000
       307   13 Jun 2027 07:22:51.174   13 Jun 2027 07:22:56.621             5.447          2723.500
       308   13 Jun 2027 07:23:03.830   13 Jun 2027 07:23:07.996             4.166          2083.000
       309   13 Jun 2027 07:23:32.372   13 Jun 2027 07:23:35.920             3.548          1774.000
       310   13 Jun 2027 07:23:54.452   13 Jun 2027 07:24:03.622             9.170          4585.000
       311   13 Jun 2027 07:24:51.572   13 Jun 2027 07:25:01.773            10.201          5100.500
       312   13 Jun 2027 08:56:43.108   13 Jun 2027 08:57:17.522            34.414         17207.000
       313   13 Jun 2027 08:57:27.052   13 Jun 2027 08:57:29.734             2.682          1341.000
       314   13 Jun 2027 08:58:00.170   13 Jun 2027 08:58:18.579            18.409          9204.500
       315   13 Jun 2027 08:59:36.051   13 Jun 2027 08:59:51.229            15.178          7589.000
       316   13 Jun 2027 09:01:30.095   13 Jun 2027 09:01:36.791             6.696          3348.000
       317   13 Jun 2027 10:31:42.871   13 Jun 2027 10:32:09.869            26.998         13499.000
       318   13 Jun 2027 10:33:31.254   13 Jun 2027 10:33:49.598            18.344          9172.000
       319   13 Jun 2027 10:34:50.405   13 Jun 2027 10:34:57.176             6.771          3385.500
       320   13 Jun 2027 10:35:44.860   13 Jun 2027 10:35:49.822             4.962          2481.000
       321   13 Jun 2027 10:36:00.344   13 Jun 2027 10:36:27.774            27.430         13715.000
