uniorb/output/strategy_1/Camera/Camera_KinoSat_111704.txt

KinoSat_111704
-------------------------
    Access    *     Start Time (UTCG)     *     Stop Time (UTCG)  *   Duration (s) *   Data (Mbytes)
         1   01 Jun 2027 03:19:01.874   01 Jun 2027 03:19:28.450            26.576         13288.000
         2   01 Jun 2027 03:19:33.421   01 Jun 2027 03:20:08.044            34.623         17311.500
         3   01 Jun 2027 03:20:11.772   01 Jun 2027 03:21:13.979            62.207         31103.500
         4   01 Jun 2027 03:22:12.552   01 Jun 2027 03:22:30.968            18.416          9208.000
         5   01 Jun 2027 03:22:55.391   01 Jun 2027 03:23:03.785             8.394          4197.000
         6   01 Jun 2027 03:24:51.034   01 Jun 2027 03:24:58.820             7.786          3893.000
         7   01 Jun 2027 04:57:48.420   01 Jun 2027 04:59:10.582            82.162         41081.000
         8   01 Jun 2027 05:01:04.088   01 Jun 2027 05:01:04.088             0.000             0.000
         9   01 Jun 2027 05:01:08.715   01 Jun 2027 05:01:30.918            22.203         11101.500
        10   01 Jun 2027 05:01:43.948   01 Jun 2027 05:01:52.438             8.490          4245.000
        11   01 Jun 2027 05:04:46.520   01 Jun 2027 05:04:49.093             2.573          1286.500
        12   01 Jun 2027 06:22:09.315   01 Jun 2027 06:22:48.587            39.272         19636.000
        13   01 Jun 2027 06:23:45.434   01 Jun 2027 06:24:14.210            28.776         14388.000
        14   01 Jun 2027 06:34:25.760   01 Jun 2027 06:34:53.440            27.680         13840.000
        15   01 Jun 2027 07:56:15.861   01 Jun 2027 07:57:29.203            73.342         36671.000
        16   01 Jun 2027 07:58:19.033   01 Jun 2027 07:58:29.681            10.648          5324.000
        17   01 Jun 2027 07:59:42.887   01 Jun 2027 07:59:54.365            11.478          5739.000
        18   01 Jun 2027 08:01:10.490   01 Jun 2027 08:01:57.296            46.806         23403.000
        19   01 Jun 2027 09:31:03.293   01 Jun 2027 09:32:25.022            81.729         40864.500
        20   01 Jun 2027 09:33:04.569   01 Jun 2027 09:33:08.933             4.364          2182.000
        21   01 Jun 2027 09:39:59.763   01 Jun 2027 09:40:01.319             1.556           778.000
        22   01 Jun 2027 11:08:55.525   01 Jun 2027 11:10:34.361            98.836         49418.000
        23   01 Jun 2027 11:11:07.685   01 Jun 2027 11:11:22.392            14.707          7353.500
        24   01 Jun 2027 11:11:54.350   01 Jun 2027 11:11:54.896             0.546           273.000
        25   01 Jun 2027 11:14:52.412   01 Jun 2027 11:15:57.395            64.983         32491.500
        26   02 Jun 2027 03:31:44.592   02 Jun 2027 03:32:00.808            16.216          8108.000
        27   02 Jun 2027 03:32:08.814   02 Jun 2027 03:33:21.231            72.417         36208.500
        28   02 Jun 2027 03:33:49.043   02 Jun 2027 03:34:31.147            42.104         21052.000
        29   02 Jun 2027 03:36:49.357   02 Jun 2027 03:36:49.357             0.000             0.000
        30   02 Jun 2027 05:10:12.902   02 Jun 2027 05:11:21.907            69.005         34502.500
        31   02 Jun 2027 05:12:41.261   02 Jun 2027 05:12:57.277            16.016          8008.000
        32   02 Jun 2027 06:34:07.225   02 Jun 2027 06:35:10.002            62.777         31388.500
        33   02 Jun 2027 06:36:09.149   02 Jun 2027 06:36:23.791            14.642          7321.000
        34   02 Jun 2027 08:10:04.943   02 Jun 2027 08:12:19.823           134.880         67440.000
        35   02 Jun 2027 09:43:53.424   02 Jun 2027 09:45:25.558            92.134         46067.000
        36   02 Jun 2027 09:45:51.977   02 Jun 2027 09:46:04.807            12.830          6415.000
        37   02 Jun 2027 11:21:02.783   02 Jun 2027 11:22:08.247            65.464         32732.000
        38   02 Jun 2027 11:25:03.719   02 Jun 2027 11:26:01.494            57.775         28887.500
        39   02 Jun 2027 11:26:11.165   02 Jun 2027 11:26:16.159             4.994          2497.000
        40   02 Jun 2027 11:27:37.535   02 Jun 2027 11:27:57.893            20.358         10179.000
        41   03 Jun 2027 03:44:29.030   03 Jun 2027 03:44:38.940             9.910          4955.000
        42   03 Jun 2027 03:46:19.139   03 Jun 2027 03:47:15.591            56.452         28226.000
        43   03 Jun 2027 03:47:43.759   03 Jun 2027 03:47:43.759             0.000             0.000
        44   03 Jun 2027 03:47:54.290   03 Jun 2027 03:48:09.474            15.184          7592.000
        45   03 Jun 2027 03:49:09.444   03 Jun 2027 03:49:43.896            34.452         17226.000
        46   03 Jun 2027 05:22:36.700   03 Jun 2027 05:23:25.002            48.302         24151.000
        47   03 Jun 2027 05:23:30.053   03 Jun 2027 05:23:57.066            27.013         13506.500
        48   03 Jun 2027 05:24:29.323   03 Jun 2027 05:24:35.148             5.825          2912.500
        49   03 Jun 2027 05:25:22.760   03 Jun 2027 05:25:41.721            18.961          9480.500
        50   03 Jun 2027 06:45:59.916   03 Jun 2027 06:47:30.857            90.941         45470.500
        51   03 Jun 2027 08:22:22.286   03 Jun 2027 08:24:16.317           114.031         57015.500
        52   03 Jun 2027 08:24:27.013   03 Jun 2027 08:24:56.006            28.993         14496.500
        53   03 Jun 2027 09:56:16.033   03 Jun 2027 09:56:59.217            43.184         21592.000
        54   03 Jun 2027 10:02:41.124   03 Jun 2027 10:02:45.695             4.571          2285.500
        55   03 Jun 2027 10:03:09.668   03 Jun 2027 10:03:22.416            12.748          6374.000
        56   03 Jun 2027 10:03:23.605   03 Jun 2027 10:03:41.989            18.384          9192.000
        57   03 Jun 2027 10:04:22.546   03 Jun 2027 10:04:24.817             2.271          1135.500
        58   03 Jun 2027 11:33:29.049   03 Jun 2027 11:33:56.439            27.390         12847.188
        59   03 Jun 2027 11:35:39.431   03 Jun 2027 11:35:48.567             9.136          2056.344
        60   03 Jun 2027 11:35:48.685   03 Jun 2027 11:35:52.467             3.782             3.688
        61   03 Jun 2027 11:36:12.808   03 Jun 2027 11:36:13.734             0.926           302.344
        62   03 Jun 2027 11:36:37.752   03 Jun 2027 11:36:40.327             2.575           750.563
        63   03 Jun 2027 11:37:48.595   03 Jun 2027 11:37:52.741             4.146          2008.750
        64   03 Jun 2027 11:38:02.275   03 Jun 2027 11:38:06.388             4.113            91.156
        65   03 Jun 2027 11:38:44.079   03 Jun 2027 11:38:59.624            15.545          1034.312
        66   03 Jun 2027 11:39:53.392   03 Jun 2027 11:39:56.489             3.097          1265.594
        67   04 Jun 2027 03:56:36.635   04 Jun 2027 03:57:28.820            52.185         26092.500
        68   04 Jun 2027 03:57:34.664   04 Jun 2027 03:58:11.577            36.913         18456.500
        69   04 Jun 2027 03:58:28.532   04 Jun 2027 03:58:42.244            13.712          6856.000
        70   04 Jun 2027 03:59:04.005   04 Jun 2027 03:59:06.875             2.870          1435.000
        71   04 Jun 2027 03:59:28.806   04 Jun 2027 03:59:35.563             6.757          3378.500
        72   04 Jun 2027 04:00:04.708   04 Jun 2027 04:00:12.763             8.055          4027.500
        73   04 Jun 2027 04:00:55.390   04 Jun 2027 04:01:04.375             8.985          4492.500
        74   04 Jun 2027 04:01:45.417   04 Jun 2027 04:01:48.005             2.588          1294.000
        75   04 Jun 2027 05:34:55.885   04 Jun 2027 05:36:28.079            92.194         46097.000
        76   04 Jun 2027 05:37:11.627   04 Jun 2027 05:37:21.579             9.952          4976.000
        77   04 Jun 2027 06:57:49.578   04 Jun 2027 06:59:33.436           103.858         51929.000
        78   04 Jun 2027 08:34:25.813   04 Jun 2027 08:34:53.485            27.672         13836.000
        79   04 Jun 2027 08:35:15.193   04 Jun 2027 08:35:17.738             2.545          1272.500
        80   04 Jun 2027 08:35:58.751   04 Jun 2027 08:36:00.382             1.631           815.500
        81   04 Jun 2027 08:36:58.196   04 Jun 2027 08:37:11.115            12.919          6440.875
        82   04 Jun 2027 10:09:33.618   04 Jun 2027 10:09:47.151            13.533          6489.750
        83   04 Jun 2027 10:12:25.241   04 Jun 2027 10:12:34.725             9.484          4108.750
        84   04 Jun 2027 10:12:59.365   04 Jun 2027 10:13:01.231             1.866           770.000
        85   04 Jun 2027 10:13:43.605   04 Jun 2027 10:13:47.228             3.623          1324.188
        86   04 Jun 2027 10:14:27.245   04 Jun 2027 10:14:28.232             0.987            77.969
        87   04 Jun 2027 10:15:36.685   04 Jun 2027 10:15:39.211             2.526          1263.000
        88   04 Jun 2027 10:15:46.566   04 Jun 2027 10:15:48.223             1.657           672.312
        89   04 Jun 2027 10:16:11.750   04 Jun 2027 10:16:11.750             0.000             0.000
        90   04 Jun 2027 11:45:53.949   04 Jun 2027 11:46:08.646            14.697          6338.906
        91   04 Jun 2027 11:47:31.411   04 Jun 2027 11:47:35.222             3.811          1905.500
        92   04 Jun 2027 11:48:08.074   04 Jun 2027 11:48:11.921             3.847          1087.750
        93   04 Jun 2027 11:49:09.145   04 Jun 2027 11:49:12.830             3.685          1670.875
        94   04 Jun 2027 11:51:20.611   04 Jun 2027 11:51:31.736            11.125          3993.156
        95   04 Jun 2027 11:52:15.753   04 Jun 2027 11:52:16.281             0.528           264.000
        96   05 Jun 2027 04:08:23.148   05 Jun 2027 04:09:23.295            60.147         30073.500
        97   05 Jun 2027 04:09:30.695   05 Jun 2027 04:10:34.717            64.022         32011.000
        98   05 Jun 2027 04:12:24.568   05 Jun 2027 04:12:39.559            14.991          7495.500
        99   05 Jun 2027 04:13:07.231   05 Jun 2027 04:13:12.222             4.991          2495.500
       100   05 Jun 2027 05:46:40.272   05 Jun 2027 05:47:15.106            34.834         17417.000
       101   05 Jun 2027 05:47:28.927   05 Jun 2027 05:48:26.600            57.673         28836.500
       102   05 Jun 2027 05:50:00.878   05 Jun 2027 05:50:20.430            19.552          9776.000
       103   05 Jun 2027 07:10:02.578   05 Jun 2027 07:11:42.500            99.922         49429.219
       104   05 Jun 2027 08:46:37.093   05 Jun 2027 08:46:48.318            11.225          5445.156
       105   05 Jun 2027 08:47:49.643   05 Jun 2027 08:47:50.978             1.335           667.500
       106   05 Jun 2027 08:48:22.182   05 Jun 2027 08:48:27.794             5.612          2005.812
       107   05 Jun 2027 08:49:27.806   05 Jun 2027 08:49:30.539             2.733           865.844
       108   05 Jun 2027 10:21:46.474   05 Jun 2027 10:22:02.987            16.513          8256.500
       109   05 Jun 2027 10:23:19.835   05 Jun 2027 10:23:19.835             0.000             0.000
       110   05 Jun 2027 10:24:40.126   05 Jun 2027 10:24:52.934            12.808          5708.844
       111   05 Jun 2027 10:26:42.597   05 Jun 2027 10:26:42.597             0.000             0.000
       112   05 Jun 2027 10:28:06.296   05 Jun 2027 10:28:21.060            14.764          5868.094
       113   05 Jun 2027 11:58:07.836   05 Jun 2027 11:58:31.620            23.784          6528.000
       114   06 Jun 2027 04:21:29.720   06 Jun 2027 04:22:53.042            83.322         41661.000
       115   06 Jun 2027 04:24:00.147   06 Jun 2027 04:24:01.549             1.402           701.000
       116   06 Jun 2027 04:24:51.557   06 Jun 2027 04:25:00.359             8.802          4401.000
       117   06 Jun 2027 04:25:12.485   06 Jun 2027 04:25:16.486             4.001          2000.500
       118   06 Jun 2027 04:26:00.094   06 Jun 2027 04:26:05.274             5.180          2590.000
       119   06 Jun 2027 04:28:25.369   06 Jun 2027 04:29:02.684            37.315         18657.500
       120   06 Jun 2027 05:58:36.989   06 Jun 2027 05:59:29.131            52.142         26071.000
       121   06 Jun 2027 05:59:34.750   06 Jun 2027 06:00:43.127            68.377         34188.500
       122   06 Jun 2027 06:02:02.870   06 Jun 2027 06:02:09.928             7.058          3529.000
       123   06 Jun 2027 07:22:32.956   06 Jun 2027 07:24:04.595            91.639         45803.594
       124   06 Jun 2027 07:24:30.733   06 Jun 2027 07:24:33.174             2.441           252.500
       125   06 Jun 2027 08:58:26.556   06 Jun 2027 08:58:40.168            13.612          6738.719
       126   06 Jun 2027 09:00:37.894   06 Jun 2027 09:00:37.894             0.000             0.000
       127   06 Jun 2027 09:00:42.585   06 Jun 2027 09:00:51.922             9.337          3825.531
       128   06 Jun 2027 09:02:31.390   06 Jun 2027 09:02:32.576             1.186           593.000
       129   06 Jun 2027 10:33:19.792   06 Jun 2027 10:33:36.695            16.903          5225.844
       130   06 Jun 2027 10:35:35.065   06 Jun 2027 10:35:42.887             7.822          3339.844
       131   06 Jun 2027 10:36:12.467   06 Jun 2027 10:36:12.467             0.000             0.000
       132   06 Jun 2027 10:36:18.174   06 Jun 2027 10:36:20.776             2.602           652.969
       133   06 Jun 2027 10:37:36.693   06 Jun 2027 10:37:38.791             2.098          1049.000
       134   06 Jun 2027 10:37:54.237   06 Jun 2027 10:37:57.042             2.805          1349.187
       135   06 Jun 2027 10:38:28.028   06 Jun 2027 10:38:30.814             2.786           878.906
       136   06 Jun 2027 10:38:48.086   06 Jun 2027 10:38:49.181             1.095           539.750
       137   06 Jun 2027 10:39:09.579   06 Jun 2027 10:39:11.201             1.622           605.031
       138   06 Jun 2027 10:39:26.209   06 Jun 2027 10:39:26.637             0.428           136.594
       139   06 Jun 2027 10:39:44.740   06 Jun 2027 10:39:45.900             1.160           565.719
       140   06 Jun 2027 10:40:20.910   06 Jun 2027 10:40:23.254             2.344          1021.375
       141   06 Jun 2027 10:40:31.069   06 Jun 2027 10:40:31.388             0.319           159.500
       142   07 Jun 2027 03:00:00.000   07 Jun 2027 03:00:21.492            21.492         10746.000
       143   07 Jun 2027 03:01:13.207   07 Jun 2027 03:01:17.290             4.083          2041.500
       144   07 Jun 2027 04:33:34.108   07 Jun 2027 04:35:06.599            92.491         46245.500
       145   07 Jun 2027 04:36:02.167   07 Jun 2027 04:36:09.140             6.973          3486.500
       146   07 Jun 2027 04:36:16.974   07 Jun 2027 04:36:27.485            10.511          5255.500
       147   07 Jun 2027 04:37:47.459   07 Jun 2027 04:37:48.013             0.554           277.000
       148   07 Jun 2027 04:39:09.715   07 Jun 2027 04:39:14.941             5.226          2613.000
       149   07 Jun 2027 04:39:31.532   07 Jun 2027 04:39:34.726             3.194          1597.000
       150   07 Jun 2027 04:39:45.898   07 Jun 2027 04:39:47.513             1.615           807.500
       151   07 Jun 2027 04:39:59.658   07 Jun 2027 04:40:16.716            17.058          8529.000
       152   07 Jun 2027 04:40:37.170   07 Jun 2027 04:41:07.156            29.986         14993.000
       153   07 Jun 2027 05:59:17.052   07 Jun 2027 06:00:18.755            61.703         30851.500
       154   07 Jun 2027 06:10:34.153   07 Jun 2027 06:11:01.864            27.711         13855.500
       155   07 Jun 2027 06:11:34.830   07 Jun 2027 06:11:40.507             5.677          2838.500
       156   07 Jun 2027 07:33:09.546   07 Jun 2027 07:34:14.338            64.792         32396.000
       157   07 Jun 2027 07:34:27.921   07 Jun 2027 07:35:04.237            36.316         15489.906
       158   07 Jun 2027 07:37:49.703   07 Jun 2027 07:37:50.686             0.983           491.500
       159   07 Jun 2027 09:08:42.380   07 Jun 2027 09:08:57.251            14.871          6638.594
       160   07 Jun 2027 09:09:12.200   07 Jun 2027 09:09:20.900             8.700           278.656
       161   07 Jun 2027 09:12:02.327   07 Jun 2027 09:12:14.389            12.062          4952.844
       162   07 Jun 2027 09:12:55.208   07 Jun 2027 09:12:56.188             0.980           490.000
       163   07 Jun 2027 09:13:31.026   07 Jun 2027 09:13:35.507             4.481          1543.125
       164   07 Jun 2027 09:14:24.270   07 Jun 2027 09:14:27.855             3.585          1113.219
       165   07 Jun 2027 10:44:59.711   07 Jun 2027 10:45:11.578            11.867          4367.344
       166   07 Jun 2027 10:48:07.852   07 Jun 2027 10:48:13.798             5.946          2973.000
       167   07 Jun 2027 10:48:30.042   07 Jun 2027 10:48:38.429             8.387          2560.000
       168   07 Jun 2027 10:49:42.431   07 Jun 2027 10:49:46.321             3.890          1464.000
       169   07 Jun 2027 10:50:08.713   07 Jun 2027 10:50:10.304             1.591           513.125
       170   07 Jun 2027 10:50:32.650   07 Jun 2027 10:50:34.384             1.734           597.250
       171   07 Jun 2027 10:50:56.951   07 Jun 2027 10:50:58.845             1.894           537.688
       172   07 Jun 2027 10:51:28.677   07 Jun 2027 10:51:33.102             4.425           874.156
       173   07 Jun 2027 10:51:37.237   07 Jun 2027 10:51:37.830             0.593           129.219
       174   07 Jun 2027 10:51:45.633   07 Jun 2027 10:51:47.038             1.405           157.313
       175   07 Jun 2027 10:52:32.400   07 Jun 2027 10:52:33.681             1.281           640.500
       176   08 Jun 2027 03:06:59.323   08 Jun 2027 03:07:58.425            59.102         29551.000
       177   08 Jun 2027 03:09:11.996   08 Jun 2027 03:09:11.996             0.000             0.000
       178   08 Jun 2027 03:09:43.595   08 Jun 2027 03:09:50.310             6.715          3357.500
       179   08 Jun 2027 03:11:18.929   08 Jun 2027 03:11:18.929             0.000             0.000
       180   08 Jun 2027 03:11:46.042   08 Jun 2027 03:11:59.374            13.332          6666.000
       181   08 Jun 2027 03:12:22.839   08 Jun 2027 03:12:23.501             0.662           331.000
       182   08 Jun 2027 04:46:04.268   08 Jun 2027 04:47:18.035            73.767         36883.500
       183   08 Jun 2027 04:47:39.441   08 Jun 2027 04:47:52.407            12.966          6483.000
       184   08 Jun 2027 04:48:21.382   08 Jun 2027 04:48:28.260             6.878          3439.000
       185   08 Jun 2027 04:49:20.332   08 Jun 2027 04:49:42.953            22.621         11310.500
       186   08 Jun 2027 04:51:42.339   08 Jun 2027 04:51:47.062             4.723          2361.500
       187   08 Jun 2027 04:52:51.841   08 Jun 2027 04:53:11.777            19.936          9968.000
       188   08 Jun 2027 06:10:53.804   08 Jun 2027 06:11:29.887            36.083         18041.500
       189   08 Jun 2027 06:12:05.885   08 Jun 2027 06:12:05.885             0.000             0.000
       190   08 Jun 2027 06:22:34.157   08 Jun 2027 06:23:18.702            44.545         22272.500
       191   08 Jun 2027 06:23:33.530   08 Jun 2027 06:23:35.493             1.963           981.500
       192   08 Jun 2027 07:44:52.947   08 Jun 2027 07:45:58.933            65.986         32993.000
       193   08 Jun 2027 07:46:49.821   08 Jun 2027 07:47:02.039            12.218          4915.032
       194   08 Jun 2027 07:47:14.917   08 Jun 2027 07:47:16.892             1.975           243.344
       195   08 Jun 2027 07:49:27.030   08 Jun 2027 07:49:27.030             0.000             0.000
       196   08 Jun 2027 09:19:50.701   08 Jun 2027 09:20:05.917            15.216          7357.719
       197   08 Jun 2027 09:20:36.219   08 Jun 2027 09:20:37.958             1.739           571.688
       198   08 Jun 2027 09:25:02.082   08 Jun 2027 09:25:17.205            15.123          7561.500
       199   08 Jun 2027 10:57:19.234   08 Jun 2027 10:57:34.664            15.430          6575.969
       200   08 Jun 2027 10:57:52.786   08 Jun 2027 10:57:55.156             2.370           543.156
       201   08 Jun 2027 10:59:17.894   08 Jun 2027 10:59:23.786             5.892           896.500
       202   08 Jun 2027 11:00:02.513   08 Jun 2027 11:00:04.374             1.861           736.438
       203   08 Jun 2027 11:00:41.109   08 Jun 2027 11:00:43.116             2.007           811.656
       204   08 Jun 2027 11:03:02.309   08 Jun 2027 11:03:14.606            12.297          4261.625
       205   08 Jun 2027 11:03:26.878   08 Jun 2027 11:03:28.974             2.096           352.531
       206   08 Jun 2027 11:03:46.787   08 Jun 2027 11:03:49.130             2.343           502.656
       207   09 Jun 2027 03:19:19.499   09 Jun 2027 03:19:46.028            26.529         13264.500
       208   09 Jun 2027 03:19:53.001   09 Jun 2027 03:20:25.011            32.010         16005.000
       209   09 Jun 2027 03:20:29.036   09 Jun 2027 03:21:23.006            53.970         26985.000
       210   09 Jun 2027 03:21:24.883   09 Jun 2027 03:21:35.269            10.386          5193.000
       211   09 Jun 2027 03:24:02.569   09 Jun 2027 03:24:04.044             1.475           737.500
       212   09 Jun 2027 03:24:48.158   09 Jun 2027 03:24:54.702             6.544          3272.000
       213   09 Jun 2027 04:58:06.663   09 Jun 2027 04:59:28.936            82.273         41136.500
       214   09 Jun 2027 05:01:58.069   09 Jun 2027 05:02:09.772            11.703          5851.500
       215   09 Jun 2027 05:04:57.435   09 Jun 2027 05:04:57.435             0.000             0.000
       216   09 Jun 2027 05:05:04.569   09 Jun 2027 05:05:04.803             0.234           117.000
       217   09 Jun 2027 06:22:27.134   09 Jun 2027 06:23:04.894            37.760         18880.000
       218   09 Jun 2027 06:23:31.505   09 Jun 2027 06:24:01.041            29.536         14768.000
       219   09 Jun 2027 06:24:29.716   09 Jun 2027 06:24:29.716             0.000             0.000
       220   09 Jun 2027 06:34:42.777   09 Jun 2027 06:35:09.847            27.070         13535.000
       221   09 Jun 2027 07:56:26.541   09 Jun 2027 07:57:14.309            47.768         21858.031
       222   09 Jun 2027 07:58:34.726   09 Jun 2027 07:58:38.666             3.940          1692.187
       223   09 Jun 2027 08:01:27.980   09 Jun 2027 08:01:38.608            10.628          4988.156
       224   09 Jun 2027 09:31:18.723   09 Jun 2027 09:31:30.865            12.142          5202.656
       225   09 Jun 2027 09:33:15.400   09 Jun 2027 09:33:19.614             4.214          2107.000
       226   09 Jun 2027 09:34:09.207   09 Jun 2027 09:34:13.231             4.024          1571.000
       227   09 Jun 2027 09:34:49.097   09 Jun 2027 09:34:49.662             0.565           146.531
       228   09 Jun 2027 09:38:04.803   09 Jun 2027 09:38:16.246            11.443          5721.500
       229   09 Jun 2027 09:38:32.680   09 Jun 2027 09:38:35.918             3.238           603.375
       230   09 Jun 2027 11:12:11.275   09 Jun 2027 11:12:35.363            24.088         10859.062
       231   09 Jun 2027 11:13:28.118   09 Jun 2027 11:13:30.508             2.390          1195.000
       232   09 Jun 2027 11:15:07.181   09 Jun 2027 11:15:13.331             6.150          3075.000
       233   09 Jun 2027 11:15:17.191   09 Jun 2027 11:15:17.191             0.000             0.000
       234   09 Jun 2027 11:15:31.208   09 Jun 2027 11:15:32.464             1.256           610.594
       235   09 Jun 2027 11:15:35.404   09 Jun 2027 11:15:35.888             0.484            91.875
       236   09 Jun 2027 11:16:28.815   09 Jun 2027 11:16:33.484             4.669          1430.562
       237   10 Jun 2027 03:32:02.409   10 Jun 2027 03:32:16.499            14.090          7045.000
       238   10 Jun 2027 03:32:25.960   10 Jun 2027 03:33:34.844            68.884         34442.000
       239   10 Jun 2027 03:34:12.945   10 Jun 2027 03:35:20.873            67.928         33964.000
       240   10 Jun 2027 05:10:32.549   10 Jun 2027 05:11:36.088            63.539         31769.500
       241   10 Jun 2027 05:12:08.029   10 Jun 2027 05:12:11.507             3.478          1739.000
       242   10 Jun 2027 05:13:02.479   10 Jun 2027 05:13:26.528            24.049         12024.500
       243   10 Jun 2027 06:34:23.391   10 Jun 2027 06:35:33.001            69.610         34805.000
       244   10 Jun 2027 08:10:24.087   10 Jun 2027 08:11:16.808            52.721         24496.562
       245   10 Jun 2027 08:13:28.594   10 Jun 2027 08:13:37.222             8.628          4118.313
       246   10 Jun 2027 09:44:11.708   10 Jun 2027 09:44:20.465             8.757          3956.063
       247   10 Jun 2027 09:44:59.482   10 Jun 2027 09:45:00.608             1.126           420.875
       248   10 Jun 2027 09:45:44.499   10 Jun 2027 09:45:46.764             2.265           878.000
       249   10 Jun 2027 09:49:03.415   10 Jun 2027 09:49:16.399            12.984          5379.094
       250   10 Jun 2027 09:50:13.763   10 Jun 2027 09:50:17.642             3.879          1486.438
       251   10 Jun 2027 11:21:20.651   10 Jun 2027 11:21:37.949            17.298          8119.313
       252   10 Jun 2027 11:21:58.847   10 Jun 2027 11:22:00.618             1.771           160.906
       253   10 Jun 2027 11:23:56.368   10 Jun 2027 11:23:56.368             0.000             0.000
       254   10 Jun 2027 11:25:24.378   10 Jun 2027 11:25:35.341            10.963          5356.906
       255   10 Jun 2027 11:26:04.588   10 Jun 2027 11:26:04.901             0.313            24.031
       256   10 Jun 2027 11:26:30.350   10 Jun 2027 11:26:32.634             2.284           795.281
       257   10 Jun 2027 11:27:18.213   10 Jun 2027 11:27:19.884             1.671           835.500
       258   10 Jun 2027 11:27:43.994   10 Jun 2027 11:27:48.138             4.144          1342.281
       259   11 Jun 2027 03:44:45.568   11 Jun 2027 03:45:05.083            19.515          9757.500
       260   11 Jun 2027 03:45:18.527   11 Jun 2027 03:47:05.368           106.841         53420.500
       261   11 Jun 2027 03:48:53.893   11 Jun 2027 03:49:14.918            21.025         10512.500
       262   11 Jun 2027 05:22:53.654   11 Jun 2027 05:23:20.231            26.577         13288.500
       263   11 Jun 2027 05:23:43.801   11 Jun 2027 05:24:11.659            27.858         13929.000
       264   11 Jun 2027 05:24:47.567   11 Jun 2027 05:25:15.273            27.706         13853.000
       265   11 Jun 2027 06:46:16.606   11 Jun 2027 06:47:34.333            77.727         38863.500
       266   11 Jun 2027 06:47:52.238   11 Jun 2027 06:48:08.342            16.104          8052.000
       267   11 Jun 2027 08:22:37.747   11 Jun 2027 08:23:16.300            38.553         18636.156
       268   11 Jun 2027 08:24:16.861   11 Jun 2027 08:24:21.043             4.182          1737.000
       269   11 Jun 2027 08:24:41.024   11 Jun 2027 08:24:43.585             2.561           444.562
       270   11 Jun 2027 08:25:57.267   11 Jun 2027 08:26:05.863             8.596          1666.094
       271   11 Jun 2027 09:56:37.456   11 Jun 2027 09:56:47.581            10.125          4031.000
       272   11 Jun 2027 09:58:17.287   11 Jun 2027 09:58:17.287             0.000             0.000
       273   11 Jun 2027 09:59:44.173   11 Jun 2027 09:59:56.309            12.136          4601.656
       274   11 Jun 2027 10:00:24.373   11 Jun 2027 10:00:28.389             4.016           206.094
       275   11 Jun 2027 10:00:46.628   11 Jun 2027 10:00:51.525             4.897           474.125
       276   11 Jun 2027 10:01:15.356   11 Jun 2027 10:01:20.416             5.060           707.156
       277   11 Jun 2027 10:01:56.339   11 Jun 2027 10:01:58.422             2.083           219.594
       278   11 Jun 2027 10:02:32.392   11 Jun 2027 10:02:34.346             1.954           602.344
       279   11 Jun 2027 10:02:37.414   11 Jun 2027 10:02:38.678             1.264            95.875
       280   11 Jun 2027 10:03:23.307   11 Jun 2027 10:03:29.613             6.306          1394.656
       281   11 Jun 2027 10:04:39.373   11 Jun 2027 10:04:41.875             2.502          1251.000
       282   11 Jun 2027 11:33:46.260   11 Jun 2027 11:34:00.776            14.516          5750.406
       283   11 Jun 2027 11:34:14.317   11 Jun 2027 11:34:18.384             4.067           423.156
       284   11 Jun 2027 11:34:49.883   11 Jun 2027 11:34:53.067             3.184           930.250
       285   11 Jun 2027 11:35:14.322   11 Jun 2027 11:35:21.058             6.736           664.219
       286   11 Jun 2027 11:36:04.200   11 Jun 2027 11:36:05.846             1.646           594.813
       287   11 Jun 2027 11:36:29.832   11 Jun 2027 11:36:32.643             2.811           377.531
       288   11 Jun 2027 11:36:54.882   11 Jun 2027 11:36:58.180             3.298           694.969
       289   11 Jun 2027 11:38:04.592   11 Jun 2027 11:38:09.555             4.963          2000.469
       290   11 Jun 2027 11:38:19.086   11 Jun 2027 11:38:28.376             9.290           155.937
       291   11 Jun 2027 11:38:30.438   11 Jun 2027 11:38:31.665             1.227            27.281
       292   11 Jun 2027 11:38:57.091   11 Jun 2027 11:38:58.869             1.778           727.312
       293   11 Jun 2027 11:39:46.510   11 Jun 2027 11:39:51.520             5.010          1488.781
       294   11 Jun 2027 11:39:57.302   11 Jun 2027 11:39:58.974             1.672           180.688
       295   11 Jun 2027 11:40:17.109   11 Jun 2027 11:40:18.136             1.027           264.188
       296   12 Jun 2027 03:56:47.502   12 Jun 2027 03:57:45.991            58.489         29244.500
       297   12 Jun 2027 03:57:51.763   12 Jun 2027 03:58:25.161            33.398         16699.000
       298   12 Jun 2027 03:58:43.748   12 Jun 2027 03:59:13.057            29.309         14654.500
       299   12 Jun 2027 04:00:19.515   12 Jun 2027 04:00:25.710             6.195          3097.500
       300   12 Jun 2027 04:01:20.939   12 Jun 2027 04:01:22.600             1.661           830.500
       301   12 Jun 2027 04:01:56.243   12 Jun 2027 04:02:03.034             6.791          3395.500
       302   12 Jun 2027 05:35:19.298   12 Jun 2027 05:37:27.589           128.291         64145.500
       303   12 Jun 2027 06:58:10.214   12 Jun 2027 06:59:27.971            77.757         38878.500
       304   12 Jun 2027 08:34:43.350   12 Jun 2027 08:35:04.713            21.363          9813.375
       305   12 Jun 2027 08:37:28.482   12 Jun 2027 08:37:37.410             8.928          4327.500
       306   12 Jun 2027 10:09:52.204   12 Jun 2027 10:10:02.063             9.859          4265.375
       307   12 Jun 2027 10:10:49.982   12 Jun 2027 10:10:52.722             2.740           655.094
       308   12 Jun 2027 10:11:01.878   12 Jun 2027 10:11:06.105             4.227           202.937
       309   12 Jun 2027 10:11:46.947   12 Jun 2027 10:11:48.878             1.931           323.313
       310   12 Jun 2027 10:13:00.295   12 Jun 2027 10:13:04.943             4.648          2129.875
       311   12 Jun 2027 10:13:21.454   12 Jun 2027 10:13:25.087             3.633           515.969
       312   12 Jun 2027 10:15:00.079   12 Jun 2027 10:15:10.973            10.894          2563.312
       313   12 Jun 2027 10:16:19.448   12 Jun 2027 10:16:24.525             5.077          2139.844
       314   12 Jun 2027 10:16:32.600   12 Jun 2027 10:16:33.413             0.813           252.344
       315   12 Jun 2027 10:16:34.363   12 Jun 2027 10:16:36.290             1.927            29.687
       316   12 Jun 2027 11:46:12.540   12 Jun 2027 11:46:28.262            15.722          7729.813
       317   12 Jun 2027 11:47:47.168   12 Jun 2027 11:47:50.481             3.313          1656.500
       318   12 Jun 2027 11:48:56.880   12 Jun 2027 11:49:07.666            10.786          2352.687
       319   12 Jun 2027 11:49:48.301   12 Jun 2027 11:49:51.118             2.817           719.812
       320   12 Jun 2027 11:50:02.349   12 Jun 2027 11:50:04.647             2.298           294.938
       321   12 Jun 2027 11:50:15.540   12 Jun 2027 11:50:21.067             5.527           340.406
       322   12 Jun 2027 11:51:37.640   12 Jun 2027 11:51:41.496             3.856          1928.000
       323   12 Jun 2027 11:52:12.736   12 Jun 2027 11:52:15.706             2.970          1260.094
       324   13 Jun 2027 04:08:40.986   13 Jun 2027 04:09:38.098            57.112         28556.000
       325   13 Jun 2027 04:09:47.964   13 Jun 2027 04:10:34.055            46.091         23045.500
       326   13 Jun 2027 04:11:52.282   13 Jun 2027 04:12:05.273            12.991          6495.500
       327   13 Jun 2027 04:12:28.364   13 Jun 2027 04:12:39.125            10.761          5380.500
       328   13 Jun 2027 04:13:02.689   13 Jun 2027 04:13:02.689             0.000             0.000
       329   13 Jun 2027 05:46:57.241   13 Jun 2027 05:48:37.275           100.034         50017.000
       330   13 Jun 2027 05:49:16.608   13 Jun 2027 05:49:37.350            20.742         10371.000
       331   13 Jun 2027 07:10:18.474   13 Jun 2027 07:11:46.551            88.077         44038.500
       332   13 Jun 2027 07:13:28.974   13 Jun 2027 07:13:30.208             1.234           617.000
       333   13 Jun 2027 08:46:53.979   13 Jun 2027 08:47:04.318            10.339          5169.500
       334   13 Jun 2027 08:47:59.701   13 Jun 2027 08:48:06.808             7.107          3553.500
       335   13 Jun 2027 08:48:10.921   13 Jun 2027 08:48:14.275             3.354          1677.000
       336   13 Jun 2027 08:49:27.536   13 Jun 2027 08:49:35.303             7.767          2613.218
       337   13 Jun 2027 08:49:54.181   13 Jun 2027 08:49:55.673             1.492           251.875
       338   13 Jun 2027 08:50:05.870   13 Jun 2027 08:50:07.250             1.380           176.719
       339   13 Jun 2027 10:23:26.414   13 Jun 2027 10:23:40.002            13.588          6794.000
       340   13 Jun 2027 10:24:02.897   13 Jun 2027 10:24:10.183             7.286          2724.531
       341   13 Jun 2027 10:25:33.649   13 Jun 2027 10:25:35.989             2.340          1160.531
       342   13 Jun 2027 10:25:42.047   13 Jun 2027 10:25:45.393             3.346             1.719
       343   13 Jun 2027 10:26:00.141   13 Jun 2027 10:26:06.244             6.103           267.094
       344   13 Jun 2027 10:26:16.103   13 Jun 2027 10:26:17.417             1.314           271.219
       345   13 Jun 2027 10:26:35.116   13 Jun 2027 10:26:37.795             2.679           499.500
       346   13 Jun 2027 10:27:12.386   13 Jun 2027 10:27:14.393             2.007           857.969
       347   13 Jun 2027 10:27:49.424   13 Jun 2027 10:27:51.567             2.143           990.281
       348   13 Jun 2027 10:28:06.491   13 Jun 2027 10:28:11.612             5.121           172.281
       349   13 Jun 2027 11:58:24.078   13 Jun 2027 11:58:46.332            22.254          6095.594
