uniorb/output/strategy_1/Camera/Camera_KinoSat_110104.txt

KinoSat_110104
-------------------------
    Access    *     Start Time (UTCG)     *     Stop Time (UTCG)  *   Duration (s) *   Data (Mbytes)
         1   01 Jun 2027 04:16:35.135   01 Jun 2027 04:18:48.844           133.709         66854.500
         2   01 Jun 2027 04:19:18.513   01 Jun 2027 04:19:21.035             2.522          1261.000
         3   01 Jun 2027 04:19:51.911   01 Jun 2027 04:20:15.365            23.454         11727.000
         4   01 Jun 2027 04:20:41.539   01 Jun 2027 04:20:44.897             3.358          1679.000
         5   01 Jun 2027 04:21:00.543   01 Jun 2027 04:21:07.622             7.079          3539.500
         6   01 Jun 2027 04:21:43.728   01 Jun 2027 04:21:58.761            15.033          7516.500
         7   01 Jun 2027 05:54:31.435   01 Jun 2027 05:58:30.297           238.862        119431.000
         8   01 Jun 2027 07:27:53.014   01 Jun 2027 07:30:30.049           157.035         78517.500
         9   01 Jun 2027 07:31:06.625   01 Jun 2027 07:31:25.452            18.827          9413.500
        10   01 Jun 2027 07:31:42.162   01 Jun 2027 07:31:57.091            14.929          7464.500
        11   01 Jun 2027 07:32:35.499   01 Jun 2027 07:32:46.441            10.942          5471.000
        12   01 Jun 2027 07:34:14.224   01 Jun 2027 07:34:34.633            20.409         10204.500
        13   01 Jun 2027 07:34:44.993   01 Jun 2027 07:34:49.424             4.431          2215.500
        14   02 Jun 2027 04:28:25.945   02 Jun 2027 04:34:22.378           356.433        178216.500
        15   02 Jun 2027 04:34:41.426   02 Jun 2027 04:35:09.108            27.682         13841.000
        16   02 Jun 2027 06:06:28.534   02 Jun 2027 06:09:38.285           189.751         94875.500
        17   02 Jun 2027 06:10:30.254   02 Jun 2027 06:10:33.275             3.021          1510.500
        18   02 Jun 2027 07:40:19.324   02 Jun 2027 07:42:19.287           119.963         59981.500
        19   02 Jun 2027 07:43:11.873   02 Jun 2027 07:43:36.288            24.415         12207.500
        20   02 Jun 2027 07:44:02.225   02 Jun 2027 07:44:02.225             0.000             0.000
        21   02 Jun 2027 07:44:43.675   02 Jun 2027 07:45:01.902            18.227          9113.500
        22   02 Jun 2027 07:45:57.549   02 Jun 2027 07:46:07.770            10.221          5110.500
        23   03 Jun 2027 03:03:41.155   03 Jun 2027 03:10:16.165           395.010        197505.000
        24   03 Jun 2027 03:10:54.069   03 Jun 2027 03:11:05.185            11.116          5558.000
        25   03 Jun 2027 04:40:36.189   03 Jun 2027 04:42:58.691           142.502         71251.000
        26   03 Jun 2027 04:43:25.265   03 Jun 2027 04:43:34.104             8.839          4419.500
        27   03 Jun 2027 04:43:44.014   03 Jun 2027 04:43:45.946             1.932           966.000
        28   03 Jun 2027 04:45:07.091   03 Jun 2027 04:45:29.755            22.664         11332.000
        29   03 Jun 2027 04:45:34.566   03 Jun 2027 04:45:40.974             6.408          3204.000
        30   03 Jun 2027 04:46:18.881   03 Jun 2027 04:46:23.569             4.688          2344.000
        31   03 Jun 2027 06:17:43.431   03 Jun 2027 06:19:50.712           127.281         63640.500
        32   03 Jun 2027 06:20:09.859   03 Jun 2027 06:20:26.577            16.718          8359.000
        33   03 Jun 2027 06:20:59.840   03 Jun 2027 06:21:14.999            15.159          7579.500
        34   03 Jun 2027 06:22:21.249   03 Jun 2027 06:22:28.415             7.166          3583.000
        35   03 Jun 2027 07:52:37.726   03 Jun 2027 07:53:38.359            60.633         30316.500
        36   03 Jun 2027 07:54:25.848   03 Jun 2027 07:55:17.668            51.820         25910.000
        37   03 Jun 2027 07:56:13.275   03 Jun 2027 07:56:34.981            21.706         10853.000
        38   03 Jun 2027 07:57:26.406   03 Jun 2027 07:57:46.421            20.015         10007.500
        39   04 Jun 2027 03:16:08.202   04 Jun 2027 03:22:27.580           379.378        189689.000
        40   04 Jun 2027 04:53:02.773   04 Jun 2027 04:55:33.604           150.831         75415.500
        41   04 Jun 2027 04:55:46.106   04 Jun 2027 04:55:48.292             2.186          1093.000
        42   04 Jun 2027 04:57:37.517   04 Jun 2027 04:57:58.485            20.968         10484.000
        43   04 Jun 2027 04:58:13.036   04 Jun 2027 04:58:30.227            17.191          8595.500
        44   04 Jun 2027 06:29:56.218   04 Jun 2027 06:32:57.504           181.286         90643.000
        45   04 Jun 2027 06:33:45.971   04 Jun 2027 06:34:01.991            16.020          8010.000
        46   04 Jun 2027 08:07:06.537   04 Jun 2027 08:08:23.479            76.942         38471.000
        47   04 Jun 2027 08:09:14.123   04 Jun 2027 08:09:26.855            12.732          6366.000
        48   05 Jun 2027 03:28:12.748   05 Jun 2027 03:34:54.572           401.824        200912.000
        49   05 Jun 2027 05:05:44.830   05 Jun 2027 05:07:53.936           129.106         64553.000
        50   05 Jun 2027 05:08:09.698   05 Jun 2027 05:08:22.576            12.878          6439.000
        51   05 Jun 2027 05:08:30.754   05 Jun 2027 05:08:40.662             9.908          4954.000
        52   05 Jun 2027 05:09:54.923   05 Jun 2027 05:10:14.334            19.411          9705.500
        53   05 Jun 2027 05:10:18.899   05 Jun 2027 05:10:20.245             1.346           673.000
        54   05 Jun 2027 06:42:02.702   05 Jun 2027 06:44:21.897           139.195         69597.500
        55   05 Jun 2027 06:44:53.856   05 Jun 2027 06:45:04.029            10.173          5086.500
        56   05 Jun 2027 06:45:11.743   05 Jun 2027 06:45:18.227             6.484          3242.000
        57   05 Jun 2027 06:45:26.615   05 Jun 2027 06:45:32.324             5.709          2854.500
        58   05 Jun 2027 06:45:32.432   05 Jun 2027 06:45:33.133             0.701           350.500
        59   05 Jun 2027 06:45:53.178   05 Jun 2027 06:46:02.770             9.592          4796.000
        60   05 Jun 2027 08:20:16.406   05 Jun 2027 08:20:47.197            30.791         15395.500
        61   06 Jun 2027 03:40:47.384   06 Jun 2027 03:47:03.624           376.240        188120.000
        62   06 Jun 2027 05:18:09.782   06 Jun 2027 05:21:38.412           208.630        104315.000
        63   06 Jun 2027 05:22:10.553   06 Jun 2027 05:22:38.352            27.799         13899.500
        64   06 Jun 2027 05:22:42.489   06 Jun 2027 05:22:42.962             0.473           236.500
        65   06 Jun 2027 06:54:19.588   06 Jun 2027 06:56:20.312           120.724         60362.000
        66   06 Jun 2027 06:56:48.968   06 Jun 2027 06:57:10.774            21.806         10903.000
        67   06 Jun 2027 06:58:05.079   06 Jun 2027 06:58:08.256             3.177          1588.500
        68   07 Jun 2027 03:52:24.026   07 Jun 2027 03:58:46.279           382.253        191126.500
        69   07 Jun 2027 05:30:22.974   07 Jun 2027 05:34:12.455           229.481        114740.500
        70   07 Jun 2027 07:06:13.782   07 Jun 2027 07:08:41.907           148.125         74062.500
        71   07 Jun 2027 07:09:10.201   07 Jun 2027 07:09:13.527             3.326          1663.000
        72   07 Jun 2027 07:09:52.995   07 Jun 2027 07:10:03.326            10.331          5165.500
        73   07 Jun 2027 07:11:01.218   07 Jun 2027 07:11:12.792            11.574          5787.000
        74   08 Jun 2027 04:04:34.976   08 Jun 2027 04:10:53.621           378.645        189322.500
        75   08 Jun 2027 05:42:45.108   08 Jun 2027 05:46:16.406           211.298        105649.000
        76   08 Jun 2027 07:16:02.082   08 Jun 2027 07:17:47.329           105.247         52623.500
        77   08 Jun 2027 07:17:48.774   08 Jun 2027 07:18:25.557            36.783         18391.500
        78   08 Jun 2027 07:18:58.039   08 Jun 2027 07:18:58.809             0.770           385.000
        79   08 Jun 2027 07:19:06.341   08 Jun 2027 07:19:19.951            13.610          6805.000
        80   08 Jun 2027 07:20:08.473   08 Jun 2027 07:20:13.773             5.300          2650.000
        81   08 Jun 2027 07:20:35.742   08 Jun 2027 07:20:45.310             9.568          4784.000
        82   08 Jun 2027 07:21:09.984   08 Jun 2027 07:21:20.686            10.702          5351.000
        83   08 Jun 2027 07:21:38.109   08 Jun 2027 07:21:40.892             2.783          1391.500
        84   08 Jun 2027 07:22:44.671   08 Jun 2027 07:22:59.714            15.043          7521.500
        85   08 Jun 2027 07:23:05.554   08 Jun 2027 07:23:07.210             1.656           828.000
        86   08 Jun 2027 07:23:35.076   08 Jun 2027 07:23:46.848            11.772          5886.000
        87   09 Jun 2027 04:16:50.073   09 Jun 2027 04:22:58.678           368.605        184302.500
        88   09 Jun 2027 05:54:46.068   09 Jun 2027 05:58:26.803           220.735        110367.500
        89   09 Jun 2027 07:28:08.242   09 Jun 2027 07:30:18.285           130.043         65021.500
        90   09 Jun 2027 07:30:54.033   09 Jun 2027 07:31:21.542            27.509         13754.500
        91   09 Jun 2027 07:33:24.447   09 Jun 2027 07:33:38.115            13.668          6834.000
        92   09 Jun 2027 07:34:55.369   09 Jun 2027 07:35:01.883             6.514          3257.000
        93   09 Jun 2027 07:35:46.076   09 Jun 2027 07:35:49.812             3.736          1868.000
        94   10 Jun 2027 04:28:41.173   10 Jun 2027 04:34:37.240           356.067        178033.500
        95   10 Jun 2027 04:34:48.850   10 Jun 2027 04:35:01.187            12.337          6168.500
        96   10 Jun 2027 06:06:43.336   10 Jun 2027 06:09:53.335           189.999         94999.500
        97   10 Jun 2027 06:10:22.179   10 Jun 2027 06:10:40.699            18.520          9260.000
        98   10 Jun 2027 07:40:34.631   10 Jun 2027 07:42:15.300           100.669         50334.500
        99   10 Jun 2027 07:42:33.954   10 Jun 2027 07:42:48.752            14.798          7399.000
       100   10 Jun 2027 07:44:16.633   10 Jun 2027 07:44:36.553            19.920          9960.000
       101   10 Jun 2027 07:45:22.786   10 Jun 2027 07:45:28.157             5.371          2685.500
       102   10 Jun 2027 07:45:57.652   10 Jun 2027 07:46:11.411            13.759          6879.500
       103   11 Jun 2027 03:03:56.416   11 Jun 2027 03:07:58.010           241.594        120797.000
       104   11 Jun 2027 03:08:22.678   11 Jun 2027 03:08:42.614            19.936          9968.000
       105   11 Jun 2027 03:09:26.682   11 Jun 2027 03:10:17.967            51.285         25642.500
       106   11 Jun 2027 03:10:42.777   11 Jun 2027 03:10:48.284             5.507          2753.500
       107   11 Jun 2027 03:11:08.333   11 Jun 2027 03:11:09.369             1.036           518.000
       108   11 Jun 2027 04:40:51.659   11 Jun 2027 04:43:18.518           146.859         73429.500
       109   11 Jun 2027 04:43:23.675   11 Jun 2027 04:43:32.633             8.958          4479.000
       110   11 Jun 2027 04:43:58.057   11 Jun 2027 04:44:00.396             2.339          1169.500
       111   11 Jun 2027 04:44:28.564   11 Jun 2027 04:44:30.889             2.325          1162.500
       112   11 Jun 2027 04:45:33.960   11 Jun 2027 04:45:53.695            19.735          9867.500
       113   11 Jun 2027 04:46:07.366   11 Jun 2027 04:46:09.286             1.920           960.000
       114   11 Jun 2027 04:46:25.414   11 Jun 2027 04:46:33.358             7.944          3972.000
       115   11 Jun 2027 06:17:58.354   11 Jun 2027 06:20:58.944           180.590         90295.000
       116   11 Jun 2027 06:21:07.835   11 Jun 2027 06:21:16.604             8.769          4384.500
       117   11 Jun 2027 06:21:47.925   11 Jun 2027 06:21:47.925             0.000             0.000
       118   11 Jun 2027 06:22:10.878   11 Jun 2027 06:22:18.946             8.068          4034.000
       119   11 Jun 2027 06:22:29.609   11 Jun 2027 06:22:38.026             8.417          4208.500
       120   11 Jun 2027 07:52:54.426   11 Jun 2027 07:53:50.982            56.556         28278.000
       121   11 Jun 2027 07:54:40.899   11 Jun 2027 07:55:16.777            35.878         17939.000
       122   11 Jun 2027 07:56:49.918   11 Jun 2027 07:56:56.050             6.132          3066.000
       123   11 Jun 2027 07:57:20.595   11 Jun 2027 07:57:31.175            10.580          5290.000
       124   12 Jun 2027 03:16:23.237   12 Jun 2027 03:21:58.624           335.387        167693.500
       125   12 Jun 2027 03:22:33.165   12 Jun 2027 03:22:51.853            18.688          9344.000
       126   12 Jun 2027 04:53:17.893   12 Jun 2027 04:55:27.739           129.846         64923.000
       127   12 Jun 2027 04:56:03.487   12 Jun 2027 04:56:23.324            19.837          9918.500
       128   12 Jun 2027 04:56:51.310   12 Jun 2027 04:57:09.234            17.924          8962.000
       129   12 Jun 2027 04:58:27.172   12 Jun 2027 04:58:28.982             1.810           905.000
       130   12 Jun 2027 04:58:47.729   12 Jun 2027 04:59:02.581            14.852          7426.000
       131   12 Jun 2027 04:59:07.338   12 Jun 2027 04:59:08.009             0.671           335.500
       132   12 Jun 2027 06:30:10.418   12 Jun 2027 06:32:32.327           141.909         70954.500
       133   12 Jun 2027 06:33:14.605   12 Jun 2027 06:33:27.762            13.157          6578.500
       134   12 Jun 2027 06:34:39.589   12 Jun 2027 06:34:45.224             5.635          2817.500
       135   12 Jun 2027 08:07:41.419   12 Jun 2027 08:08:39.107            57.688         28844.000
       136   13 Jun 2027 03:28:28.164   13 Jun 2027 03:35:12.286           404.122        202061.000
       137   13 Jun 2027 05:06:01.633   13 Jun 2027 05:08:21.621           139.988         69994.000
       138   13 Jun 2027 05:10:30.155   13 Jun 2027 05:10:35.594             5.439          2719.500
       139   13 Jun 2027 06:42:18.575   13 Jun 2027 06:45:03.956           165.381         82690.500
       140   13 Jun 2027 06:46:36.067   13 Jun 2027 06:47:02.276            26.209         13104.500
       141   13 Jun 2027 08:20:54.191   13 Jun 2027 08:21:01.702             7.511          3755.500
