uniorb/output/strategy_1/Camera/Camera_KinoSat_111304.txt

KinoSat_111304
-------------------------
    Access    *     Start Time (UTCG)     *     Stop Time (UTCG)  *   Duration (s) *   Data (Mbytes)
         1   01 Jun 2027 03:37:24.677   01 Jun 2027 03:39:36.291           131.614         65807.000
         2   01 Jun 2027 03:39:58.252   01 Jun 2027 03:40:01.272             3.020          1510.000
         3   01 Jun 2027 03:40:32.438   01 Jun 2027 03:40:34.239             1.801           900.500
         4   01 Jun 2027 03:40:58.388   01 Jun 2027 03:41:00.033             1.645           822.500
         5   01 Jun 2027 03:41:21.888   01 Jun 2027 03:41:23.210             1.322           661.000
         6   01 Jun 2027 03:42:12.838   01 Jun 2027 03:42:18.909             6.071          3035.500
         7   01 Jun 2027 05:01:08.928   01 Jun 2027 05:02:05.779            56.851         28425.500
         8   01 Jun 2027 06:37:20.133   01 Jun 2027 06:39:18.686           118.553         59276.500
         9   01 Jun 2027 08:10:53.627   01 Jun 2027 08:13:17.708           144.081         72040.500
        10   01 Jun 2027 08:19:26.705   01 Jun 2027 08:19:27.702             0.997           498.500
        11   01 Jun 2027 09:48:20.293   01 Jun 2027 09:50:01.406           101.113         50556.500
        12   01 Jun 2027 09:52:38.746   01 Jun 2027 09:52:52.373            13.627          6813.500
        13   01 Jun 2027 09:52:57.906   01 Jun 2027 09:53:07.610             9.704          4852.000
        14   01 Jun 2027 09:53:26.620   01 Jun 2027 09:53:26.620             0.000             0.000
        15   01 Jun 2027 09:54:20.872   01 Jun 2027 09:54:33.634            12.762          6381.000
        16   01 Jun 2027 11:25:20.987   01 Jun 2027 11:27:28.737           127.750         63875.000
        17   01 Jun 2027 11:30:51.051   01 Jun 2027 11:31:12.197            21.146         10573.000
        18   02 Jun 2027 03:49:19.855   02 Jun 2027 03:51:03.851           103.996         51998.000
        19   02 Jun 2027 03:51:18.780   02 Jun 2027 03:51:37.841            19.061          9530.500
        20   02 Jun 2027 03:52:09.001   02 Jun 2027 03:52:25.034            16.033          8016.500
        21   02 Jun 2027 05:12:59.131   02 Jun 2027 05:14:00.407            61.276         30638.000
        22   02 Jun 2027 06:49:26.283   02 Jun 2027 06:51:21.856           115.573         57786.500
        23   02 Jun 2027 08:21:36.848   02 Jun 2027 08:21:45.063             8.215          4107.500
        24   02 Jun 2027 08:23:32.566   02 Jun 2027 08:25:21.443           108.877         54438.500
        25   02 Jun 2027 08:26:18.803   02 Jun 2027 08:26:18.803             0.000             0.000
        26   02 Jun 2027 08:27:28.820   02 Jun 2027 08:27:48.707            19.887          9943.500
        27   02 Jun 2027 08:28:12.481   02 Jun 2027 08:28:12.481             0.000             0.000
        28   02 Jun 2027 08:28:38.308   02 Jun 2027 08:28:47.030             8.722          4361.000
        29   02 Jun 2027 08:29:44.785   02 Jun 2027 08:29:54.980            10.195          5097.500
        30   02 Jun 2027 08:31:13.632   02 Jun 2027 08:31:22.411             8.779          4389.500
        31   02 Jun 2027 10:00:30.405   02 Jun 2027 10:02:36.393           125.988         62994.000
        32   02 Jun 2027 10:06:32.530   02 Jun 2027 10:06:35.215             2.685          1342.500
        33   02 Jun 2027 11:37:45.031   02 Jun 2027 11:38:39.472            54.441         27220.500
        34   02 Jun 2027 11:39:50.432   02 Jun 2027 11:40:34.888            44.456         22228.000
        35   02 Jun 2027 11:42:27.656   02 Jun 2027 11:42:33.120             5.464          2732.000
        36   03 Jun 2027 04:02:33.302   03 Jun 2027 04:03:43.358            70.056         35028.000
        37   03 Jun 2027 04:04:10.109   03 Jun 2027 04:04:28.910            18.801          9400.500
        38   03 Jun 2027 04:05:29.426   03 Jun 2027 04:05:39.117             9.691          4845.500
        39   03 Jun 2027 05:25:06.797   03 Jun 2027 05:26:22.457            75.660         37830.000
        40   03 Jun 2027 07:01:34.852   03 Jun 2027 07:03:41.895           127.043         63521.500
        41   03 Jun 2027 07:04:38.477   03 Jun 2027 07:04:59.866            21.389         10694.500
        42   03 Jun 2027 08:36:45.321   03 Jun 2027 08:38:20.253            94.932         47466.000
        43   03 Jun 2027 08:39:46.102   03 Jun 2027 08:39:54.111             8.009          4004.500
        44   03 Jun 2027 08:40:42.764   03 Jun 2027 08:40:48.148             5.384          2692.000
        45   03 Jun 2027 08:42:47.716   03 Jun 2027 08:43:01.606            13.890          6945.000
        46   03 Jun 2027 08:43:16.620   03 Jun 2027 08:43:26.300             9.680          4840.000
        47   03 Jun 2027 10:13:04.698   03 Jun 2027 10:14:23.499            78.801         38976.064
        48   03 Jun 2027 10:14:48.444   03 Jun 2027 10:14:50.395             1.951           686.719
        49   03 Jun 2027 10:17:05.645   03 Jun 2027 10:17:15.524             9.879          4151.000
        50   03 Jun 2027 10:18:08.492   03 Jun 2027 10:18:14.433             5.941          1655.250
        51   03 Jun 2027 10:18:52.725   03 Jun 2027 10:18:53.256             0.531           265.500
        52   03 Jun 2027 11:50:28.663   03 Jun 2027 11:50:47.439            18.776          8538.812
        53   03 Jun 2027 11:51:14.734   03 Jun 2027 11:51:14.734             0.000             0.000
        54   03 Jun 2027 11:51:22.826   03 Jun 2027 11:51:27.350             4.524          1105.844
        55   03 Jun 2027 11:51:57.719   03 Jun 2027 11:51:59.671             1.952           949.031
        56   03 Jun 2027 11:53:40.636   03 Jun 2027 11:53:47.460             6.824          3155.156
        57   03 Jun 2027 11:54:52.276   03 Jun 2027 11:54:57.863             5.587          1969.125
        58   04 Jun 2027 04:13:40.684   04 Jun 2027 04:14:18.594            37.910         18955.000
        59   04 Jun 2027 04:14:36.207   04 Jun 2027 04:15:06.452            30.245         15122.500
        60   04 Jun 2027 04:17:04.007   04 Jun 2027 04:17:13.842             9.835          4917.500
        61   04 Jun 2027 05:37:08.535   04 Jun 2027 05:39:15.074           126.539         63269.500
        62   04 Jun 2027 07:13:36.701   04 Jun 2027 07:15:40.542           123.841         61920.500
        63   04 Jun 2027 07:16:05.532   04 Jun 2027 07:16:05.532             0.000             0.000
        64   04 Jun 2027 08:48:49.195   04 Jun 2027 08:49:17.384            28.189         12495.594
        65   04 Jun 2027 08:50:27.018   04 Jun 2027 08:50:32.608             5.590          1954.906
        66   04 Jun 2027 08:51:16.699   04 Jun 2027 08:51:23.395             6.696           938.937
        67   04 Jun 2027 08:51:41.510   04 Jun 2027 08:51:42.359             0.849           424.500
        68   04 Jun 2027 08:51:44.658   04 Jun 2027 08:51:47.965             3.307           154.281
        69   04 Jun 2027 08:52:14.951   04 Jun 2027 08:52:17.615             2.664           693.625
        70   04 Jun 2027 08:52:50.337   04 Jun 2027 08:52:52.989             2.652          1022.562
        71   04 Jun 2027 08:52:59.294   04 Jun 2027 08:53:02.988             3.694           197.031
        72   04 Jun 2027 08:53:10.186   04 Jun 2027 08:53:10.826             0.640           165.937
        73   04 Jun 2027 08:53:20.123   04 Jun 2027 08:53:20.456             0.333            77.406
        74   04 Jun 2027 08:53:35.446   04 Jun 2027 08:53:37.688             2.242           315.875
        75   04 Jun 2027 08:53:47.468   04 Jun 2027 08:53:51.785             4.317           255.062
        76   04 Jun 2027 08:54:12.564   04 Jun 2027 08:54:13.990             1.426           649.344
        77   04 Jun 2027 08:54:18.538   04 Jun 2027 08:54:19.096             0.558           127.062
        78   04 Jun 2027 08:54:46.719   04 Jun 2027 08:54:48.350             1.631           324.438
        79   04 Jun 2027 08:55:19.646   04 Jun 2027 08:55:23.106             3.460           978.000
        80   04 Jun 2027 10:24:44.150   04 Jun 2027 10:24:58.669            14.519          6957.063
        81   04 Jun 2027 10:26:57.284   04 Jun 2027 10:27:01.533             4.249          1406.563
        82   04 Jun 2027 10:27:24.926   04 Jun 2027 10:27:26.264             1.338           623.750
        83   04 Jun 2027 10:27:27.451   04 Jun 2027 10:27:30.422             2.971            37.094
        84   04 Jun 2027 10:27:49.522   04 Jun 2027 10:27:53.031             3.509           596.781
        85   04 Jun 2027 10:29:10.611   04 Jun 2027 10:29:18.130             7.519          2339.156
        86   04 Jun 2027 10:30:08.506   04 Jun 2027 10:30:18.125             9.619          1574.250
        87   05 Jun 2027 04:14:42.670   05 Jun 2027 04:15:09.370            26.700         13350.000
        88   05 Jun 2027 04:25:37.936   05 Jun 2027 04:27:07.478            89.542         44771.000
        89   05 Jun 2027 05:49:35.083   05 Jun 2027 05:51:15.306           100.223         50111.500
        90   05 Jun 2027 07:25:19.952   05 Jun 2027 07:27:00.074           100.122         50061.000
        91   05 Jun 2027 07:28:04.182   05 Jun 2027 07:28:14.831            10.649          5324.500
        92   05 Jun 2027 07:29:27.165   05 Jun 2027 07:29:37.374            10.209          5104.500
        93   05 Jun 2027 09:00:03.788   05 Jun 2027 09:00:22.676            18.888          8933.750
        94   05 Jun 2027 09:00:41.720   05 Jun 2027 09:00:44.129             2.409           212.125
        95   05 Jun 2027 09:01:43.326   05 Jun 2027 09:01:46.529             3.203          1555.281
        96   05 Jun 2027 09:01:48.070   05 Jun 2027 09:01:48.546             0.476            48.156
        97   05 Jun 2027 09:02:04.807   05 Jun 2027 09:02:12.358             7.551           318.969
        98   05 Jun 2027 09:02:33.809   05 Jun 2027 09:02:38.168             4.359           372.156
        99   05 Jun 2027 09:03:32.588   05 Jun 2027 09:03:36.026             3.438          1200.906
       100   05 Jun 2027 09:03:50.219   05 Jun 2027 09:03:51.854             1.635           436.406
       101   05 Jun 2027 09:04:56.913   05 Jun 2027 09:05:01.654             4.741          1621.969
       102   05 Jun 2027 09:05:18.383   05 Jun 2027 09:05:20.333             1.950           522.781
       103   05 Jun 2027 09:05:59.075   05 Jun 2027 09:06:02.605             3.530           614.687
       104   05 Jun 2027 09:06:58.304   05 Jun 2027 09:07:02.489             4.185          1732.719
       105   05 Jun 2027 10:36:51.920   05 Jun 2027 10:37:11.622            19.702          8497.406
       106   05 Jun 2027 10:37:34.728   05 Jun 2027 10:37:37.228             2.500           292.375
       107   05 Jun 2027 10:38:21.869   05 Jun 2027 10:38:30.430             8.561           245.125
       108   05 Jun 2027 10:38:59.160   05 Jun 2027 10:39:01.119             1.959           545.406
       109   05 Jun 2027 10:39:07.596   05 Jun 2027 10:39:09.413             1.817            74.063
       110   05 Jun 2027 10:39:24.389   05 Jun 2027 10:39:25.554             1.165           166.656
       111   05 Jun 2027 10:40:11.114   05 Jun 2027 10:40:15.464             4.350          1402.344
       112   05 Jun 2027 10:40:22.277   05 Jun 2027 10:40:24.734             2.457           208.688
       113   05 Jun 2027 10:40:41.953   05 Jun 2027 10:40:45.432             3.479           538.094
       114   05 Jun 2027 10:41:02.131   05 Jun 2027 10:41:02.639             0.508           174.312
       115   05 Jun 2027 10:41:23.971   05 Jun 2027 10:41:27.093             3.122           479.969
       116   05 Jun 2027 10:42:18.318   05 Jun 2027 10:42:22.584             4.266          1531.062
       117   05 Jun 2027 10:42:42.040   05 Jun 2027 10:42:44.623             2.583           608.000
       118   05 Jun 2027 10:43:03.361   05 Jun 2027 10:43:04.792             1.431           575.719
       119   05 Jun 2027 10:43:09.290   05 Jun 2027 10:43:10.389             1.099            70.250
       120   06 Jun 2027 03:00:53.946   06 Jun 2027 03:01:17.292            23.346         11673.000
       121   06 Jun 2027 03:01:53.762   06 Jun 2027 03:01:56.170             2.408          1204.000
       122   06 Jun 2027 03:02:32.457   06 Jun 2027 03:02:45.323            12.866          6433.000
       123   06 Jun 2027 03:02:45.699   06 Jun 2027 03:03:02.694            16.995          8497.500
       124   06 Jun 2027 03:04:56.572   06 Jun 2027 03:04:59.481             2.909          1454.500
       125   06 Jun 2027 03:05:18.374   06 Jun 2027 03:05:24.775             6.401          3200.500
       126   06 Jun 2027 03:06:47.851   06 Jun 2027 03:06:56.465             8.614          4307.000
       127   06 Jun 2027 03:07:23.153   06 Jun 2027 03:08:14.142            50.989         25494.500
       128   06 Jun 2027 04:25:58.646   06 Jun 2027 04:26:20.795            22.149         11074.500
       129   06 Jun 2027 04:37:38.416   06 Jun 2027 04:38:27.252            48.836         24418.000
       130   06 Jun 2027 06:00:10.652   06 Jun 2027 06:01:11.268            60.616         30308.000
       131   06 Jun 2027 06:01:51.901   06 Jun 2027 06:02:20.187            28.286         14143.000
       132   06 Jun 2027 06:02:23.638   06 Jun 2027 06:02:41.786            18.148          9074.000
       133   06 Jun 2027 07:35:14.080   06 Jun 2027 07:36:32.288            78.208         39104.000
       134   06 Jun 2027 07:37:04.413   06 Jun 2027 07:37:18.163            13.750          6820.094
       135   06 Jun 2027 07:39:51.160   06 Jun 2027 07:40:02.083            10.923          4772.594
       136   06 Jun 2027 07:40:32.726   06 Jun 2027 07:40:35.265             2.539           957.594
       137   06 Jun 2027 07:41:37.795   06 Jun 2027 07:41:41.979             4.184          1954.062
       138   06 Jun 2027 09:12:12.127   06 Jun 2027 09:12:25.306            13.179          5437.750
       139   06 Jun 2027 09:14:21.961   06 Jun 2027 09:14:29.803             7.842          3645.469
       140   06 Jun 2027 09:15:04.304   06 Jun 2027 09:15:07.848             3.544           781.719
       141   06 Jun 2027 09:15:30.205   06 Jun 2027 09:15:31.142             0.937            36.438
       142   06 Jun 2027 09:15:46.301   06 Jun 2027 09:15:51.740             5.439           112.938
       143   06 Jun 2027 09:16:21.744   06 Jun 2027 09:16:28.120             6.376           937.625
       144   06 Jun 2027 09:17:08.347   06 Jun 2027 09:17:10.265             1.918           871.438
       145   06 Jun 2027 09:17:17.117   06 Jun 2027 09:17:19.602             2.485            20.125
       146   06 Jun 2027 09:17:42.354   06 Jun 2027 09:17:46.512             4.158           568.594
       147   06 Jun 2027 09:18:15.881   06 Jun 2027 09:18:19.424             3.543           917.781
       148   06 Jun 2027 09:18:35.930   06 Jun 2027 09:18:36.512             0.582           291.000
       149   06 Jun 2027 09:19:26.077   06 Jun 2027 09:19:28.872             2.795          1397.500
       150   06 Jun 2027 10:49:10.298   06 Jun 2027 10:49:26.891            16.593          8296.500
       151   06 Jun 2027 10:50:05.713   06 Jun 2027 10:50:09.659             3.946          1739.625
       152   06 Jun 2027 10:50:43.780   06 Jun 2027 10:50:45.817             2.037           350.375
       153   06 Jun 2027 10:50:55.951   06 Jun 2027 10:50:58.029             2.078           316.688
       154   06 Jun 2027 10:51:26.224   06 Jun 2027 10:51:28.377             2.153           869.594
       155   06 Jun 2027 10:51:48.641   06 Jun 2027 10:51:49.986             1.345           211.688
       156   06 Jun 2027 10:52:37.640   06 Jun 2027 10:52:44.556             6.916          1193.531
       157   06 Jun 2027 10:52:50.066   06 Jun 2027 10:52:50.718             0.652           172.188
       158   06 Jun 2027 10:53:03.492   06 Jun 2027 10:53:05.888             2.396           156.750
       159   06 Jun 2027 10:53:15.297   06 Jun 2027 10:53:15.854             0.557           198.031
       160   06 Jun 2027 10:53:59.017   06 Jun 2027 10:54:04.908             5.891          1254.156
       161   06 Jun 2027 10:54:47.897   06 Jun 2027 10:54:51.569             3.672          1343.406
       162   06 Jun 2027 10:54:56.464   06 Jun 2027 10:54:59.003             2.539           152.969
       163   06 Jun 2027 10:55:13.177   06 Jun 2027 10:55:14.520             1.343           115.000
       164   07 Jun 2027 03:13:09.943   07 Jun 2027 03:14:21.094            71.151         35575.500
       165   07 Jun 2027 03:16:13.997   07 Jun 2027 03:16:22.857             8.860          4430.000
       166   07 Jun 2027 03:17:08.777   07 Jun 2027 03:17:10.676             1.899           949.500
       167   07 Jun 2027 03:18:31.406   07 Jun 2027 03:18:49.150            17.744          8872.000
       168   07 Jun 2027 03:19:15.695   07 Jun 2027 03:19:25.662             9.967          4983.500
       169   07 Jun 2027 04:37:19.765   07 Jun 2027 04:37:47.008            27.243         13621.500
       170   07 Jun 2027 04:49:35.930   07 Jun 2027 04:50:23.247            47.317         23658.500
       171   07 Jun 2027 06:11:34.947   07 Jun 2027 06:12:24.318            49.371         24685.500
       172   07 Jun 2027 06:13:56.940   07 Jun 2027 06:14:11.277            14.337          7168.500
       173   07 Jun 2027 06:14:30.676   07 Jun 2027 06:14:30.676             0.000             0.000
       174   07 Jun 2027 06:14:47.150   07 Jun 2027 06:14:53.517             6.367          3183.500
       175   07 Jun 2027 06:16:31.393   07 Jun 2027 06:16:31.393             0.000             0.000
       176   07 Jun 2027 07:46:38.814   07 Jun 2027 07:48:16.907            98.093         49003.126
       177   07 Jun 2027 07:49:53.053   07 Jun 2027 07:49:53.053             0.000             0.000
       178   07 Jun 2027 07:50:00.172   07 Jun 2027 07:50:10.047             9.875          3067.906
       179   07 Jun 2027 07:51:27.452   07 Jun 2027 07:51:32.248             4.796          2398.000
       180   07 Jun 2027 07:51:45.478   07 Jun 2027 07:51:47.392             1.914           434.344
       181   07 Jun 2027 07:52:16.513   07 Jun 2027 07:52:21.450             4.937           692.875
       182   07 Jun 2027 07:53:20.209   07 Jun 2027 07:53:25.918             5.709          1836.219
       183   07 Jun 2027 09:24:14.718   07 Jun 2027 09:24:27.699            12.981          6269.375
       184   07 Jun 2027 09:26:21.382   07 Jun 2027 09:26:25.125             3.743          1871.500
       185   07 Jun 2027 09:26:37.306   07 Jun 2027 09:26:49.822            12.516          2061.750
       186   07 Jun 2027 09:27:31.007   07 Jun 2027 09:27:33.631             2.624           819.719
       187   07 Jun 2027 09:27:48.256   07 Jun 2027 09:27:52.231             3.975           234.562
       188   07 Jun 2027 09:29:00.192   07 Jun 2027 09:29:06.433             6.241          1996.719
       189   07 Jun 2027 09:29:34.765   07 Jun 2027 09:29:42.560             7.795           790.500
       190   07 Jun 2027 09:30:51.142   07 Jun 2027 09:30:55.515             4.373          2143.188
       191   07 Jun 2027 09:31:20.178   07 Jun 2027 09:31:21.140             0.962           213.844
       192   07 Jun 2027 11:00:59.972   07 Jun 2027 11:01:02.130             2.158          1079.000
       193   07 Jun 2027 11:01:05.644   07 Jun 2027 11:01:18.370            12.726          5389.000
       194   07 Jun 2027 11:01:37.643   07 Jun 2027 11:01:43.502             5.859           570.469
       195   07 Jun 2027 11:02:06.127   07 Jun 2027 11:02:07.503             1.376            56.812
       196   07 Jun 2027 11:02:10.339   07 Jun 2027 11:02:10.638             0.299             7.594
       197   07 Jun 2027 11:02:30.341   07 Jun 2027 11:02:41.025            10.684           285.281
       198   07 Jun 2027 11:03:06.580   07 Jun 2027 11:03:08.162             1.582           193.969
       199   07 Jun 2027 11:03:48.001   07 Jun 2027 11:03:49.973             1.972           808.219
       200   07 Jun 2027 11:04:34.582   07 Jun 2027 11:04:48.820            14.238          1394.031
       201   07 Jun 2027 11:05:04.614   07 Jun 2027 11:05:05.775             1.161           454.313
       202   07 Jun 2027 11:05:23.700   07 Jun 2027 11:05:25.140             1.440           441.188
       203   07 Jun 2027 11:05:30.276   07 Jun 2027 11:05:35.139             4.863           160.500
       204   07 Jun 2027 11:06:36.306   07 Jun 2027 11:06:43.736             7.430          1359.281
       205   07 Jun 2027 11:07:10.402   07 Jun 2027 11:07:11.547             1.145           572.500
       206   07 Jun 2027 11:07:33.880   07 Jun 2027 11:07:37.116             3.236           855.875
       207   08 Jun 2027 03:25:16.281   08 Jun 2027 03:26:53.618            97.337         48668.500
       208   08 Jun 2027 03:27:12.777   08 Jun 2027 03:27:16.183             3.406          1703.000
       209   08 Jun 2027 03:27:33.010   08 Jun 2027 03:27:35.635             2.625          1312.500
       210   08 Jun 2027 03:29:10.929   08 Jun 2027 03:29:22.891            11.962          5981.000
       211   08 Jun 2027 03:29:39.578   08 Jun 2027 03:29:39.847             0.269           134.500
       212   08 Jun 2027 03:31:08.222   08 Jun 2027 03:31:17.221             8.999          4499.500
       213   08 Jun 2027 04:49:27.477   08 Jun 2027 04:50:10.757            43.280         21640.000
       214   08 Jun 2027 05:01:59.645   08 Jun 2027 05:02:03.040             3.395          1697.500
       215   08 Jun 2027 06:23:16.966   08 Jun 2027 06:24:49.460            92.494         46247.000
       216   08 Jun 2027 06:25:43.219   08 Jun 2027 06:25:49.973             6.754          3377.000
       217   08 Jun 2027 06:28:51.142   08 Jun 2027 06:29:16.339            25.197         12598.500
       218   08 Jun 2027 07:58:09.489   08 Jun 2027 07:59:02.065            52.576         25478.875
       219   08 Jun 2027 07:59:16.133   08 Jun 2027 07:59:17.372             1.239            99.063
       220   08 Jun 2027 08:00:31.365   08 Jun 2027 08:00:33.778             2.413           187.031
       221   08 Jun 2027 08:00:50.375   08 Jun 2027 08:00:50.946             0.571           110.375
       222   08 Jun 2027 08:01:45.520   08 Jun 2027 08:01:47.672             2.152          1076.000
       223   08 Jun 2027 08:01:49.192   08 Jun 2027 08:01:49.192             0.000             0.000
       224   08 Jun 2027 08:04:07.495   08 Jun 2027 08:04:19.228            11.733          4895.062
       225   08 Jun 2027 08:04:50.003   08 Jun 2027 08:04:55.351             5.348           961.719
       226   08 Jun 2027 08:05:07.144   08 Jun 2027 08:05:09.214             2.070           368.531
       227   08 Jun 2027 08:05:19.156   08 Jun 2027 08:05:19.156             0.000             0.000
       228   08 Jun 2027 08:05:41.173   08 Jun 2027 08:05:45.788             4.615           877.562
       229   08 Jun 2027 08:05:48.873   08 Jun 2027 08:05:49.284             0.411            96.406
       230   08 Jun 2027 08:07:11.722   08 Jun 2027 08:07:17.393             5.671          2486.344
       231   08 Jun 2027 09:36:14.936   08 Jun 2027 09:36:29.827            14.891          7310.500
       232   08 Jun 2027 09:37:11.669   08 Jun 2027 09:37:11.669             0.000             0.000
       233   08 Jun 2027 09:39:08.067   08 Jun 2027 09:39:18.040             9.973          4548.844
       234   08 Jun 2027 09:39:52.886   08 Jun 2027 09:39:57.022             4.136           623.969
       235   08 Jun 2027 09:40:03.339   08 Jun 2027 09:40:04.773             1.434            35.062
       236   08 Jun 2027 09:40:34.724   08 Jun 2027 09:40:38.083             3.359           481.250
       237   08 Jun 2027 09:41:08.556   08 Jun 2027 09:41:11.257             2.701           204.875
       238   08 Jun 2027 09:41:45.509   08 Jun 2027 09:41:47.950             2.441           925.781
       239   08 Jun 2027 09:41:51.858   08 Jun 2027 09:41:52.716             0.858            54.062
       240   08 Jun 2027 09:42:16.184   08 Jun 2027 09:42:18.182             1.998           661.781
       241   08 Jun 2027 09:42:56.259   08 Jun 2027 09:42:58.755             2.496          1060.750
       242   08 Jun 2027 09:43:14.656   08 Jun 2027 09:43:16.061             1.405           345.469
       243   08 Jun 2027 11:13:10.934   08 Jun 2027 11:13:25.307            14.373          5884.719
       244   08 Jun 2027 11:14:07.499   08 Jun 2027 11:14:10.544             3.045           954.188
       245   08 Jun 2027 11:14:42.856   08 Jun 2027 11:14:51.360             8.504           911.000
       246   08 Jun 2027 11:15:14.112   08 Jun 2027 11:15:16.821             2.709           365.062
       247   08 Jun 2027 11:15:25.980   08 Jun 2027 11:15:26.543             0.563           179.719
       248   08 Jun 2027 11:15:28.246   08 Jun 2027 11:15:28.615             0.369            53.219
       249   08 Jun 2027 11:15:36.483   08 Jun 2027 11:15:37.614             1.131           223.594
       250   08 Jun 2027 11:15:56.873   08 Jun 2027 11:15:57.055             0.182            91.000
       251   08 Jun 2027 11:16:13.413   08 Jun 2027 11:16:15.316             1.903           944.375
       252   08 Jun 2027 11:17:10.429   08 Jun 2027 11:17:13.276             2.847          1423.500
       253   08 Jun 2027 11:17:51.400   08 Jun 2027 11:17:57.546             6.146          1490.156
       254   08 Jun 2027 11:18:42.997   08 Jun 2027 11:18:46.557             3.560          1196.594
       255   08 Jun 2027 11:18:48.563   08 Jun 2027 11:18:50.706             2.143            62.687
       256   08 Jun 2027 11:19:12.555   08 Jun 2027 11:19:14.964             2.409           669.688
       257   09 Jun 2027 03:37:54.252   09 Jun 2027 03:40:04.826           130.574         65287.000
       258   09 Jun 2027 03:41:00.410   09 Jun 2027 03:41:14.466            14.056          7028.000
       259   09 Jun 2027 05:01:23.968   09 Jun 2027 05:02:23.171            59.203         29601.500
       260   09 Jun 2027 06:37:36.234   09 Jun 2027 06:39:05.976            89.742         44871.000
       261   09 Jun 2027 06:40:12.612   09 Jun 2027 06:40:16.466             3.854          1927.000
       262   09 Jun 2027 06:40:42.715   09 Jun 2027 06:40:42.715             0.000             0.000
       263   09 Jun 2027 06:40:45.215   09 Jun 2027 06:40:52.967             7.752          3876.000
       264   09 Jun 2027 08:11:09.586   09 Jun 2027 08:11:46.527            36.941         16011.594
       265   09 Jun 2027 08:13:01.298   09 Jun 2027 08:13:04.370             3.072          1070.187
       266   09 Jun 2027 08:13:21.082   09 Jun 2027 08:13:21.637             0.555           154.781
       267   09 Jun 2027 08:13:53.482   09 Jun 2027 08:13:57.416             3.934           632.406
       268   09 Jun 2027 08:15:46.815   09 Jun 2027 08:15:57.253            10.438          3414.563
       269   09 Jun 2027 08:17:08.145   09 Jun 2027 08:17:12.821             4.676          1924.281
       270   09 Jun 2027 08:18:42.586   09 Jun 2027 08:18:51.362             8.776          2209.375
       271   09 Jun 2027 08:19:33.398   09 Jun 2027 08:19:37.483             4.085          1216.094
       272   09 Jun 2027 09:48:38.205   09 Jun 2027 09:48:50.935            12.730          5970.125
       273   09 Jun 2027 09:49:31.232   09 Jun 2027 09:49:33.924             2.692           569.813
       274   09 Jun 2027 09:49:55.841   09 Jun 2027 09:49:57.219             1.378           225.375
       275   09 Jun 2027 09:50:16.710   09 Jun 2027 09:50:17.831             1.121           415.844
       276   09 Jun 2027 09:50:50.334   09 Jun 2027 09:50:54.223             3.889           814.312
       277   09 Jun 2027 09:51:56.404   09 Jun 2027 09:52:01.693             5.289          1931.781
       278   09 Jun 2027 09:52:26.985   09 Jun 2027 09:52:28.828             1.843           541.375
       279   09 Jun 2027 09:53:07.219   09 Jun 2027 09:53:10.714             3.495           107.656
       280   09 Jun 2027 09:53:42.704   09 Jun 2027 09:53:45.866             3.162           576.875
       281   09 Jun 2027 09:54:32.697   09 Jun 2027 09:54:35.387             2.690          1341.688
       282   09 Jun 2027 09:55:14.660   09 Jun 2027 09:55:17.744             3.084          1224.313
       283   09 Jun 2027 11:25:36.693   09 Jun 2027 11:25:48.241            11.548          5774.000
       284   09 Jun 2027 11:25:51.066   09 Jun 2027 11:25:55.366             4.300           739.000
       285   09 Jun 2027 11:27:22.581   09 Jun 2027 11:27:27.205             4.624          2217.281
       286   09 Jun 2027 11:27:27.941   09 Jun 2027 11:27:28.470             0.529            23.000
       287   09 Jun 2027 11:28:05.238   09 Jun 2027 11:28:07.757             2.519          1149.000
       288   09 Jun 2027 11:29:07.654   09 Jun 2027 11:29:11.484             3.830          1865.563
       289   09 Jun 2027 11:29:45.907   09 Jun 2027 11:29:51.185             5.278          1075.719
       290   09 Jun 2027 11:31:05.000   09 Jun 2027 11:31:10.292             5.292          2141.531
       291   10 Jun 2027 03:49:35.574   10 Jun 2027 03:51:35.791           120.217         60108.500
       292   10 Jun 2027 03:53:16.370   10 Jun 2027 03:53:16.370             0.000             0.000
       293   10 Jun 2027 05:13:14.734   10 Jun 2027 05:14:25.680            70.946         35473.000
       294   10 Jun 2027 05:14:37.392   10 Jun 2027 05:14:57.321            19.929          9964.500
       295   10 Jun 2027 06:49:41.613   10 Jun 2027 06:51:13.675            92.062         46031.000
       296   10 Jun 2027 06:51:19.704   10 Jun 2027 06:51:38.014            18.310          8241.594
       297   10 Jun 2027 06:52:45.410   10 Jun 2027 06:52:49.356             3.946          1973.000
       298   10 Jun 2027 08:21:50.781   10 Jun 2027 08:22:00.915            10.134          5067.000
       299   10 Jun 2027 08:23:48.597   10 Jun 2027 08:24:00.069            11.472          3101.563
       300   10 Jun 2027 08:24:31.938   10 Jun 2027 08:24:31.938             0.000             0.000
       301   10 Jun 2027 08:25:29.182   10 Jun 2027 08:25:33.305             4.123          1942.344
       302   10 Jun 2027 08:25:53.632   10 Jun 2027 08:25:53.632             0.000             0.000
       303   10 Jun 2027 08:26:36.089   10 Jun 2027 08:26:41.986             5.897          1875.813
       304   10 Jun 2027 08:27:46.967   10 Jun 2027 08:27:51.024             4.057          1111.812
       305   10 Jun 2027 08:28:40.009   10 Jun 2027 08:28:42.787             2.778          1165.125
       306   10 Jun 2027 08:28:58.353   10 Jun 2027 08:29:04.906             6.553           486.438
       307   10 Jun 2027 08:29:57.089   10 Jun 2027 08:30:00.462             3.373          1622.031
       308   10 Jun 2027 08:30:29.284   10 Jun 2027 08:30:30.012             0.728           364.000
       309   10 Jun 2027 08:30:58.434   10 Jun 2027 08:31:01.336             2.902          1145.219
       310   10 Jun 2027 08:31:11.574   10 Jun 2027 08:31:13.273             1.699           239.750
       311   10 Jun 2027 08:31:28.509   10 Jun 2027 08:31:29.975             1.466           361.250
       312   10 Jun 2027 10:00:47.191   10 Jun 2027 10:01:00.511            13.320          6362.219
       313   10 Jun 2027 10:01:35.118   10 Jun 2027 10:01:37.677             2.559           260.500
       314   10 Jun 2027 10:02:30.597   10 Jun 2027 10:02:36.353             5.756          1589.656
       315   10 Jun 2027 10:02:54.606   10 Jun 2027 10:03:00.600             5.994           570.406
       316   10 Jun 2027 10:03:33.783   10 Jun 2027 10:03:36.577             2.794           812.750
       317   10 Jun 2027 10:05:05.846   10 Jun 2027 10:05:11.874             6.028          2789.656
       318   10 Jun 2027 10:05:13.913   10 Jun 2027 10:05:16.064             2.151            63.719
       319   10 Jun 2027 10:05:16.804   10 Jun 2027 10:05:17.149             0.345            20.750
       320   10 Jun 2027 10:05:30.775   10 Jun 2027 10:05:33.521             2.746           402.625
       321   10 Jun 2027 10:06:47.838   10 Jun 2027 10:06:55.111             7.273          2240.750
       322   10 Jun 2027 10:07:28.411   10 Jun 2027 10:07:31.153             2.742          1040.625
       323   10 Jun 2027 11:38:07.420   10 Jun 2027 11:38:23.638            16.218          7636.062
       324   10 Jun 2027 11:39:28.471   10 Jun 2027 11:39:31.587             3.116          1006.813
       325   10 Jun 2027 11:40:01.359   10 Jun 2027 11:40:01.359             0.000             0.000
       326   10 Jun 2027 11:40:06.905   10 Jun 2027 11:40:08.570             1.665           743.937
       327   10 Jun 2027 11:40:52.036   10 Jun 2027 11:40:56.426             4.390          1358.312
       328   10 Jun 2027 11:41:17.894   10 Jun 2027 11:41:22.539             4.645           590.906
       329   10 Jun 2027 11:41:50.157   10 Jun 2027 11:41:54.784             4.627           863.063
       330   10 Jun 2027 11:42:23.278   10 Jun 2027 11:42:25.950             2.672           890.438
       331   10 Jun 2027 11:42:46.649   10 Jun 2027 11:42:53.117             6.468           213.312
       332   11 Jun 2027 04:02:49.112   11 Jun 2027 04:04:19.273            90.161         45080.500
       333   11 Jun 2027 04:04:25.585   11 Jun 2027 04:04:35.465             9.880          4940.000
       334   11 Jun 2027 04:06:22.120   11 Jun 2027 04:06:22.120             0.000             0.000
       335   11 Jun 2027 05:25:22.987   11 Jun 2027 05:26:38.169            75.182         37591.000
       336   11 Jun 2027 05:27:33.404   11 Jun 2027 05:28:09.062            35.658         17829.000
       337   11 Jun 2027 07:01:51.303   11 Jun 2027 07:03:28.670            97.367         48683.500
       338   11 Jun 2027 07:03:36.536   11 Jun 2027 07:03:44.024             7.488          3744.000
       339   11 Jun 2027 07:03:46.225   11 Jun 2027 07:03:48.087             1.862           931.000
       340   11 Jun 2027 07:04:20.365   11 Jun 2027 07:04:26.000             5.635          2817.500
       341   11 Jun 2027 07:04:34.088   11 Jun 2027 07:04:44.065             9.977          4404.187
       342   11 Jun 2027 08:37:02.344   11 Jun 2027 08:37:23.300            20.956          9596.469
       343   11 Jun 2027 08:37:27.279   11 Jun 2027 08:37:29.285             2.006           124.344
       344   11 Jun 2027 08:38:21.367   11 Jun 2027 08:38:24.500             3.133           812.031
       345   11 Jun 2027 08:40:02.190   11 Jun 2027 08:40:09.089             6.899          2646.438
       346   11 Jun 2027 08:41:00.942   11 Jun 2027 08:41:04.619             3.677          1620.406
       347   11 Jun 2027 08:42:20.806   11 Jun 2027 08:42:26.360             5.554          2348.000
       348   11 Jun 2027 08:42:59.984   11 Jun 2027 08:43:02.231             2.247           965.406
       349   11 Jun 2027 08:43:03.821   11 Jun 2027 08:43:04.875             1.054            49.687
       350   11 Jun 2027 08:43:18.684   11 Jun 2027 08:43:18.684             0.000             0.000
       351   11 Jun 2027 08:43:32.263   11 Jun 2027 08:43:36.894             4.631           843.531
       352   11 Jun 2027 10:13:21.080   11 Jun 2027 10:13:35.016            13.936          6579.812
       353   11 Jun 2027 10:14:41.747   11 Jun 2027 10:14:46.722             4.975          1907.750
       354   11 Jun 2027 10:16:02.687   11 Jun 2027 10:16:08.652             5.965          2218.312
       355   11 Jun 2027 10:16:21.699   11 Jun 2027 10:16:25.000             3.301           207.281
       356   11 Jun 2027 10:16:54.916   11 Jun 2027 10:16:59.258             4.342           655.156
       357   11 Jun 2027 10:17:19.329   11 Jun 2027 10:17:22.216             2.887           627.219
       358   11 Jun 2027 10:17:35.073   11 Jun 2027 10:17:37.924             2.851           401.781
       359   11 Jun 2027 10:17:53.374   11 Jun 2027 10:17:55.057             1.683           390.500
       360   11 Jun 2027 10:18:44.119   11 Jun 2027 10:18:46.972             2.853          1323.219
       361   11 Jun 2027 11:50:44.127   11 Jun 2027 11:51:00.443            16.316          8088.094
       362   11 Jun 2027 11:51:06.877   11 Jun 2027 11:51:07.607             0.730           201.063
       363   11 Jun 2027 11:52:14.488   11 Jun 2027 11:52:17.920             3.432          1716.000
       364   11 Jun 2027 11:52:40.576   11 Jun 2027 11:52:41.280             0.704           352.000
       365   11 Jun 2027 11:53:55.354   11 Jun 2027 11:54:04.603             9.249          3044.844
       366   11 Jun 2027 11:54:11.804   11 Jun 2027 11:54:11.804             0.000             0.000
       367   11 Jun 2027 11:54:15.763   11 Jun 2027 11:54:23.718             7.955           348.750
       368   11 Jun 2027 11:55:06.823   11 Jun 2027 11:55:06.823             0.000             0.000
       369   12 Jun 2027 04:13:57.575   12 Jun 2027 04:14:34.482            36.907         18453.500
       370   12 Jun 2027 04:15:03.095   12 Jun 2027 04:15:50.954            47.859         23929.500
       371   12 Jun 2027 04:16:14.106   12 Jun 2027 04:16:16.201             2.095          1047.500
       372   12 Jun 2027 04:16:46.697   12 Jun 2027 04:16:52.936             6.239          3119.500
       373   12 Jun 2027 05:37:24.067   12 Jun 2027 05:38:50.845            86.778         43389.000
       374   12 Jun 2027 05:40:19.732   12 Jun 2027 05:40:22.400             2.668          1334.000
       375   12 Jun 2027 07:13:51.441   12 Jun 2027 07:15:56.689           125.248         62624.000
       376   12 Jun 2027 07:16:21.877   12 Jun 2027 07:16:28.197             6.320          3160.000
       377   12 Jun 2027 07:16:29.570   12 Jun 2027 07:16:29.633             0.063            31.500
       378   12 Jun 2027 08:49:04.296   12 Jun 2027 08:49:19.738            15.442          7721.000
       379   12 Jun 2027 08:50:38.524   12 Jun 2027 08:50:38.524             0.000             0.000
       380   12 Jun 2027 08:50:41.884   12 Jun 2027 08:50:47.950             6.066          3024.438
       381   12 Jun 2027 08:51:34.557   12 Jun 2027 08:51:38.044             3.487           942.594
       382   12 Jun 2027 08:52:07.706   12 Jun 2027 08:52:10.501             2.795           691.437
       383   12 Jun 2027 08:52:44.534   12 Jun 2027 08:52:46.542             2.008           622.625
       384   12 Jun 2027 08:53:10.734   12 Jun 2027 08:53:17.213             6.479           224.281
       385   12 Jun 2027 08:53:21.260   12 Jun 2027 08:53:23.101             1.841           126.469
       386   12 Jun 2027 08:53:54.819   12 Jun 2027 08:53:59.856             5.037           950.219
       387   12 Jun 2027 08:54:28.810   12 Jun 2027 08:54:31.097             2.287           815.031
       388   12 Jun 2027 08:54:57.409   12 Jun 2027 08:54:59.284             1.875           800.750
       389   12 Jun 2027 10:24:59.830   12 Jun 2027 10:25:15.183            15.353          7417.938
       390   12 Jun 2027 10:26:03.011   12 Jun 2027 10:26:04.942             1.931           867.156
       391   12 Jun 2027 10:27:13.495   12 Jun 2027 10:27:20.060             6.565          1915.281
       392   12 Jun 2027 10:27:45.748   12 Jun 2027 10:27:47.893             2.145           367.875
       393   12 Jun 2027 10:28:04.319   12 Jun 2027 10:28:05.023             0.704           334.031
       394   12 Jun 2027 10:28:10.440   12 Jun 2027 10:28:12.519             2.079           169.281
       395   12 Jun 2027 10:29:27.151   12 Jun 2027 10:29:33.065             5.914          2047.594
       396   12 Jun 2027 10:30:24.059   12 Jun 2027 10:30:32.531             8.472          1593.563
       397   12 Jun 2027 10:30:58.745   12 Jun 2027 10:31:00.036             1.291           600.687
       398   13 Jun 2027 04:14:56.747   13 Jun 2027 04:15:25.829            29.082         14541.000
       399   13 Jun 2027 04:25:53.728   13 Jun 2027 04:27:16.927            83.199         41599.500
       400   13 Jun 2027 04:27:41.526   13 Jun 2027 04:28:02.217            20.691         10345.500
       401   13 Jun 2027 05:49:50.335   13 Jun 2027 05:50:54.457            64.122         32061.000
       402   13 Jun 2027 07:25:35.982   13 Jun 2027 07:27:45.082           129.100         64550.000
       403   13 Jun 2027 07:27:49.711   13 Jun 2027 07:27:55.356             5.645          2822.500
       404   13 Jun 2027 09:00:19.816   13 Jun 2027 09:00:36.116            16.300          8115.406
       405   13 Jun 2027 09:00:56.551   13 Jun 2027 09:00:59.392             2.841           490.813
       406   13 Jun 2027 09:01:18.276   13 Jun 2027 09:01:18.554             0.278           139.000
       407   13 Jun 2027 09:03:12.166   13 Jun 2027 09:03:20.130             7.964          3773.125
       408   13 Jun 2027 09:03:52.910   13 Jun 2027 09:03:53.115             0.205           102.500
       409   13 Jun 2027 09:04:02.550   13 Jun 2027 09:04:04.304             1.754           560.406
       410   13 Jun 2027 09:05:12.152   13 Jun 2027 09:05:13.019             0.867           433.500
       411   13 Jun 2027 09:06:19.629   13 Jun 2027 09:06:25.827             6.198          3099.000
       412   13 Jun 2027 09:07:26.575   13 Jun 2027 09:07:33.620             7.045          2012.750
       413   13 Jun 2027 10:37:09.642   13 Jun 2027 10:37:29.215            19.573          9366.125
       414   13 Jun 2027 10:37:50.751   13 Jun 2027 10:37:52.392             1.641           319.000
       415   13 Jun 2027 10:38:37.462   13 Jun 2027 10:38:45.888             8.426           255.313
       416   13 Jun 2027 10:39:14.597   13 Jun 2027 10:39:15.768             1.171           540.688
       417   13 Jun 2027 10:39:25.422   13 Jun 2027 10:39:26.544             1.122           179.375
       418   13 Jun 2027 10:39:39.299   13 Jun 2027 10:39:41.013             1.714           139.469
       419   13 Jun 2027 10:39:56.351   13 Jun 2027 10:40:00.354             4.003           239.062
       420   13 Jun 2027 10:40:24.256   13 Jun 2027 10:40:26.747             2.491           599.437
       421   13 Jun 2027 10:40:41.552   13 Jun 2027 10:40:52.227            10.675           328.125
       422   13 Jun 2027 10:41:16.734   13 Jun 2027 10:41:18.261             1.527           686.906
       423   13 Jun 2027 10:41:23.457   13 Jun 2027 10:41:24.258             0.801             4.875
       424   13 Jun 2027 10:41:31.582   13 Jun 2027 10:41:39.478             7.896            51.000
       425   13 Jun 2027 10:42:01.349   13 Jun 2027 10:42:03.969             2.620           675.625
       426   13 Jun 2027 10:42:10.548   13 Jun 2027 10:42:14.733             4.185           205.594
       427   13 Jun 2027 10:43:04.370   13 Jun 2027 10:43:14.645            10.275          1525.719
