uniorb/output/strategy_1/Camera/Camera_KinoSat_111803.txt

KinoSat_111803
-------------------------
    Access    *     Start Time (UTCG)     *     Stop Time (UTCG)  *   Duration (s) *   Data (Mbytes)
         1   01 Jun 2027 03:24:26.552   01 Jun 2027 03:26:57.135           150.583         75291.500
         2   01 Jun 2027 03:30:25.765   01 Jun 2027 03:30:28.821             3.056          1528.000
         3   01 Jun 2027 03:30:32.299   01 Jun 2027 03:30:34.774             2.475          1237.500
         4   01 Jun 2027 03:30:36.608   01 Jun 2027 03:30:45.359             8.751          4375.500
         5   01 Jun 2027 05:03:25.045   01 Jun 2027 05:04:26.894            61.849         30924.500
         6   01 Jun 2027 05:04:43.594   01 Jun 2027 05:04:58.899            15.305          7652.500
         7   01 Jun 2027 05:05:19.188   01 Jun 2027 05:05:19.188             0.000             0.000
         8   01 Jun 2027 05:06:53.263   01 Jun 2027 05:06:56.192             2.929          1464.500
         9   01 Jun 2027 05:07:20.972   01 Jun 2027 05:07:37.112            16.140          8070.000
        10   01 Jun 2027 05:08:31.653   01 Jun 2027 05:08:51.497            19.844          9922.000
        11   01 Jun 2027 05:10:15.030   01 Jun 2027 05:10:43.715            28.685         14342.500
        12   01 Jun 2027 06:28:35.116   01 Jun 2027 06:29:23.636            48.520         24260.000
        13   01 Jun 2027 06:29:37.673   01 Jun 2027 06:29:54.301            16.628          8314.000
        14   01 Jun 2027 06:40:09.281   01 Jun 2027 06:40:50.456            41.175         20587.500
        15   01 Jun 2027 08:02:45.189   01 Jun 2027 08:03:43.721            58.532         29266.000
        16   01 Jun 2027 08:04:22.144   01 Jun 2027 08:04:55.360            33.216         16608.000
        17   01 Jun 2027 08:06:55.769   01 Jun 2027 08:07:20.660            24.891         12445.500
        18   01 Jun 2027 09:37:53.933   01 Jun 2027 09:39:07.814            73.881         36940.500
        19   01 Jun 2027 09:39:36.784   01 Jun 2027 09:39:59.763            22.979         11489.500
        20   01 Jun 2027 09:43:27.640   01 Jun 2027 09:43:35.876             8.236          4118.000
        21   01 Jun 2027 09:43:55.723   01 Jun 2027 09:43:55.723             0.000             0.000
        22   01 Jun 2027 11:14:41.278   01 Jun 2027 11:14:52.412            11.134          5567.000
        23   01 Jun 2027 11:17:45.204   01 Jun 2027 11:17:58.175            12.971          6485.500
        24   01 Jun 2027 11:21:18.093   01 Jun 2027 11:22:06.704            48.611         24305.500
        25   02 Jun 2027 03:36:42.476   02 Jun 2027 03:38:06.004            83.528         41764.000
        26   02 Jun 2027 03:38:08.325   02 Jun 2027 03:38:51.492            43.167         21583.500
        27   02 Jun 2027 03:39:07.362   02 Jun 2027 03:39:13.344             5.982          2991.000
        28   02 Jun 2027 03:42:11.358   02 Jun 2027 03:42:17.358             6.000          3000.000
        29   02 Jun 2027 05:15:41.596   02 Jun 2027 05:16:49.659            68.063         34031.500
        30   02 Jun 2027 05:18:40.770   02 Jun 2027 05:18:50.341             9.571          4785.500
        31   02 Jun 2027 05:19:09.843   02 Jun 2027 05:19:17.212             7.369          3684.500
        32   02 Jun 2027 05:22:23.075   02 Jun 2027 05:22:42.776            19.701          9850.500
        33   02 Jun 2027 06:39:53.430   02 Jun 2027 06:40:59.572            66.142         33071.000
        34   02 Jun 2027 06:41:18.214   02 Jun 2027 06:41:46.344            28.130         14065.000
        35   02 Jun 2027 06:52:06.771   02 Jun 2027 06:52:21.568            14.797          7398.500
        36   02 Jun 2027 08:14:20.893   02 Jun 2027 08:15:28.737            67.844         33922.000
        37   02 Jun 2027 08:16:17.395   02 Jun 2027 08:16:54.815            37.420         18710.000
        38   02 Jun 2027 09:49:13.985   02 Jun 2027 09:50:28.504            74.519         37259.500
        39   02 Jun 2027 11:29:31.657   02 Jun 2027 11:29:49.684            18.027          9013.500
        40   02 Jun 2027 11:32:58.956   02 Jun 2027 11:34:10.491            71.535         35767.500
        41   03 Jun 2027 03:49:01.762   03 Jun 2027 03:49:14.909            13.147          6573.500
        42   03 Jun 2027 03:49:29.138   03 Jun 2027 03:50:48.585            79.447         39723.500
        43   03 Jun 2027 03:51:06.933   03 Jun 2027 03:51:08.429             1.496           748.000
        44   03 Jun 2027 03:52:43.111   03 Jun 2027 03:52:54.194            11.083          5541.500
        45   03 Jun 2027 03:52:59.261   03 Jun 2027 03:53:13.253            13.992          6996.000
        46   03 Jun 2027 03:53:33.117   03 Jun 2027 03:53:34.288             1.171           585.500
        47   03 Jun 2027 05:27:48.343   03 Jun 2027 05:29:06.666            78.323         39161.500
        48   03 Jun 2027 05:29:23.317   03 Jun 2027 05:29:43.628            20.311         10155.500
        49   03 Jun 2027 06:51:59.501   03 Jun 2027 06:53:30.005            90.504         45252.000
        50   03 Jun 2027 07:04:31.787   03 Jun 2027 07:04:33.549             1.762           881.000
        51   03 Jun 2027 08:25:49.802   03 Jun 2027 08:27:04.009            74.207         37103.500
        52   03 Jun 2027 08:27:53.054   03 Jun 2027 08:28:44.850            51.796         25898.000
        53   03 Jun 2027 08:31:00.179   03 Jun 2027 08:31:00.179             0.000             0.000
        54   03 Jun 2027 08:31:13.922   03 Jun 2027 08:31:38.412            24.490         12245.000
        55   03 Jun 2027 10:00:44.370   03 Jun 2027 10:01:39.335            54.965         27482.500
        56   03 Jun 2027 10:03:41.989   03 Jun 2027 10:04:00.399            18.410          9205.000
        57   03 Jun 2027 10:09:43.975   03 Jun 2027 10:10:14.041            30.066         15033.000
        58   03 Jun 2027 11:38:44.616   03 Jun 2027 11:39:04.475            19.859          7659.375
        59   03 Jun 2027 11:44:29.785   03 Jun 2027 11:44:51.987            22.202         10093.469
        60   03 Jun 2027 11:45:58.081   03 Jun 2027 11:46:02.091             4.010          1907.875
        61   04 Jun 2027 04:01:39.584   04 Jun 2027 04:01:46.803             7.219          3609.500
        62   04 Jun 2027 04:02:01.027   04 Jun 2027 04:02:58.949            57.922         28961.000
        63   04 Jun 2027 04:04:21.924   04 Jun 2027 04:05:02.645            40.721         20360.500
        64   04 Jun 2027 04:06:07.315   04 Jun 2027 04:06:17.658            10.343          5171.500
        65   04 Jun 2027 05:40:25.849   04 Jun 2027 05:42:09.996           104.147         52073.500
        66   04 Jun 2027 05:43:31.912   04 Jun 2027 05:43:45.481            13.569          6784.500
        67   04 Jun 2027 07:03:55.904   04 Jun 2027 07:05:36.361           100.457         50228.500
        68   04 Jun 2027 07:05:49.842   04 Jun 2027 07:06:05.366            15.524          7762.000
        69   04 Jun 2027 08:40:08.383   04 Jun 2027 08:40:38.787            30.404         15202.000
        70   04 Jun 2027 08:42:58.491   04 Jun 2027 08:43:09.722            11.231          4585.875
        71   04 Jun 2027 10:14:42.110   04 Jun 2027 10:15:01.867            19.757          6425.594
        72   04 Jun 2027 10:18:32.994   04 Jun 2027 10:18:44.640            11.646          5669.562
        73   04 Jun 2027 10:21:21.758   04 Jun 2027 10:21:29.808             8.050          3741.063
        74   04 Jun 2027 10:21:50.450   04 Jun 2027 10:21:52.000             1.550           444.500
        75   04 Jun 2027 11:51:07.061   04 Jun 2027 11:51:21.977            14.916          7289.906
        76   04 Jun 2027 11:51:56.015   04 Jun 2027 11:52:00.750             4.735          1062.438
        77   04 Jun 2027 11:53:18.773   04 Jun 2027 11:53:22.017             3.244          1622.000
        78   04 Jun 2027 11:55:33.729   04 Jun 2027 11:55:44.476            10.747          4672.063
        79   04 Jun 2027 11:57:22.197   04 Jun 2027 11:57:25.774             3.577          1788.500
        80   04 Jun 2027 11:57:53.318   04 Jun 2027 11:57:58.001             4.683          1367.031
        81   05 Jun 2027 04:15:01.203   05 Jun 2027 04:16:03.885            62.682         31341.000
        82   05 Jun 2027 04:17:36.554   05 Jun 2027 04:18:21.872            45.318         22659.000
        83   05 Jun 2027 04:19:09.068   05 Jun 2027 04:19:17.100             8.032          4016.000
        84   05 Jun 2027 04:19:29.970   05 Jun 2027 04:19:43.336            13.366          6683.000
        85   05 Jun 2027 05:52:07.110   05 Jun 2027 05:53:34.216            87.106         43553.000
        86   05 Jun 2027 05:54:48.355   05 Jun 2027 05:55:39.190            50.835         25417.500
        87   05 Jun 2027 07:15:47.554   05 Jun 2027 07:17:22.979            95.425         47387.594
        88   05 Jun 2027 08:52:14.625   05 Jun 2027 08:52:39.298            24.673         12336.500
        89   05 Jun 2027 08:52:58.552   05 Jun 2027 08:53:05.889             7.337          1986.156
        90   05 Jun 2027 08:53:45.416   05 Jun 2027 08:53:49.016             3.600           700.031
        91   05 Jun 2027 08:54:07.050   05 Jun 2027 08:54:07.735             0.685           190.781
        92   05 Jun 2027 10:24:25.747   05 Jun 2027 10:24:32.350             6.603          3301.500
        93   05 Jun 2027 10:26:42.597   05 Jun 2027 10:26:55.955            13.358          5120.313
        94   05 Jun 2027 10:28:21.579   05 Jun 2027 10:28:28.304             6.725           639.219
        95   05 Jun 2027 10:29:20.709   05 Jun 2027 10:29:21.000             0.291           145.500
        96   05 Jun 2027 10:29:46.760   05 Jun 2027 10:29:50.692             3.932          1966.000
        97   05 Jun 2027 10:29:52.988   05 Jun 2027 10:29:53.922             0.934            71.750
        98   05 Jun 2027 10:30:14.715   05 Jun 2027 10:30:15.528             0.813           324.719
        99   05 Jun 2027 10:31:25.985   05 Jun 2027 10:31:29.933             3.948          1695.406
       100   05 Jun 2027 10:31:49.759   05 Jun 2027 10:31:53.631             3.872           482.812
       101   05 Jun 2027 10:32:39.769   05 Jun 2027 10:32:44.989             5.220          1363.375
       102   05 Jun 2027 10:33:55.470   05 Jun 2027 10:34:00.399             4.929          2082.219
       103   05 Jun 2027 10:34:10.602   05 Jun 2027 10:34:12.462             1.860           315.125
       104   06 Jun 2027 04:26:12.378   06 Jun 2027 04:26:46.258            33.880         16940.000
       105   06 Jun 2027 04:27:42.476   06 Jun 2027 04:28:56.666            74.190         37095.000
       106   06 Jun 2027 04:29:25.532   06 Jun 2027 04:29:33.199             7.667          3833.500
       107   06 Jun 2027 04:29:45.136   06 Jun 2027 04:29:46.228             1.092           546.000
       108   06 Jun 2027 04:31:47.214   06 Jun 2027 04:31:55.097             7.883          3941.500
       109   06 Jun 2027 06:05:20.729   06 Jun 2027 06:07:28.246           127.517         63758.500
       110   06 Jun 2027 06:07:49.811   06 Jun 2027 06:08:07.321            17.510          8755.000
       111   06 Jun 2027 07:27:53.925   06 Jun 2027 07:29:11.345            77.420         38710.000
       112   06 Jun 2027 07:30:09.475   06 Jun 2027 07:30:24.617            15.142          6958.656
       113   06 Jun 2027 09:04:22.537   06 Jun 2027 09:04:34.774            12.237          5553.188
       114   06 Jun 2027 09:05:21.150   06 Jun 2027 09:05:21.150             0.000             0.000
       115   06 Jun 2027 09:06:58.231   06 Jun 2027 09:07:08.020             9.789          4199.281
       116   06 Jun 2027 10:40:01.954   06 Jun 2027 10:40:20.656            18.702          7322.844
       117   06 Jun 2027 10:40:46.720   06 Jun 2027 10:40:46.720             0.000             0.000
       118   06 Jun 2027 10:43:06.445   06 Jun 2027 10:43:20.031            13.586          4665.000
       119   06 Jun 2027 10:43:28.052   06 Jun 2027 10:43:30.654             2.602           174.531
       120   06 Jun 2027 10:44:17.824   06 Jun 2027 10:44:17.824             0.000             0.000
       121   06 Jun 2027 10:46:05.670   06 Jun 2027 10:46:14.845             9.175          4587.500
       122   07 Jun 2027 03:00:06.337   07 Jun 2027 03:00:16.189             9.852          4926.000
       123   07 Jun 2027 03:00:48.450   07 Jun 2027 03:01:21.090            32.640         16320.000
       124   07 Jun 2027 03:01:47.209   07 Jun 2027 03:01:48.340             1.131           565.500
       125   07 Jun 2027 03:02:55.853   07 Jun 2027 03:02:55.875             0.022            11.000
       126   07 Jun 2027 03:04:17.306   07 Jun 2027 03:04:27.169             9.863          4931.500
       127   07 Jun 2027 03:04:49.978   07 Jun 2027 03:05:10.616            20.638         10319.000
       128   07 Jun 2027 03:05:59.050   07 Jun 2027 03:06:13.855            14.805          7402.500
       129   07 Jun 2027 04:38:16.994   07 Jun 2027 04:38:58.407            41.413         20706.500
       130   07 Jun 2027 04:39:20.545   07 Jun 2027 04:39:31.532            10.987          5493.500
       131   07 Jun 2027 04:39:34.726   07 Jun 2027 04:39:45.898            11.172          5586.000
       132   07 Jun 2027 04:41:07.156   07 Jun 2027 04:41:19.167            12.011          6005.500
       133   07 Jun 2027 04:42:51.747   07 Jun 2027 04:42:56.076             4.329          2164.500
       134   07 Jun 2027 04:43:06.241   07 Jun 2027 04:43:06.945             0.704           352.000
       135   07 Jun 2027 04:43:33.292   07 Jun 2027 04:43:38.658             5.366          2683.000
       136   07 Jun 2027 06:16:29.778   07 Jun 2027 06:17:06.227            36.449         18224.500
       137   07 Jun 2027 06:17:34.858   07 Jun 2027 06:18:28.369            53.511         26755.500
       138   07 Jun 2027 06:19:41.469   07 Jun 2027 06:19:51.900            10.431          5215.500
       139   07 Jun 2027 07:39:56.811   07 Jun 2027 07:41:16.663            79.852         39926.000
       140   07 Jun 2027 07:42:33.203   07 Jun 2027 07:42:43.062             9.859          4929.500
       141   07 Jun 2027 09:16:25.403   07 Jun 2027 09:16:37.476            12.073          6036.500
       142   07 Jun 2027 09:18:57.168   07 Jun 2027 09:19:12.181            15.013          5432.375
       143   07 Jun 2027 10:51:37.830   07 Jun 2027 10:51:49.238            11.408          4751.969
       144   07 Jun 2027 10:53:02.686   07 Jun 2027 10:53:02.686             0.000             0.000
       145   07 Jun 2027 10:53:34.325   07 Jun 2027 10:53:42.768             8.443          3271.000
       146   07 Jun 2027 10:53:52.935   07 Jun 2027 10:53:55.209             2.274            31.250
       147   07 Jun 2027 10:54:14.113   07 Jun 2027 10:54:18.637             4.524           146.531
       148   07 Jun 2027 10:57:58.202   07 Jun 2027 10:58:11.201            12.999          6499.500
       149   08 Jun 2027 03:12:04.111   08 Jun 2027 03:13:14.801            70.690         35345.000
       150   08 Jun 2027 03:14:17.167   08 Jun 2027 03:14:34.578            17.411          8705.500
       151   08 Jun 2027 03:17:27.214   08 Jun 2027 03:17:27.214             0.000             0.000
       152   08 Jun 2027 03:17:32.655   08 Jun 2027 03:17:36.333             3.678          1839.000
       153   08 Jun 2027 03:18:39.689   08 Jun 2027 03:18:45.474             5.785          2892.500
       154   08 Jun 2027 03:19:01.573   08 Jun 2027 03:19:07.615             6.042          3021.000
       155   08 Jun 2027 04:51:21.600   08 Jun 2027 04:52:51.841            90.241         45120.500
       156   08 Jun 2027 04:53:23.351   08 Jun 2027 04:53:28.277             4.926          2463.000
       157   08 Jun 2027 04:53:35.209   08 Jun 2027 04:53:40.879             5.670          2835.000
       158   08 Jun 2027 04:57:31.232   08 Jun 2027 04:57:40.082             8.850          4425.000
       159   08 Jun 2027 04:58:17.772   08 Jun 2027 04:58:55.168            37.396         18698.000
       160   08 Jun 2027 06:17:33.733   08 Jun 2027 06:17:56.380            22.647         11323.500
       161   08 Jun 2027 06:28:25.558   08 Jun 2027 06:29:11.527            45.969         22984.500
       162   08 Jun 2027 06:30:19.536   08 Jun 2027 06:30:32.362            12.826          6413.000
       163   08 Jun 2027 07:52:23.756   08 Jun 2027 07:53:12.530            48.774         24387.000
       164   08 Jun 2027 09:28:08.809   08 Jun 2027 09:28:21.513            12.704          6178.406
       165   08 Jun 2027 09:28:57.487   08 Jun 2027 09:29:04.816             7.329          1124.188
       166   08 Jun 2027 09:30:44.485   08 Jun 2027 09:30:49.138             4.653          1886.094
       167   08 Jun 2027 09:31:40.860   08 Jun 2027 09:31:40.860             0.000             0.000
       168   08 Jun 2027 09:32:23.546   08 Jun 2027 09:32:24.815             1.269           634.500
       169   08 Jun 2027 11:02:52.157   08 Jun 2027 11:03:02.309            10.152          5076.000
       170   08 Jun 2027 11:03:32.500   08 Jun 2027 11:03:39.949             7.449          1771.656
       171   08 Jun 2027 11:04:09.385   08 Jun 2027 11:04:16.156             6.771           706.188
       172   08 Jun 2027 11:04:36.626   08 Jun 2027 11:04:37.065             0.439           148.250
       173   08 Jun 2027 11:05:24.018   08 Jun 2027 11:05:31.842             7.824          1257.969
       174   08 Jun 2027 11:09:48.071   08 Jun 2027 11:10:04.597            16.526          7990.250
       175   08 Jun 2027 11:10:11.049   08 Jun 2027 11:10:13.690             2.641           198.000
       176   09 Jun 2027 03:24:44.347   09 Jun 2027 03:26:42.931           118.584         59292.000
       177   09 Jun 2027 03:29:01.883   09 Jun 2027 03:29:06.567             4.684          2342.000
       178   09 Jun 2027 03:29:26.609   09 Jun 2027 03:29:35.794             9.185          4592.500
       179   09 Jun 2027 03:29:44.800   09 Jun 2027 03:29:49.643             4.843          2421.500
       180   09 Jun 2027 05:03:43.940   09 Jun 2027 05:04:57.435            73.495         36747.500
       181   09 Jun 2027 05:06:03.844   09 Jun 2027 05:06:21.805            17.961          8980.500
       182   09 Jun 2027 05:08:06.111   09 Jun 2027 05:08:17.359            11.248          5624.000
       183   09 Jun 2027 06:28:48.198   09 Jun 2027 06:29:55.072            66.874         33437.000
       184   09 Jun 2027 06:40:26.820   09 Jun 2027 06:41:05.141            38.321         19160.500
       185   09 Jun 2027 08:02:59.862   09 Jun 2027 08:03:36.776            36.914         17400.126
       186   09 Jun 2027 08:03:57.002   09 Jun 2027 08:03:57.002             0.000             0.000
       187   09 Jun 2027 08:03:57.307   09 Jun 2027 08:04:00.095             2.788           292.812
       188   09 Jun 2027 08:04:58.428   09 Jun 2027 08:04:58.428             0.000             0.000
       189   09 Jun 2027 08:05:25.739   09 Jun 2027 08:05:31.221             5.482          2332.500
       190   09 Jun 2027 08:06:20.916   09 Jun 2027 08:06:22.741             1.825           682.219
       191   09 Jun 2027 08:06:50.987   09 Jun 2027 08:06:50.987             0.000             0.000
       192   09 Jun 2027 08:07:37.638   09 Jun 2027 08:07:42.573             4.935          2020.313
       193   09 Jun 2027 09:38:03.230   09 Jun 2027 09:38:04.803             1.573           786.500
       194   09 Jun 2027 09:38:53.226   09 Jun 2027 09:39:07.139            13.913          5365.531
       195   09 Jun 2027 09:42:44.606   09 Jun 2027 09:42:52.338             7.732          3866.000
       196   09 Jun 2027 09:44:21.224   09 Jun 2027 09:44:35.981            14.757          5707.531
       197   09 Jun 2027 11:17:59.827   09 Jun 2027 11:18:15.184            15.357          7678.500
       198   09 Jun 2027 11:19:47.343   09 Jun 2027 11:20:00.163            12.820          5075.906
       199   09 Jun 2027 11:20:45.728   09 Jun 2027 11:20:52.072             6.344          1361.156
       200   09 Jun 2027 11:21:18.942   09 Jun 2027 11:21:21.053             2.111           634.438
       201   09 Jun 2027 11:21:59.360   09 Jun 2027 11:22:02.481             3.121          1132.594
       202   10 Jun 2027 03:37:00.794   10 Jun 2027 03:39:10.941           130.147         65073.500
       203   10 Jun 2027 03:39:54.216   10 Jun 2027 03:40:10.711            16.495          8247.500
       204   10 Jun 2027 03:40:20.177   10 Jun 2027 03:40:21.178             1.001           500.500
       205   10 Jun 2027 05:16:03.580   10 Jun 2027 05:17:25.274            81.694         40847.000
       206   10 Jun 2027 05:18:14.967   10 Jun 2027 05:18:16.524             1.557           778.500
       207   10 Jun 2027 05:18:55.265   10 Jun 2027 05:19:04.961             9.696          4848.000
       208   10 Jun 2027 05:19:56.594   10 Jun 2027 05:19:56.925             0.331           165.500
       209   10 Jun 2027 05:21:01.711   10 Jun 2027 05:21:10.839             9.128          4564.000
       210   10 Jun 2027 05:22:37.567   10 Jun 2027 05:23:00.648            23.081         11540.500
       211   10 Jun 2027 06:40:09.178   10 Jun 2027 06:40:56.283            47.105         23552.500
       212   10 Jun 2027 06:41:34.072   10 Jun 2027 06:42:03.893            29.821         14910.500
       213   10 Jun 2027 06:52:24.196   10 Jun 2027 06:52:44.211            20.015         10007.500
       214   10 Jun 2027 08:14:29.605   10 Jun 2027 08:14:48.778            19.173          9586.500
       215   10 Jun 2027 08:15:20.473   10 Jun 2027 08:15:27.467             6.994          3497.000
       216   10 Jun 2027 08:16:33.481   10 Jun 2027 08:16:38.278             4.797          2045.656
       217   10 Jun 2027 08:17:31.002   10 Jun 2027 08:17:35.238             4.236           955.375
       218   10 Jun 2027 08:17:56.300   10 Jun 2027 08:17:58.831             2.531           242.469
       219   10 Jun 2027 09:49:27.924   10 Jun 2027 09:49:39.352            11.428          5702.250
       220   10 Jun 2027 09:50:49.513   10 Jun 2027 09:50:49.908             0.395           197.500
       221   10 Jun 2027 09:52:54.767   10 Jun 2027 09:53:05.356            10.589          5025.594
       222   10 Jun 2027 09:54:42.736   10 Jun 2027 09:54:42.736             0.000             0.000
       223   10 Jun 2027 09:55:44.410   10 Jun 2027 09:55:55.087            10.677          4780.312
       224   10 Jun 2027 11:28:50.402   10 Jun 2027 11:29:14.321            23.919          9338.688
       225   10 Jun 2027 11:30:01.706   10 Jun 2027 11:30:03.274             1.568           427.594
       226   10 Jun 2027 11:30:30.178   10 Jun 2027 11:30:32.218             2.040           758.969
       227   10 Jun 2027 11:33:14.414   10 Jun 2027 11:33:25.001            10.587          4609.219
       228   10 Jun 2027 11:33:39.827   10 Jun 2027 11:33:44.795             4.968           439.250
       229   10 Jun 2027 11:33:59.327   10 Jun 2027 11:34:00.207             0.880           440.000
       230   11 Jun 2027 03:49:26.439   11 Jun 2027 03:49:32.268             5.829          2914.500
       231   11 Jun 2027 03:50:09.073   11 Jun 2027 03:52:18.642           129.569         64784.500
       232   11 Jun 2027 03:53:00.210   11 Jun 2027 03:53:00.365             0.155            77.500
       233   11 Jun 2027 03:53:08.899   11 Jun 2027 03:53:10.012             1.113           556.500
       234   11 Jun 2027 03:53:50.232   11 Jun 2027 03:53:51.118             0.886           443.000
       235   11 Jun 2027 05:28:08.197   11 Jun 2027 05:29:26.886            78.689         39344.500
       236   11 Jun 2027 05:30:14.418   11 Jun 2027 05:30:36.371            21.953         10976.500
       237   11 Jun 2027 05:31:46.494   11 Jun 2027 05:31:59.171            12.677          6338.500
       238   11 Jun 2027 05:32:25.664   11 Jun 2027 05:32:34.537             8.873          4436.500
       239   11 Jun 2027 06:52:16.319   11 Jun 2027 06:53:45.722            89.403         44701.500
       240   11 Jun 2027 08:26:05.863   11 Jun 2027 08:26:42.377            36.514         16197.063
       241   11 Jun 2027 08:26:58.393   11 Jun 2027 08:27:00.906             2.513           180.781
       242   11 Jun 2027 08:28:04.993   11 Jun 2027 08:28:07.793             2.800          1342.000
       243   11 Jun 2027 08:29:07.671   11 Jun 2027 08:29:10.602             2.931          1465.500
       244   11 Jun 2027 08:29:55.631   11 Jun 2027 08:29:59.234             3.603          1784.375
       245   11 Jun 2027 08:30:36.786   11 Jun 2027 08:30:38.571             1.785           211.563
       246   11 Jun 2027 08:31:31.284   11 Jun 2027 08:31:34.180             2.896          1078.812
       247   11 Jun 2027 10:00:58.377   11 Jun 2027 10:01:09.090            10.713          5322.094
       248   11 Jun 2027 10:03:36.544   11 Jun 2027 10:03:36.544             0.000             0.000
       249   11 Jun 2027 10:04:00.889   11 Jun 2027 10:04:14.689            13.800          3933.594
       250   11 Jun 2027 10:06:41.943   11 Jun 2027 10:06:41.943             0.000             0.000
       251   11 Jun 2027 10:09:59.889   11 Jun 2027 10:10:23.601            23.712         10787.500
       252   11 Jun 2027 11:39:03.795   11 Jun 2027 11:39:19.887            16.092          6478.750
       253   11 Jun 2027 11:44:44.017   11 Jun 2027 11:45:03.676            19.659          9797.375
       254   11 Jun 2027 11:45:47.823   11 Jun 2027 11:45:52.348             4.525          1379.594
       255   11 Jun 2027 11:46:13.207   11 Jun 2027 11:46:14.838             1.631           651.844
       256   12 Jun 2027 04:01:57.738   12 Jun 2027 04:02:00.555             2.817          1408.500
       257   12 Jun 2027 04:02:19.380   12 Jun 2027 04:02:57.735            38.355         19177.500
       258   12 Jun 2027 04:03:13.786   12 Jun 2027 04:03:19.082             5.296          2648.000
       259   12 Jun 2027 04:03:24.191   12 Jun 2027 04:04:36.318            72.127         36063.500
       260   12 Jun 2027 04:07:18.679   12 Jun 2027 04:07:20.861             2.182          1091.000
       261   12 Jun 2027 05:40:44.862   12 Jun 2027 05:42:40.083           115.221         57610.500
       262   12 Jun 2027 05:43:32.034   12 Jun 2027 05:44:03.102            31.068         15534.000
       263   12 Jun 2027 07:04:14.305   12 Jun 2027 07:05:47.737            93.432         46716.000
       264   12 Jun 2027 07:06:21.200   12 Jun 2027 07:06:23.970             2.770          1259.157
       265   12 Jun 2027 08:40:14.926   12 Jun 2027 08:40:34.311            19.385          9692.500
       266   12 Jun 2027 08:40:58.114   12 Jun 2027 08:41:07.353             9.239          4058.000
       267   12 Jun 2027 10:13:58.599   12 Jun 2027 10:14:12.425            13.826          6609.781
       268   12 Jun 2027 10:15:48.413   12 Jun 2027 10:15:48.413             0.000             0.000
       269   12 Jun 2027 10:16:33.413   12 Jun 2027 10:16:34.363             0.950           475.000
       270   12 Jun 2027 10:18:50.593   12 Jun 2027 10:19:05.788            15.195          6698.875
       271   12 Jun 2027 10:21:36.714   12 Jun 2027 10:21:44.866             8.152          3725.563
       272   12 Jun 2027 10:22:06.159   12 Jun 2027 10:22:10.194             4.035           399.500
       273   12 Jun 2027 10:22:32.084   12 Jun 2027 10:22:33.211             1.127           545.781
       274   12 Jun 2027 11:51:26.923   12 Jun 2027 11:51:46.259            19.336          8028.281
       275   12 Jun 2027 11:52:26.090   12 Jun 2027 11:52:30.682             4.592          1020.531
       276   12 Jun 2027 11:53:35.157   12 Jun 2027 11:53:37.934             2.777          1388.500
       277   12 Jun 2027 11:55:42.897   12 Jun 2027 11:55:52.387             9.490          4067.156
       278   12 Jun 2027 11:55:57.065   12 Jun 2027 11:56:01.385             4.320           146.188
       279   12 Jun 2027 11:57:38.890   12 Jun 2027 11:57:43.074             4.184          2092.000
       280   12 Jun 2027 11:58:10.520   12 Jun 2027 11:58:12.820             2.300          1059.500
       281   13 Jun 2027 04:14:22.211   13 Jun 2027 04:14:27.757             5.546          2773.000
       282   13 Jun 2027 04:14:42.425   13 Jun 2027 04:14:50.241             7.816          3908.000
       283   13 Jun 2027 04:14:54.254   13 Jun 2027 04:16:18.318            84.064         42032.000
       284   13 Jun 2027 04:16:42.961   13 Jun 2027 04:16:51.759             8.798          4399.000
       285   13 Jun 2027 04:18:37.346   13 Jun 2027 04:18:46.370             9.024          4512.000
       286   13 Jun 2027 05:52:24.641   13 Jun 2027 05:54:38.904           134.263         67131.500
       287   13 Jun 2027 05:55:02.083   13 Jun 2027 05:55:05.026             2.943          1471.500
       288   13 Jun 2027 05:56:40.722   13 Jun 2027 05:56:45.568             4.846          2423.000
       289   13 Jun 2027 05:56:59.131   13 Jun 2027 05:57:16.221            17.090          8545.000
       290   13 Jun 2027 07:16:04.107   13 Jun 2027 07:17:46.037           101.930         50557.063
       291   13 Jun 2027 08:52:30.981   13 Jun 2027 08:52:52.156            21.175         10587.500
       292   13 Jun 2027 08:53:18.121   13 Jun 2027 08:53:27.135             9.014          4033.906
       293   13 Jun 2027 08:54:03.316   13 Jun 2027 08:54:06.010             2.694           702.375
       294   13 Jun 2027 08:54:23.048   13 Jun 2027 08:54:23.048             0.000             0.000
       295   13 Jun 2027 08:55:01.757   13 Jun 2027 08:55:05.554             3.797          1470.625
       296   13 Jun 2027 10:24:39.615   13 Jun 2027 10:24:50.070            10.455          5227.500
       297   13 Jun 2027 10:28:26.296   13 Jun 2027 10:28:27.532             1.236           618.000
       298   13 Jun 2027 10:28:34.874   13 Jun 2027 10:28:49.083            14.209          6910.125
       299   13 Jun 2027 10:29:36.764   13 Jun 2027 10:29:37.254             0.490           245.000
       300   13 Jun 2027 10:30:01.779   13 Jun 2027 10:30:05.537             3.758          1872.969
       301   13 Jun 2027 10:30:10.362   13 Jun 2027 10:30:12.550             2.188            43.969
       302   13 Jun 2027 10:32:51.320   13 Jun 2027 10:33:03.855            12.535          4941.000
       303   13 Jun 2027 10:33:24.704   13 Jun 2027 10:33:26.640             1.936           651.531
       304   13 Jun 2027 10:33:53.189   13 Jun 2027 10:33:55.150             1.961           750.812
       305   13 Jun 2027 10:34:28.176   13 Jun 2027 10:34:30.461             2.285          1013.875
