uniorb/output/strategy_1/Camera/Camera_KinoSat_111905.txt

KinoSat_111905
-------------------------
    Access    *     Start Time (UTCG)     *     Stop Time (UTCG)  *   Duration (s) *   Data (Mbytes)
         1   01 Jun 2027 03:00:45.546   01 Jun 2027 03:00:55.137             9.591          4795.500
         2   01 Jun 2027 03:01:31.758   01 Jun 2027 03:01:31.758             0.000             0.000
         3   01 Jun 2027 03:01:41.989   01 Jun 2027 03:01:43.860             1.871           935.500
         4   01 Jun 2027 03:02:26.641   01 Jun 2027 03:02:58.419            31.778         15889.000
         5   01 Jun 2027 03:03:26.731   01 Jun 2027 03:03:31.576             4.845          2422.500
         6   01 Jun 2027 03:03:51.308   01 Jun 2027 03:04:06.675            15.367          7683.500
         7   01 Jun 2027 03:05:17.472   01 Jun 2027 03:05:39.879            22.407         11203.500
         8   01 Jun 2027 03:07:30.067   01 Jun 2027 03:07:33.994             3.927          1963.500
         9   01 Jun 2027 03:07:46.605   01 Jun 2027 03:07:58.939            12.334          6167.000
        10   01 Jun 2027 04:38:53.946   01 Jun 2027 04:39:22.252            28.306         14153.000
        11   01 Jun 2027 04:39:29.081   01 Jun 2027 04:40:37.606            68.525         34262.500
        12   01 Jun 2027 04:42:18.909   01 Jun 2027 04:42:19.229             0.320           160.000
        13   01 Jun 2027 04:42:50.717   01 Jun 2027 04:43:14.747            24.030         12015.000
        14   01 Jun 2027 06:16:54.539   01 Jun 2027 06:19:00.836           126.297         63148.500
        15   01 Jun 2027 06:19:15.096   01 Jun 2027 06:19:18.240             3.144          1572.000
        16   01 Jun 2027 07:40:35.460   01 Jun 2027 07:42:34.299           118.839         59419.500
        17   01 Jun 2027 09:16:57.672   01 Jun 2027 09:18:55.109           117.437         58718.500
        18   01 Jun 2027 10:51:01.720   01 Jun 2027 10:52:53.540           111.820         55910.000
        19   01 Jun 2027 10:54:20.651   01 Jun 2027 10:54:20.651             0.000             0.000
        20   01 Jun 2027 10:57:45.829   01 Jun 2027 10:57:45.829             0.000             0.000
        21   01 Jun 2027 10:58:58.765   01 Jun 2027 10:59:01.311             2.546          1273.000
        22   02 Jun 2027 03:12:49.644   02 Jun 2027 03:13:31.562            41.918         20959.000
        23   02 Jun 2027 03:14:09.449   02 Jun 2027 03:15:01.588            52.139         26069.500
        24   02 Jun 2027 03:17:57.006   02 Jun 2027 03:18:05.229             8.223          4111.500
        25   02 Jun 2027 03:18:30.619   02 Jun 2027 03:18:35.959             5.340          2670.000
        26   02 Jun 2027 03:18:57.861   02 Jun 2027 03:19:10.404            12.543          6271.500
        27   02 Jun 2027 03:19:39.142   02 Jun 2027 03:19:39.615             0.473           236.500
        28   02 Jun 2027 04:51:00.650   02 Jun 2027 04:52:03.712            63.062         31531.000
        29   02 Jun 2027 04:52:10.274   02 Jun 2027 04:52:33.521            23.247         11623.500
        30   02 Jun 2027 04:53:36.753   02 Jun 2027 04:53:55.596            18.843          9421.500
        31   02 Jun 2027 04:55:13.477   02 Jun 2027 04:55:13.477             0.000             0.000
        32   02 Jun 2027 04:55:55.949   02 Jun 2027 04:56:16.654            20.705         10352.500
        33   02 Jun 2027 06:30:08.065   02 Jun 2027 06:31:19.480            71.415         35707.500
        34   02 Jun 2027 06:31:45.414   02 Jun 2027 06:31:53.412             7.998          3999.000
        35   02 Jun 2027 06:33:07.983   02 Jun 2027 06:33:41.051            33.068         16534.000
        36   02 Jun 2027 07:52:39.353   02 Jun 2027 07:54:01.440            82.087         41043.500
        37   02 Jun 2027 09:29:08.576   02 Jun 2027 09:30:21.443            72.867         36433.500
        38   02 Jun 2027 09:30:54.204   02 Jun 2027 09:30:55.565             1.361           680.500
        39   02 Jun 2027 09:32:08.098   02 Jun 2027 09:32:36.613            28.515         14257.500
        40   02 Jun 2027 11:10:17.014   02 Jun 2027 11:10:46.625            29.611         14805.500
        41   02 Jun 2027 11:10:53.573   02 Jun 2027 11:11:00.566             6.993          3496.500
        42   03 Jun 2027 03:24:48.084   03 Jun 2027 03:25:24.798            36.714         18357.000
        43   03 Jun 2027 03:25:38.520   03 Jun 2027 03:26:36.179            57.659         28829.500
        44   03 Jun 2027 03:27:45.068   03 Jun 2027 03:28:00.331            15.263          7631.500
        45   03 Jun 2027 03:31:08.036   03 Jun 2027 03:31:22.886            14.850          7425.000
        46   03 Jun 2027 05:03:03.094   03 Jun 2027 05:03:43.884            40.790         20395.000
        47   03 Jun 2027 05:04:07.930   03 Jun 2027 05:04:48.288            40.358         20179.000
        48   03 Jun 2027 05:06:33.268   03 Jun 2027 05:06:44.752            11.484          5742.000
        49   03 Jun 2027 05:08:01.114   03 Jun 2027 05:08:01.114             0.000             0.000
        50   03 Jun 2027 05:08:39.303   03 Jun 2027 05:08:39.902             0.599           299.500
        51   03 Jun 2027 06:41:15.202   03 Jun 2027 06:42:16.548            61.346         30673.000
        52   03 Jun 2027 06:42:22.692   03 Jun 2027 06:42:43.329            20.637         10318.500
        53   03 Jun 2027 06:43:54.943   03 Jun 2027 06:44:06.453            11.510          5755.000
        54   03 Jun 2027 06:44:38.345   03 Jun 2027 06:44:38.345             0.000             0.000
        55   03 Jun 2027 08:04:35.873   03 Jun 2027 08:06:49.128           133.255         66627.500
        56   03 Jun 2027 09:41:13.681   03 Jun 2027 09:41:28.355            14.674          7337.000
        57   03 Jun 2027 09:42:53.252   03 Jun 2027 09:43:30.307            37.055         18527.500
        58   03 Jun 2027 11:16:23.979   03 Jun 2027 11:17:39.137            75.158         37579.000
        59   03 Jun 2027 11:18:21.222   03 Jun 2027 11:18:47.487            26.265         12494.812
        60   03 Jun 2027 11:19:08.160   03 Jun 2027 11:19:10.126             1.966           564.281
        61   03 Jun 2027 11:22:46.470   03 Jun 2027 11:23:00.036            13.566          6760.750
        62   04 Jun 2027 03:36:50.192   04 Jun 2027 03:37:12.072            21.880         10940.000
        63   04 Jun 2027 03:37:15.300   04 Jun 2027 03:38:36.028            80.728         40364.000
        64   04 Jun 2027 03:38:53.203   04 Jun 2027 03:39:00.807             7.604          3802.000
        65   04 Jun 2027 03:42:28.863   04 Jun 2027 03:42:34.455             5.592          2796.000
        66   04 Jun 2027 05:16:07.905   04 Jun 2027 05:17:41.278            93.373         46686.500
        67   04 Jun 2027 05:18:20.382   04 Jun 2027 05:18:20.567             0.185            92.500
        68   04 Jun 2027 05:18:24.421   04 Jun 2027 05:18:32.869             8.448          4224.000
        69   04 Jun 2027 05:19:45.439   04 Jun 2027 05:19:45.913             0.474           237.000
        70   04 Jun 2027 05:21:02.888   04 Jun 2027 05:21:15.739            12.851          6425.500
        71   04 Jun 2027 05:22:47.775   04 Jun 2027 05:22:48.402             0.627           313.500
        72   04 Jun 2027 05:23:02.492   04 Jun 2027 05:23:48.663            46.171         23085.500
        73   04 Jun 2027 06:42:26.423   04 Jun 2027 06:42:38.972            12.549          6274.500
        74   04 Jun 2027 06:53:12.916   04 Jun 2027 06:54:28.574            75.658         37829.000
        75   04 Jun 2027 06:56:00.444   04 Jun 2027 06:56:07.289             6.845          3422.500
        76   04 Jun 2027 06:56:25.971   04 Jun 2027 06:56:37.055            11.084          5542.000
        77   04 Jun 2027 08:17:12.129   04 Jun 2027 08:18:02.779            50.650         24763.374
        78   04 Jun 2027 08:19:54.681   04 Jun 2027 08:19:55.517             0.836           418.000
        79   04 Jun 2027 09:52:57.657   04 Jun 2027 09:53:10.111            12.454          4586.688
        80   04 Jun 2027 09:53:20.057   04 Jun 2027 09:53:21.653             1.596           283.469
        81   04 Jun 2027 09:54:38.129   04 Jun 2027 09:54:38.129             0.000             0.000
        82   04 Jun 2027 09:55:31.937   04 Jun 2027 09:55:37.554             5.617          2808.500
        83   04 Jun 2027 09:55:39.866   04 Jun 2027 09:55:42.836             2.970           849.594
        84   04 Jun 2027 11:28:24.201   04 Jun 2027 11:28:48.718            24.517         11325.156
        85   04 Jun 2027 11:30:58.291   04 Jun 2027 11:31:05.834             7.543          3086.625
        86   04 Jun 2027 11:34:36.819   04 Jun 2027 11:34:50.357            13.538          6592.562
        87   04 Jun 2027 11:34:55.059   04 Jun 2027 11:35:02.803             7.744           146.937
        88   05 Jun 2027 03:49:30.774   05 Jun 2027 03:51:29.725           118.951         59475.500
        89   05 Jun 2027 03:51:36.401   05 Jun 2027 03:51:58.760            22.359         11179.500
        90   05 Jun 2027 03:54:36.095   05 Jun 2027 03:54:36.249             0.154            77.000
        91   05 Jun 2027 03:55:51.591   05 Jun 2027 03:55:54.417             2.826          1413.000
        92   05 Jun 2027 05:28:28.904   05 Jun 2027 05:30:09.607           100.703         50351.500
        93   05 Jun 2027 05:32:54.165   05 Jun 2027 05:33:17.659            23.494         11747.000
        94   05 Jun 2027 05:34:25.352   05 Jun 2027 05:34:26.451             1.099           549.500
        95   05 Jun 2027 06:53:42.579   05 Jun 2027 06:54:58.523            75.944         37972.000
        96   05 Jun 2027 07:05:13.484   05 Jun 2027 07:05:55.029            41.545         20271.407
        97   05 Jun 2027 08:27:51.094   05 Jun 2027 08:28:25.326            34.232         16523.500
        98   05 Jun 2027 08:28:42.491   05 Jun 2027 08:28:47.361             4.870           348.156
        99   05 Jun 2027 10:05:07.244   05 Jun 2027 10:05:33.221            25.977         11756.781
       100   05 Jun 2027 10:07:33.173   05 Jun 2027 10:07:35.797             2.624          1312.000
       101   05 Jun 2027 11:39:42.911   05 Jun 2027 11:39:59.635            16.724          8362.000
       102   05 Jun 2027 11:46:23.579   05 Jun 2027 11:46:52.629            29.050         12894.000
       103   06 Jun 2027 04:01:46.704   06 Jun 2027 04:03:09.646            82.942         41471.000
       104   06 Jun 2027 04:03:13.388   06 Jun 2027 04:03:24.357            10.969          5484.500
       105   06 Jun 2027 04:03:35.266   06 Jun 2027 04:03:59.876            24.610         12305.000
       106   06 Jun 2027 04:04:07.664   06 Jun 2027 04:04:16.202             8.538          4269.000
       107   06 Jun 2027 04:04:48.293   06 Jun 2027 04:04:50.892             2.599          1299.500
       108   06 Jun 2027 04:05:50.038   06 Jun 2027 04:05:50.706             0.668           334.000
       109   06 Jun 2027 05:40:45.100   06 Jun 2027 05:43:00.942           135.842         67921.000
       110   06 Jun 2027 05:44:26.452   06 Jun 2027 05:44:29.480             3.028          1514.000
       111   06 Jun 2027 05:45:21.402   06 Jun 2027 05:45:22.538             1.136           568.000
       112   06 Jun 2027 05:45:52.902   06 Jun 2027 05:45:57.015             4.113          2056.500
       113   06 Jun 2027 05:47:32.907   06 Jun 2027 05:47:47.591            14.684          7342.000
       114   06 Jun 2027 07:04:58.836   06 Jun 2027 07:06:13.246            74.410         37205.000
       115   06 Jun 2027 07:06:56.361   06 Jun 2027 07:07:08.263            11.902          5951.000
       116   06 Jun 2027 07:17:11.262   06 Jun 2027 07:17:31.420            20.158         10016.406
       117   06 Jun 2027 08:39:26.950   06 Jun 2027 08:39:56.419            29.469         13761.125
       118   06 Jun 2027 08:42:02.316   06 Jun 2027 08:42:11.764             9.448          3126.875
       119   06 Jun 2027 08:43:26.115   06 Jun 2027 08:43:30.210             4.095          1957.062
       120   06 Jun 2027 08:43:59.286   06 Jun 2027 08:44:04.488             5.202           850.938
       121   06 Jun 2027 08:44:21.437   06 Jun 2027 08:44:21.437             0.000             0.000
       122   06 Jun 2027 10:14:19.429   06 Jun 2027 10:14:29.874            10.445          4612.969
       123   06 Jun 2027 10:15:43.706   06 Jun 2027 10:15:43.706             0.000             0.000
       124   06 Jun 2027 10:16:30.142   06 Jun 2027 10:16:35.842             5.700          2747.625
       125   06 Jun 2027 11:58:04.889   06 Jun 2027 11:58:54.862            49.973         24911.625
       126   07 Jun 2027 04:14:05.981   07 Jun 2027 04:14:19.249            13.268          6634.000
       127   07 Jun 2027 04:14:33.207   07 Jun 2027 04:15:37.054            63.847         31923.500
       128   07 Jun 2027 04:16:46.343   07 Jun 2027 04:16:59.435            13.092          6546.000
       129   07 Jun 2027 04:18:31.245   07 Jun 2027 04:18:48.907            17.662          8831.000
       130   07 Jun 2027 04:19:47.152   07 Jun 2027 04:19:47.400             0.248           124.000
       131   07 Jun 2027 05:52:51.711   07 Jun 2027 05:54:53.150           121.439         60719.500
       132   07 Jun 2027 05:55:14.610   07 Jun 2027 05:55:19.037             4.427          2213.500
       133   07 Jun 2027 05:56:06.208   07 Jun 2027 05:56:11.199             4.991          2495.500
       134   07 Jun 2027 05:56:15.319   07 Jun 2027 05:56:24.288             8.969          4484.500
       135   07 Jun 2027 05:56:34.732   07 Jun 2027 05:56:47.555            12.823          6411.500
       136   07 Jun 2027 07:17:04.635   07 Jun 2027 07:18:57.946           113.311         56525.158
       137   07 Jun 2027 07:29:35.139   07 Jun 2027 07:29:38.619             3.480          1740.000
       138   07 Jun 2027 08:50:55.484   07 Jun 2027 08:51:36.401            40.917         15713.844
       139   07 Jun 2027 08:52:59.757   07 Jun 2027 08:53:07.219             7.462          2604.875
       140   07 Jun 2027 08:54:31.468   07 Jun 2027 08:54:36.848             5.380          2283.406
       141   07 Jun 2027 10:25:49.553   07 Jun 2027 10:26:01.722            12.169          6024.312
       142   07 Jun 2027 10:26:53.863   07 Jun 2027 10:26:55.421             1.558           519.281
       143   07 Jun 2027 10:28:31.775   07 Jun 2027 10:28:33.451             1.676           694.500
       144   07 Jun 2027 10:31:34.213   07 Jun 2027 10:31:37.707             3.494          1747.000
       145   07 Jun 2027 10:34:49.711   07 Jun 2027 10:35:11.790            22.079          9675.562
       146   08 Jun 2027 04:26:43.793   08 Jun 2027 04:26:51.418             7.625          3812.500
       147   08 Jun 2027 04:27:05.324   08 Jun 2027 04:27:14.046             8.722          4361.000
       148   08 Jun 2027 04:27:15.400   08 Jun 2027 04:28:06.914            51.514         25757.000
       149   08 Jun 2027 04:28:11.867   08 Jun 2027 04:28:41.741            29.874         14937.000
       150   08 Jun 2027 04:30:35.004   08 Jun 2027 04:30:45.905            10.901          5450.500
       151   08 Jun 2027 06:05:17.010   08 Jun 2027 06:07:34.382           137.372         68686.000
       152   08 Jun 2027 06:08:03.886   08 Jun 2027 06:08:16.374            12.488          6244.000
       153   08 Jun 2027 06:08:24.226   08 Jun 2027 06:08:25.227             1.001           500.500
       154   08 Jun 2027 07:29:00.632   08 Jun 2027 07:30:18.105            77.473         38736.500
       155   08 Jun 2027 09:05:12.953   08 Jun 2027 09:05:53.702            40.749         19953.874
       156   08 Jun 2027 09:06:42.231   08 Jun 2027 09:06:42.231             0.000             0.000
       157   08 Jun 2027 09:07:41.724   08 Jun 2027 09:07:49.929             8.205          3375.688
       158   08 Jun 2027 10:38:44.814   08 Jun 2027 10:38:56.825            12.011          4637.875
       159   08 Jun 2027 10:40:05.176   08 Jun 2027 10:40:10.414             5.238           107.062
       160   08 Jun 2027 10:43:33.846   08 Jun 2027 10:43:45.647            11.801          5444.719
       161   08 Jun 2027 10:44:41.261   08 Jun 2027 10:44:45.946             4.685          1433.813
       162   08 Jun 2027 10:45:21.008   08 Jun 2027 10:45:24.567             3.559          1095.687
       163   08 Jun 2027 10:45:45.403   08 Jun 2027 10:45:47.616             2.213           562.031
       164   08 Jun 2027 10:46:14.447   08 Jun 2027 10:46:18.870             4.423           838.469
       165   08 Jun 2027 10:46:38.677   08 Jun 2027 10:46:43.353             4.676           618.969
       166   08 Jun 2027 10:46:43.561   08 Jun 2027 10:46:44.027             0.466             6.500
       167   09 Jun 2027 03:01:03.858   09 Jun 2027 03:01:14.279            10.421          5210.500
       168   09 Jun 2027 03:01:30.134   09 Jun 2027 03:01:40.569            10.435          5217.500
       169   09 Jun 2027 03:02:03.535   09 Jun 2027 03:02:13.190             9.655          4827.500
       170   09 Jun 2027 03:02:42.066   09 Jun 2027 03:02:48.837             6.771          3385.500
       171   09 Jun 2027 03:03:27.197   09 Jun 2027 03:03:27.197             0.000             0.000
       172   09 Jun 2027 03:04:05.862   09 Jun 2027 03:04:24.285            18.423          9211.500
       173   09 Jun 2027 03:04:44.885   09 Jun 2027 03:04:49.233             4.348          2174.000
       174   09 Jun 2027 03:05:00.825   09 Jun 2027 03:05:06.734             5.909          2954.500
       175   09 Jun 2027 03:06:02.755   09 Jun 2027 03:06:03.988             1.233           616.500
       176   09 Jun 2027 03:06:31.823   09 Jun 2027 03:06:46.981            15.158          7579.000
       177   09 Jun 2027 03:06:58.010   09 Jun 2027 03:07:14.837            16.827          8413.500
       178   09 Jun 2027 04:39:10.824   09 Jun 2027 04:39:38.930            28.106         14053.000
       179   09 Jun 2027 04:39:42.804   09 Jun 2027 04:40:42.385            59.581         29790.500
       180   09 Jun 2027 04:43:39.438   09 Jun 2027 04:43:41.199             1.761           880.500
       181   09 Jun 2027 04:44:54.368   09 Jun 2027 04:45:01.557             7.189          3594.500
       182   09 Jun 2027 06:17:11.542   09 Jun 2027 06:18:56.940           105.398         52699.000
       183   09 Jun 2027 06:19:28.500   09 Jun 2027 06:19:47.757            19.257          9628.500
       184   09 Jun 2027 07:40:52.425   09 Jun 2027 07:41:55.558            63.133         31566.500
       185   09 Jun 2027 07:42:15.256   09 Jun 2027 07:42:17.829             2.573          1286.500
       186   09 Jun 2027 07:43:00.795   09 Jun 2027 07:43:10.608             9.813          4093.563
       187   09 Jun 2027 09:17:16.211   09 Jun 2027 09:17:45.319            29.108         14132.156
       188   09 Jun 2027 10:49:28.529   09 Jun 2027 10:49:38.658            10.129          5064.500
       189   09 Jun 2027 10:53:13.271   09 Jun 2027 10:53:18.501             5.230          2615.000
       190   09 Jun 2027 10:55:09.473   09 Jun 2027 10:55:19.520            10.047          5023.500
       191   09 Jun 2027 10:57:48.333   09 Jun 2027 10:58:05.571            17.238          8619.000
       192   09 Jun 2027 10:58:17.108   09 Jun 2027 10:58:18.182             1.074           534.875
       193   09 Jun 2027 10:58:43.355   09 Jun 2027 10:58:44.650             1.295           531.375
       194   09 Jun 2027 10:59:16.036   09 Jun 2027 10:59:17.815             1.779           869.125
       195   10 Jun 2027 03:13:07.070   10 Jun 2027 03:14:03.133            56.063         28031.500
       196   10 Jun 2027 03:14:24.461   10 Jun 2027 03:15:16.556            52.095         26047.500
       197   10 Jun 2027 03:18:33.969   10 Jun 2027 03:18:40.961             6.992          3496.000
       198   10 Jun 2027 03:18:44.674   10 Jun 2027 03:18:51.664             6.990          3495.000
       199   10 Jun 2027 03:19:11.723   10 Jun 2027 03:19:41.009            29.286         14643.000
       200   10 Jun 2027 04:51:16.920   10 Jun 2027 04:52:20.411            63.491         31745.500
       201   10 Jun 2027 04:52:27.751   10 Jun 2027 04:52:28.386             0.635           317.500
       202   10 Jun 2027 04:53:43.789   10 Jun 2027 04:53:50.285             6.496          3248.000
       203   10 Jun 2027 04:54:11.573   10 Jun 2027 04:54:21.197             9.624          4812.000
       204   10 Jun 2027 04:54:59.982   10 Jun 2027 04:54:59.982             0.000             0.000
       205   10 Jun 2027 04:55:28.267   10 Jun 2027 04:55:39.477            11.210          5605.000
       206   10 Jun 2027 06:30:25.364   10 Jun 2027 06:31:55.380            90.016         45008.000
       207   10 Jun 2027 06:31:59.222   10 Jun 2027 06:31:59.222             0.000             0.000
       208   10 Jun 2027 06:32:22.871   10 Jun 2027 06:32:22.871             0.000             0.000
       209   10 Jun 2027 06:32:54.208   10 Jun 2027 06:32:58.874             4.666          2333.000
       210   10 Jun 2027 07:52:57.794   10 Jun 2027 07:53:56.759            58.965         29172.751
       211   10 Jun 2027 07:55:37.612   10 Jun 2027 07:55:46.695             9.083          3151.656
       212   10 Jun 2027 09:29:26.951   10 Jun 2027 09:29:42.171            15.220          7397.500
       213   10 Jun 2027 09:31:59.159   10 Jun 2027 09:32:12.078            12.919          3989.375
       214   10 Jun 2027 11:04:34.463   10 Jun 2027 11:04:50.962            16.499          6162.000
       215   10 Jun 2027 11:05:16.022   10 Jun 2027 11:05:20.066             4.044           679.750
       216   10 Jun 2027 11:05:48.302   10 Jun 2027 11:05:50.511             2.209           745.437
       217   10 Jun 2027 11:10:37.692   10 Jun 2027 11:10:58.181            20.489          8830.937
       218   10 Jun 2027 11:11:10.691   10 Jun 2027 11:11:11.828             1.137           297.656
       219   10 Jun 2027 11:11:16.054   10 Jun 2027 11:11:16.612             0.558            63.094
       220   11 Jun 2027 03:25:05.264   11 Jun 2027 03:26:54.605           109.341         54670.500
       221   11 Jun 2027 03:28:17.508   11 Jun 2027 03:28:17.508             0.000             0.000
       222   11 Jun 2027 03:28:22.555   11 Jun 2027 03:28:36.262            13.707          6853.500
       223   11 Jun 2027 03:28:49.991   11 Jun 2027 03:28:51.734             1.743           871.500
       224   11 Jun 2027 03:29:35.669   11 Jun 2027 03:29:35.669             0.000             0.000
       225   11 Jun 2027 03:30:11.114   11 Jun 2027 03:30:12.596             1.482           741.000
       226   11 Jun 2027 03:30:20.151   11 Jun 2027 03:30:21.672             1.521           760.500
       227   11 Jun 2027 03:31:31.505   11 Jun 2027 03:31:36.012             4.507          2253.500
       228   11 Jun 2027 05:03:21.302   11 Jun 2027 05:04:02.709            41.407         20703.500
       229   11 Jun 2027 05:04:25.146   11 Jun 2027 05:05:02.347            37.201         18600.500
       230   11 Jun 2027 05:06:09.456   11 Jun 2027 05:06:37.454            27.998         13999.000
       231   11 Jun 2027 05:09:27.860   11 Jun 2027 05:09:29.028             1.168           584.000
       232   11 Jun 2027 06:41:34.480   11 Jun 2027 06:42:10.899            36.419         18209.500
       233   11 Jun 2027 06:42:28.870   11 Jun 2027 06:43:23.556            54.686         27343.000
       234   11 Jun 2027 06:43:50.767   11 Jun 2027 06:44:08.845            18.078          9039.000
       235   11 Jun 2027 08:05:01.675   11 Jun 2027 08:05:52.197            50.522         24215.407
       236   11 Jun 2027 08:06:32.319   11 Jun 2027 08:06:32.319             0.000             0.000
       237   11 Jun 2027 08:07:43.886   11 Jun 2027 08:07:50.883             6.997          3208.875
       238   11 Jun 2027 09:42:43.659   11 Jun 2027 09:43:14.346            30.687         14689.000
       239   11 Jun 2027 09:43:32.889   11 Jun 2027 09:43:37.605             4.716           509.281
       240   11 Jun 2027 11:16:41.797   11 Jun 2027 11:16:55.231            13.434          5393.563
       241   11 Jun 2027 11:19:27.674   11 Jun 2027 11:19:27.674             0.000             0.000
       242   11 Jun 2027 11:21:13.494   11 Jun 2027 11:21:18.148             4.654          2327.000
       243   11 Jun 2027 11:23:03.386   11 Jun 2027 11:23:18.133            14.747          7373.500
       244   12 Jun 2027 03:37:08.508   12 Jun 2027 03:39:21.300           132.792         66396.000
       245   12 Jun 2027 03:40:05.200   12 Jun 2027 03:40:11.437             6.237          3118.500
       246   12 Jun 2027 03:41:59.042   12 Jun 2027 03:42:01.008             1.966           983.000
       247   12 Jun 2027 03:43:22.786   12 Jun 2027 03:43:31.621             8.835          4417.500
       248   12 Jun 2027 03:43:42.764   12 Jun 2027 03:43:51.779             9.015          4507.500
       249   12 Jun 2027 05:16:25.977   12 Jun 2027 05:17:59.825            93.848         46924.000
       250   12 Jun 2027 05:19:04.217   12 Jun 2027 05:19:10.098             5.881          2940.500
       251   12 Jun 2027 05:21:41.453   12 Jun 2027 05:21:44.702             3.249          1624.500
       252   12 Jun 2027 05:23:06.125   12 Jun 2027 05:24:05.164            59.039         29519.500
       253   12 Jun 2027 06:42:40.627   12 Jun 2027 06:42:59.558            18.931          9465.500
       254   12 Jun 2027 06:53:30.252   12 Jun 2027 06:54:27.970            57.718         28000.937
       255   12 Jun 2027 06:56:20.329   12 Jun 2027 06:56:22.110             1.781           890.500
       256   12 Jun 2027 06:56:51.656   12 Jun 2027 06:56:51.656             0.000             0.000
       257   12 Jun 2027 06:56:58.396   12 Jun 2027 06:56:58.916             0.520           260.000
       258   12 Jun 2027 08:17:28.680   12 Jun 2027 08:17:51.192            22.512         10387.500
       259   12 Jun 2027 08:18:32.742   12 Jun 2027 08:18:37.898             5.156          1224.969
       260   12 Jun 2027 09:53:15.075   12 Jun 2027 09:53:25.154            10.079          4682.375
       261   12 Jun 2027 09:53:34.721   12 Jun 2027 09:53:36.193             1.472           239.656
       262   12 Jun 2027 09:57:25.762   12 Jun 2027 09:57:29.382             3.620          1810.000
       263   12 Jun 2027 11:30:28.682   12 Jun 2027 11:30:41.287            12.605          6302.500
       264   12 Jun 2027 11:33:58.801   12 Jun 2027 11:34:28.276            29.475         14381.625
       265   12 Jun 2027 11:34:54.968   12 Jun 2027 11:34:56.749             1.781           695.812
       266   12 Jun 2027 11:35:20.842   12 Jun 2027 11:35:22.635             1.793           588.281
       267   13 Jun 2027 03:49:48.797   13 Jun 2027 03:51:51.502           122.705         61352.500
       268   13 Jun 2027 03:51:59.747   13 Jun 2027 03:51:59.747             0.000             0.000
       269   13 Jun 2027 03:54:46.388   13 Jun 2027 03:54:46.388             0.000             0.000
       270   13 Jun 2027 03:56:11.357   13 Jun 2027 03:56:11.986             0.629           314.500
       271   13 Jun 2027 05:28:47.960   13 Jun 2027 05:30:25.960            98.000         49000.000
       272   13 Jun 2027 05:32:58.803   13 Jun 2027 05:33:01.113             2.310          1155.000
       273   13 Jun 2027 05:33:43.401   13 Jun 2027 05:33:46.546             3.145          1572.500
       274   13 Jun 2027 05:34:19.157   13 Jun 2027 05:34:24.165             5.008          2504.000
       275   13 Jun 2027 05:35:29.302   13 Jun 2027 05:35:29.302             0.000             0.000
       276   13 Jun 2027 05:35:37.706   13 Jun 2027 05:36:07.031            29.325         14662.500
       277   13 Jun 2027 06:53:55.703   13 Jun 2027 06:55:16.262            80.559         40279.500
       278   13 Jun 2027 07:05:31.448   13 Jun 2027 07:06:10.562            39.114         18854.781
       279   13 Jun 2027 08:28:06.122   13 Jun 2027 08:28:35.810            29.688         13226.875
       280   13 Jun 2027 08:30:20.214   13 Jun 2027 08:30:20.214             0.000             0.000
       281   13 Jun 2027 08:31:30.358   13 Jun 2027 08:31:43.676            13.318          5170.250
       282   13 Jun 2027 08:31:51.290   13 Jun 2027 08:31:53.283             1.993           237.937
       283   13 Jun 2027 08:32:19.701   13 Jun 2027 08:32:21.473             1.772           750.656
       284   13 Jun 2027 08:32:33.085   13 Jun 2027 08:32:34.469             1.384           277.312
       285   13 Jun 2027 08:32:48.008   13 Jun 2027 08:32:48.824             0.816           171.063
       286   13 Jun 2027 10:03:23.716   13 Jun 2027 10:03:26.396             2.680          1340.000
       287   13 Jun 2027 10:03:40.768   13 Jun 2027 10:03:52.483            11.715          5093.031
       288   13 Jun 2027 10:07:44.122   13 Jun 2027 10:07:50.088             5.966          2983.000
       289   13 Jun 2027 10:08:58.246   13 Jun 2027 10:09:11.628            13.382          5870.375
       290   13 Jun 2027 11:43:02.469   13 Jun 2027 11:43:17.163            14.694          7347.000
       291   13 Jun 2027 11:44:56.823   13 Jun 2027 11:45:13.411            16.588          8294.000
       292   13 Jun 2027 11:46:24.771   13 Jun 2027 11:46:31.056             6.285          2687.719
       293   13 Jun 2027 11:47:00.285   13 Jun 2027 11:47:03.640             3.355           719.344
