uniorb/output/strategy_1/Camera/Camera_KinoSat_111208.txt

KinoSat_111208
-------------------------
    Access    *     Start Time (UTCG)     *     Stop Time (UTCG)  *   Duration (s) *   Data (Mbytes)
         1   01 Jun 2027 03:02:30.718   01 Jun 2027 03:03:09.986            39.268         19634.000
         2   01 Jun 2027 03:04:28.110   01 Jun 2027 03:04:30.947             2.837          1418.500
         3   01 Jun 2027 03:04:44.566   01 Jun 2027 03:05:07.676            23.110         11555.000
         4   01 Jun 2027 03:05:38.131   01 Jun 2027 03:05:50.583            12.452          6226.000
         5   01 Jun 2027 03:06:16.329   01 Jun 2027 03:06:21.741             5.412          2706.000
         6   01 Jun 2027 04:26:37.621   01 Jun 2027 04:27:48.975            71.354         35677.000
         7   01 Jun 2027 06:00:24.156   01 Jun 2027 06:02:36.243           132.087         66043.500
         8   01 Jun 2027 07:36:24.492   01 Jun 2027 07:38:15.024           110.532         55266.000
         9   01 Jun 2027 07:39:00.466   01 Jun 2027 07:39:24.835            24.369         12184.500
        10   01 Jun 2027 07:41:25.005   01 Jun 2027 07:41:37.861            12.856          6428.000
        11   01 Jun 2027 07:41:59.187   01 Jun 2027 07:42:00.297             1.110           555.000
        12   01 Jun 2027 07:43:32.818   01 Jun 2027 07:43:32.818             0.000             0.000
        13   01 Jun 2027 07:44:15.107   01 Jun 2027 07:44:31.976            16.869          8434.500
        14   01 Jun 2027 09:13:26.964   01 Jun 2027 09:15:27.548           120.584         60292.000
        15   01 Jun 2027 09:18:37.631   01 Jun 2027 09:18:37.631             0.000             0.000
        16   01 Jun 2027 09:18:55.109   01 Jun 2027 09:19:11.640            16.531          8265.500
        17   01 Jun 2027 09:20:38.829   01 Jun 2027 09:20:42.290             3.461          1730.500
        18   01 Jun 2027 10:50:21.716   01 Jun 2027 10:50:28.331             6.615          3307.500
        19   01 Jun 2027 10:50:39.610   01 Jun 2027 10:52:37.611           118.001         59000.500
        20   01 Jun 2027 10:52:50.193   01 Jun 2027 10:52:52.746             2.553          1276.500
        21   01 Jun 2027 10:53:11.101   01 Jun 2027 10:53:15.713             4.612          2306.000
        22   01 Jun 2027 10:55:38.661   01 Jun 2027 10:55:45.985             7.324          3662.000
        23   02 Jun 2027 03:15:07.377   02 Jun 2027 03:16:34.440            87.063         43531.500
        24   02 Jun 2027 03:17:43.680   02 Jun 2027 03:17:47.834             4.154          2077.000
        25   02 Jun 2027 03:17:56.508   02 Jun 2027 03:18:01.136             4.628          2314.000
        26   02 Jun 2027 03:18:26.722   02 Jun 2027 03:18:26.835             0.113            56.500
        27   02 Jun 2027 03:18:49.245   02 Jun 2027 03:18:57.273             8.028          4014.000
        28   02 Jun 2027 04:38:32.416   02 Jun 2027 04:39:11.655            39.239         19619.500
        29   02 Jun 2027 06:14:51.581   02 Jun 2027 06:16:43.862           112.281         56140.500
        30   02 Jun 2027 07:48:21.007   02 Jun 2027 07:49:46.017            85.010         42505.000
        31   02 Jun 2027 07:50:23.151   02 Jun 2027 07:50:45.107            21.956         10978.000
        32   02 Jun 2027 07:51:42.278   02 Jun 2027 07:51:53.864            11.586          5793.000
        33   02 Jun 2027 07:54:01.440   02 Jun 2027 07:54:17.391            15.951          7975.500
        34   02 Jun 2027 07:55:20.895   02 Jun 2027 07:55:23.264             2.369          1184.500
        35   02 Jun 2027 07:55:26.567   02 Jun 2027 07:55:30.334             3.767          1883.500
        36   02 Jun 2027 07:55:48.613   02 Jun 2027 07:55:52.683             4.070          2035.000
        37   02 Jun 2027 07:56:29.858   02 Jun 2027 07:56:37.072             7.214          3607.000
        38   02 Jun 2027 09:25:53.146   02 Jun 2027 09:27:55.173           122.027         61013.500
        39   02 Jun 2027 09:28:36.961   02 Jun 2027 09:28:43.277             6.316          3158.000
        40   02 Jun 2027 09:32:32.994   02 Jun 2027 09:32:37.248             4.254          2127.000
        41   02 Jun 2027 11:02:49.206   02 Jun 2027 11:04:45.784           116.578         58289.000
        42   02 Jun 2027 11:05:17.033   02 Jun 2027 11:05:40.679            23.646         11823.000
        43   03 Jun 2027 03:26:46.034   03 Jun 2027 03:28:08.040            82.006         41003.000
        44   03 Jun 2027 03:28:42.882   03 Jun 2027 03:29:03.320            20.438         10219.000
        45   03 Jun 2027 03:30:41.477   03 Jun 2027 03:30:47.097             5.620          2810.000
        46   03 Jun 2027 04:50:24.030   03 Jun 2027 04:51:30.409            66.379         33189.500
        47   03 Jun 2027 06:26:53.073   03 Jun 2027 06:27:47.826            54.753         27376.500
        48   03 Jun 2027 06:28:06.542   03 Jun 2027 06:28:22.338            15.796          7898.000
        49   03 Jun 2027 06:28:34.113   03 Jun 2027 06:28:36.269             2.156          1078.000
        50   03 Jun 2027 06:29:29.299   03 Jun 2027 06:29:36.234             6.935          3467.500
        51   03 Jun 2027 06:29:56.429   03 Jun 2027 06:30:07.760            11.331          5665.500
        52   03 Jun 2027 08:01:00.741   03 Jun 2027 08:02:44.732           103.991         51995.500
        53   03 Jun 2027 08:03:04.939   03 Jun 2027 08:03:13.136             8.197          4098.500
        54   03 Jun 2027 08:03:25.502   03 Jun 2027 08:03:43.961            18.459          9229.500
        55   03 Jun 2027 08:08:28.331   03 Jun 2027 08:08:32.650             4.319          2159.500
        56   03 Jun 2027 08:08:46.183   03 Jun 2027 08:08:47.920             1.737           868.500
        57   03 Jun 2027 09:37:59.239   03 Jun 2027 09:39:08.781            69.542         34771.000
        58   03 Jun 2027 09:40:29.436   03 Jun 2027 09:40:32.137             2.701          1350.500
        59   03 Jun 2027 09:40:44.469   03 Jun 2027 09:41:08.693            24.224         12112.000
        60   03 Jun 2027 09:41:28.882   03 Jun 2027 09:41:39.755            10.873          5436.500
        61   03 Jun 2027 09:41:56.039   03 Jun 2027 09:42:21.794            25.755         12877.500
        62   03 Jun 2027 11:15:37.995   03 Jun 2027 11:16:31.208            53.213         25539.532
        63   03 Jun 2027 11:16:48.455   03 Jun 2027 11:16:57.474             9.019           432.437
        64   03 Jun 2027 11:17:02.561   03 Jun 2027 11:17:02.940             0.379            92.844
        65   03 Jun 2027 11:17:07.853   03 Jun 2027 11:17:07.853             0.000             0.000
        66   03 Jun 2027 11:17:12.274   03 Jun 2027 11:17:22.151             9.877           291.687
        67   03 Jun 2027 11:17:41.831   03 Jun 2027 11:17:46.034             4.203           615.000
        68   03 Jun 2027 11:18:34.176   03 Jun 2027 11:18:38.204             4.028          1504.438
        69   03 Jun 2027 11:19:14.496   03 Jun 2027 11:19:18.904             4.408          1134.125
        70   04 Jun 2027 03:39:13.984   04 Jun 2027 03:39:36.421            22.437         11218.500
        71   04 Jun 2027 03:39:59.175   04 Jun 2027 03:41:11.078            71.903         35951.500
        72   04 Jun 2027 05:02:32.851   04 Jun 2027 05:03:15.820            42.969         21484.500
        73   04 Jun 2027 06:39:03.307   04 Jun 2027 06:41:07.690           124.383         62191.500
        74   04 Jun 2027 08:14:13.433   04 Jun 2027 08:15:14.581            61.148         29837.219
        75   04 Jun 2027 08:15:51.972   04 Jun 2027 08:15:54.459             2.487          1080.656
        76   04 Jun 2027 08:16:10.889   04 Jun 2027 08:16:13.119             2.230           513.438
        77   04 Jun 2027 08:16:15.482   04 Jun 2027 08:16:15.634             0.152            65.844
        78   04 Jun 2027 08:17:02.050   04 Jun 2027 08:17:07.135             5.085          1326.469
        79   04 Jun 2027 08:18:15.460   04 Jun 2027 08:18:25.140             9.680          2071.406
        80   04 Jun 2027 08:18:45.634   04 Jun 2027 08:18:51.893             6.259            75.438
        81   04 Jun 2027 08:19:53.824   04 Jun 2027 08:19:57.379             3.555          1382.500
        82   04 Jun 2027 08:20:27.158   04 Jun 2027 08:20:29.512             2.354           659.063
        83   04 Jun 2027 08:20:41.116   04 Jun 2027 08:20:44.491             3.375           276.000
        84   04 Jun 2027 09:50:35.461   04 Jun 2027 09:50:55.882            20.421          9180.375
        85   04 Jun 2027 09:52:15.594   04 Jun 2027 09:52:18.184             2.590          1295.000
        86   04 Jun 2027 09:52:34.129   04 Jun 2027 09:52:37.267             3.138          1461.375
        87   04 Jun 2027 09:52:54.211   04 Jun 2027 09:52:55.557             1.346           329.969
        88   04 Jun 2027 09:53:13.543   04 Jun 2027 09:53:15.761             2.218           562.062
        89   04 Jun 2027 09:54:31.008   04 Jun 2027 09:54:37.893             6.885          2351.469
        90   04 Jun 2027 09:55:09.046   04 Jun 2027 09:55:12.188             3.142           676.906
        91   04 Jun 2027 09:55:59.784   04 Jun 2027 09:56:06.721             6.937          1442.375
        92   04 Jun 2027 09:56:21.227   04 Jun 2027 09:56:22.325             1.098           327.844
        93   04 Jun 2027 09:56:40.497   04 Jun 2027 09:56:43.233             2.736           448.125
        94   04 Jun 2027 11:27:53.225   04 Jun 2027 11:28:12.693            19.468          6916.156
        95   04 Jun 2027 11:28:48.718   04 Jun 2027 11:28:53.093             4.375          1069.344
        96   04 Jun 2027 11:29:03.178   04 Jun 2027 11:29:04.273             1.095           204.937
        97   04 Jun 2027 11:29:31.182   04 Jun 2027 11:29:34.235             3.053           804.438
        98   04 Jun 2027 11:29:37.939   04 Jun 2027 11:29:39.189             1.250            89.844
        99   04 Jun 2027 11:30:39.258   04 Jun 2027 11:30:44.261             5.003          1768.656
       100   04 Jun 2027 11:31:00.922   04 Jun 2027 11:31:05.834             4.912           360.375
       101   04 Jun 2027 11:31:47.245   04 Jun 2027 11:31:58.099            10.854          1265.281
       102   05 Jun 2027 03:51:07.517   05 Jun 2027 03:51:44.431            36.914         18457.000
       103   05 Jun 2027 03:52:13.430   05 Jun 2027 03:53:32.898            79.468         39734.000
       104   05 Jun 2027 03:53:52.973   05 Jun 2027 03:53:53.232             0.259           129.500
       105   05 Jun 2027 03:54:30.622   05 Jun 2027 03:54:40.417             9.795          4897.500
       106   05 Jun 2027 05:15:12.788   05 Jun 2027 05:16:13.352            60.564         30282.000
       107   05 Jun 2027 06:50:58.435   05 Jun 2027 06:52:38.351            99.916         49958.000
       108   05 Jun 2027 06:53:39.734   05 Jun 2027 06:54:02.680            22.946         11473.000
       109   05 Jun 2027 08:25:55.756   05 Jun 2027 08:26:21.712            25.956         12978.000
       110   05 Jun 2027 08:26:35.153   05 Jun 2027 08:26:37.882             2.729           844.187
       111   05 Jun 2027 08:27:48.532   05 Jun 2027 08:27:53.252             4.720          1557.375
       112   05 Jun 2027 08:28:31.350   05 Jun 2027 08:28:34.127             2.777          1190.562
       113   05 Jun 2027 08:29:09.207   05 Jun 2027 08:29:11.132             1.925           934.656
       114   05 Jun 2027 08:29:36.268   05 Jun 2027 08:29:40.321             4.053           642.469
       115   05 Jun 2027 08:30:18.193   05 Jun 2027 08:30:25.421             7.228           929.812
       116   05 Jun 2027 08:30:27.810   05 Jun 2027 08:30:27.886             0.076            38.000
       117   05 Jun 2027 08:30:45.692   05 Jun 2027 08:30:47.551             1.859           593.094
       118   05 Jun 2027 08:31:21.267   05 Jun 2027 08:31:24.214             2.947           787.500
       119   05 Jun 2027 08:31:32.136   05 Jun 2027 08:31:32.464             0.328           164.000
       120   05 Jun 2027 08:31:56.453   05 Jun 2027 08:31:59.290             2.837           833.219
       121   05 Jun 2027 08:32:54.158   05 Jun 2027 08:32:57.516             3.358          1679.000
       122   05 Jun 2027 10:02:08.243   05 Jun 2027 10:02:27.543            19.300          8220.719
       123   05 Jun 2027 10:03:33.726   05 Jun 2027 10:03:35.969             2.243           410.344
       124   05 Jun 2027 10:04:14.277   05 Jun 2027 10:04:17.633             3.356           520.469
       125   05 Jun 2027 10:04:25.468   05 Jun 2027 10:04:30.944             5.476           244.844
       126   05 Jun 2027 10:04:46.539   05 Jun 2027 10:04:48.210             1.671           362.625
       127   05 Jun 2027 10:06:40.102   05 Jun 2027 10:06:48.311             8.209          3266.531
       128   05 Jun 2027 10:07:05.196   05 Jun 2027 10:07:12.677             7.481           527.656
       129   05 Jun 2027 10:07:30.746   05 Jun 2027 10:07:32.725             1.979           532.844
       130   05 Jun 2027 10:07:48.345   05 Jun 2027 10:07:49.450             1.105           488.125
       131   05 Jun 2027 10:08:01.531   05 Jun 2027 10:08:02.130             0.599           157.188
       132   05 Jun 2027 11:40:09.447   05 Jun 2027 11:40:24.616            15.169          6831.187
       133   05 Jun 2027 11:41:20.229   05 Jun 2027 11:41:25.150             4.921          1601.687
       134   05 Jun 2027 11:42:01.650   05 Jun 2027 11:42:02.375             0.725           362.500
       135   05 Jun 2027 11:42:10.463   05 Jun 2027 11:42:11.805             1.342           671.000
       136   05 Jun 2027 11:42:36.583   05 Jun 2027 11:42:39.206             2.623           981.844
       137   05 Jun 2027 11:43:13.293   05 Jun 2027 11:43:17.545             4.252          1065.219
       138   05 Jun 2027 11:44:12.709   05 Jun 2027 11:44:16.305             3.596          1609.188
       139   06 Jun 2027 03:51:59.425   06 Jun 2027 03:52:39.410            39.985         19992.500
       140   06 Jun 2027 04:03:03.347   06 Jun 2027 04:04:07.664            64.317         32158.500
       141   06 Jun 2027 04:04:16.202   06 Jun 2027 04:04:37.069            20.867         10433.500
       142   06 Jun 2027 04:05:10.942   06 Jun 2027 04:05:21.827            10.885          5442.500
       143   06 Jun 2027 05:26:02.181   06 Jun 2027 05:27:15.706            73.525         36762.500
       144   06 Jun 2027 05:27:27.786   06 Jun 2027 05:27:42.599            14.813          7406.500
       145   06 Jun 2027 05:28:19.631   06 Jun 2027 05:28:19.631             0.000             0.000
       146   06 Jun 2027 05:29:31.044   06 Jun 2027 05:29:31.044             0.000             0.000
       147   06 Jun 2027 07:01:34.503   06 Jun 2027 07:01:41.484             6.981          3490.500
       148   06 Jun 2027 07:02:44.278   06 Jun 2027 07:03:21.166            36.888         18444.000
       149   06 Jun 2027 07:04:38.034   06 Jun 2027 07:05:34.692            56.658         28329.000
       150   06 Jun 2027 07:05:41.297   06 Jun 2027 07:05:43.774             2.477          1238.500
       151   06 Jun 2027 07:06:36.654   06 Jun 2027 07:06:55.255            18.601          7288.937
       152   06 Jun 2027 08:37:29.474   06 Jun 2027 08:37:49.053            19.579          6786.219
       153   06 Jun 2027 08:39:06.064   06 Jun 2027 08:39:11.057             4.993          2255.688
       154   06 Jun 2027 08:39:25.086   06 Jun 2027 08:39:26.950             1.864            87.969
       155   06 Jun 2027 08:40:46.249   06 Jun 2027 08:40:53.767             7.518          1862.219
       156   06 Jun 2027 08:41:32.973   06 Jun 2027 08:41:38.358             5.385          1024.375
       157   06 Jun 2027 08:42:23.489   06 Jun 2027 08:42:28.458             4.969          1030.469
       158   06 Jun 2027 08:42:41.692   06 Jun 2027 08:42:43.762             2.070           201.406
       159   06 Jun 2027 08:43:14.664   06 Jun 2027 08:43:21.002             6.338           519.219
       160   06 Jun 2027 08:43:36.181   06 Jun 2027 08:43:36.181             0.000             0.000
       161   06 Jun 2027 08:43:55.034   06 Jun 2027 08:43:56.733             1.699           849.500
       162   06 Jun 2027 08:44:10.300   06 Jun 2027 08:44:10.780             0.480           240.000
       163   06 Jun 2027 08:44:57.802   06 Jun 2027 08:45:03.280             5.478          1867.406
       164   06 Jun 2027 10:14:29.874   06 Jun 2027 10:14:50.863            20.989          9072.844
       165   06 Jun 2027 10:16:34.105   06 Jun 2027 10:16:36.311             2.206           947.031
       166   06 Jun 2027 10:17:53.901   06 Jun 2027 10:17:57.152             3.251          1276.344
       167   06 Jun 2027 10:18:49.171   06 Jun 2027 10:18:53.318             4.147          1625.594
       168   06 Jun 2027 10:19:02.041   06 Jun 2027 10:19:02.459             0.418           208.563
       169   06 Jun 2027 10:20:13.433   06 Jun 2027 10:20:20.314             6.881          2217.938
       170   06 Jun 2027 11:52:31.112   06 Jun 2027 11:52:44.654            13.542          6491.094
       171   06 Jun 2027 11:52:49.833   06 Jun 2027 11:52:51.233             1.400           161.844
       172   06 Jun 2027 11:53:29.918   06 Jun 2027 11:53:30.734             0.816           408.000
       173   06 Jun 2027 11:53:32.956   06 Jun 2027 11:53:32.956             0.000             0.000
       174   06 Jun 2027 11:54:00.835   06 Jun 2027 11:54:04.266             3.431          1715.500
       175   06 Jun 2027 11:54:08.195   06 Jun 2027 11:54:10.819             2.624           148.844
       176   06 Jun 2027 11:54:37.235   06 Jun 2027 11:54:39.697             2.462           825.500
       177   06 Jun 2027 11:54:46.285   06 Jun 2027 11:54:48.596             2.311           198.500
       178   06 Jun 2027 11:55:53.228   06 Jun 2027 11:55:54.822             1.594           797.000
       179   06 Jun 2027 11:56:08.270   06 Jun 2027 11:56:11.785             3.515          1553.781
       180   06 Jun 2027 11:56:18.893   06 Jun 2027 11:56:20.103             1.210           222.125
       181   07 Jun 2027 04:03:22.625   07 Jun 2027 04:03:54.546            31.921         15960.500
       182   07 Jun 2027 04:04:41.102   07 Jun 2027 04:04:47.615             6.513          3256.500
       183   07 Jun 2027 04:04:51.515   07 Jun 2027 04:04:52.702             1.187           593.500
       184   07 Jun 2027 04:15:04.646   07 Jun 2027 04:15:55.807            51.161         25580.500
       185   07 Jun 2027 05:37:18.355   07 Jun 2027 05:38:32.071            73.716         36858.000
       186   07 Jun 2027 05:39:19.188   07 Jun 2027 05:39:45.731            26.543         13271.500
       187   07 Jun 2027 05:40:10.270   07 Jun 2027 05:40:10.270             0.000             0.000
       188   07 Jun 2027 05:40:16.398   07 Jun 2027 05:40:16.789             0.391           195.500
       189   07 Jun 2027 05:41:54.816   07 Jun 2027 05:41:54.816             0.000             0.000
       190   07 Jun 2027 07:12:26.117   07 Jun 2027 07:13:59.693            93.576         46788.000
       191   07 Jun 2027 07:14:27.670   07 Jun 2027 07:15:08.287            40.617         20308.500
       192   07 Jun 2027 07:15:21.723   07 Jun 2027 07:15:24.003             2.280          1140.000
       193   07 Jun 2027 07:18:16.386   07 Jun 2027 07:18:16.386             0.000             0.000
       194   07 Jun 2027 07:18:35.642   07 Jun 2027 07:18:42.282             6.640          3320.000
       195   07 Jun 2027 07:19:00.066   07 Jun 2027 07:19:07.472             7.406          3421.531
       196   07 Jun 2027 07:20:23.515   07 Jun 2027 07:20:27.217             3.702          1851.000
       197   07 Jun 2027 08:49:38.058   07 Jun 2027 08:49:53.255            15.197          7588.094
       198   07 Jun 2027 08:50:32.773   07 Jun 2027 08:50:32.773             0.000             0.000
       199   07 Jun 2027 08:51:46.557   07 Jun 2027 08:51:53.944             7.387          3320.406
       200   07 Jun 2027 08:52:03.716   07 Jun 2027 08:52:07.947             4.231           127.469
       201   07 Jun 2027 08:52:28.316   07 Jun 2027 08:52:28.963             0.647           231.719
       202   07 Jun 2027 08:53:31.787   07 Jun 2027 08:53:36.785             4.998          1920.781
       203   07 Jun 2027 08:54:04.683   07 Jun 2027 08:54:10.347             5.664           534.438
       204   07 Jun 2027 08:54:14.249   07 Jun 2027 08:54:18.995             4.746           121.937
       205   07 Jun 2027 08:54:49.458   07 Jun 2027 08:54:50.841             1.383           684.094
       206   07 Jun 2027 08:54:51.674   07 Jun 2027 08:54:52.024             0.350            26.031
       207   07 Jun 2027 08:56:00.031   07 Jun 2027 08:56:05.994             5.963          1633.875
       208   07 Jun 2027 08:56:19.042   07 Jun 2027 08:56:19.734             0.692           165.406
       209   07 Jun 2027 08:57:03.351   07 Jun 2027 08:57:03.782             0.431           215.500
       210   07 Jun 2027 10:26:35.459   07 Jun 2027 10:26:52.278            16.819          7803.219
       211   07 Jun 2027 10:27:31.339   07 Jun 2027 10:27:33.811             2.472          1171.125
       212   07 Jun 2027 10:28:06.809   07 Jun 2027 10:28:07.826             1.017           352.313
       213   07 Jun 2027 10:28:23.291   07 Jun 2027 10:28:24.904             1.613           483.281
       214   07 Jun 2027 10:29:20.446   07 Jun 2027 10:29:23.773             3.327           940.844
       215   07 Jun 2027 10:30:27.074   07 Jun 2027 10:30:32.945             5.871          1801.438
       216   07 Jun 2027 10:30:54.022   07 Jun 2027 10:30:57.356             3.334           641.219
       217   07 Jun 2027 10:31:35.009   07 Jun 2027 10:31:37.707             2.698          1143.781
       218   07 Jun 2027 10:32:20.726   07 Jun 2027 10:32:24.443             3.717          1091.750
       219   08 Jun 2027 04:14:49.656   08 Jun 2027 04:15:47.625            57.969         28984.500
       220   08 Jun 2027 04:16:56.284   08 Jun 2027 04:16:57.294             1.010           505.000
       221   08 Jun 2027 04:27:01.583   08 Jun 2027 04:27:41.114            39.531         19765.500
       222   08 Jun 2027 05:49:03.474   08 Jun 2027 05:50:23.781            80.307         40153.500
       223   08 Jun 2027 05:51:06.845   08 Jun 2027 05:51:23.171            16.326          8163.000
       224   08 Jun 2027 05:51:40.718   08 Jun 2027 05:51:40.718             0.000             0.000
       225   08 Jun 2027 05:52:22.737   08 Jun 2027 05:52:45.902            23.165         11582.500
       226   08 Jun 2027 07:23:55.769   08 Jun 2027 07:25:41.648           105.879         52939.500
       227   08 Jun 2027 07:26:31.709   08 Jun 2027 07:26:32.978             1.269           634.500
       228   08 Jun 2027 07:27:20.926   08 Jun 2027 07:27:37.799            16.873          7749.906
       229   08 Jun 2027 07:28:30.807   08 Jun 2027 07:28:33.592             2.785          1392.500
       230   08 Jun 2027 07:29:49.578   08 Jun 2027 07:29:52.513             2.935          1467.500
       231   08 Jun 2027 07:30:35.673   08 Jun 2027 07:30:35.673             0.000             0.000
       232   08 Jun 2027 07:30:45.291   08 Jun 2027 07:30:50.313             5.022          2511.000
       233   08 Jun 2027 09:01:39.827   08 Jun 2027 09:02:01.797            21.970         10046.687
       234   08 Jun 2027 09:04:32.161   08 Jun 2027 09:04:42.836            10.675          4675.062
       235   08 Jun 2027 09:05:41.425   08 Jun 2027 09:05:41.425             0.000             0.000
       236   08 Jun 2027 09:05:53.702   08 Jun 2027 09:05:58.277             4.575          2214.563
       237   08 Jun 2027 09:06:21.655   08 Jun 2027 09:06:25.701             4.046           730.563
       238   08 Jun 2027 09:07:18.669   08 Jun 2027 09:07:21.397             2.728          1219.719
       239   08 Jun 2027 09:07:41.724   08 Jun 2027 09:07:41.724             0.000             0.000
       240   08 Jun 2027 09:07:43.917   08 Jun 2027 09:07:45.448             1.531           703.750
       241   08 Jun 2027 09:08:39.296   08 Jun 2027 09:08:44.560             5.264          1542.719
       242   08 Jun 2027 09:08:58.680   08 Jun 2027 09:08:58.680             0.000             0.000
       243   08 Jun 2027 10:38:27.846   08 Jun 2027 10:38:43.278            15.432          7716.000
       244   08 Jun 2027 10:38:49.972   08 Jun 2027 10:38:56.825             6.853          1577.000
       245   08 Jun 2027 10:38:57.727   08 Jun 2027 10:39:03.094             5.367            28.187
       246   08 Jun 2027 10:39:35.529   08 Jun 2027 10:39:35.964             0.435            38.531
       247   08 Jun 2027 10:39:50.821   08 Jun 2027 10:40:01.699            10.878           207.937
       248   08 Jun 2027 10:40:26.847   08 Jun 2027 10:40:29.852             3.005           785.875
       249   08 Jun 2027 10:40:41.628   08 Jun 2027 10:40:43.513             1.885           335.688
       250   08 Jun 2027 10:40:51.349   08 Jun 2027 10:40:53.220             1.871            83.344
       251   08 Jun 2027 10:41:22.335   08 Jun 2027 10:41:25.130             2.795           346.562
       252   08 Jun 2027 10:41:38.503   08 Jun 2027 10:41:38.999             0.496            54.625
       253   08 Jun 2027 10:42:05.875   08 Jun 2027 10:42:08.356             2.481           737.781
       254   08 Jun 2027 10:42:34.852   08 Jun 2027 10:42:36.332             1.480           740.000
       255   08 Jun 2027 10:42:40.391   08 Jun 2027 10:42:40.803             0.412           206.000
       256   08 Jun 2027 10:43:00.970   08 Jun 2027 10:43:09.698             8.728           639.062
       257   08 Jun 2027 10:43:46.512   08 Jun 2027 10:43:49.768             3.256           971.688
       258   08 Jun 2027 10:44:15.467   08 Jun 2027 10:44:18.555             3.088           652.344
       259   08 Jun 2027 10:44:36.450   08 Jun 2027 10:44:41.261             4.811           559.219
       260   08 Jun 2027 10:44:43.135   08 Jun 2027 10:44:45.946             2.811            58.562
       261   09 Jun 2027 03:02:46.807   09 Jun 2027 03:03:27.197            40.390         20195.000
       262   09 Jun 2027 03:04:05.862   09 Jun 2027 03:04:06.972             1.110           555.000
       263   09 Jun 2027 03:04:45.161   09 Jun 2027 03:05:04.223            19.062          9531.000
       264   09 Jun 2027 03:06:07.878   09 Jun 2027 03:06:31.109            23.231         11615.500
       265   09 Jun 2027 03:07:25.603   09 Jun 2027 03:08:03.717            38.114         19057.000
       266   09 Jun 2027 04:26:53.200   09 Jun 2027 04:27:36.312            43.112         21556.000
       267   09 Jun 2027 06:02:50.451   09 Jun 2027 06:04:16.992            86.541         43270.500
       268   09 Jun 2027 06:04:31.766   09 Jun 2027 06:04:41.672             9.906          4953.000
       269   09 Jun 2027 07:36:40.090   09 Jun 2027 07:38:19.025            98.935         49467.500
       270   09 Jun 2027 07:38:45.906   09 Jun 2027 07:38:49.110             3.204          1602.000
       271   09 Jun 2027 07:39:34.020   09 Jun 2027 07:39:38.388             4.368          2184.000
       272   09 Jun 2027 07:41:10.613   09 Jun 2027 07:41:18.629             8.016          3359.655
       273   09 Jun 2027 07:43:36.867   09 Jun 2027 07:43:36.867             0.000             0.000
       274   09 Jun 2027 07:43:49.244   09 Jun 2027 07:43:59.488            10.244          4706.719
       275   09 Jun 2027 07:44:11.711   09 Jun 2027 07:44:12.964             1.253           268.781
       276   09 Jun 2027 07:44:32.342   09 Jun 2027 07:44:33.041             0.699           349.500
       277   09 Jun 2027 09:13:43.127   09 Jun 2027 09:14:04.525            21.398          8932.094
       278   09 Jun 2027 09:15:44.279   09 Jun 2027 09:15:49.192             4.913          2441.219
       279   09 Jun 2027 09:16:48.397   09 Jun 2027 09:16:52.746             4.349          1820.937
       280   09 Jun 2027 09:17:37.264   09 Jun 2027 09:17:45.319             8.055           603.313
       281   09 Jun 2027 09:17:54.473   09 Jun 2027 09:17:54.709             0.236           118.000
       282   09 Jun 2027 09:18:08.623   09 Jun 2027 09:18:12.135             3.512           491.750
       283   09 Jun 2027 09:18:55.933   09 Jun 2027 09:19:02.838             6.905           785.938
       284   09 Jun 2027 09:19:14.645   09 Jun 2027 09:19:16.908             2.263           368.969
       285   09 Jun 2027 09:19:35.178   09 Jun 2027 09:19:36.799             1.621           570.937
       286   09 Jun 2027 09:20:27.721   09 Jun 2027 09:20:31.434             3.713          1591.312
       287   09 Jun 2027 10:50:37.729   09 Jun 2027 10:50:49.376            11.647          5823.500
       288   09 Jun 2027 10:51:11.050   09 Jun 2027 10:51:16.292             5.242          2536.500
       289   09 Jun 2027 10:51:38.421   09 Jun 2027 10:51:41.156             2.735           311.594
       290   09 Jun 2027 10:52:28.866   09 Jun 2027 10:52:31.511             2.645          1146.688
       291   09 Jun 2027 10:54:00.719   09 Jun 2027 10:54:06.213             5.494          2157.250
       292   09 Jun 2027 10:54:36.268   09 Jun 2027 10:54:39.480             3.212           898.687
       293   09 Jun 2027 10:54:57.449   09 Jun 2027 10:54:59.599             2.150           539.812
       294   09 Jun 2027 10:55:55.402   09 Jun 2027 10:55:58.142             2.740          1370.000
       295   09 Jun 2027 10:56:01.054   09 Jun 2027 10:56:04.007             2.953           446.719
       296   09 Jun 2027 10:56:39.277   09 Jun 2027 10:56:47.433             8.156          1102.187
       297   10 Jun 2027 03:15:23.333   10 Jun 2027 03:17:00.129            96.796         48398.000
       298   10 Jun 2027 03:17:46.949   10 Jun 2027 03:18:15.715            28.766         14383.000
       299   10 Jun 2027 04:38:47.865   10 Jun 2027 04:39:03.968            16.103          8051.500
       300   10 Jun 2027 04:40:22.298   10 Jun 2027 04:40:36.901            14.603          7301.500
       301   10 Jun 2027 04:41:03.908   10 Jun 2027 04:41:04.310             0.402           201.000
       302   10 Jun 2027 06:15:07.847   10 Jun 2027 06:16:30.700            82.853         41426.500
       303   10 Jun 2027 06:16:53.946   10 Jun 2027 06:17:11.125            17.179          8589.500
       304   10 Jun 2027 07:48:38.155   10 Jun 2027 07:50:04.005            85.850         42536.937
       305   10 Jun 2027 07:50:39.682   10 Jun 2027 07:50:42.429             2.747          1114.906
       306   10 Jun 2027 07:51:14.017   10 Jun 2027 07:51:14.576             0.559           279.500
       307   10 Jun 2027 07:52:42.504   10 Jun 2027 07:52:48.998             6.494          3247.000
       308   10 Jun 2027 07:53:07.824   10 Jun 2027 07:53:08.616             0.792           396.000
       309   10 Jun 2027 07:55:46.695   10 Jun 2027 07:55:58.345            11.650          5150.969
       310   10 Jun 2027 09:26:08.955   10 Jun 2027 09:26:25.713            16.758          7534.125
       311   10 Jun 2027 09:26:50.135   10 Jun 2027 09:26:53.608             3.473           388.719
       312   10 Jun 2027 09:27:39.053   10 Jun 2027 09:27:40.177             1.124           133.250
       313   10 Jun 2027 09:28:20.722   10 Jun 2027 09:28:27.357             6.635           707.781
       314   10 Jun 2027 09:28:52.536   10 Jun 2027 09:28:55.219             2.683           718.094
       315   10 Jun 2027 09:28:58.844   10 Jun 2027 09:29:01.136             2.292            26.000
       316   10 Jun 2027 09:29:21.765   10 Jun 2027 09:29:24.078             2.313           146.000
       317   10 Jun 2027 09:29:48.687   10 Jun 2027 09:29:50.362             1.675           582.500
       318   10 Jun 2027 09:31:04.628   10 Jun 2027 09:31:07.146             2.518          1172.625
       319   10 Jun 2027 09:31:14.304   10 Jun 2027 09:31:15.091             0.787            86.031
       320   10 Jun 2027 09:32:17.508   10 Jun 2027 09:32:22.856             5.348          1822.156
       321   10 Jun 2027 09:32:28.998   10 Jun 2027 09:32:31.727             2.729           191.937
       322   10 Jun 2027 11:03:05.286   10 Jun 2027 11:03:26.755            21.469          7759.406
       323   10 Jun 2027 11:04:25.414   10 Jun 2027 11:04:29.244             3.830          1561.656
       324   10 Jun 2027 11:04:54.270   10 Jun 2027 11:04:55.260             0.990           495.000
       325   10 Jun 2027 11:05:23.635   10 Jun 2027 11:05:26.523             2.888          1121.125
       326   10 Jun 2027 11:05:44.624   10 Jun 2027 11:05:45.438             0.814           400.875
       327   10 Jun 2027 11:07:01.352   10 Jun 2027 11:07:05.443             4.091          1630.563
       328   10 Jun 2027 11:08:22.599   10 Jun 2027 11:08:29.553             6.954          2353.219
       329   10 Jun 2027 11:08:52.396   10 Jun 2027 11:08:52.536             0.140            70.000
       330   11 Jun 2027 03:27:01.780   11 Jun 2027 03:28:49.991           108.211         54105.500
       331   11 Jun 2027 03:29:34.001   11 Jun 2027 03:29:35.669             1.668           834.000
       332   11 Jun 2027 03:30:11.114   11 Jun 2027 03:30:11.114             0.000             0.000
       333   11 Jun 2027 04:50:38.547   11 Jun 2027 04:51:09.214            30.667         15333.500
       334   11 Jun 2027 04:52:31.164   11 Jun 2027 04:52:50.460            19.296          9648.000
       335   11 Jun 2027 06:27:09.929   11 Jun 2027 06:28:58.473           108.544         54272.000
       336   11 Jun 2027 06:29:17.456   11 Jun 2027 06:29:17.456             0.000             0.000
       337   11 Jun 2027 06:29:53.972   11 Jun 2027 06:29:55.766             1.794           897.000
       338   11 Jun 2027 08:01:27.897   11 Jun 2027 08:02:38.039            70.142         34411.937
       339   11 Jun 2027 08:02:49.153   11 Jun 2027 08:02:50.849             1.696           294.156
       340   11 Jun 2027 08:03:03.036   11 Jun 2027 08:03:03.591             0.555           185.563
       341   11 Jun 2027 08:04:27.473   11 Jun 2027 08:04:33.892             6.419          2476.187
       342   11 Jun 2027 08:04:53.456   11 Jun 2027 08:04:54.871             1.415           611.375
       343   11 Jun 2027 08:05:26.839   11 Jun 2027 08:05:28.421             1.582           316.094
       344   11 Jun 2027 08:06:01.202   11 Jun 2027 08:06:05.442             4.240          1024.406
       345   11 Jun 2027 08:06:46.417   11 Jun 2027 08:06:52.800             6.383          1280.469
       346   11 Jun 2027 08:07:22.846   11 Jun 2027 08:07:23.332             0.486           145.312
       347   11 Jun 2027 08:07:46.488   11 Jun 2027 08:07:48.191             1.703           655.250
       348   11 Jun 2027 08:08:06.665   11 Jun 2027 08:08:09.486             2.821           493.187
       349   11 Jun 2027 09:38:15.712   11 Jun 2027 09:38:30.924            15.212          7349.687
       350   11 Jun 2027 09:39:17.726   11 Jun 2027 09:39:21.278             3.552          1013.938
       351   11 Jun 2027 09:39:24.176   11 Jun 2027 09:39:29.964             5.788            13.125
       352   11 Jun 2027 09:39:33.514   11 Jun 2027 09:39:38.224             4.710           104.813
       353   11 Jun 2027 09:40:21.829   11 Jun 2027 09:40:26.776             4.947            55.750
       354   11 Jun 2027 09:40:48.188   11 Jun 2027 09:40:51.581             3.393            10.000
       355   11 Jun 2027 09:41:55.612   11 Jun 2027 09:41:59.327             3.715          1734.625
       356   11 Jun 2027 09:43:03.317   11 Jun 2027 09:43:06.424             3.107          1553.500
       357   11 Jun 2027 09:43:29.810   11 Jun 2027 09:43:32.037             2.227           832.844
       358   11 Jun 2027 09:44:18.902   11 Jun 2027 09:44:20.323             1.421           573.750
       359   11 Jun 2027 09:44:24.474   11 Jun 2027 09:44:26.740             2.266           129.719
       360   11 Jun 2027 11:15:56.599   11 Jun 2027 11:16:12.412            15.813          7151.094
       361   11 Jun 2027 11:16:28.701   11 Jun 2027 11:16:28.701             0.000             0.000
       362   11 Jun 2027 11:16:44.307   11 Jun 2027 11:16:46.388             2.081           768.000
       363   11 Jun 2027 11:17:05.679   11 Jun 2027 11:17:14.247             8.568           490.344
       364   11 Jun 2027 11:17:24.085   11 Jun 2027 11:17:27.175             3.090           195.656
       365   11 Jun 2027 11:17:45.435   11 Jun 2027 11:17:46.949             1.514           570.625
       366   11 Jun 2027 11:18:34.101   11 Jun 2027 11:18:40.542             6.441          1406.156
       367   11 Jun 2027 11:18:50.266   11 Jun 2027 11:18:54.252             3.986           303.875
       368   11 Jun 2027 11:19:30.524   11 Jun 2027 11:19:33.898             3.374          1133.500
       369   12 Jun 2027 03:39:29.194   12 Jun 2027 03:39:52.832            23.638         11819.000
       370   12 Jun 2027 03:40:14.990   12 Jun 2027 03:41:59.042           104.052         52026.000
       371   12 Jun 2027 05:02:48.437   12 Jun 2027 05:03:53.769            65.332         32666.000
       372   12 Jun 2027 06:39:23.117   12 Jun 2027 06:41:15.102           111.985         55992.500
       373   12 Jun 2027 06:41:54.797   12 Jun 2027 06:42:04.475             9.678          4839.000
       374   12 Jun 2027 06:42:52.049   12 Jun 2027 06:42:52.688             0.639           319.500
       375   12 Jun 2027 08:14:29.256   12 Jun 2027 08:14:49.633            20.377          9645.906
       376   12 Jun 2027 08:15:25.724   12 Jun 2027 08:15:28.212             2.488          1116.688
       377   12 Jun 2027 08:16:06.778   12 Jun 2027 08:16:09.593             2.815          1071.406
       378   12 Jun 2027 08:16:38.246   12 Jun 2027 08:16:40.235             1.989           817.188
       379   12 Jun 2027 08:17:53.543   12 Jun 2027 08:17:58.163             4.620          2093.437
       380   12 Jun 2027 08:18:32.742   12 Jun 2027 08:18:37.898             5.156           906.094
       381   12 Jun 2027 08:19:23.800   12 Jun 2027 08:19:25.972             2.172           775.094
       382   12 Jun 2027 08:20:08.906   12 Jun 2027 08:20:11.530             2.624          1312.000
       383   12 Jun 2027 08:20:36.214   12 Jun 2027 08:20:36.214             0.000             0.000
       384   12 Jun 2027 09:50:51.756   12 Jun 2027 09:51:06.522            14.766          7045.000
       385   12 Jun 2027 09:52:33.240   12 Jun 2027 09:52:46.193            12.953          2340.719
       386   12 Jun 2027 09:53:02.180   12 Jun 2027 09:53:03.511             1.331           498.188
       387   12 Jun 2027 09:53:27.052   12 Jun 2027 09:53:28.270             1.218           530.844
       388   12 Jun 2027 09:54:04.872   12 Jun 2027 09:54:07.427             2.555          1143.812
       389   12 Jun 2027 09:54:41.346   12 Jun 2027 09:54:45.660             4.314           829.750
       390   12 Jun 2027 09:55:16.759   12 Jun 2027 09:55:16.760             0.001             0.500
       391   12 Jun 2027 09:55:28.325   12 Jun 2027 09:55:30.938             2.613          1283.469
       392   12 Jun 2027 09:56:30.196   12 Jun 2027 09:56:33.508             3.312          1003.344
       393   12 Jun 2027 09:56:40.304   12 Jun 2027 09:56:41.111             0.807           168.781
       394   12 Jun 2027 11:28:07.175   12 Jun 2027 11:28:26.734            19.559          6279.844
       395   12 Jun 2027 11:28:33.987   12 Jun 2027 11:28:33.987             0.000             0.000
       396   12 Jun 2027 11:28:50.679   12 Jun 2027 11:28:56.452             5.773           692.531
       397   12 Jun 2027 11:29:38.758   12 Jun 2027 11:29:44.242             5.484           889.875
       398   12 Jun 2027 11:30:12.457   12 Jun 2027 11:30:16.076             3.619           829.906
       399   12 Jun 2027 11:30:21.391   12 Jun 2027 11:30:22.878             1.487           166.094
       400   12 Jun 2027 11:30:54.044   12 Jun 2027 11:30:55.411             1.367           683.500
       401   12 Jun 2027 11:31:40.650   12 Jun 2027 11:31:43.790             3.140          1516.313
       402   12 Jun 2027 11:32:13.931   12 Jun 2027 11:32:17.124             3.193           554.906
       403   13 Jun 2027 03:51:22.861   13 Jun 2027 03:52:00.264            37.403         18701.500
       404   13 Jun 2027 03:52:30.367   13 Jun 2027 03:53:40.276            69.909         34954.500
       405   13 Jun 2027 03:54:10.985   13 Jun 2027 03:54:41.032            30.047         15023.500
       406   13 Jun 2027 05:15:28.442   13 Jun 2027 05:16:30.345            61.903         30951.500
       407   13 Jun 2027 06:51:13.742   13 Jun 2027 06:53:09.459           115.717         57858.500
       408   13 Jun 2027 06:53:17.721   13 Jun 2027 06:53:18.972             1.251           625.500
       409   13 Jun 2027 06:53:33.807   13 Jun 2027 06:53:37.930             4.123          2061.500
       410   13 Jun 2027 08:26:11.164   13 Jun 2027 08:26:38.486            27.322         13661.000
       411   13 Jun 2027 08:26:48.986   13 Jun 2027 08:26:48.986             0.000             0.000
       412   13 Jun 2027 08:28:03.121   13 Jun 2027 08:28:09.741             6.620          2824.656
       413   13 Jun 2027 08:28:48.592   13 Jun 2027 08:28:53.695             5.103          1188.844
       414   13 Jun 2027 08:29:21.438   13 Jun 2027 08:29:21.438             0.000             0.000
       415   13 Jun 2027 08:30:06.061   13 Jun 2027 08:30:10.888             4.827          2065.469
       416   13 Jun 2027 08:30:19.729   13 Jun 2027 08:30:22.000             2.271           276.281
       417   13 Jun 2027 08:31:43.676   13 Jun 2027 08:31:46.817             3.141          1570.500
       418   13 Jun 2027 08:32:11.579   13 Jun 2027 08:32:14.445             2.866          1328.688
       419   13 Jun 2027 08:33:10.076   13 Jun 2027 08:33:13.498             3.422          1711.000
       420   13 Jun 2027 10:02:23.805   13 Jun 2027 10:02:41.647            17.842          8040.688
       421   13 Jun 2027 10:03:47.836   13 Jun 2027 10:03:52.483             4.647           310.375
       422   13 Jun 2027 10:04:12.687   13 Jun 2027 10:04:18.770             6.083           155.500
       423   13 Jun 2027 10:04:43.006   13 Jun 2027 10:04:45.630             2.624           315.312
       424   13 Jun 2027 10:05:16.252   13 Jun 2027 10:05:18.512             2.260           443.625
       425   13 Jun 2027 10:05:57.607   13 Jun 2027 10:06:01.703             4.096           875.062
       426   13 Jun 2027 10:06:22.430   13 Jun 2027 10:06:22.430             0.000             0.000
       427   13 Jun 2027 10:06:30.514   13 Jun 2027 10:06:39.178             8.664           553.969
       428   13 Jun 2027 10:06:48.120   13 Jun 2027 10:06:52.023             3.903           223.906
       429   13 Jun 2027 10:07:14.056   13 Jun 2027 10:07:18.177             4.121           688.531
       430   13 Jun 2027 10:08:28.078   13 Jun 2027 10:08:33.798             5.720          2045.031
       431   13 Jun 2027 10:08:47.675   13 Jun 2027 10:08:49.870             2.195           433.656
       432   13 Jun 2027 11:40:24.858   13 Jun 2027 11:40:40.011            15.153          7016.094
       433   13 Jun 2027 11:40:47.722   13 Jun 2027 11:40:51.143             3.421           240.969
       434   13 Jun 2027 11:41:47.320   13 Jun 2027 11:41:54.245             6.925          1711.437
       435   13 Jun 2027 11:42:27.470   13 Jun 2027 11:42:31.224             3.754           420.594
       436   13 Jun 2027 11:43:49.738   13 Jun 2027 11:44:00.843            11.105          2440.563
       437   13 Jun 2027 11:44:27.620   13 Jun 2027 11:44:29.817             2.197           285.344
