uniorb/output/strategy_1/Camera/Camera_KinoSat_111008.txt

KinoSat_111008
-------------------------
    Access    *     Start Time (UTCG)     *     Stop Time (UTCG)  *   Duration (s) *   Data (Mbytes)
         1   01 Jun 2027 03:00:00.000   01 Jun 2027 03:00:18.248            18.248          9124.000
         2   01 Jun 2027 03:10:41.087   01 Jun 2027 03:11:58.720            77.633         38816.500
         3   01 Jun 2027 03:12:10.684   01 Jun 2027 03:12:13.803             3.119          1559.500
         4   01 Jun 2027 03:12:48.451   01 Jun 2027 03:12:53.762             5.311          2655.500
         5   01 Jun 2027 03:13:15.174   01 Jun 2027 03:13:30.123            14.949          7474.500
         6   01 Jun 2027 04:33:38.346   01 Jun 2027 04:34:25.139            46.793         23396.500
         7   01 Jun 2027 04:36:01.518   01 Jun 2027 04:36:10.886             9.368          4684.000
         8   01 Jun 2027 04:36:29.467   01 Jun 2027 04:36:29.467             0.000             0.000
         9   01 Jun 2027 04:37:01.722   01 Jun 2027 04:37:04.579             2.857          1428.500
        10   01 Jun 2027 04:37:23.983   01 Jun 2027 04:37:24.342             0.359           179.500
        11   01 Jun 2027 06:09:05.522   01 Jun 2027 06:09:22.304            16.782          8391.000
        12   01 Jun 2027 06:10:21.005   01 Jun 2027 06:11:57.484            96.479         48239.500
        13   01 Jun 2027 06:13:22.381   01 Jun 2027 06:13:38.934            16.553          8276.500
        14   01 Jun 2027 07:45:06.399   01 Jun 2027 07:47:08.315           121.916         60958.000
        15   01 Jun 2027 07:47:50.914   01 Jun 2027 07:48:16.008            25.094         12547.000
        16   01 Jun 2027 07:51:58.036   01 Jun 2027 07:52:02.438             4.402          2201.000
        17   01 Jun 2027 09:22:08.071   01 Jun 2027 09:24:27.785           139.714         69857.000
        18   01 Jun 2027 09:24:52.441   01 Jun 2027 09:24:58.546             6.105          3052.500
        19   01 Jun 2027 09:28:11.046   01 Jun 2027 09:28:11.046             0.000             0.000
        20   01 Jun 2027 11:00:08.003   01 Jun 2027 11:02:24.070           136.067         68033.500
        21   01 Jun 2027 11:02:28.892   01 Jun 2027 11:02:36.112             7.220          3610.000
        22   02 Jun 2027 03:11:00.101   02 Jun 2027 03:11:07.239             7.138          3569.000
        23   02 Jun 2027 03:11:09.138   02 Jun 2027 03:11:22.358            13.220          6610.000
        24   02 Jun 2027 03:11:41.120   02 Jun 2027 03:11:45.296             4.176          2088.000
        25   02 Jun 2027 03:22:42.460   02 Jun 2027 03:24:02.691            80.231         40115.500
        26   02 Jun 2027 04:44:55.474   02 Jun 2027 04:45:35.612            40.138         20069.000
        27   02 Jun 2027 04:45:54.722   02 Jun 2027 04:45:59.349             4.627          2313.500
        28   02 Jun 2027 04:48:00.949   02 Jun 2027 04:48:03.225             2.276          1138.000
        29   02 Jun 2027 06:20:02.685   02 Jun 2027 06:21:31.776            89.091         44545.500
        30   02 Jun 2027 06:22:04.559   02 Jun 2027 06:22:28.716            24.157         12078.500
        31   02 Jun 2027 06:23:32.376   02 Jun 2027 06:23:43.962            11.586          5793.000
        32   02 Jun 2027 06:24:04.726   02 Jun 2027 06:24:23.582            18.856          9428.000
        33   02 Jun 2027 07:57:16.346   02 Jun 2027 07:59:03.084           106.738         53369.000
        34   02 Jun 2027 07:59:20.293   02 Jun 2027 07:59:22.752             2.459          1229.500
        35   02 Jun 2027 08:00:15.857   02 Jun 2027 08:00:20.581             4.724          2362.000
        36   02 Jun 2027 08:00:26.575   02 Jun 2027 08:00:34.416             7.841          3920.500
        37   02 Jun 2027 08:03:42.213   02 Jun 2027 08:04:04.660            22.447         11223.500
        38   02 Jun 2027 08:04:05.697   02 Jun 2027 08:04:23.401            17.704          8852.000
        39   02 Jun 2027 09:34:12.241   02 Jun 2027 09:35:24.589            72.348         36174.000
        40   02 Jun 2027 09:35:47.084   02 Jun 2027 09:36:37.000            49.916         24958.000
        41   02 Jun 2027 09:37:37.273   02 Jun 2027 09:37:47.161             9.888          4944.000
        42   02 Jun 2027 09:38:53.403   02 Jun 2027 09:38:58.142             4.739          2369.500
        43   02 Jun 2027 11:12:06.632   02 Jun 2027 11:14:09.402           122.770         61385.000
        44   02 Jun 2027 11:15:23.794   02 Jun 2027 11:15:30.403             6.609          3304.500
        45   03 Jun 2027 03:22:28.335   03 Jun 2027 03:23:07.510            39.175         19587.500
        46   03 Jun 2027 03:34:39.264   03 Jun 2027 03:35:18.578            39.314         19657.000
        47   03 Jun 2027 04:56:40.999   03 Jun 2027 04:57:45.200            64.201         32100.500
        48   03 Jun 2027 04:58:00.390   03 Jun 2027 04:58:01.945             1.555           777.500
        49   03 Jun 2027 04:58:43.940   03 Jun 2027 04:59:09.938            25.998         12999.000
        50   03 Jun 2027 06:31:32.118   03 Jun 2027 06:32:43.694            71.576         35788.000
        51   03 Jun 2027 06:34:02.255   03 Jun 2027 06:34:02.255             0.000             0.000
        52   03 Jun 2027 06:34:55.550   03 Jun 2027 06:35:06.031            10.481          5240.500
        53   03 Jun 2027 06:37:02.435   03 Jun 2027 06:37:02.435             0.000             0.000
        54   03 Jun 2027 06:37:17.973   03 Jun 2027 06:37:38.048            20.075         10037.500
        55   03 Jun 2027 06:37:43.559   03 Jun 2027 06:37:44.056             0.497           248.500
        56   03 Jun 2027 06:40:23.097   03 Jun 2027 06:40:39.724            16.627          8313.500
        57   03 Jun 2027 08:09:18.028   03 Jun 2027 08:11:07.673           109.645         54822.500
        58   03 Jun 2027 08:12:56.271   03 Jun 2027 08:13:06.682            10.411          5205.500
        59   03 Jun 2027 08:14:44.797   03 Jun 2027 08:14:56.727            11.930          5965.000
        60   03 Jun 2027 08:15:13.721   03 Jun 2027 08:15:13.721             0.000             0.000
        61   03 Jun 2027 08:15:47.995   03 Jun 2027 08:16:06.756            18.761          9380.500
        62   03 Jun 2027 08:16:33.818   03 Jun 2027 08:16:36.867             3.049          1524.500
        63   03 Jun 2027 09:46:05.604   03 Jun 2027 09:47:51.920           106.316         53158.000
        64   03 Jun 2027 09:49:45.039   03 Jun 2027 09:49:47.673             2.634          1317.000
        65   03 Jun 2027 09:50:12.234   03 Jun 2027 09:50:17.627             5.393          2696.500
        66   03 Jun 2027 09:52:32.214   03 Jun 2027 09:52:32.214             0.000             0.000
        67   03 Jun 2027 09:52:47.271   03 Jun 2027 09:52:48.149             0.878           439.000
        68   03 Jun 2027 11:24:08.920   03 Jun 2027 11:24:41.406            32.486         15680.251
        69   03 Jun 2027 11:25:30.008   03 Jun 2027 11:25:33.625             3.617          1483.563
        70   03 Jun 2027 11:26:33.625   03 Jun 2027 11:26:37.249             3.624          1432.000
        71   03 Jun 2027 11:27:29.322   03 Jun 2027 11:27:32.038             2.716          1358.000
        72   04 Jun 2027 03:34:30.548   04 Jun 2027 03:35:08.609            38.061         19030.500
        73   04 Jun 2027 03:36:35.536   04 Jun 2027 03:36:43.831             8.295          4147.500
        74   04 Jun 2027 05:10:27.937   04 Jun 2027 05:12:12.622           104.685         52342.500
        75   04 Jun 2027 05:13:19.123   04 Jun 2027 05:13:42.046            22.923         11461.500
        76   04 Jun 2027 05:14:06.724   04 Jun 2027 05:14:13.076             6.352          3176.000
        77   04 Jun 2027 06:44:17.723   04 Jun 2027 06:46:02.331           104.608         52304.000
        78   04 Jun 2027 06:46:14.727   04 Jun 2027 06:46:26.744            12.017          6008.500
        79   04 Jun 2027 06:46:40.472   04 Jun 2027 06:46:41.961             1.489           744.500
        80   04 Jun 2027 06:50:06.134   04 Jun 2027 06:50:12.835             6.701          3350.500
        81   04 Jun 2027 06:51:13.342   04 Jun 2027 06:51:16.414             3.072          1536.000
        82   04 Jun 2027 06:52:05.669   04 Jun 2027 06:52:16.311            10.642          5321.000
        83   04 Jun 2027 06:52:19.513   04 Jun 2027 06:52:24.056             4.543          2271.500
        84   04 Jun 2027 08:21:21.180   04 Jun 2027 08:22:07.940            46.760         22840.875
        85   04 Jun 2027 08:23:28.743   04 Jun 2027 08:23:39.075            10.332          2522.406
        86   04 Jun 2027 08:23:52.572   04 Jun 2027 08:23:55.427             2.855           359.875
        87   04 Jun 2027 08:24:06.401   04 Jun 2027 08:24:09.462             3.061           159.437
        88   04 Jun 2027 08:24:43.370   04 Jun 2027 08:24:46.364             2.994          1059.625
        89   04 Jun 2027 08:25:07.123   04 Jun 2027 08:25:10.899             3.776           593.125
        90   04 Jun 2027 08:26:27.472   04 Jun 2027 08:26:30.561             3.089          1544.500
        91   04 Jun 2027 08:26:48.651   04 Jun 2027 08:26:51.202             2.551          1212.312
        92   04 Jun 2027 08:27:56.752   04 Jun 2027 08:28:04.553             7.801          1482.156
        93   04 Jun 2027 08:28:12.710   04 Jun 2027 08:28:17.152             4.442           232.063
        94   04 Jun 2027 08:28:27.873   04 Jun 2027 08:28:30.811             2.938           302.375
        95   04 Jun 2027 09:58:15.823   04 Jun 2027 09:58:33.739            17.916          8494.312
        96   04 Jun 2027 09:58:37.474   04 Jun 2027 09:58:38.862             1.388           115.875
        97   04 Jun 2027 09:58:59.534   04 Jun 2027 09:59:06.724             7.190           405.031
        98   04 Jun 2027 10:00:03.118   04 Jun 2027 10:00:06.387             3.269          1460.875
        99   04 Jun 2027 10:00:16.360   04 Jun 2027 10:00:17.226             0.866           311.656
       100   04 Jun 2027 10:00:53.603   04 Jun 2027 10:00:55.398             1.795           443.187
       101   04 Jun 2027 10:01:55.808   04 Jun 2027 10:02:03.445             7.637          1250.687
       102   04 Jun 2027 10:02:20.487   04 Jun 2027 10:02:21.608             1.121           459.875
       103   04 Jun 2027 10:02:28.778   04 Jun 2027 10:02:30.326             1.548            40.031
       104   04 Jun 2027 10:02:49.163   04 Jun 2027 10:02:52.822             3.659           588.656
       105   04 Jun 2027 10:03:12.400   04 Jun 2027 10:03:16.958             4.558           611.812
       106   04 Jun 2027 10:03:58.796   04 Jun 2027 10:04:02.010             3.214          1307.438
       107   04 Jun 2027 10:04:22.705   04 Jun 2027 10:04:30.543             7.838           484.563
       108   04 Jun 2027 11:35:22.009   04 Jun 2027 11:35:39.602            17.593          7115.813
       109   04 Jun 2027 11:36:51.970   04 Jun 2027 11:36:55.543             3.573          1620.312
       110   04 Jun 2027 11:36:56.062   04 Jun 2027 11:36:56.249             0.187            16.219
       111   04 Jun 2027 11:38:04.231   04 Jun 2027 11:38:08.641             4.410          1991.625
       112   04 Jun 2027 11:38:39.121   04 Jun 2027 11:38:43.693             4.572           910.094
       113   04 Jun 2027 11:40:14.274   04 Jun 2027 11:40:14.861             0.587           293.500
       114   05 Jun 2027 03:46:24.555   05 Jun 2027 03:47:18.807            54.252         27126.000
       115   05 Jun 2027 03:47:30.366   05 Jun 2027 03:47:47.178            16.812          8406.000
       116   05 Jun 2027 05:22:46.585   05 Jun 2027 05:24:37.758           111.173         55586.500
       117   05 Jun 2027 05:24:47.176   05 Jun 2027 05:25:07.185            20.009         10004.500
       118   05 Jun 2027 05:25:46.679   05 Jun 2027 05:25:46.679             0.000             0.000
       119   05 Jun 2027 06:56:15.842   05 Jun 2027 06:58:17.192           121.350         60295.687
       120   05 Jun 2027 07:00:15.367   05 Jun 2027 07:00:21.499             6.132          3066.000
       121   05 Jun 2027 07:04:07.041   05 Jun 2027 07:04:19.170            12.129          6064.500
       122   05 Jun 2027 07:04:46.284   05 Jun 2027 07:04:46.578             0.294           147.000
       123   05 Jun 2027 08:33:47.460   05 Jun 2027 08:34:15.136            27.676         13174.906
       124   05 Jun 2027 08:35:10.852   05 Jun 2027 08:35:17.358             6.506          1161.562
       125   05 Jun 2027 08:35:25.514   05 Jun 2027 08:35:26.167             0.653            18.281
       126   05 Jun 2027 08:35:49.901   05 Jun 2027 08:35:51.270             1.369           432.250
       127   05 Jun 2027 08:36:16.213   05 Jun 2027 08:36:20.303             4.090           742.469
       128   05 Jun 2027 08:36:45.870   05 Jun 2027 08:36:46.745             0.875           341.500
       129   05 Jun 2027 08:37:31.265   05 Jun 2027 08:37:35.752             4.487          1358.281
       130   05 Jun 2027 08:38:06.148   05 Jun 2027 08:38:09.427             3.279           933.156
       131   05 Jun 2027 08:38:27.595   05 Jun 2027 08:38:29.520             1.925           567.750
       132   05 Jun 2027 08:39:51.562   05 Jun 2027 08:39:56.456             4.894          2398.062
       133   05 Jun 2027 08:40:16.379   05 Jun 2027 08:40:18.366             1.987           216.844
       134   05 Jun 2027 10:10:42.663   05 Jun 2027 10:11:01.230            18.567          7509.437
       135   05 Jun 2027 10:11:32.132   05 Jun 2027 10:11:39.900             7.768           931.437
       136   05 Jun 2027 10:12:16.841   05 Jun 2027 10:12:20.489             3.648           264.937
       137   05 Jun 2027 10:12:37.126   05 Jun 2027 10:12:42.153             5.027           519.906
       138   05 Jun 2027 10:12:49.915   05 Jun 2027 10:12:49.923             0.008             4.000
       139   05 Jun 2027 10:13:27.539   05 Jun 2027 10:13:33.162             5.623          1414.062
       140   05 Jun 2027 10:14:06.709   05 Jun 2027 10:14:10.871             4.162           809.062
       141   05 Jun 2027 10:14:34.889   05 Jun 2027 10:14:36.883             1.994           750.562
       142   05 Jun 2027 10:15:16.315   05 Jun 2027 10:15:18.976             2.661          1200.375
       143   05 Jun 2027 10:15:52.332   05 Jun 2027 10:15:56.029             3.697          1042.375
       144   05 Jun 2027 10:16:23.294   05 Jun 2027 10:16:24.535             1.241           442.875
       145   05 Jun 2027 11:47:33.224   05 Jun 2027 11:47:45.320            12.096          6043.875
       146   05 Jun 2027 11:48:13.847   05 Jun 2027 11:48:15.123             1.276           638.000
       147   05 Jun 2027 11:49:09.570   05 Jun 2027 11:49:15.497             5.927          1913.656
       148   05 Jun 2027 11:49:28.044   05 Jun 2027 11:49:28.883             0.839           392.094
       149   05 Jun 2027 11:49:48.255   05 Jun 2027 11:49:48.255             0.000             0.000
       150   05 Jun 2027 11:50:17.218   05 Jun 2027 11:50:20.985             3.767          1327.688
       151   05 Jun 2027 11:50:42.138   05 Jun 2027 11:50:44.923             2.785           661.031
       152   05 Jun 2027 11:51:35.091   05 Jun 2027 11:51:37.302             2.211          1058.438
       153   06 Jun 2027 03:58:15.530   06 Jun 2027 03:59:21.714            66.184         33092.000
       154   06 Jun 2027 03:59:48.431   06 Jun 2027 03:59:48.431             0.000             0.000
       155   06 Jun 2027 05:34:48.236   06 Jun 2027 05:37:13.222           144.986         72493.000
       156   06 Jun 2027 05:37:19.388   06 Jun 2027 05:37:26.041             6.653          3326.500
       157   06 Jun 2027 07:09:17.251   06 Jun 2027 07:11:08.229           110.978         55489.000
       158   06 Jun 2027 07:12:08.043   06 Jun 2027 07:12:13.776             5.733          2044.688
       159   06 Jun 2027 07:12:23.013   06 Jun 2027 07:12:24.322             1.309           288.656
       160   06 Jun 2027 07:12:54.587   06 Jun 2027 07:12:58.959             4.372           917.937
       161   06 Jun 2027 07:15:06.039   06 Jun 2027 07:15:06.039             0.000             0.000
       162   06 Jun 2027 07:15:22.954   06 Jun 2027 07:15:28.648             5.694          2847.000
       163   06 Jun 2027 07:16:14.950   06 Jun 2027 07:16:16.114             1.164           582.000
       164   06 Jun 2027 07:16:29.504   06 Jun 2027 07:16:34.659             5.155          2577.500
       165   06 Jun 2027 08:45:54.869   06 Jun 2027 08:46:15.219            20.350         10109.157
       166   06 Jun 2027 08:47:29.781   06 Jun 2027 08:47:32.375             2.594           924.031
       167   06 Jun 2027 08:48:41.405   06 Jun 2027 08:48:49.699             8.294          1930.656
       168   06 Jun 2027 08:48:54.962   06 Jun 2027 08:48:55.070             0.108             4.250
       169   06 Jun 2027 08:49:45.998   06 Jun 2027 08:49:48.126             2.128           399.875
       170   06 Jun 2027 08:50:19.551   06 Jun 2027 08:50:21.826             2.275           873.094
       171   06 Jun 2027 08:50:53.650   06 Jun 2027 08:50:56.784             3.134           514.719
       172   06 Jun 2027 08:51:37.087   06 Jun 2027 08:51:40.909             3.822          1259.469
       173   06 Jun 2027 08:52:07.886   06 Jun 2027 08:52:10.523             2.637           843.031
       174   06 Jun 2027 08:52:15.036   06 Jun 2027 08:52:17.309             2.273           125.719
       175   06 Jun 2027 10:23:36.333   06 Jun 2027 10:23:52.015            15.682          7500.969
       176   06 Jun 2027 10:24:13.404   06 Jun 2027 10:24:16.641             3.237           525.906
       177   06 Jun 2027 10:24:25.074   06 Jun 2027 10:24:25.653             0.579           207.437
       178   06 Jun 2027 10:25:04.692   06 Jun 2027 10:25:08.670             3.978          1093.219
       179   06 Jun 2027 10:26:08.370   06 Jun 2027 10:26:11.181             2.811          1405.500
       180   06 Jun 2027 10:26:12.675   06 Jun 2027 10:26:14.570             1.895            87.875
       181   06 Jun 2027 10:26:24.513   06 Jun 2027 10:26:27.341             2.828           310.719
       182   06 Jun 2027 10:26:45.060   06 Jun 2027 10:26:47.127             2.067           547.844
       183   06 Jun 2027 10:26:47.247   06 Jun 2027 10:26:49.572             2.325             3.750
       184   06 Jun 2027 10:27:08.290   06 Jun 2027 10:27:12.411             4.121           584.937
       185   06 Jun 2027 10:27:15.050   06 Jun 2027 10:27:16.889             1.839            82.469
       186   06 Jun 2027 10:27:31.019   06 Jun 2027 10:27:34.634             3.615           225.531
       187   06 Jun 2027 11:59:35.687   06 Jun 2027 11:59:52.628            16.941          7748.594
       188   07 Jun 2027 04:10:25.814   07 Jun 2027 04:11:21.565            55.751         27875.500
       189   07 Jun 2027 04:12:05.697   07 Jun 2027 04:12:19.597            13.900          6950.000
       190   07 Jun 2027 05:46:57.330   07 Jun 2027 05:48:45.598           108.268         54134.000
       191   07 Jun 2027 05:49:40.232   07 Jun 2027 05:49:55.718            15.486          7743.000
       192   07 Jun 2027 07:22:06.477   07 Jun 2027 07:24:23.559           137.082         66989.906
       193   07 Jun 2027 07:25:27.587   07 Jun 2027 07:25:28.925             1.338           669.000
       194   07 Jun 2027 07:28:14.396   07 Jun 2027 07:28:20.876             6.480          3240.000
       195   07 Jun 2027 07:28:42.113   07 Jun 2027 07:28:43.639             1.526           763.000
       196   07 Jun 2027 08:58:29.938   07 Jun 2027 08:58:50.425            20.487          9461.656
       197   07 Jun 2027 08:59:01.608   07 Jun 2027 08:59:06.213             4.605           349.469
       198   07 Jun 2027 09:00:04.911   07 Jun 2027 09:00:09.658             4.747          1782.531
       199   07 Jun 2027 09:00:35.968   07 Jun 2027 09:00:41.217             5.249           726.594
       200   07 Jun 2027 09:00:50.456   07 Jun 2027 09:00:52.154             1.698           131.438
       201   07 Jun 2027 09:00:59.754   07 Jun 2027 09:01:01.879             2.125            79.406
       202   07 Jun 2027 09:01:19.348   07 Jun 2027 09:01:20.191             0.843           314.750
       203   07 Jun 2027 09:01:29.047   07 Jun 2027 09:01:29.946             0.899            54.312
       204   07 Jun 2027 09:02:17.217   07 Jun 2027 09:02:23.016             5.799          1255.625
       205   07 Jun 2027 09:02:41.993   07 Jun 2027 09:02:44.207             2.214           289.031
       206   07 Jun 2027 09:02:55.216   07 Jun 2027 09:02:56.267             1.051           264.469
       207   07 Jun 2027 09:04:12.716   07 Jun 2027 09:04:17.554             4.838          2348.000
       208   07 Jun 2027 10:35:43.966   07 Jun 2027 10:36:00.443            16.477          7794.906
       209   07 Jun 2027 10:36:22.813   07 Jun 2027 10:36:25.002             2.189           623.625
       210   07 Jun 2027 10:36:42.932   07 Jun 2027 10:36:45.799             2.867           560.313
       211   07 Jun 2027 10:37:18.387   07 Jun 2027 10:37:18.742             0.355           177.500
       212   07 Jun 2027 10:37:49.362   07 Jun 2027 10:37:59.669            10.307          1477.156
       213   07 Jun 2027 10:39:08.659   07 Jun 2027 10:39:14.724             6.065          2155.937
       214   07 Jun 2027 10:39:16.516   07 Jun 2027 10:39:18.257             1.741            56.000
       215   07 Jun 2027 10:39:18.470   07 Jun 2027 10:39:18.652             0.182             6.656
       216   07 Jun 2027 10:40:02.642   07 Jun 2027 10:40:07.621             4.979          1374.687
       217   08 Jun 2027 03:00:07.671   08 Jun 2027 03:00:16.347             8.676          4338.000
       218   08 Jun 2027 03:00:23.246   08 Jun 2027 03:00:24.985             1.739           869.500
       219   08 Jun 2027 03:00:51.765   08 Jun 2027 03:00:51.765             0.000             0.000
       220   08 Jun 2027 03:01:02.195   08 Jun 2027 03:01:03.644             1.449           724.500
       221   08 Jun 2027 03:01:41.094   08 Jun 2027 03:02:16.394            35.300         17650.000
       222   08 Jun 2027 04:23:02.897   08 Jun 2027 04:23:38.706            35.809         17904.500
       223   08 Jun 2027 04:23:52.581   08 Jun 2027 04:23:53.334             0.753           376.500
       224   08 Jun 2027 04:24:17.651   08 Jun 2027 04:24:20.803             3.152          1576.000
       225   08 Jun 2027 05:58:50.567   08 Jun 2027 06:00:56.395           125.828         62914.000
       226   08 Jun 2027 06:01:44.645   08 Jun 2027 06:01:46.366             1.721           860.500
       227   08 Jun 2027 07:33:48.211   08 Jun 2027 07:35:24.113            95.902         47951.000
       228   08 Jun 2027 07:35:34.305   08 Jun 2027 07:35:41.951             7.646          3823.000
       229   08 Jun 2027 07:36:19.632   08 Jun 2027 07:36:21.604             1.972           986.000
       230   08 Jun 2027 07:36:36.034   08 Jun 2027 07:36:40.611             4.577          2288.500
       231   08 Jun 2027 07:36:41.575   08 Jun 2027 07:36:47.279             5.704          2333.500
       232   08 Jun 2027 07:40:14.131   08 Jun 2027 07:40:29.051            14.920          6408.062
       233   08 Jun 2027 07:40:47.735   08 Jun 2027 07:40:49.174             1.439           583.875
       234   08 Jun 2027 09:10:01.647   08 Jun 2027 09:10:29.924            28.277         11083.656
       235   08 Jun 2027 09:10:51.738   08 Jun 2027 09:10:57.208             5.470           217.813
       236   08 Jun 2027 09:11:07.281   08 Jun 2027 09:11:12.379             5.098            86.281
       237   08 Jun 2027 09:12:05.244   08 Jun 2027 09:12:11.123             5.879          1242.875
       238   08 Jun 2027 09:13:37.017   08 Jun 2027 09:13:40.568             3.551          1198.813
       239   08 Jun 2027 09:14:04.757   08 Jun 2027 09:14:06.857             2.100           750.156
       240   08 Jun 2027 09:15:25.044   08 Jun 2027 09:15:29.985             4.941          1971.656
       241   08 Jun 2027 09:15:34.211   08 Jun 2027 09:15:37.047             2.836           126.250
       242   08 Jun 2027 10:48:21.844   08 Jun 2027 10:48:41.661            19.817          9642.563
       243   08 Jun 2027 10:50:05.149   08 Jun 2027 10:50:10.389             5.240          2200.719
       244   08 Jun 2027 10:50:43.464   08 Jun 2027 10:50:43.629             0.165            82.500
       245   08 Jun 2027 10:51:02.002   08 Jun 2027 10:51:05.275             3.273          1209.250
       246   08 Jun 2027 10:51:09.817   08 Jun 2027 10:51:09.817             0.000             0.000
       247   08 Jun 2027 10:51:13.838   08 Jun 2027 10:51:15.888             2.050           226.781
       248   08 Jun 2027 10:51:41.716   08 Jun 2027 10:51:41.716             0.000             0.000
       249   08 Jun 2027 10:52:11.083   08 Jun 2027 10:52:12.480             1.397           698.500
       250   09 Jun 2027 03:00:00.000   09 Jun 2027 03:00:28.508            28.508         14254.000
       251   09 Jun 2027 03:10:56.204   09 Jun 2027 03:12:08.971            72.767         36383.500
       252   09 Jun 2027 03:12:26.764   09 Jun 2027 03:12:52.483            25.719         12859.500
       253   09 Jun 2027 03:14:09.530   09 Jun 2027 03:14:15.381             5.851          2925.500
       254   09 Jun 2027 04:33:53.005   09 Jun 2027 04:34:14.327            21.322         10661.000
       255   09 Jun 2027 04:35:17.299   09 Jun 2027 04:35:20.428             3.129          1564.500
       256   09 Jun 2027 04:36:25.791   09 Jun 2027 04:36:25.791             0.000             0.000
       257   09 Jun 2027 04:36:44.930   09 Jun 2027 04:37:03.438            18.508          9254.000
       258   09 Jun 2027 04:37:22.476   09 Jun 2027 04:37:22.476             0.000             0.000
       259   09 Jun 2027 06:09:12.748   09 Jun 2027 06:09:38.195            25.447         12723.500
       260   09 Jun 2027 06:10:35.580   09 Jun 2027 06:11:43.849            68.269         34134.500
       261   09 Jun 2027 06:12:52.348   09 Jun 2027 06:12:55.819             3.471          1735.500
       262   09 Jun 2027 06:13:28.903   09 Jun 2027 06:13:33.910             5.007          2503.500
       263   09 Jun 2027 07:45:21.212   09 Jun 2027 07:46:45.314            84.102         42051.000
       264   09 Jun 2027 07:46:48.239   09 Jun 2027 07:46:53.348             5.109          1649.499
       265   09 Jun 2027 07:47:20.514   09 Jun 2027 07:47:21.721             1.207           603.500
       266   09 Jun 2027 07:47:30.452   09 Jun 2027 07:47:31.721             1.269           453.125
       267   09 Jun 2027 07:48:35.054   09 Jun 2027 07:48:36.271             1.217           608.500
       268   09 Jun 2027 07:49:31.951   09 Jun 2027 07:49:40.783             8.832          3009.594
       269   09 Jun 2027 07:50:44.512   09 Jun 2027 07:50:45.783             1.271           635.500
       270   09 Jun 2027 07:51:26.614   09 Jun 2027 07:51:32.122             5.508          2493.843
       271   09 Jun 2027 07:51:34.678   09 Jun 2027 07:51:37.805             3.127            79.875
       272   09 Jun 2027 07:52:03.308   09 Jun 2027 07:52:05.956             2.648           796.969
       273   09 Jun 2027 07:52:12.850   09 Jun 2027 07:52:18.379             5.529           110.688
       274   09 Jun 2027 07:52:51.208   09 Jun 2027 07:52:54.205             2.997          1025.906
       275   09 Jun 2027 09:22:23.455   09 Jun 2027 09:22:46.697            23.242         11120.281
       276   09 Jun 2027 09:23:14.975   09 Jun 2027 09:23:22.427             7.452           883.687
       277   09 Jun 2027 09:23:51.144   09 Jun 2027 09:23:52.228             1.084           542.000
       278   09 Jun 2027 09:24:08.004   09 Jun 2027 09:24:10.392             2.388           804.812
       279   09 Jun 2027 09:24:48.358   09 Jun 2027 09:24:49.488             1.130           553.688
       280   09 Jun 2027 09:25:39.015   09 Jun 2027 09:25:43.066             4.051          1511.250
       281   09 Jun 2027 09:25:58.433   09 Jun 2027 09:26:01.071             2.638           480.219
       282   09 Jun 2027 09:26:25.204   09 Jun 2027 09:26:29.185             3.981           754.156
       283   09 Jun 2027 09:26:55.330   09 Jun 2027 09:26:59.227             3.897           627.562
       284   09 Jun 2027 09:27:58.121   09 Jun 2027 09:28:03.971             5.850          1840.438
       285   09 Jun 2027 11:00:23.168   09 Jun 2027 11:00:38.539            15.371          7516.094
       286   09 Jun 2027 11:01:15.406   09 Jun 2027 11:01:20.654             5.248          1152.094
       287   09 Jun 2027 11:01:56.053   09 Jun 2027 11:01:57.893             1.840           703.063
       288   09 Jun 2027 11:02:31.865   09 Jun 2027 11:02:33.756             1.891           874.531
       289   09 Jun 2027 11:03:49.182   09 Jun 2027 11:03:57.687             8.505          2357.062
       290   09 Jun 2027 11:04:14.995   09 Jun 2027 11:04:17.880             2.885           540.875
       291   10 Jun 2027 03:11:15.575   10 Jun 2027 03:11:56.052            40.477         20238.500
       292   10 Jun 2027 03:12:27.889   10 Jun 2027 03:12:46.047            18.158          9079.000
       293   10 Jun 2027 03:22:57.829   10 Jun 2027 03:24:00.320            62.491         31245.500
       294   10 Jun 2027 03:24:07.522   10 Jun 2027 03:24:14.152             6.630          3315.000
       295   10 Jun 2027 04:45:10.851   10 Jun 2027 04:45:46.621            35.770         17885.000
       296   10 Jun 2027 04:48:13.001   10 Jun 2027 04:48:18.615             5.614          2807.000
       297   10 Jun 2027 04:49:40.755   10 Jun 2027 04:49:41.892             1.137           568.500
       298   10 Jun 2027 06:20:17.347   10 Jun 2027 06:21:37.672            80.325         40162.500
       299   10 Jun 2027 06:22:42.286   10 Jun 2027 06:22:42.286             0.000             0.000
       300   10 Jun 2027 06:23:48.669   10 Jun 2027 06:23:59.853            11.184          5592.000
       301   10 Jun 2027 06:24:05.569   10 Jun 2027 06:24:07.794             2.225          1112.500
       302   10 Jun 2027 06:25:34.795   10 Jun 2027 06:25:52.089            17.294          8647.000
       303   10 Jun 2027 06:25:55.889   10 Jun 2027 06:25:57.513             1.624           812.000
       304   10 Jun 2027 06:28:11.711   10 Jun 2027 06:28:27.207            15.496          7748.000
       305   10 Jun 2027 07:57:32.432   10 Jun 2027 07:58:13.564            41.132         20566.000
       306   10 Jun 2027 07:58:37.705   10 Jun 2027 07:58:58.544            20.839         10329.156
       307   10 Jun 2027 07:59:34.633   10 Jun 2027 07:59:40.731             6.098          1127.781
       308   10 Jun 2027 08:00:15.761   10 Jun 2027 08:00:19.310             3.549          1023.688
       309   10 Jun 2027 08:01:07.526   10 Jun 2027 08:01:12.233             4.707          1373.656
       310   10 Jun 2027 08:02:22.321   10 Jun 2027 08:02:25.757             3.436          1718.000
       311   10 Jun 2027 08:03:26.792   10 Jun 2027 08:03:33.844             7.052          1972.906
       312   10 Jun 2027 08:03:36.179   10 Jun 2027 08:03:36.745             0.566            39.875
       313   10 Jun 2027 08:04:56.413   10 Jun 2027 08:04:56.986             0.573           286.500
       314   10 Jun 2027 09:34:26.968   10 Jun 2027 09:34:48.616            21.648         10638.844
       315   10 Jun 2027 09:35:11.332   10 Jun 2027 09:35:12.836             1.504           709.875
       316   10 Jun 2027 09:35:39.696   10 Jun 2027 09:35:41.414             1.718           494.250
       317   10 Jun 2027 09:35:46.527   10 Jun 2027 09:35:47.443             0.916           116.969
       318   10 Jun 2027 09:36:52.023   10 Jun 2027 09:36:56.371             4.348          1058.219
       319   10 Jun 2027 09:36:58.837   10 Jun 2027 09:37:00.521             1.684            77.063
       320   10 Jun 2027 09:37:16.831   10 Jun 2027 09:37:20.895             4.064           509.688
       321   10 Jun 2027 09:38:37.057   10 Jun 2027 09:38:46.961             9.904          1889.875
       322   10 Jun 2027 09:39:00.936   10 Jun 2027 09:39:05.601             4.665           373.281
       323   10 Jun 2027 09:39:29.266   10 Jun 2027 09:39:48.046            18.780           630.031
       324   10 Jun 2027 09:40:22.289   10 Jun 2027 09:40:25.753             3.464          1070.094
       325   10 Jun 2027 11:12:23.093   10 Jun 2027 11:12:41.328            18.235          7036.219
       326   10 Jun 2027 11:13:09.488   10 Jun 2027 11:13:14.313             4.825           880.000
       327   10 Jun 2027 11:13:55.610   10 Jun 2027 11:13:59.218             3.608          1256.750
       328   10 Jun 2027 11:14:20.792   10 Jun 2027 11:14:20.792             0.000             0.000
       329   10 Jun 2027 11:14:53.407   10 Jun 2027 11:14:59.193             5.786          1567.125
       330   10 Jun 2027 11:15:02.763   10 Jun 2027 11:15:13.253            10.490            95.437
       331   10 Jun 2027 11:16:05.680   10 Jun 2027 11:16:10.247             4.567          1432.937
       332   11 Jun 2027 03:22:44.152   11 Jun 2027 03:23:23.353            39.201         19600.500
       333   11 Jun 2027 03:23:36.163   11 Jun 2027 03:23:55.976            19.813          9906.500
       334   11 Jun 2027 03:24:49.417   11 Jun 2027 03:24:54.067             4.650          2325.000
       335   11 Jun 2027 03:34:54.544   11 Jun 2027 03:35:33.419            38.875         19437.500
       336   11 Jun 2027 04:56:56.323   11 Jun 2027 04:57:52.626            56.303         28151.500
       337   11 Jun 2027 04:57:59.751   11 Jun 2027 04:58:16.614            16.863          8431.500
       338   11 Jun 2027 05:02:14.835   11 Jun 2027 05:02:21.969             7.134          3567.000
       339   11 Jun 2027 06:31:46.681   11 Jun 2027 06:33:07.695            81.014         40507.000
       340   11 Jun 2027 06:35:11.508   11 Jun 2027 06:35:11.508             0.000             0.000
       341   11 Jun 2027 06:35:59.135   11 Jun 2027 06:36:27.319            28.184         14092.000
       342   11 Jun 2027 06:38:08.072   11 Jun 2027 06:38:23.888            15.816          7908.000
       343   11 Jun 2027 06:39:07.670   11 Jun 2027 06:39:18.750            11.080          5540.000
       344   11 Jun 2027 08:09:33.100   11 Jun 2027 08:10:18.971            45.871         22935.500
       345   11 Jun 2027 08:12:27.031   11 Jun 2027 08:12:38.277            11.246          4436.469
       346   11 Jun 2027 08:12:46.600   11 Jun 2027 08:12:48.280             1.680           230.844
       347   11 Jun 2027 08:12:59.931   11 Jun 2027 08:13:00.072             0.141            23.094
       348   11 Jun 2027 08:13:03.338   11 Jun 2027 08:13:13.346            10.008            53.969
       349   11 Jun 2027 08:13:23.566   11 Jun 2027 08:13:24.189             0.623           311.500
       350   11 Jun 2027 08:14:04.408   11 Jun 2027 08:14:08.238             3.830          1264.719
       351   11 Jun 2027 08:14:10.247   11 Jun 2027 08:14:12.157             1.910            62.781
       352   11 Jun 2027 08:15:33.971   11 Jun 2027 08:15:38.760             4.789          2358.500
       353   11 Jun 2027 09:46:18.403   11 Jun 2027 09:46:37.461            19.058          9529.000
       354   11 Jun 2027 09:47:17.224   11 Jun 2027 09:47:20.914             3.690          1536.719
       355   11 Jun 2027 09:48:57.392   11 Jun 2027 09:49:04.146             6.754          3014.937
       356   11 Jun 2027 09:49:08.485   11 Jun 2027 09:49:10.368             1.883           135.594
       357   11 Jun 2027 09:50:04.998   11 Jun 2027 09:50:09.606             4.608          1183.250
       358   11 Jun 2027 09:50:40.905   11 Jun 2027 09:50:43.498             2.593           978.094
       359   11 Jun 2027 09:51:37.070   11 Jun 2027 09:51:40.798             3.728          1200.375
       360   11 Jun 2027 09:52:21.316   11 Jun 2027 09:52:26.941             5.625          1047.219
       361   11 Jun 2027 11:24:23.730   11 Jun 2027 11:24:40.600            16.870          7143.562
       362   11 Jun 2027 11:24:58.675   11 Jun 2027 11:25:00.362             1.687           458.656
       363   11 Jun 2027 11:26:15.284   11 Jun 2027 11:26:20.001             4.717          2060.344
       364   11 Jun 2027 11:26:48.534   11 Jun 2027 11:26:51.857             3.323           891.656
       365   11 Jun 2027 11:26:56.408   11 Jun 2027 11:27:14.042            17.634            82.031
       366   11 Jun 2027 11:27:28.580   11 Jun 2027 11:27:31.135             2.555           323.781
       367   11 Jun 2027 11:27:37.374   11 Jun 2027 11:27:41.259             3.885           194.969
       368   11 Jun 2027 11:28:17.572   11 Jun 2027 11:28:28.897            11.325          1028.094
       369   11 Jun 2027 11:28:30.123   11 Jun 2027 11:28:30.702             0.579            15.438
       370   12 Jun 2027 03:34:45.451   12 Jun 2027 03:35:42.839            57.388         28694.000
       371   12 Jun 2027 03:35:56.573   12 Jun 2027 03:36:02.672             6.099          3049.500
       372   12 Jun 2027 03:36:37.804   12 Jun 2027 03:36:37.804             0.000             0.000
       373   12 Jun 2027 05:10:43.374   12 Jun 2027 05:12:55.822           132.448         66224.000
       374   12 Jun 2027 05:13:07.091   12 Jun 2027 05:13:07.091             0.000             0.000
       375   12 Jun 2027 05:13:30.375   12 Jun 2027 05:13:35.654             5.279          2639.500
       376   12 Jun 2027 06:44:32.698   12 Jun 2027 06:46:17.986           105.288         52644.000
       377   12 Jun 2027 06:46:59.192   12 Jun 2027 06:47:11.015            11.823          5911.500
       378   12 Jun 2027 06:47:30.028   12 Jun 2027 06:47:34.660             4.632          2316.000
       379   12 Jun 2027 06:49:17.381   12 Jun 2027 06:49:21.593             4.212          2106.000
       380   12 Jun 2027 06:52:02.690   12 Jun 2027 06:52:16.141            13.451          6497.625
       381   12 Jun 2027 06:52:51.057   12 Jun 2027 06:52:53.802             2.745          1048.250
       382   12 Jun 2027 06:53:02.183   12 Jun 2027 06:53:02.403             0.220           110.000
       383   12 Jun 2027 08:21:36.921   12 Jun 2027 08:22:03.505            26.584         13022.500
       384   12 Jun 2027 08:23:46.688   12 Jun 2027 08:23:53.674             6.986          2534.687
       385   12 Jun 2027 08:24:07.408   12 Jun 2027 08:24:11.230             3.822           359.875
       386   12 Jun 2027 08:24:23.649   12 Jun 2027 08:24:24.688             1.039           232.844
       387   12 Jun 2027 08:24:59.767   12 Jun 2027 08:25:03.694             3.927          1096.219
       388   12 Jun 2027 08:25:31.795   12 Jun 2027 08:25:36.726             4.931           304.438
       389   12 Jun 2027 08:26:12.040   12 Jun 2027 08:26:15.385             3.345          1086.031
       390   12 Jun 2027 08:26:32.572   12 Jun 2027 08:26:34.699             2.127           369.750
       391   12 Jun 2027 08:27:24.105   12 Jun 2027 08:27:27.263             3.158          1258.531
       392   12 Jun 2027 08:28:23.035   12 Jun 2027 08:28:26.735             3.700          1704.781
       393   12 Jun 2027 09:58:35.508   12 Jun 2027 09:58:51.939            16.431          7857.625
       394   12 Jun 2027 09:59:15.982   12 Jun 2027 09:59:21.656             5.674           428.219
       395   12 Jun 2027 10:00:13.520   12 Jun 2027 10:00:16.790             3.270          1260.219
       396   12 Jun 2027 10:00:52.818   12 Jun 2027 10:00:54.532             1.714           669.469
       397   12 Jun 2027 10:02:11.775   12 Jun 2027 10:02:15.404             3.629          1814.500
       398   12 Jun 2027 10:02:20.924   12 Jun 2027 10:02:23.833             2.909           259.531
       399   12 Jun 2027 10:03:26.573   12 Jun 2027 10:03:32.172             5.599          1960.625
       400   12 Jun 2027 10:04:15.127   12 Jun 2027 10:04:20.569             5.442          1305.563
       401   12 Jun 2027 10:04:38.682   12 Jun 2027 10:04:46.025             7.343           514.094
       402   12 Jun 2027 11:35:37.527   12 Jun 2027 11:35:54.262            16.735          7534.000
       403   12 Jun 2027 11:36:02.395   12 Jun 2027 11:36:04.368             1.973           254.156
       404   12 Jun 2027 11:36:14.605   12 Jun 2027 11:36:18.245             3.640           319.906
       405   12 Jun 2027 11:36:26.846   12 Jun 2027 11:36:27.359             0.513           184.937
       406   12 Jun 2027 11:37:10.473   12 Jun 2027 11:37:16.127             5.654          1306.500
       407   12 Jun 2027 11:38:19.529   12 Jun 2027 11:38:24.782             5.253          1961.031
       408   12 Jun 2027 11:39:15.551   12 Jun 2027 11:39:20.358             4.807          1586.531
       409   12 Jun 2027 11:40:02.150   12 Jun 2027 11:40:07.315             5.165          1301.469
       410   13 Jun 2027 03:46:39.663   13 Jun 2027 03:47:26.732            47.069         23534.500
       411   13 Jun 2027 03:47:45.428   13 Jun 2027 03:47:45.428             0.000             0.000
       412   13 Jun 2027 03:48:20.625   13 Jun 2027 03:48:22.529             1.904           952.000
       413   13 Jun 2027 05:23:02.366   13 Jun 2027 05:25:02.275           119.909         59954.500
       414   13 Jun 2027 05:25:22.364   13 Jun 2027 05:25:25.435             3.071          1535.500
       415   13 Jun 2027 05:25:41.884   13 Jun 2027 05:25:56.054            14.170          7085.000
       416   13 Jun 2027 06:56:30.813   13 Jun 2027 06:58:33.466           122.653         61326.500
       417   13 Jun 2027 06:59:35.665   13 Jun 2027 06:59:38.877             3.212          1606.000
       418   13 Jun 2027 07:00:13.349   13 Jun 2027 07:00:13.349             0.000             0.000
       419   13 Jun 2027 07:02:40.418   13 Jun 2027 07:02:49.949             9.531          4765.500
       420   13 Jun 2027 07:03:57.017   13 Jun 2027 07:04:09.651            12.634          6317.000
       421   13 Jun 2027 07:04:59.666   13 Jun 2027 07:05:01.748             2.082          1041.000
       422   13 Jun 2027 08:34:03.421   13 Jun 2027 08:34:31.868            28.447         13882.875
       423   13 Jun 2027 08:35:21.509   13 Jun 2027 08:35:24.382             2.873           856.406
       424   13 Jun 2027 08:35:54.850   13 Jun 2027 08:35:56.066             1.216           396.750
       425   13 Jun 2027 08:36:25.632   13 Jun 2027 08:36:28.470             2.838           652.219
       426   13 Jun 2027 08:37:07.487   13 Jun 2027 08:37:10.996             3.509            53.000
       427   13 Jun 2027 08:37:45.870   13 Jun 2027 08:37:45.968             0.098            49.000
       428   13 Jun 2027 08:38:15.772   13 Jun 2027 08:38:18.710             2.938          1469.000
       429   13 Jun 2027 08:38:47.073   13 Jun 2027 08:38:47.073             0.000             0.000
       430   13 Jun 2027 08:39:02.149   13 Jun 2027 08:39:06.480             4.331          1729.969
       431   13 Jun 2027 08:39:23.159   13 Jun 2027 08:39:24.364             1.205           521.219
       432   13 Jun 2027 10:10:57.983   13 Jun 2027 10:11:17.332            19.349          7636.781
       433   13 Jun 2027 10:11:18.728   13 Jun 2027 10:11:20.433             1.705            43.625
       434   13 Jun 2027 10:12:15.577   13 Jun 2027 10:12:20.104             4.527          1687.906
       435   13 Jun 2027 10:12:40.328   13 Jun 2027 10:12:41.649             1.321           537.219
       436   13 Jun 2027 10:13:16.817   13 Jun 2027 10:13:19.837             3.020           817.188
       437   13 Jun 2027 10:14:26.014   13 Jun 2027 10:14:29.305             3.291          1387.000
       438   13 Jun 2027 10:14:38.275   13 Jun 2027 10:14:39.142             0.867            67.719
       439   13 Jun 2027 10:14:40.808   13 Jun 2027 10:14:41.728             0.920            52.063
       440   13 Jun 2027 10:15:27.658   13 Jun 2027 10:15:30.397             2.739          1162.969
       441   13 Jun 2027 11:47:48.934   13 Jun 2027 11:48:02.061            13.127          5958.844
       442   13 Jun 2027 11:48:30.095   13 Jun 2027 11:48:39.853             9.758           876.063
       443   13 Jun 2027 11:49:12.938   13 Jun 2027 11:49:16.687             3.749          1033.906
       444   13 Jun 2027 11:50:31.858   13 Jun 2027 11:50:35.542             3.684          1842.000
       445   13 Jun 2027 11:50:59.281   13 Jun 2027 11:51:08.047             8.766           992.469
       446   13 Jun 2027 11:52:01.094   13 Jun 2027 11:52:04.325             3.231          1397.781
