uniorb/output/strategy_1/Camera/Camera_KinoSat_111309.txt

KinoSat_111309
-------------------------
    Access    *     Start Time (UTCG)     *     Stop Time (UTCG)  *   Duration (s) *   Data (Mbytes)
         1   01 Jun 2027 04:14:35.621   01 Jun 2027 04:15:01.062            25.441         12720.500
         2   01 Jun 2027 04:25:30.032   01 Jun 2027 04:27:17.176           107.144         53572.000
         3   01 Jun 2027 04:27:39.347   01 Jun 2027 04:27:59.436            20.089         10044.500
         4   01 Jun 2027 05:49:27.424   01 Jun 2027 05:51:06.824            99.400         49700.000
         5   01 Jun 2027 07:25:12.219   01 Jun 2027 07:27:50.739           158.520         79260.000
         6   01 Jun 2027 08:59:55.874   01 Jun 2027 09:00:13.589            17.715          8857.500
         7   01 Jun 2027 09:00:52.042   01 Jun 2027 09:02:28.433            96.391         48195.500
         8   01 Jun 2027 09:06:50.610   01 Jun 2027 09:07:27.504            36.894         18447.000
         9   01 Jun 2027 10:36:43.435   01 Jun 2027 10:38:33.909           110.474         55237.000
        10   01 Jun 2027 10:40:12.614   01 Jun 2027 10:40:17.275             4.661          2330.500
        11   01 Jun 2027 10:40:33.835   01 Jun 2027 10:40:48.931            15.096          7548.000
        12   01 Jun 2027 10:41:20.486   01 Jun 2027 10:41:30.812            10.326          5163.000
        13   02 Jun 2027 03:00:45.722   02 Jun 2027 03:01:08.822            23.100         11550.000
        14   02 Jun 2027 03:01:46.473   02 Jun 2027 03:02:01.732            15.259          7629.500
        15   02 Jun 2027 03:03:02.802   02 Jun 2027 03:03:02.802             0.000             0.000
        16   02 Jun 2027 03:03:12.605   02 Jun 2027 03:03:12.671             0.066            33.000
        17   02 Jun 2027 03:03:29.098   02 Jun 2027 03:03:37.542             8.444          4222.000
        18   02 Jun 2027 03:04:11.552   02 Jun 2027 03:04:12.926             1.374           687.000
        19   02 Jun 2027 03:04:49.105   02 Jun 2027 03:04:57.271             8.166          4083.000
        20   02 Jun 2027 03:05:28.201   02 Jun 2027 03:05:41.652            13.451          6725.500
        21   02 Jun 2027 03:06:17.375   02 Jun 2027 03:06:23.726             6.351          3175.500
        22   02 Jun 2027 03:06:40.545   02 Jun 2027 03:06:49.360             8.815          4407.500
        23   02 Jun 2027 03:07:15.789   02 Jun 2027 03:08:06.580            50.791         25395.500
        24   02 Jun 2027 04:25:50.865   02 Jun 2027 04:26:13.092            22.227         11113.500
        25   02 Jun 2027 04:37:30.247   02 Jun 2027 04:38:18.624            48.377         24188.500
        26   02 Jun 2027 06:00:03.258   02 Jun 2027 06:01:03.530            60.272         30136.000
        27   02 Jun 2027 06:01:47.930   02 Jun 2027 06:02:01.667            13.737          6868.500
        28   02 Jun 2027 06:02:11.465   02 Jun 2027 06:02:13.329             1.864           932.000
        29   02 Jun 2027 06:04:28.699   02 Jun 2027 06:04:38.895            10.196          5098.000
        30   02 Jun 2027 07:35:06.978   02 Jun 2027 07:36:28.065            81.087         40543.500
        31   02 Jun 2027 07:36:56.758   02 Jun 2027 07:37:47.973            51.215         25607.500
        32   02 Jun 2027 07:41:21.266   02 Jun 2027 07:41:21.266             0.000             0.000
        33   02 Jun 2027 07:41:48.369   02 Jun 2027 07:41:48.819             0.450           225.000
        34   02 Jun 2027 09:12:04.131   02 Jun 2027 09:13:43.307            99.176         49588.000
        35   02 Jun 2027 09:14:17.367   02 Jun 2027 09:14:57.982            40.615         20307.500
        36   02 Jun 2027 09:17:00.907   02 Jun 2027 09:17:15.350            14.443          7221.500
        37   02 Jun 2027 09:19:28.222   02 Jun 2027 09:19:28.607             0.385           192.500
        38   02 Jun 2027 10:49:02.849   02 Jun 2027 10:51:06.629           123.780         61890.000
        39   02 Jun 2027 10:55:01.782   02 Jun 2027 10:55:10.967             9.185          4592.500
        40   03 Jun 2027 03:13:01.594   03 Jun 2027 03:14:14.053            72.459         36229.500
        41   03 Jun 2027 03:15:37.636   03 Jun 2027 03:15:49.332            11.696          5848.000
        42   03 Jun 2027 03:17:08.955   03 Jun 2027 03:17:28.827            19.872          9936.000
        43   03 Jun 2027 03:19:50.153   03 Jun 2027 03:19:55.662             5.509          2754.500
        44   03 Jun 2027 04:37:12.199   03 Jun 2027 04:37:39.733            27.534         13767.000
        45   03 Jun 2027 04:49:28.024   03 Jun 2027 04:50:14.140            46.116         23058.000
        46   03 Jun 2027 06:11:29.500   03 Jun 2027 06:12:02.778            33.278         16639.000
        47   03 Jun 2027 06:13:49.222   03 Jun 2027 06:14:03.395            14.173          7086.500
        48   03 Jun 2027 06:16:02.018   03 Jun 2027 06:16:16.192            14.174          7087.000
        49   03 Jun 2027 07:46:31.835   03 Jun 2027 07:48:23.225           111.390         55695.000
        50   03 Jun 2027 07:48:41.676   03 Jun 2027 07:48:57.092            15.416          7708.000
        51   03 Jun 2027 07:51:54.953   03 Jun 2027 07:52:25.675            30.722         15361.000
        52   03 Jun 2027 09:24:08.159   03 Jun 2027 09:26:12.839           124.680         62340.000
        53   03 Jun 2027 09:30:16.363   03 Jun 2027 09:30:41.630            25.267         12633.500
        54   03 Jun 2027 09:31:31.911   03 Jun 2027 09:31:32.317             0.406           203.000
        55   03 Jun 2027 11:00:52.054   03 Jun 2027 11:01:49.449            57.395         28649.313
        56   03 Jun 2027 11:02:33.297   03 Jun 2027 11:02:37.095             3.798           998.094
        57   03 Jun 2027 11:02:58.903   03 Jun 2027 11:03:00.502             1.599           205.156
        58   03 Jun 2027 11:03:40.184   03 Jun 2027 11:03:40.781             0.597           298.500
        59   03 Jun 2027 11:05:50.680   03 Jun 2027 11:06:03.809            13.129          4570.656
        60   03 Jun 2027 11:06:26.407   03 Jun 2027 11:06:28.817             2.410           259.906
        61   03 Jun 2027 11:07:01.225   03 Jun 2027 11:07:01.655             0.430           215.000
        62   03 Jun 2027 11:07:13.281   03 Jun 2027 11:07:15.931             2.650          1152.656
        63   03 Jun 2027 11:07:28.714   03 Jun 2027 11:07:32.581             3.867            67.937
        64   04 Jun 2027 03:25:07.685   04 Jun 2027 03:26:26.710            79.025         39512.500
        65   04 Jun 2027 03:26:48.054   04 Jun 2027 03:26:55.699             7.645          3822.500
        66   04 Jun 2027 03:27:05.538   04 Jun 2027 03:27:09.042             3.504          1752.000
        67   04 Jun 2027 03:27:27.299   04 Jun 2027 03:27:28.480             1.181           590.500
        68   04 Jun 2027 03:27:40.989   04 Jun 2027 03:27:49.221             8.232          4116.000
        69   04 Jun 2027 03:28:42.603   04 Jun 2027 03:28:42.603             0.000             0.000
        70   04 Jun 2027 04:49:19.483   04 Jun 2027 04:50:02.844            43.361         21680.500
        71   04 Jun 2027 05:01:51.010   04 Jun 2027 05:01:55.202             4.192          2096.000
        72   04 Jun 2027 06:23:09.201   04 Jun 2027 06:24:41.141            91.940         45970.000
        73   04 Jun 2027 06:24:47.017   04 Jun 2027 06:24:53.341             6.324          3162.000
        74   04 Jun 2027 06:26:47.303   04 Jun 2027 06:26:47.303             0.000             0.000
        75   04 Jun 2027 06:27:40.278   04 Jun 2027 06:27:55.208            14.930          7465.000
        76   04 Jun 2027 07:58:02.272   04 Jun 2027 07:59:30.970            88.698         44214.437
        77   04 Jun 2027 08:00:07.404   04 Jun 2027 08:00:08.359             0.955           345.437
        78   04 Jun 2027 08:01:38.948   04 Jun 2027 08:01:41.440             2.492          1246.000
        79   04 Jun 2027 08:02:23.589   04 Jun 2027 08:02:29.267             5.678          2655.094
        80   04 Jun 2027 08:02:35.480   04 Jun 2027 08:02:37.138             1.658           133.375
        81   04 Jun 2027 08:05:15.572   04 Jun 2027 08:05:19.617             4.045          2022.500
        82   04 Jun 2027 08:05:56.761   04 Jun 2027 08:06:05.815             9.054          4054.406
        83   04 Jun 2027 09:36:06.764   04 Jun 2027 09:36:28.090            21.326          8172.156
        84   04 Jun 2027 09:38:11.548   04 Jun 2027 09:38:19.376             7.828          3088.062
        85   04 Jun 2027 09:38:31.308   04 Jun 2027 09:38:33.520             2.212           372.875
        86   04 Jun 2027 09:39:23.333   04 Jun 2027 09:39:25.488             2.155           806.875
        87   04 Jun 2027 09:39:38.084   04 Jun 2027 09:39:40.265             2.181           393.625
        88   04 Jun 2027 09:40:54.376   04 Jun 2027 09:41:00.352             5.976          2190.406
        89   04 Jun 2027 09:41:45.671   04 Jun 2027 09:41:46.977             1.306           653.000
        90   04 Jun 2027 09:42:08.388   04 Jun 2027 09:42:10.531             2.143           931.000
        91   04 Jun 2027 09:42:35.965   04 Jun 2027 09:42:41.676             5.711           437.344
        92   04 Jun 2027 09:42:44.150   04 Jun 2027 09:42:44.538             0.388            77.313
        93   04 Jun 2027 09:42:58.372   04 Jun 2027 09:43:01.762             3.390           292.125
        94   04 Jun 2027 09:43:06.979   04 Jun 2027 09:43:08.289             1.310           163.031
        95   04 Jun 2027 09:43:14.169   04 Jun 2027 09:43:14.752             0.583           175.438
        96   04 Jun 2027 09:43:18.151   04 Jun 2027 09:43:20.277             2.126           106.219
        97   04 Jun 2027 11:12:59.947   04 Jun 2027 11:13:01.104             1.157           578.500
        98   04 Jun 2027 11:13:03.178   04 Jun 2027 11:13:17.221            14.043          6009.844
        99   04 Jun 2027 11:13:28.550   04 Jun 2027 11:13:28.940             0.390           101.344
       100   04 Jun 2027 11:14:42.837   04 Jun 2027 11:14:47.720             4.883          1558.750
       101   04 Jun 2027 11:15:06.236   04 Jun 2027 11:15:09.143             2.907           370.031
       102   04 Jun 2027 11:15:31.763   04 Jun 2027 11:15:36.994             5.231           601.094
       103   04 Jun 2027 11:15:47.906   04 Jun 2027 11:15:49.313             1.407           341.000
       104   04 Jun 2027 11:15:53.892   04 Jun 2027 11:15:56.271             2.379           143.094
       105   04 Jun 2027 11:17:02.838   04 Jun 2027 11:17:10.257             7.419          2080.219
       106   04 Jun 2027 11:17:45.148   04 Jun 2027 11:17:49.523             4.375           869.656
       107   04 Jun 2027 11:19:07.147   04 Jun 2027 11:19:15.146             7.999          2336.375
       108   05 Jun 2027 03:37:32.952   05 Jun 2027 03:39:15.918           102.966         51483.000
       109   05 Jun 2027 03:40:40.191   05 Jun 2027 03:40:45.396             5.205          2602.500
       110   05 Jun 2027 03:41:06.428   05 Jun 2027 03:41:09.192             2.764          1382.000
       111   05 Jun 2027 03:41:30.624   05 Jun 2027 03:41:40.051             9.427          4713.500
       112   05 Jun 2027 05:01:16.976   05 Jun 2027 05:02:14.474            57.498         28749.000
       113   05 Jun 2027 06:37:28.125   05 Jun 2027 06:38:58.059            89.934         44967.000
       114   05 Jun 2027 06:39:55.284   05 Jun 2027 06:40:04.873             9.589          4794.500
       115   05 Jun 2027 06:40:08.267   05 Jun 2027 06:40:24.063            15.796          7898.000
       116   05 Jun 2027 08:11:01.560   05 Jun 2027 08:11:52.029            50.469         22728.281
       117   05 Jun 2027 08:12:09.241   05 Jun 2027 08:12:16.081             6.840           290.125
       118   05 Jun 2027 08:12:43.139   05 Jun 2027 08:12:44.914             1.775           792.063
       119   05 Jun 2027 08:12:50.863   05 Jun 2027 08:12:52.820             1.957           163.344
       120   05 Jun 2027 08:14:13.394   05 Jun 2027 08:14:19.182             5.788          2517.938
       121   05 Jun 2027 08:16:18.596   05 Jun 2027 08:16:27.497             8.901          3529.125
       122   05 Jun 2027 08:18:14.625   05 Jun 2027 08:18:15.624             0.999           499.500
       123   05 Jun 2027 08:18:37.420   05 Jun 2027 08:18:46.634             9.214          3142.594
       124   05 Jun 2027 09:48:29.074   05 Jun 2027 09:48:45.481            16.407          8167.812
       125   05 Jun 2027 09:49:45.627   05 Jun 2027 09:49:47.989             2.362           161.781
       126   05 Jun 2027 09:51:15.756   05 Jun 2027 09:51:21.671             5.915          2742.719
       127   05 Jun 2027 09:51:41.442   05 Jun 2027 09:51:42.646             1.204           440.188
       128   05 Jun 2027 09:51:48.783   05 Jun 2027 09:51:49.267             0.484             5.219
       129   05 Jun 2027 09:52:02.332   05 Jun 2027 09:52:03.995             1.663           336.781
       130   05 Jun 2027 09:53:02.395   05 Jun 2027 09:53:07.543             5.148          1825.000
       131   05 Jun 2027 09:53:34.663   05 Jun 2027 09:53:37.828             3.165           522.594
       132   05 Jun 2027 09:53:53.533   05 Jun 2027 09:53:54.930             1.397           490.781
       133   05 Jun 2027 09:54:53.562   05 Jun 2027 09:54:56.055             2.493           875.781
       134   05 Jun 2027 09:55:09.977   05 Jun 2027 09:55:11.466             1.489           432.562
       135   05 Jun 2027 11:25:28.778   05 Jun 2027 11:25:43.831            15.053          6411.406
       136   05 Jun 2027 11:26:38.650   05 Jun 2027 11:26:41.213             2.563           962.344
       137   05 Jun 2027 11:27:11.554   05 Jun 2027 11:27:13.187             1.633           545.094
       138   05 Jun 2027 11:27:26.050   05 Jun 2027 11:27:27.650             1.600           353.281
       139   05 Jun 2027 11:27:47.160   05 Jun 2027 11:27:51.867             4.707           609.687
       140   05 Jun 2027 11:28:48.563   05 Jun 2027 11:28:55.942             7.379          1701.187
       141   05 Jun 2027 11:29:00.303   05 Jun 2027 11:29:00.677             0.374           136.281
       142   05 Jun 2027 11:29:38.521   05 Jun 2027 11:29:42.496             3.975          1076.938
       143   05 Jun 2027 11:30:57.336   05 Jun 2027 11:31:03.067             5.731          2155.125
       144   06 Jun 2027 03:49:27.656   06 Jun 2027 03:51:17.092           109.436         54718.000
       145   06 Jun 2027 03:51:36.151   06 Jun 2027 03:51:46.004             9.853          4926.500
       146   06 Jun 2027 03:52:10.177   06 Jun 2027 03:52:10.199             0.022            11.000
       147   06 Jun 2027 03:52:29.156   06 Jun 2027 03:52:34.751             5.595          2797.500
       148   06 Jun 2027 05:13:06.936   06 Jun 2027 05:14:16.927            69.991         34995.500
       149   06 Jun 2027 05:14:34.233   06 Jun 2027 05:14:49.085            14.852          7426.000
       150   06 Jun 2027 06:49:33.831   06 Jun 2027 06:51:05.827            91.996         45998.000
       151   06 Jun 2027 06:51:11.739   06 Jun 2027 06:51:28.198            16.459          7692.906
       152   06 Jun 2027 08:21:43.796   06 Jun 2027 08:21:53.012             9.216          4608.000
       153   06 Jun 2027 08:23:40.625   06 Jun 2027 08:23:46.212             5.587          2793.500
       154   06 Jun 2027 08:24:02.796   06 Jun 2027 08:24:09.566             6.770           803.437
       155   06 Jun 2027 08:25:20.651   06 Jun 2027 08:25:20.651             0.000             0.000
       156   06 Jun 2027 08:25:27.483   06 Jun 2027 08:25:33.508             6.025          2147.750
       157   06 Jun 2027 08:25:47.374   06 Jun 2027 08:25:47.710             0.336           102.781
       158   06 Jun 2027 08:27:56.779   06 Jun 2027 08:28:01.932             5.153          2576.500
       159   06 Jun 2027 08:28:30.709   06 Jun 2027 08:28:33.906             3.197          1114.406
       160   06 Jun 2027 08:28:56.128   06 Jun 2027 08:28:57.099             0.971           477.281
       161   06 Jun 2027 08:30:12.029   06 Jun 2027 08:30:16.822             4.793          2341.562
       162   06 Jun 2027 08:31:18.641   06 Jun 2027 08:31:24.617             5.976          1841.219
       163   06 Jun 2027 10:00:38.706   06 Jun 2027 10:00:51.245            12.539          6014.531
       164   06 Jun 2027 10:01:12.267   06 Jun 2027 10:01:13.430             1.163           381.219
       165   06 Jun 2027 10:01:26.689   06 Jun 2027 10:01:28.818             2.129           180.688
       166   06 Jun 2027 10:02:59.854   06 Jun 2027 10:03:08.238             8.384          2253.094
       167   06 Jun 2027 10:03:52.028   06 Jun 2027 10:03:54.094             2.066           874.344
       168   06 Jun 2027 10:04:58.223   06 Jun 2027 10:05:01.815             3.592          1685.156
       169   06 Jun 2027 10:05:05.613   06 Jun 2027 10:05:05.751             0.138            63.813
       170   06 Jun 2027 10:05:10.455   06 Jun 2027 10:05:12.507             2.052           124.219
       171   06 Jun 2027 10:05:47.549   06 Jun 2027 10:05:48.732             1.183           577.875
       172   06 Jun 2027 10:06:20.697   06 Jun 2027 10:06:21.438             0.741           370.500
       173   06 Jun 2027 10:07:03.672   06 Jun 2027 10:07:07.805             4.133          1948.219
       174   06 Jun 2027 11:37:56.298   06 Jun 2027 11:38:12.687            16.389          7928.813
       175   06 Jun 2027 11:38:47.104   06 Jun 2027 11:38:48.057             0.953           428.687
       176   06 Jun 2027 11:38:58.316   06 Jun 2027 11:38:58.316             0.000             0.000
       177   06 Jun 2027 11:39:08.990   06 Jun 2027 11:39:13.113             4.123           639.344
       178   06 Jun 2027 11:39:31.339   06 Jun 2027 11:39:35.186             3.847           548.250
       179   06 Jun 2027 11:39:53.119   06 Jun 2027 11:39:59.503             6.384           548.188
       180   06 Jun 2027 11:40:43.460   06 Jun 2027 11:40:46.716             3.256          1373.656
       181   06 Jun 2027 11:41:08.695   06 Jun 2027 11:41:13.590             4.895           556.000
       182   06 Jun 2027 11:41:41.778   06 Jun 2027 11:41:47.420             5.642           880.875
       183   06 Jun 2027 11:42:15.383   06 Jun 2027 11:42:18.673             3.290           873.844
       184   07 Jun 2027 04:02:41.202   07 Jun 2027 04:04:27.073           105.871         52935.500
       185   07 Jun 2027 04:05:14.465   07 Jun 2027 04:05:14.465             0.000             0.000
       186   07 Jun 2027 04:05:31.418   07 Jun 2027 04:05:48.134            16.716          8358.000
       187   07 Jun 2027 05:25:14.913   07 Jun 2027 05:26:30.315            75.402         37701.000
       188   07 Jun 2027 05:26:35.981   07 Jun 2027 05:26:47.520            11.539          5769.500
       189   07 Jun 2027 05:27:07.581   07 Jun 2027 05:27:07.581             0.000             0.000
       190   07 Jun 2027 07:01:43.043   07 Jun 2027 07:03:36.602           113.559         56272.563
       191   07 Jun 2027 07:04:26.741   07 Jun 2027 07:04:32.224             5.483          1566.844
       192   07 Jun 2027 08:36:53.834   07 Jun 2027 08:37:14.671            20.837          9419.281
       193   07 Jun 2027 08:37:19.660   07 Jun 2027 08:37:21.938             2.278           155.906
       194   07 Jun 2027 08:38:14.079   07 Jun 2027 08:38:17.694             3.615           832.781
       195   07 Jun 2027 08:39:12.693   07 Jun 2027 08:39:12.693             0.000             0.000
       196   07 Jun 2027 08:39:54.147   07 Jun 2027 08:39:54.147             0.000             0.000
       197   07 Jun 2027 08:40:24.115   07 Jun 2027 08:40:32.758             8.643          3601.031
       198   07 Jun 2027 08:40:44.879   07 Jun 2027 08:40:46.189             1.310           114.000
       199   07 Jun 2027 08:41:17.825   07 Jun 2027 08:41:29.259            11.434           811.563
       200   07 Jun 2027 08:41:33.408   07 Jun 2027 08:41:34.362             0.954           128.563
       201   07 Jun 2027 08:41:45.263   07 Jun 2027 08:41:48.883             3.620           241.719
       202   07 Jun 2027 08:42:35.525   07 Jun 2027 08:42:35.525             0.000             0.000
       203   07 Jun 2027 08:43:06.411   07 Jun 2027 08:43:10.143             3.732          1697.281
       204   07 Jun 2027 08:43:24.444   07 Jun 2027 08:43:28.221             3.777           446.906
       205   07 Jun 2027 10:13:12.881   07 Jun 2027 10:13:26.572            13.691          5397.281
       206   07 Jun 2027 10:14:44.442   07 Jun 2027 10:14:57.467            13.025          1811.469
       207   07 Jun 2027 10:15:00.425   07 Jun 2027 10:15:01.181             0.756            92.437
       208   07 Jun 2027 10:15:29.299   07 Jun 2027 10:15:32.629             3.330           878.688
       209   07 Jun 2027 10:17:00.214   07 Jun 2027 10:17:07.499             7.285          2587.813
       210   07 Jun 2027 10:17:32.775   07 Jun 2027 10:17:35.561             2.786           760.406
       211   07 Jun 2027 10:18:15.813   07 Jun 2027 10:18:15.813             0.000             0.000
       212   07 Jun 2027 10:19:00.832   07 Jun 2027 10:19:07.966             7.134          2394.875
       213   07 Jun 2027 10:19:25.703   07 Jun 2027 10:19:29.488             3.785           345.813
       214   07 Jun 2027 11:50:36.374   07 Jun 2027 11:50:50.644            14.270          7031.969
       215   07 Jun 2027 11:50:54.828   07 Jun 2027 11:50:54.828             0.000             0.000
       216   07 Jun 2027 11:51:22.060   07 Jun 2027 11:51:24.413             2.353           930.781
       217   07 Jun 2027 11:52:01.239   07 Jun 2027 11:52:01.239             0.000             0.000
       218   07 Jun 2027 11:52:55.203   07 Jun 2027 11:52:58.287             3.084          1542.000
       219   07 Jun 2027 11:53:04.397   07 Jun 2027 11:53:06.661             2.264          1132.000
       220   07 Jun 2027 11:53:56.934   07 Jun 2027 11:54:00.721             3.787          1739.156
       221   07 Jun 2027 11:54:30.611   07 Jun 2027 11:54:32.726             2.115           830.594
       222   07 Jun 2027 11:54:59.554   07 Jun 2027 11:54:59.554             0.000             0.000
       223   08 Jun 2027 04:13:48.965   08 Jun 2027 04:14:26.537            37.572         18786.000
       224   08 Jun 2027 04:14:55.288   08 Jun 2027 04:15:42.818            47.530         23765.000
       225   08 Jun 2027 04:16:06.370   08 Jun 2027 04:16:35.986            29.616         14808.000
       226   08 Jun 2027 05:37:16.290   08 Jun 2027 05:38:40.550            84.260         42130.000
       227   08 Jun 2027 05:40:11.509   08 Jun 2027 05:40:11.509             0.000             0.000
       228   08 Jun 2027 07:13:44.114   08 Jun 2027 07:15:45.898           121.784         60892.000
       229   08 Jun 2027 07:16:25.834   08 Jun 2027 07:16:34.702             8.868          3893.938
       230   08 Jun 2027 08:48:56.706   08 Jun 2027 08:49:06.876            10.170          5085.000
       231   08 Jun 2027 08:49:11.000   08 Jun 2027 08:49:22.764            11.764          2629.469
       232   08 Jun 2027 08:49:31.933   08 Jun 2027 08:49:32.093             0.160            56.531
       233   08 Jun 2027 08:49:52.093   08 Jun 2027 08:49:53.395             1.302           619.719
       234   08 Jun 2027 08:50:55.522   08 Jun 2027 08:51:01.972             6.450           800.187
       235   08 Jun 2027 08:52:17.252   08 Jun 2027 08:52:21.586             4.334          2167.000
       236   08 Jun 2027 08:53:07.541   08 Jun 2027 08:53:12.516             4.975          1621.594
       237   08 Jun 2027 08:53:47.063   08 Jun 2027 08:53:52.428             5.365          1079.594
       238   08 Jun 2027 08:54:50.305   08 Jun 2027 08:54:53.870             3.565          1782.500
       239   08 Jun 2027 08:55:30.380   08 Jun 2027 08:55:33.339             2.959          1167.094
       240   08 Jun 2027 10:24:51.913   08 Jun 2027 10:25:06.416            14.503          7135.094
       241   08 Jun 2027 10:25:33.403   08 Jun 2027 10:25:37.959             4.556           243.375
       242   08 Jun 2027 10:26:03.378   08 Jun 2027 10:26:04.864             1.486           605.500
       243   08 Jun 2027 10:27:02.787   08 Jun 2027 10:27:05.389             2.602          1301.000
       244   08 Jun 2027 10:27:45.462   08 Jun 2027 10:27:50.019             4.557          1258.875
       245   08 Jun 2027 10:28:34.312   08 Jun 2027 10:28:38.229             3.917          1192.688
       246   08 Jun 2027 10:29:00.347   08 Jun 2027 10:29:02.202             1.855           691.188
       247   08 Jun 2027 10:29:09.323   08 Jun 2027 10:29:10.929             1.606           222.531
       248   08 Jun 2027 10:29:15.978   08 Jun 2027 10:29:17.154             1.176           157.781
       249   08 Jun 2027 10:29:17.923   08 Jun 2027 10:29:18.843             0.920            24.031
       250   08 Jun 2027 10:29:25.598   08 Jun 2027 10:29:28.600             3.002           209.875
       251   08 Jun 2027 10:29:41.077   08 Jun 2027 10:29:46.973             5.896           279.187
       252   08 Jun 2027 10:30:16.585   08 Jun 2027 10:30:25.329             8.744           582.125
       253   09 Jun 2027 04:14:49.744   09 Jun 2027 04:15:17.642            27.898         13949.000
       254   09 Jun 2027 04:25:45.835   09 Jun 2027 04:27:15.209            89.374         44687.000
       255   09 Jun 2027 04:28:48.747   09 Jun 2027 04:28:48.747             0.000             0.000
       256   09 Jun 2027 04:29:13.775   09 Jun 2027 04:29:14.268             0.493           246.500
       257   09 Jun 2027 05:49:42.743   09 Jun 2027 05:50:46.715            63.972         31986.000
       258   09 Jun 2027 05:51:41.913   09 Jun 2027 05:52:08.069            26.156         13078.000
       259   09 Jun 2027 07:25:27.901   09 Jun 2027 07:27:20.493           112.592         55893.812
       260   09 Jun 2027 07:28:23.914   09 Jun 2027 07:28:23.921             0.007             3.500
       261   09 Jun 2027 07:29:36.275   09 Jun 2027 07:29:45.707             9.432          4239.469
       262   09 Jun 2027 09:00:11.793   09 Jun 2027 09:00:25.430            13.637          6048.937
       263   09 Jun 2027 09:00:49.141   09 Jun 2027 09:00:50.414             1.273           543.094
       264   09 Jun 2027 09:01:10.540   09 Jun 2027 09:01:11.378             0.838           348.219
       265   09 Jun 2027 09:02:01.502   09 Jun 2027 09:02:04.659             3.157          1566.375
       266   09 Jun 2027 09:02:30.865   09 Jun 2027 09:02:33.271             2.406           574.187
       267   09 Jun 2027 09:03:41.626   09 Jun 2027 09:03:41.626             0.000             0.000
       268   09 Jun 2027 09:04:28.759   09 Jun 2027 09:04:37.278             8.519          3428.188
       269   09 Jun 2027 09:04:58.841   09 Jun 2027 09:05:04.047             5.206           673.844
       270   09 Jun 2027 09:06:11.245   09 Jun 2027 09:06:16.838             5.593          2099.938
       271   09 Jun 2027 09:06:17.062   09 Jun 2027 09:06:17.413             0.351             7.000
       272   09 Jun 2027 09:06:41.149   09 Jun 2027 09:06:44.205             3.056           741.750
       273   09 Jun 2027 09:07:19.299   09 Jun 2027 09:07:22.136             2.837           773.875
       274   09 Jun 2027 10:37:01.419   09 Jun 2027 10:37:20.414            18.995          8928.250
       275   09 Jun 2027 10:37:32.959   09 Jun 2027 10:37:35.277             2.318            50.469
       276   09 Jun 2027 10:37:41.777   09 Jun 2027 10:37:42.735             0.958            51.438
       277   09 Jun 2027 10:39:41.875   09 Jun 2027 10:39:45.892             4.017          1126.469
       278   09 Jun 2027 10:40:19.472   09 Jun 2027 10:40:23.324             3.852           959.063
       279   09 Jun 2027 10:41:22.498   09 Jun 2027 10:41:31.849             9.351          1849.188
       280   09 Jun 2027 10:41:53.872   09 Jun 2027 10:41:56.027             2.155           688.219
       281   09 Jun 2027 10:42:01.986   09 Jun 2027 10:42:02.780             0.794           186.219
       282   09 Jun 2027 10:42:37.401   09 Jun 2027 10:42:43.209             5.808           912.250
       283   10 Jun 2027 03:01:02.233   10 Jun 2027 03:01:25.760            23.527         11763.500
       284   10 Jun 2027 03:02:01.049   10 Jun 2027 03:02:05.481             4.432          2216.000
       285   10 Jun 2027 03:03:17.432   10 Jun 2027 03:03:28.672            11.240          5620.000
       286   10 Jun 2027 03:03:30.535   10 Jun 2027 03:03:31.347             0.812           406.000
       287   10 Jun 2027 03:03:40.019   10 Jun 2027 03:03:43.164             3.145          1572.500
       288   10 Jun 2027 03:04:20.678   10 Jun 2027 03:04:31.788            11.110          5555.000
       289   10 Jun 2027 03:04:38.192   10 Jun 2027 03:04:57.412            19.220          9610.000
       290   10 Jun 2027 03:06:32.870   10 Jun 2027 03:06:32.896             0.026            13.000
       291   10 Jun 2027 03:07:06.232   10 Jun 2027 03:07:15.489             9.257          4628.500
       292   10 Jun 2027 03:07:52.983   10 Jun 2027 03:08:22.055            29.072         14536.000
       293   10 Jun 2027 04:26:06.593   10 Jun 2027 04:26:28.494            21.901         10950.500
       294   10 Jun 2027 04:37:46.484   10 Jun 2027 04:38:35.877            49.393         24696.500
       295   10 Jun 2027 06:00:17.966   10 Jun 2027 06:01:19.007            61.041         30520.500
       296   10 Jun 2027 06:03:00.363   10 Jun 2027 06:03:26.009            25.646         12823.000
       297   10 Jun 2027 06:04:38.665   10 Jun 2027 06:04:38.665             0.000             0.000
       298   10 Jun 2027 07:35:21.201   10 Jun 2027 07:36:40.323            79.122         39561.000
       299   10 Jun 2027 07:37:12.031   10 Jun 2027 07:37:22.116            10.085          5042.500
       300   10 Jun 2027 07:38:33.287   10 Jun 2027 07:38:54.873            21.586          8557.625
       301   10 Jun 2027 07:40:53.326   10 Jun 2027 07:40:58.786             5.460          2730.000
       302   10 Jun 2027 07:41:34.704   10 Jun 2027 07:41:39.932             5.228          2094.094
       303   10 Jun 2027 07:42:04.777   10 Jun 2027 07:42:04.777             0.000             0.000
       304   10 Jun 2027 09:12:19.958   10 Jun 2027 09:12:34.380            14.422          5861.656
       305   10 Jun 2027 09:13:10.866   10 Jun 2027 09:13:10.866             0.000             0.000
       306   10 Jun 2027 09:14:30.528   10 Jun 2027 09:14:37.810             7.282          3629.625
       307   10 Jun 2027 09:15:01.990   10 Jun 2027 09:15:07.932             5.942           283.000
       308   10 Jun 2027 09:15:50.990   10 Jun 2027 09:15:53.744             2.754          1272.031
       309   10 Jun 2027 09:16:48.242   10 Jun 2027 09:16:53.129             4.887          1703.063
       310   10 Jun 2027 09:17:23.947   10 Jun 2027 09:17:25.381             1.434           557.531
       311   10 Jun 2027 09:17:54.089   10 Jun 2027 09:17:56.565             2.476           897.125
       312   10 Jun 2027 09:18:19.986   10 Jun 2027 09:18:23.356             3.370           498.563
       313   10 Jun 2027 09:18:55.962   10 Jun 2027 09:18:57.572             1.610           805.000
       314   10 Jun 2027 09:19:25.802   10 Jun 2027 09:19:30.193             4.391          1096.125
       315   10 Jun 2027 09:19:44.397   10 Jun 2027 09:19:44.472             0.075            37.500
       316   10 Jun 2027 10:49:18.035   10 Jun 2027 10:49:33.124            15.089          7018.656
       317   10 Jun 2027 10:50:14.479   10 Jun 2027 10:50:17.236             2.757          1246.031
       318   10 Jun 2027 10:50:52.095   10 Jun 2027 10:50:52.997             0.902           366.781
       319   10 Jun 2027 10:51:03.514   10 Jun 2027 10:51:05.584             2.070           328.656
       320   10 Jun 2027 10:51:34.696   10 Jun 2027 10:51:38.721             4.025           883.344
       321   10 Jun 2027 10:51:56.758   10 Jun 2027 10:51:58.167             1.409           176.719
       322   10 Jun 2027 10:52:47.112   10 Jun 2027 10:52:52.932             5.820          1244.250
       323   10 Jun 2027 10:52:57.556   10 Jun 2027 10:52:58.574             1.018           144.500
       324   10 Jun 2027 10:53:38.686   10 Jun 2027 10:53:49.848            11.162          1132.469
       325   10 Jun 2027 10:54:03.185   10 Jun 2027 10:54:04.031             0.846           416.781
       326   10 Jun 2027 10:54:33.140   10 Jun 2027 10:54:45.658            12.518           872.062
       327   10 Jun 2027 10:55:19.418   10 Jun 2027 10:55:21.580             2.162           767.688
       328   11 Jun 2027 03:13:18.489   11 Jun 2027 03:14:28.210            69.721         34860.500
       329   11 Jun 2027 03:16:04.378   11 Jun 2027 03:16:12.152             7.774          3887.000
       330   11 Jun 2027 03:16:54.846   11 Jun 2027 03:16:58.955             4.109          2054.500
       331   11 Jun 2027 03:18:19.362   11 Jun 2027 03:18:26.555             7.193          3596.500
       332   11 Jun 2027 03:18:34.969   11 Jun 2027 03:18:39.210             4.241          2120.500
       333   11 Jun 2027 03:19:23.872   11 Jun 2027 03:19:34.223            10.351          5175.500
       334   11 Jun 2027 04:37:27.594   11 Jun 2027 04:38:15.812            48.218         24109.000
       335   11 Jun 2027 04:49:43.848   11 Jun 2027 04:50:30.269            46.421         23210.500
       336   11 Jun 2027 06:11:42.511   11 Jun 2027 06:12:32.703            50.192         25096.000
       337   11 Jun 2027 06:13:50.562   11 Jun 2027 06:14:04.656            14.094          7047.000
       338   11 Jun 2027 06:15:08.584   11 Jun 2027 06:15:30.230            21.646         10823.000
       339   11 Jun 2027 07:46:45.474   11 Jun 2027 07:48:11.207            85.733         42866.500
       340   11 Jun 2027 07:48:35.662   11 Jun 2027 07:48:39.625             3.963          1981.500
       341   11 Jun 2027 07:49:45.127   11 Jun 2027 07:49:45.127             0.000             0.000
       342   11 Jun 2027 07:50:55.349   11 Jun 2027 07:50:55.349             0.000             0.000
       343   11 Jun 2027 07:52:10.888   11 Jun 2027 07:52:10.888             0.000             0.000
       344   11 Jun 2027 07:52:54.955   11 Jun 2027 07:53:07.861            12.906          6453.000
       345   11 Jun 2027 07:54:00.065   11 Jun 2027 07:54:09.106             9.041          3235.563
       346   11 Jun 2027 09:24:21.957   11 Jun 2027 09:24:36.760            14.803          6074.281
       347   11 Jun 2027 09:26:29.921   11 Jun 2027 09:26:29.921             0.000             0.000
       348   11 Jun 2027 09:27:28.637   11 Jun 2027 09:27:39.734            11.097          5371.156
       349   11 Jun 2027 09:28:04.874   11 Jun 2027 09:28:12.267             7.393           785.625
       350   11 Jun 2027 09:28:32.224   11 Jun 2027 09:28:37.253             5.029           267.125
       351   11 Jun 2027 09:29:04.952   11 Jun 2027 09:29:07.814             2.862           865.594
       352   11 Jun 2027 09:29:24.574   11 Jun 2027 09:29:26.955             2.381           523.750
       353   11 Jun 2027 09:29:56.152   11 Jun 2027 09:29:59.205             3.053           684.687
       354   11 Jun 2027 09:30:03.459   11 Jun 2027 09:30:04.462             1.003            44.844
       355   11 Jun 2027 09:30:22.501   11 Jun 2027 09:30:24.821             2.320           560.438
       356   11 Jun 2027 09:31:30.989   11 Jun 2027 09:31:35.949             4.960          1796.813
       357   11 Jun 2027 09:31:48.047   11 Jun 2027 09:31:48.212             0.165            82.500
       358   11 Jun 2027 11:01:07.895   11 Jun 2027 11:01:22.763            14.868          7152.750
       359   11 Jun 2027 11:02:25.018   11 Jun 2027 11:02:29.149             4.131          1369.406
       360   11 Jun 2027 11:02:38.010   11 Jun 2027 11:02:48.340            10.330           276.906
       361   11 Jun 2027 11:03:55.533   11 Jun 2027 11:04:00.485             4.952          2043.531
       362   11 Jun 2027 11:04:09.357   11 Jun 2027 11:04:11.900             2.543           277.250
       363   11 Jun 2027 11:04:31.612   11 Jun 2027 11:04:35.432             3.820           589.094
       364   11 Jun 2027 11:05:01.306   11 Jun 2027 11:05:07.330             6.024           701.375
       365   11 Jun 2027 11:05:34.028   11 Jun 2027 11:05:37.959             3.931           815.750
       366   11 Jun 2027 11:06:07.699   11 Jun 2027 11:06:20.470            12.771           929.375
       367   11 Jun 2027 11:06:54.623   11 Jun 2027 11:06:56.926             2.303           672.438
       368   11 Jun 2027 11:07:24.804   11 Jun 2027 11:07:27.357             2.553           726.219
       369   12 Jun 2027 03:25:24.879   12 Jun 2027 03:27:10.383           105.504         52752.000
       370   12 Jun 2027 03:27:20.014   12 Jun 2027 03:27:23.759             3.745          1872.500
       371   12 Jun 2027 03:27:27.446   12 Jun 2027 03:27:29.135             1.689           844.500
       372   12 Jun 2027 03:27:42.786   12 Jun 2027 03:27:43.390             0.604           302.000
       373   12 Jun 2027 03:27:57.277   12 Jun 2027 03:28:06.304             9.027          4513.500
       374   12 Jun 2027 03:31:25.566   12 Jun 2027 03:31:48.588            23.022         11511.000
       375   12 Jun 2027 04:49:35.475   12 Jun 2027 04:50:18.667            43.192         21596.000
       376   12 Jun 2027 05:02:08.288   12 Jun 2027 05:02:10.699             2.411          1205.500
       377   12 Jun 2027 06:23:24.986   12 Jun 2027 06:25:05.069           100.083         50041.500
       378   12 Jun 2027 06:27:03.955   12 Jun 2027 06:27:23.652            19.697          9848.500
       379   12 Jun 2027 06:27:49.620   12 Jun 2027 06:27:55.759             6.139          3069.500
       380   12 Jun 2027 07:58:17.052   12 Jun 2027 07:59:08.457            51.405         22084.437
       381   12 Jun 2027 07:59:24.630   12 Jun 2027 07:59:32.037             7.407           134.531
       382   12 Jun 2027 08:00:39.755   12 Jun 2027 08:00:41.104             1.349           164.219
       383   12 Jun 2027 08:00:57.860   12 Jun 2027 08:00:58.681             0.821           119.531
       384   12 Jun 2027 08:02:55.384   12 Jun 2027 08:03:05.126             9.742          3493.844
       385   12 Jun 2027 08:04:15.609   12 Jun 2027 08:04:26.605            10.996          2117.781
       386   12 Jun 2027 08:04:32.063   12 Jun 2027 08:04:33.563             1.500             5.000
       387   12 Jun 2027 08:05:21.564   12 Jun 2027 08:05:26.265             4.701          1500.031
       388   12 Jun 2027 08:06:26.922   12 Jun 2027 08:06:32.853             5.931          1881.844
       389   12 Jun 2027 08:07:16.160   12 Jun 2027 08:07:18.937             2.777          1297.312
       390   12 Jun 2027 09:36:22.745   12 Jun 2027 09:36:38.874            16.129          6839.687
       391   12 Jun 2027 09:37:20.844   12 Jun 2027 09:37:23.550             2.706           892.281
       392   12 Jun 2027 09:37:54.177   12 Jun 2027 09:37:55.116             0.939           289.156
       393   12 Jun 2027 09:39:15.784   12 Jun 2027 09:39:15.784             0.000             0.000
       394   12 Jun 2027 09:40:33.384   12 Jun 2027 09:40:42.159             8.775          3900.531
       395   12 Jun 2027 09:41:12.367   12 Jun 2027 09:41:16.759             4.392           944.000
       396   12 Jun 2027 09:41:34.246   12 Jun 2027 09:41:35.028             0.782           347.438
       397   12 Jun 2027 09:41:59.744   12 Jun 2027 09:42:02.552             2.808           772.375
       398   12 Jun 2027 09:42:23.977   12 Jun 2027 09:42:25.834             1.857           654.438
       399   12 Jun 2027 09:43:26.271   12 Jun 2027 09:43:29.715             3.444          1527.344
       400   12 Jun 2027 09:43:39.629   12 Jun 2027 09:43:46.248             6.619           309.812
       401   12 Jun 2027 11:13:17.018   12 Jun 2027 11:13:23.794             6.776          3388.000
       402   12 Jun 2027 11:13:49.327   12 Jun 2027 11:13:59.461            10.134          3928.531
       403   12 Jun 2027 11:14:22.408   12 Jun 2027 11:14:23.050             0.642           321.000
       404   12 Jun 2027 11:15:30.576   12 Jun 2027 11:15:35.651             5.075          2506.281
       405   12 Jun 2027 11:15:37.420   12 Jun 2027 11:15:37.858             0.438            55.281
       406   12 Jun 2027 11:16:27.617   12 Jun 2027 11:16:32.700             5.083          1554.969
       407   12 Jun 2027 11:16:58.890   12 Jun 2027 11:17:03.955             5.065           804.531
       408   12 Jun 2027 11:17:09.894   12 Jun 2027 11:17:12.358             2.464           185.594
       409   12 Jun 2027 11:17:33.741   12 Jun 2027 11:17:38.009             4.268           607.156
       410   12 Jun 2027 11:18:50.442   12 Jun 2027 11:18:54.157             3.715          1447.844
       411   12 Jun 2027 11:18:56.089   12 Jun 2027 11:18:57.819             1.730            60.375
       412   12 Jun 2027 11:19:21.181   12 Jun 2027 11:19:22.778             1.597           692.938
       413   13 Jun 2027 03:38:02.437   13 Jun 2027 03:39:52.726           110.289         55144.500
       414   13 Jun 2027 03:39:53.657   13 Jun 2027 03:40:12.049            18.392          9196.000
       415   13 Jun 2027 03:41:07.491   13 Jun 2027 03:41:07.677             0.186            93.000
       416   13 Jun 2027 05:01:31.669   13 Jun 2027 05:02:31.865            60.196         30098.000
       417   13 Jun 2027 06:37:44.341   13 Jun 2027 06:39:40.190           115.849         57924.500
       418   13 Jun 2027 06:40:46.936   13 Jun 2027 06:40:50.737             3.801          1900.500
       419   13 Jun 2027 08:11:17.631   13 Jun 2027 08:11:55.388            37.757         18861.000
       420   13 Jun 2027 08:12:24.254   13 Jun 2027 08:12:25.603             1.349           281.469
       421   13 Jun 2027 08:12:58.178   13 Jun 2027 08:13:01.169             2.991           815.250
       422   13 Jun 2027 08:14:30.481   13 Jun 2027 08:14:37.735             7.254          2522.031
       423   13 Jun 2027 08:16:14.662   13 Jun 2027 08:16:20.479             5.817          2865.250
       424   13 Jun 2027 08:19:14.730   13 Jun 2027 08:19:28.369            13.639          4943.062
       425   13 Jun 2027 09:48:48.688   13 Jun 2027 09:49:07.863            19.175          7960.344
       426   13 Jun 2027 09:50:49.302   13 Jun 2027 09:50:55.105             5.803           595.656
       427   13 Jun 2027 09:52:54.892   13 Jun 2027 09:53:07.130            12.238          3656.688
       428   13 Jun 2027 09:53:14.643   13 Jun 2027 09:53:15.063             0.420            98.844
       429   13 Jun 2027 09:53:43.873   13 Jun 2027 09:53:47.514             3.641           776.375
       430   13 Jun 2027 09:54:39.854   13 Jun 2027 09:54:42.785             2.931          1465.500
       431   13 Jun 2027 09:55:00.149   13 Jun 2027 09:55:01.069             0.920           460.000
       432   13 Jun 2027 09:55:11.321   13 Jun 2027 09:55:14.379             3.058           571.781
       433   13 Jun 2027 11:25:44.936   13 Jun 2027 11:26:02.557            17.621          7438.063
       434   13 Jun 2027 11:27:30.414   13 Jun 2027 11:27:34.648             4.234          2117.000
       435   13 Jun 2027 11:27:36.825   13 Jun 2027 11:27:38.487             1.662           160.500
       436   13 Jun 2027 11:28:46.611   13 Jun 2027 11:28:53.250             6.639          1967.563
       437   13 Jun 2027 11:29:00.574   13 Jun 2027 11:29:02.192             1.618           228.875
       438   13 Jun 2027 11:30:10.093   13 Jun 2027 11:30:14.669             4.576          2019.687
       439   13 Jun 2027 11:31:00.497   13 Jun 2027 11:31:04.714             4.217          1334.000
