uniorb/output/strategy_1/Camera/Camera_KinoSat_111906.txt

KinoSat_111906
-------------------------
    Access    *     Start Time (UTCG)     *     Stop Time (UTCG)  *   Duration (s) *   Data (Mbytes)
         1   01 Jun 2027 04:28:53.006   01 Jun 2027 04:28:55.270             2.264          1132.000
         2   01 Jun 2027 04:29:14.628   01 Jun 2027 04:30:14.047            59.419         29709.500
         3   01 Jun 2027 04:30:19.239   01 Jun 2027 04:31:39.969            80.730         40365.000
         4   01 Jun 2027 04:32:07.166   01 Jun 2027 04:32:11.206             4.040          2020.000
         5   01 Jun 2027 04:32:43.507   01 Jun 2027 04:32:45.339             1.832           916.000
         6   01 Jun 2027 04:34:08.098   01 Jun 2027 04:34:08.098             0.000             0.000
         7   01 Jun 2027 06:07:40.115   01 Jun 2027 06:10:05.663           145.548         72774.000
         8   01 Jun 2027 06:10:41.058   01 Jun 2027 06:10:41.527             0.469           234.500
         9   01 Jun 2027 06:11:18.486   01 Jun 2027 06:11:30.213            11.727          5863.500
        10   01 Jun 2027 07:31:09.025   01 Jun 2027 07:33:06.069           117.044         58522.000
        11   01 Jun 2027 09:07:09.826   01 Jun 2027 09:08:14.060            64.234         32117.000
        12   01 Jun 2027 09:08:32.210   01 Jun 2027 09:09:07.707            35.497         17748.500
        13   01 Jun 2027 10:40:53.667   01 Jun 2027 10:42:34.793           101.126         50563.000
        14   01 Jun 2027 10:46:55.714   01 Jun 2027 10:46:55.714             0.000             0.000
        15   01 Jun 2027 10:48:11.727   01 Jun 2027 10:49:28.398            76.671         38335.500
        16   02 Jun 2027 03:03:12.638   02 Jun 2027 03:03:22.369             9.731          4865.500
        17   02 Jun 2027 03:03:33.309   02 Jun 2027 03:03:39.478             6.169          3084.500
        18   02 Jun 2027 03:03:51.792   02 Jun 2027 03:04:03.427            11.635          5817.500
        19   02 Jun 2027 03:04:12.926   02 Jun 2027 03:04:31.450            18.524          9262.000
        20   02 Jun 2027 03:07:12.403   02 Jun 2027 03:07:51.752            39.349         19674.500
        21   02 Jun 2027 03:08:07.468   02 Jun 2027 03:08:07.615             0.147            73.500
        22   02 Jun 2027 04:41:17.178   02 Jun 2027 04:41:45.274            28.096         14048.000
        23   02 Jun 2027 04:41:49.229   02 Jun 2027 04:42:43.620            54.391         27195.500
        24   02 Jun 2027 04:44:08.866   02 Jun 2027 04:44:15.390             6.524          3262.000
        25   02 Jun 2027 04:45:11.657   02 Jun 2027 04:45:38.010            26.353         13176.500
        26   02 Jun 2027 04:45:51.918   02 Jun 2027 04:45:52.096             0.178            89.000
        27   02 Jun 2027 06:19:19.763   02 Jun 2027 06:20:58.424            98.661         49330.500
        28   02 Jun 2027 06:21:28.916   02 Jun 2027 06:21:32.755             3.839          1919.500
        29   02 Jun 2027 06:22:20.047   02 Jun 2027 06:22:32.211            12.164          6082.000
        30   02 Jun 2027 07:42:59.428   02 Jun 2027 07:44:26.299            86.871         43435.500
        31   02 Jun 2027 07:45:05.852   02 Jun 2027 07:45:17.712            11.860          5930.000
        32   02 Jun 2027 09:19:26.378   02 Jun 2027 09:20:59.638            93.260         46630.000
        33   02 Jun 2027 09:22:07.325   02 Jun 2027 09:22:07.325             0.000             0.000
        34   02 Jun 2027 10:51:35.386   02 Jun 2027 10:51:45.277             9.891          4945.500
        35   02 Jun 2027 10:53:32.968   02 Jun 2027 10:55:23.427           110.459         55229.500
        36   02 Jun 2027 10:57:34.219   02 Jun 2027 10:57:37.265             3.046          1523.000
        37   02 Jun 2027 10:59:48.614   02 Jun 2027 11:00:17.734            29.120         14560.000
        38   02 Jun 2027 11:01:23.581   02 Jun 2027 11:01:26.268             2.687          1343.500
        39   03 Jun 2027 03:15:15.520   03 Jun 2027 03:15:46.616            31.096         15548.000
        40   03 Jun 2027 03:15:55.244   03 Jun 2027 03:15:55.593             0.349           174.500
        41   03 Jun 2027 03:16:28.647   03 Jun 2027 03:17:26.968            58.321         29160.500
        42   03 Jun 2027 03:21:02.350   03 Jun 2027 03:21:22.021            19.671          9835.500
        43   03 Jun 2027 03:21:50.322   03 Jun 2027 03:21:56.838             6.516          3258.000
        44   03 Jun 2027 04:53:24.994   03 Jun 2027 04:54:25.543            60.549         30274.500
        45   03 Jun 2027 04:54:34.096   03 Jun 2027 04:54:55.932            21.836         10918.000
        46   03 Jun 2027 04:56:54.810   03 Jun 2027 04:57:08.797            13.987          6993.500
        47   03 Jun 2027 04:57:36.534   03 Jun 2027 04:57:49.963            13.429          6714.500
        48   03 Jun 2027 06:32:33.083   03 Jun 2027 06:34:03.643            90.560         45280.000
        49   03 Jun 2027 07:55:07.449   03 Jun 2027 07:56:42.466            95.017         47508.500
        50   03 Jun 2027 07:57:49.763   03 Jun 2027 07:57:55.342             5.579          2789.500
        51   03 Jun 2027 09:31:35.554   03 Jun 2027 09:32:29.080            53.526         26763.000
        52   03 Jun 2027 09:34:06.992   03 Jun 2027 09:35:14.357            67.365         33682.500
        53   03 Jun 2027 11:06:46.542   03 Jun 2027 11:07:16.458            29.916         14958.000
        54   03 Jun 2027 11:09:38.345   03 Jun 2027 11:09:38.345             0.000             0.000
        55   03 Jun 2027 11:13:18.030   03 Jun 2027 11:13:27.538             9.508          4754.000
        56   04 Jun 2027 03:27:13.130   04 Jun 2027 03:27:49.477            36.347         18173.500
        57   04 Jun 2027 03:27:58.073   04 Jun 2027 03:28:50.841            52.768         26384.000
        58   04 Jun 2027 03:29:44.449   04 Jun 2027 03:30:09.865            25.416         12708.000
        59   04 Jun 2027 05:05:30.014   04 Jun 2027 05:05:49.012            18.998          9499.000
        60   04 Jun 2027 05:06:32.870   04 Jun 2027 05:07:27.604            54.734         27367.000
        61   04 Jun 2027 05:07:33.464   04 Jun 2027 05:07:37.169             3.705          1852.500
        62   04 Jun 2027 05:09:00.237   04 Jun 2027 05:09:23.692            23.455         11727.500
        63   04 Jun 2027 05:13:49.994   04 Jun 2027 05:14:10.747            20.753         10376.500
        64   04 Jun 2027 06:43:41.929   04 Jun 2027 06:44:18.661            36.732         18366.000
        65   04 Jun 2027 06:44:47.282   04 Jun 2027 06:45:57.428            70.146         35073.000
        66   04 Jun 2027 08:07:09.139   04 Jun 2027 08:08:09.835            60.696         30348.000
        67   04 Jun 2027 08:08:25.114   04 Jun 2027 08:08:28.164             3.050          1525.000
        68   04 Jun 2027 08:10:11.179   04 Jun 2027 08:10:11.179             0.000             0.000
        69   04 Jun 2027 11:18:49.281   04 Jun 2027 11:19:03.632            14.351          7175.500
        70   04 Jun 2027 11:20:10.593   04 Jun 2027 11:20:40.303            29.710         14290.187
        71   04 Jun 2027 11:23:32.786   04 Jun 2027 11:23:32.786             0.000             0.000
        72   04 Jun 2027 11:25:10.455   04 Jun 2027 11:25:26.413            15.958          7892.781
        73   05 Jun 2027 03:39:19.402   05 Jun 2027 03:41:30.624           131.222         65611.000
        74   05 Jun 2027 03:41:40.051   05 Jun 2027 03:42:05.739            25.688         12844.000
        75   05 Jun 2027 05:18:35.000   05 Jun 2027 05:19:54.913            79.913         39956.500
        76   05 Jun 2027 05:20:47.918   05 Jun 2027 05:20:48.814             0.896           448.000
        77   05 Jun 2027 05:21:11.035   05 Jun 2027 05:21:11.035             0.000             0.000
        78   05 Jun 2027 05:21:18.628   05 Jun 2027 05:21:39.772            21.144         10572.000
        79   05 Jun 2027 05:23:26.895   05 Jun 2027 05:23:41.375            14.480          7240.000
        80   05 Jun 2027 05:25:14.659   05 Jun 2027 05:25:19.114             4.455          2227.500
        81   05 Jun 2027 06:44:43.993   05 Jun 2027 06:45:10.205            26.212         13106.000
        82   05 Jun 2027 06:55:37.875   05 Jun 2027 06:56:41.508            63.633         31816.500
        83   05 Jun 2027 06:56:58.179   05 Jun 2027 06:56:59.348             1.169           584.500
        84   05 Jun 2027 06:58:49.012   05 Jun 2027 06:58:53.931             4.919          2459.500
        85   05 Jun 2027 08:19:35.785   05 Jun 2027 08:20:12.355            36.570         18285.000
        86   05 Jun 2027 08:21:53.150   05 Jun 2027 08:22:08.425            15.275          5191.468
        87   05 Jun 2027 09:57:23.499   05 Jun 2027 09:57:58.018            34.519         13328.938
        88   05 Jun 2027 09:58:08.618   05 Jun 2027 09:58:14.154             5.536           331.250
        89   05 Jun 2027 11:30:45.633   05 Jun 2027 11:30:45.633             0.000             0.000
        90   05 Jun 2027 11:30:46.491   05 Jun 2027 11:31:05.181            18.690          8659.062
        91   05 Jun 2027 11:32:25.639   05 Jun 2027 11:32:28.504             2.865          1019.125
        92   05 Jun 2027 11:32:45.831   05 Jun 2027 11:32:50.367             4.536           441.937
        93   05 Jun 2027 11:33:06.393   05 Jun 2027 11:33:06.923             0.530            38.656
        94   05 Jun 2027 11:37:00.157   05 Jun 2027 11:37:17.239            17.082          6549.937
        95   06 Jun 2027 03:51:57.598   06 Jun 2027 03:53:40.906           103.308         51654.000
        96   06 Jun 2027 03:56:28.245   06 Jun 2027 03:56:41.177            12.932          6466.000
        97   06 Jun 2027 05:30:58.573   06 Jun 2027 05:33:08.098           129.525         64762.500
        98   06 Jun 2027 05:34:32.539   06 Jun 2027 05:34:35.296             2.757          1378.500
        99   06 Jun 2027 05:35:43.884   06 Jun 2027 05:35:55.637            11.753          5876.500
       100   06 Jun 2027 05:36:34.155   06 Jun 2027 05:36:38.847             4.692          2346.000
       101   06 Jun 2027 05:36:44.603   06 Jun 2027 05:36:56.691            12.088          6044.000
       102   06 Jun 2027 06:55:59.833   06 Jun 2027 06:57:14.877            75.044         37522.000
       103   06 Jun 2027 07:07:39.425   06 Jun 2027 07:08:01.579            22.154          9958.813
       104   06 Jun 2027 08:30:10.613   06 Jun 2027 08:30:35.184            24.571         12285.500
       105   06 Jun 2027 08:31:53.075   06 Jun 2027 08:31:59.188             6.113          1581.906
       106   06 Jun 2027 08:32:44.795   06 Jun 2027 08:32:50.456             5.661           942.406
       107   06 Jun 2027 08:34:03.982   06 Jun 2027 08:34:09.690             5.708          1239.094
       108   06 Jun 2027 10:05:12.507   06 Jun 2027 10:05:20.508             8.001          3978.969
       109   06 Jun 2027 10:10:00.900   06 Jun 2027 10:10:01.318             0.418           209.000
       110   06 Jun 2027 10:11:14.062   06 Jun 2027 10:11:36.468            22.406         10826.500
       111   06 Jun 2027 10:11:56.047   06 Jun 2027 10:11:58.042             1.995           611.844
       112   06 Jun 2027 11:48:45.978   06 Jun 2027 11:49:22.718            36.740         18370.000
       113   06 Jun 2027 11:49:35.441   06 Jun 2027 11:49:37.420             1.979           550.469
       114   07 Jun 2027 04:04:15.638   07 Jun 2027 04:06:16.812           121.174         60587.000
       115   07 Jun 2027 04:07:02.774   07 Jun 2027 04:07:14.354            11.580          5790.000
       116   07 Jun 2027 04:08:26.937   07 Jun 2027 04:08:30.017             3.080          1540.000
       117   07 Jun 2027 05:43:17.126   07 Jun 2027 05:45:17.257           120.131         60065.500
       118   07 Jun 2027 05:47:36.012   07 Jun 2027 05:47:45.452             9.440          4720.000
       119   07 Jun 2027 05:50:01.395   07 Jun 2027 05:50:13.014            11.619          5809.500
       120   07 Jun 2027 07:07:21.027   07 Jun 2027 07:09:13.527           112.500         55909.687
       121   07 Jun 2027 07:19:36.607   07 Jun 2027 07:19:54.113            17.506          7592.656
       122   07 Jun 2027 08:41:35.929   07 Jun 2027 08:42:01.198            25.269         12353.469
       123   07 Jun 2027 08:42:56.086   07 Jun 2027 08:42:56.493             0.407           203.500
       124   07 Jun 2027 08:44:14.101   07 Jun 2027 08:44:27.872            13.771          3436.125
       125   07 Jun 2027 08:47:10.808   07 Jun 2027 08:47:12.833             2.025          1012.500
       126   07 Jun 2027 10:18:14.507   07 Jun 2027 10:18:19.300             4.793          2396.500
       127   07 Jun 2027 10:18:56.995   07 Jun 2027 10:19:09.243            12.248          6124.000
       128   07 Jun 2027 10:22:32.454   07 Jun 2027 10:22:45.162            12.708          6354.000
       129   08 Jun 2027 04:16:40.259   08 Jun 2027 04:16:41.535             1.276           638.000
       130   08 Jun 2027 04:17:01.528   08 Jun 2027 04:18:56.291           114.763         57381.500
       131   08 Jun 2027 04:19:58.573   08 Jun 2027 04:20:02.323             3.750          1875.000
       132   08 Jun 2027 04:20:59.711   08 Jun 2027 04:20:59.832             0.121            60.500
       133   08 Jun 2027 05:55:22.210   08 Jun 2027 05:57:28.206           125.996         62998.000
       134   08 Jun 2027 05:58:05.525   08 Jun 2027 05:58:18.986            13.461          6730.500
       135   08 Jun 2027 05:59:35.147   08 Jun 2027 05:59:38.890             3.743          1871.500
       136   08 Jun 2027 07:19:29.160   08 Jun 2027 07:21:04.460            95.300         47650.000
       137   08 Jun 2027 08:53:18.323   08 Jun 2027 08:53:52.428            34.105         16339.311
       138   08 Jun 2027 08:55:25.161   08 Jun 2027 08:55:25.161             0.000             0.000
       139   08 Jun 2027 08:56:26.524   08 Jun 2027 08:56:37.042            10.518          4564.000
       140   08 Jun 2027 08:58:05.396   08 Jun 2027 08:58:09.863             4.467          2069.219
       141   08 Jun 2027 10:28:10.295   08 Jun 2027 10:28:23.749            13.454          6187.469
       142   08 Jun 2027 10:29:17.154   08 Jun 2027 10:29:20.102             2.948          1338.813
       143   08 Jun 2027 10:31:08.352   08 Jun 2027 10:31:08.352             0.000             0.000
       144   08 Jun 2027 10:31:09.313   08 Jun 2027 10:31:11.279             1.966           878.750
       145   08 Jun 2027 10:37:11.769   08 Jun 2027 10:37:21.871            10.102          5051.000
       146   08 Jun 2027 10:37:22.416   08 Jun 2027 10:37:34.272            11.856          5819.250
       147   09 Jun 2027 04:29:33.764   09 Jun 2027 04:30:27.232            53.468         26734.000
       148   09 Jun 2027 04:30:36.772   09 Jun 2027 04:31:18.518            41.746         20873.000
       149   09 Jun 2027 04:31:19.120   09 Jun 2027 04:31:56.121            37.001         18500.500
       150   09 Jun 2027 04:33:04.750   09 Jun 2027 04:33:05.536             0.786           393.000
       151   09 Jun 2027 06:07:58.830   09 Jun 2027 06:10:00.601           121.771         60885.500
       152   09 Jun 2027 06:10:20.389   09 Jun 2027 06:10:28.900             8.511          4255.500
       153   09 Jun 2027 07:31:25.418   09 Jun 2027 07:32:56.713            91.295         45647.500
       154   09 Jun 2027 09:07:38.382   09 Jun 2027 09:08:06.449            28.067         14033.500
       155   09 Jun 2027 09:08:24.292   09 Jun 2027 09:08:24.292             0.000             0.000
       156   09 Jun 2027 09:10:25.063   09 Jun 2027 09:10:40.236            15.173          7286.469
       157   09 Jun 2027 10:41:11.680   09 Jun 2027 10:41:20.352             8.672          3999.938
       158   09 Jun 2027 10:43:12.200   09 Jun 2027 10:43:12.200             0.000             0.000
       159   09 Jun 2027 10:43:24.659   09 Jun 2027 10:43:32.684             8.025          3411.375
       160   09 Jun 2027 10:43:50.062   09 Jun 2027 10:43:52.710             2.648           234.313
       161   09 Jun 2027 10:48:00.781   09 Jun 2027 10:48:09.997             9.216          4608.000
       162   09 Jun 2027 10:49:44.942   09 Jun 2027 10:49:45.929             0.987           493.500
       163   10 Jun 2027 03:03:31.080   10 Jun 2027 03:03:36.744             5.664          2832.000
       164   10 Jun 2027 03:03:47.900   10 Jun 2027 03:03:51.271             3.371          1685.500
       165   10 Jun 2027 03:03:54.964   10 Jun 2027 03:03:54.964             0.000             0.000
       166   10 Jun 2027 03:04:06.338   10 Jun 2027 03:04:06.338             0.000             0.000
       167   10 Jun 2027 03:04:21.433   10 Jun 2027 03:04:23.818             2.385          1192.500
       168   10 Jun 2027 03:05:07.117   10 Jun 2027 03:05:43.727            36.610         18305.000
       169   10 Jun 2027 03:07:27.165   10 Jun 2027 03:07:52.983            25.818         12909.000
       170   10 Jun 2027 03:08:26.878   10 Jun 2027 03:08:39.027            12.149          6074.500
       171   10 Jun 2027 03:09:05.618   10 Jun 2027 03:09:08.239             2.621          1310.500
       172   10 Jun 2027 03:09:12.593   10 Jun 2027 03:09:14.768             2.175          1087.500
       173   10 Jun 2027 04:41:34.542   10 Jun 2027 04:42:02.698            28.156         14078.000
       174   10 Jun 2027 04:42:04.965   10 Jun 2027 04:43:00.348            55.383         27691.500
       175   10 Jun 2027 04:44:26.499   10 Jun 2027 04:44:30.236             3.737          1868.500
       176   10 Jun 2027 04:45:23.098   10 Jun 2027 04:45:24.074             0.976           488.000
       177   10 Jun 2027 04:46:00.281   10 Jun 2027 04:46:04.429             4.148          2074.000
       178   10 Jun 2027 04:47:14.078   10 Jun 2027 04:47:20.040             5.962          2981.000
       179   10 Jun 2027 04:47:43.207   10 Jun 2027 04:47:46.194             2.987          1493.500
       180   10 Jun 2027 06:19:37.580   10 Jun 2027 06:21:23.016           105.436         52718.000
       181   10 Jun 2027 06:21:51.372   10 Jun 2027 06:21:53.937             2.565          1282.500
       182   10 Jun 2027 06:22:10.690   10 Jun 2027 06:22:14.590             3.900          1950.000
       183   10 Jun 2027 06:22:49.134   10 Jun 2027 06:22:58.097             8.963          4481.500
       184   10 Jun 2027 07:43:16.705   10 Jun 2027 07:44:27.038            70.333         34840.501
       185   10 Jun 2027 09:19:43.750   10 Jun 2027 09:19:55.009            11.259          5629.500
       186   10 Jun 2027 09:21:15.527   10 Jun 2027 09:21:29.350            13.823          6414.094
       187   10 Jun 2027 10:51:51.909   10 Jun 2027 10:52:02.319            10.410          5205.000
       188   10 Jun 2027 10:55:43.229   10 Jun 2027 10:55:48.186             4.957          2478.500
       189   10 Jun 2027 10:57:50.834   10 Jun 2027 10:57:52.507             1.673           836.500
       190   10 Jun 2027 10:59:59.327   10 Jun 2027 11:00:24.073            24.746         12004.469
       191   10 Jun 2027 11:01:30.248   10 Jun 2027 11:01:37.277             7.029          2051.594
       192   11 Jun 2027 03:15:33.613   11 Jun 2027 03:16:37.840            64.227         32113.500
       193   11 Jun 2027 03:16:43.683   11 Jun 2027 03:16:58.955            15.272          7636.000
       194   11 Jun 2027 03:18:39.210   11 Jun 2027 03:18:43.980             4.770          2385.000
       195   11 Jun 2027 03:19:37.194   11 Jun 2027 03:19:48.909            11.715          5857.500
       196   11 Jun 2027 03:20:01.503   11 Jun 2027 03:20:06.708             5.205          2602.500
       197   11 Jun 2027 03:21:23.503   11 Jun 2027 03:21:36.625            13.122          6561.000
       198   11 Jun 2027 04:53:42.824   11 Jun 2027 04:54:43.146            60.322         30161.000
       199   11 Jun 2027 04:54:51.862   11 Jun 2027 04:55:04.483            12.621          6310.500
       200   11 Jun 2027 04:55:37.032   11 Jun 2027 04:55:43.314             6.282          3141.000
       201   11 Jun 2027 04:57:13.188   11 Jun 2027 04:57:26.132            12.944          6472.000
       202   11 Jun 2027 04:58:39.715   11 Jun 2027 04:58:39.715             0.000             0.000
       203   11 Jun 2027 06:32:51.050   11 Jun 2027 06:34:19.886            88.836         44418.000
       204   11 Jun 2027 06:35:23.501   11 Jun 2027 06:35:28.677             5.176          2588.000
       205   11 Jun 2027 07:55:25.248   11 Jun 2027 07:56:36.833            71.585         33506.470
       206   11 Jun 2027 07:58:11.687   11 Jun 2027 07:58:20.514             8.827          2712.563
       207   11 Jun 2027 09:31:53.934   11 Jun 2027 09:32:15.693            21.759          9728.875
       208   11 Jun 2027 09:32:49.263   11 Jun 2027 09:32:49.263             0.000             0.000
       209   11 Jun 2027 09:33:55.349   11 Jun 2027 09:34:06.883            11.534          3101.906
       210   11 Jun 2027 11:07:05.089   11 Jun 2027 11:07:15.453            10.364          5182.000
       211   11 Jun 2027 11:07:29.007   11 Jun 2027 11:07:31.834             2.827          1094.875
       212   11 Jun 2027 11:13:10.676   11 Jun 2027 11:13:22.915            12.239          6119.500
       213   11 Jun 2027 11:13:35.114   11 Jun 2027 11:13:44.874             9.760          4815.562
       214   12 Jun 2027 03:27:31.132   12 Jun 2027 03:29:38.241           127.109         63554.500
       215   12 Jun 2027 03:30:25.398   12 Jun 2027 03:30:43.286            17.888          8944.000
       216   12 Jun 2027 05:05:47.649   12 Jun 2027 05:06:02.591            14.942          7471.000
       217   12 Jun 2027 05:06:50.176   12 Jun 2027 05:08:14.130            83.954         41977.000
       218   12 Jun 2027 05:08:32.620   12 Jun 2027 05:08:47.538            14.918          7459.000
       219   12 Jun 2027 05:14:03.521   12 Jun 2027 05:14:27.295            23.774         11887.000
       220   12 Jun 2027 06:43:58.954   12 Jun 2027 06:44:36.665            37.711         18855.500
       221   12 Jun 2027 06:45:06.622   12 Jun 2027 06:45:41.697            35.075         17537.500
       222   12 Jun 2027 06:46:39.228   12 Jun 2027 06:46:44.877             5.649          2824.500
       223   12 Jun 2027 06:46:47.725   12 Jun 2027 06:46:57.604             9.879          4939.500
       224   12 Jun 2027 08:08:07.944   12 Jun 2027 08:08:33.974            26.030         12896.125
       225   12 Jun 2027 08:08:57.921   12 Jun 2027 08:09:12.122            14.201           569.594
       226   12 Jun 2027 08:10:30.002   12 Jun 2027 08:10:32.286             2.284           697.812
       227   12 Jun 2027 09:44:09.261   12 Jun 2027 09:44:20.869            11.608          5804.000
       228   12 Jun 2027 09:46:03.226   12 Jun 2027 09:46:14.536            11.310          5080.750
       229   12 Jun 2027 09:47:01.976   12 Jun 2027 09:47:01.976             0.000             0.000
       230   12 Jun 2027 11:18:56.209   12 Jun 2027 11:19:08.210            12.001          5906.625
       231   12 Jun 2027 11:25:27.326   12 Jun 2027 11:25:45.125            17.799          8899.500
       232   13 Jun 2027 03:40:05.877   13 Jun 2027 03:42:27.551           141.674         70837.000
       233   13 Jun 2027 05:18:53.192   13 Jun 2027 05:20:21.515            88.323         44161.500
       234   13 Jun 2027 05:20:33.398   13 Jun 2027 05:20:46.543            13.145          6572.500
       235   13 Jun 2027 05:26:31.741   13 Jun 2027 05:26:37.796             6.055          3027.500
       236   13 Jun 2027 06:44:58.007   13 Jun 2027 06:45:28.747            30.740         15370.000
       237   13 Jun 2027 06:55:55.279   13 Jun 2027 06:57:12.361            77.082         38541.000
       238   13 Jun 2027 06:58:41.537   13 Jun 2027 06:58:47.333             5.796          2898.000
       239   13 Jun 2027 06:59:10.981   13 Jun 2027 06:59:14.873             3.892          1946.000
       240   13 Jun 2027 08:19:14.834   13 Jun 2027 08:19:44.685            29.851         14490.781
       241   13 Jun 2027 08:20:12.499   13 Jun 2027 08:20:16.340             3.841           739.313
       242   13 Jun 2027 08:22:09.703   13 Jun 2027 08:22:14.586             4.883          2441.500
       243   13 Jun 2027 09:54:31.133   13 Jun 2027 09:54:31.443             0.310           155.000
       244   13 Jun 2027 09:55:37.129   13 Jun 2027 09:55:51.604            14.475          5483.531
       245   13 Jun 2027 09:57:05.865   13 Jun 2027 09:57:12.068             6.203          2276.344
       246   13 Jun 2027 09:58:16.047   13 Jun 2027 09:58:18.108             2.061          1030.500
       247   13 Jun 2027 11:33:01.137   13 Jun 2027 11:33:38.311            37.174         16407.406
       248   13 Jun 2027 11:33:48.398   13 Jun 2027 11:33:50.531             2.133           128.656
       249   13 Jun 2027 11:34:52.341   13 Jun 2027 11:34:58.264             5.923          1680.719
       250   13 Jun 2027 11:35:21.514   13 Jun 2027 11:35:22.631             1.117           425.719
       251   13 Jun 2027 11:35:46.261   13 Jun 2027 11:35:50.471             4.210           633.344
       252   13 Jun 2027 11:37:04.132   13 Jun 2027 11:37:09.098             4.966          2209.031
       253   13 Jun 2027 11:37:10.955   13 Jun 2027 11:37:13.079             2.124            58.031
       254   13 Jun 2027 11:37:50.823   13 Jun 2027 11:37:55.430             4.607           982.312
