uniorb/output/strategy_1/Camera/Camera_KinoSat_111210.txt

KinoSat_111210
-------------------------
    Access    *     Start Time (UTCG)     *     Stop Time (UTCG)  *   Duration (s) *   Data (Mbytes)
         1   01 Jun 2027 04:07:56.964   01 Jun 2027 04:09:31.403            94.439         47219.500
         2   01 Jun 2027 04:19:40.805   01 Jun 2027 04:20:27.990            47.185         23592.500
         3   01 Jun 2027 05:41:56.203   01 Jun 2027 05:43:02.104            65.901         32950.500
         4   01 Jun 2027 05:43:53.189   01 Jun 2027 05:44:15.401            22.212         11106.000
         5   01 Jun 2027 07:16:54.122   01 Jun 2027 07:18:48.652           114.530         57265.000
         6   01 Jun 2027 07:18:57.744   01 Jun 2027 07:19:16.411            18.667          9333.500
         7   01 Jun 2027 07:20:45.691   01 Jun 2027 07:20:45.691             0.000             0.000
         8   01 Jun 2027 07:22:28.809   01 Jun 2027 07:22:49.512            20.703         10351.500
         9   01 Jun 2027 07:23:46.042   01 Jun 2027 07:24:06.043            20.001         10000.500
        10   01 Jun 2027 08:54:22.542   01 Jun 2027 08:55:57.553            95.011         47505.500
        11   01 Jun 2027 08:56:10.248   01 Jun 2027 08:56:20.886            10.638          5319.000
        12   01 Jun 2027 08:59:09.069   01 Jun 2027 08:59:32.355            23.286         11643.000
        13   01 Jun 2027 08:59:53.702   01 Jun 2027 08:59:53.702             0.000             0.000
        14   01 Jun 2027 09:00:31.644   01 Jun 2027 09:00:44.165            12.521          6260.500
        15   01 Jun 2027 09:01:40.143   01 Jun 2027 09:01:40.629             0.486           243.000
        16   01 Jun 2027 10:31:07.389   01 Jun 2027 10:33:18.724           131.335         65667.500
        17   01 Jun 2027 10:37:14.413   01 Jun 2027 10:37:16.681             2.268          1134.000
        18   02 Jun 2027 03:00:00.000   02 Jun 2027 03:00:37.789            37.789         18894.500
        19   02 Jun 2027 04:19:30.296   02 Jun 2027 04:20:14.422            44.126         22063.000
        20   02 Jun 2027 04:21:17.702   02 Jun 2027 04:21:32.214            14.512          7256.000
        21   02 Jun 2027 04:31:46.627   02 Jun 2027 04:32:13.963            27.336         13668.000
        22   02 Jun 2027 05:53:29.739   02 Jun 2027 05:54:47.085            77.346         38673.000
        23   02 Jun 2027 05:55:51.734   02 Jun 2027 05:55:58.003             6.269          3134.500
        24   02 Jun 2027 05:58:23.045   02 Jun 2027 05:58:25.636             2.591          1295.500
        25   02 Jun 2027 05:58:36.416   02 Jun 2027 05:58:54.600            18.184          9092.000
        26   02 Jun 2027 07:28:22.081   02 Jun 2027 07:30:27.327           125.246         62623.000
        27   02 Jun 2027 07:31:09.429   02 Jun 2027 07:31:12.545             3.116          1558.000
        28   02 Jun 2027 07:31:27.405   02 Jun 2027 07:31:27.405             0.000             0.000
        29   02 Jun 2027 07:31:55.145   02 Jun 2027 07:31:56.022             0.877           438.500
        30   02 Jun 2027 07:32:30.395   02 Jun 2027 07:32:45.917            15.522          7761.000
        31   02 Jun 2027 07:36:00.329   02 Jun 2027 07:36:09.456             9.127          4563.500
        32   02 Jun 2027 07:36:15.893   02 Jun 2027 07:36:17.595             1.702           851.000
        33   02 Jun 2027 07:36:51.763   02 Jun 2027 07:37:05.119            13.356          6678.000
        34   02 Jun 2027 09:06:15.691   02 Jun 2027 09:08:17.715           122.024         61012.000
        35   02 Jun 2027 09:09:21.194   02 Jun 2027 09:09:35.906            14.712          7356.000
        36   02 Jun 2027 09:12:17.256   02 Jun 2027 09:12:52.429            35.173         17586.500
        37   02 Jun 2027 10:42:59.617   02 Jun 2027 10:43:23.034            23.417         11708.500
        38   02 Jun 2027 10:43:33.900   02 Jun 2027 10:45:25.169           111.269         55634.500
        39   02 Jun 2027 10:49:11.265   02 Jun 2027 10:49:16.515             5.250          2625.000
        40   03 Jun 2027 03:07:31.474   03 Jun 2027 03:08:09.562            38.088         19044.000
        41   03 Jun 2027 03:08:58.930   03 Jun 2027 03:08:59.746             0.816           408.000
        42   03 Jun 2027 03:09:24.199   03 Jun 2027 03:09:39.644            15.445          7722.500
        43   03 Jun 2027 03:10:16.165   03 Jun 2027 03:10:32.151            15.986          7993.000
        44   03 Jun 2027 03:10:50.655   03 Jun 2027 03:10:53.750             3.095          1547.500
        45   03 Jun 2027 03:11:05.185   03 Jun 2027 03:11:13.511             8.326          4163.000
        46   03 Jun 2027 03:11:19.133   03 Jun 2027 03:11:29.992            10.859          5429.500
        47   03 Jun 2027 04:31:26.284   03 Jun 2027 04:31:59.584            33.300         16650.000
        48   03 Jun 2027 06:07:27.166   03 Jun 2027 06:09:01.621            94.455         47227.500
        49   03 Jun 2027 06:10:11.740   03 Jun 2027 06:10:14.305             2.565          1282.500
        50   03 Jun 2027 06:10:24.154   03 Jun 2027 06:10:25.745             1.591           795.500
        51   03 Jun 2027 07:41:14.590   03 Jun 2027 07:43:26.567           131.977         65988.500
        52   03 Jun 2027 07:44:59.495   03 Jun 2027 07:45:04.669             5.174          2587.000
        53   03 Jun 2027 07:46:27.889   03 Jun 2027 07:46:30.581             2.692          1346.000
        54   03 Jun 2027 07:46:42.711   03 Jun 2027 07:46:52.290             9.579          4789.500
        55   03 Jun 2027 07:48:57.092   03 Jun 2027 07:48:58.465             1.373           686.500
        56   03 Jun 2027 09:18:23.387   03 Jun 2027 09:20:18.055           114.668         57334.000
        57   03 Jun 2027 09:22:28.999   03 Jun 2027 09:22:28.999             0.000             0.000
        58   03 Jun 2027 09:23:24.636   03 Jun 2027 09:23:44.495            19.859          9929.500
        59   03 Jun 2027 09:25:06.000   03 Jun 2027 09:25:17.054            11.054          5527.000
        60   03 Jun 2027 10:55:37.879   03 Jun 2027 10:55:51.439            13.560          6780.000
        61   03 Jun 2027 10:55:52.834   03 Jun 2027 10:56:42.822            49.988         22875.439
        62   03 Jun 2027 10:57:42.479   03 Jun 2027 10:57:46.321             3.842          1864.281
        63   03 Jun 2027 10:57:52.890   03 Jun 2027 10:57:53.473             0.583           205.281
        64   03 Jun 2027 10:59:29.552   03 Jun 2027 10:59:34.692             5.140          2570.000
        65   03 Jun 2027 11:00:55.034   03 Jun 2027 11:00:59.976             4.942          2471.000
        66   04 Jun 2027 03:19:57.664   04 Jun 2027 03:21:23.656            85.992         42996.000
        67   04 Jun 2027 03:22:28.218   04 Jun 2027 03:22:42.265            14.047          7023.500
        68   04 Jun 2027 03:22:43.159   04 Jun 2027 03:22:43.685             0.526           263.000
        69   04 Jun 2027 04:43:19.310   04 Jun 2027 04:43:56.471            37.161         18580.500
        70   04 Jun 2027 04:44:50.224   04 Jun 2027 04:44:50.224             0.000             0.000
        71   04 Jun 2027 06:19:40.375   04 Jun 2027 06:21:24.723           104.348         52174.000
        72   04 Jun 2027 06:21:33.049   04 Jun 2027 06:21:39.334             6.285          3142.500
        73   04 Jun 2027 06:22:58.167   04 Jun 2027 06:22:58.167             0.000             0.000
        74   04 Jun 2027 07:53:38.646   04 Jun 2027 07:55:17.366            98.720         49351.625
        75   04 Jun 2027 07:55:24.834   04 Jun 2027 07:55:25.960             1.126           165.844
        76   04 Jun 2027 07:56:34.392   04 Jun 2027 07:56:34.392             0.000             0.000
        77   04 Jun 2027 07:57:05.481   04 Jun 2027 07:57:11.619             6.138          3038.406
        78   04 Jun 2027 07:57:57.642   04 Jun 2027 07:58:01.508             3.866          1438.219
        79   04 Jun 2027 07:58:04.037   04 Jun 2027 07:58:04.970             0.933            79.031
        80   04 Jun 2027 07:58:24.853   04 Jun 2027 07:58:25.279             0.426           213.000
        81   04 Jun 2027 07:58:28.449   04 Jun 2027 07:58:31.309             2.860           507.406
        82   04 Jun 2027 08:00:16.262   04 Jun 2027 08:00:20.299             4.037          2018.500
        83   04 Jun 2027 08:00:23.080   04 Jun 2027 08:00:26.453             3.373          1281.563
        84   04 Jun 2027 08:01:08.510   04 Jun 2027 08:01:08.652             0.142            71.000
        85   04 Jun 2027 08:01:22.150   04 Jun 2027 08:01:27.600             5.450          1525.281
        86   04 Jun 2027 09:30:48.886   04 Jun 2027 09:31:07.396            18.510          9248.375
        87   04 Jun 2027 09:31:54.761   04 Jun 2027 09:32:00.319             5.558           644.469
        88   04 Jun 2027 09:33:11.188   04 Jun 2027 09:33:17.383             6.195          2214.656
        89   04 Jun 2027 09:34:22.147   04 Jun 2027 09:34:24.235             2.088           783.656
        90   04 Jun 2027 09:35:10.670   04 Jun 2027 09:35:13.464             2.794          1299.031
        91   04 Jun 2027 09:35:43.374   04 Jun 2027 09:35:46.144             2.770           760.969
        92   04 Jun 2027 09:35:51.324   04 Jun 2027 09:35:53.335             2.011           161.875
        93   04 Jun 2027 09:36:55.583   04 Jun 2027 09:36:58.537             2.954          1477.000
        94   04 Jun 2027 09:37:25.197   04 Jun 2027 09:37:28.114             2.917          1245.312
        95   04 Jun 2027 11:07:48.228   04 Jun 2027 11:08:06.506            18.278          8698.813
        96   04 Jun 2027 11:08:47.284   04 Jun 2027 11:08:48.893             1.609           804.500
        97   04 Jun 2027 11:09:16.228   04 Jun 2027 11:09:19.200             2.972          1206.375
        98   04 Jun 2027 11:09:57.278   04 Jun 2027 11:10:01.334             4.056           991.312
        99   04 Jun 2027 11:10:21.205   04 Jun 2027 11:10:29.557             8.352           468.031
       100   04 Jun 2027 11:10:43.104   04 Jun 2027 11:10:44.227             1.123           247.906
       101   04 Jun 2027 11:11:07.707   04 Jun 2027 11:11:07.707             0.000             0.000
       102   04 Jun 2027 11:11:38.076   04 Jun 2027 11:11:45.393             7.317          1623.281
       103   04 Jun 2027 11:12:12.216   04 Jun 2027 11:12:15.171             2.955           780.406
       104   04 Jun 2027 11:12:22.040   04 Jun 2027 11:12:24.412             2.372           206.031
       105   04 Jun 2027 11:13:10.836   04 Jun 2027 11:13:12.424             1.588           794.000
       106   05 Jun 2027 03:32:15.217   05 Jun 2027 03:34:06.609           111.392         55696.000
       107   05 Jun 2027 04:55:12.802   05 Jun 2027 04:56:22.517            69.715         34857.500
       108   05 Jun 2027 06:31:45.902   05 Jun 2027 06:33:13.846            87.944         43972.000
       109   05 Jun 2027 06:33:24.647   05 Jun 2027 06:33:31.213             6.566          3283.000
       110   05 Jun 2027 06:34:18.830   05 Jun 2027 06:34:18.830             0.000             0.000
       111   05 Jun 2027 06:34:29.098   05 Jun 2027 06:34:30.722             1.624           812.000
       112   05 Jun 2027 08:06:54.759   05 Jun 2027 08:07:48.066            53.307         26653.500
       113   05 Jun 2027 08:09:32.231   05 Jun 2027 08:09:46.942            14.711          3429.063
       114   05 Jun 2027 08:10:09.012   05 Jun 2027 08:10:09.012             0.000             0.000
       115   05 Jun 2027 08:11:06.456   05 Jun 2027 08:11:22.817            16.361          1991.625
       116   05 Jun 2027 08:11:38.451   05 Jun 2027 08:11:40.681             2.230           347.781
       117   05 Jun 2027 08:11:54.728   05 Jun 2027 08:11:56.043             1.315           266.844
       118   05 Jun 2027 08:12:06.645   05 Jun 2027 08:12:09.241             2.596           241.969
       119   05 Jun 2027 08:12:17.793   05 Jun 2027 08:12:18.760             0.967           267.250
       120   05 Jun 2027 08:12:52.820   05 Jun 2027 08:12:57.006             4.186          1064.375
       121   05 Jun 2027 08:13:14.773   05 Jun 2027 08:13:18.374             3.601           525.000
       122   05 Jun 2027 09:43:14.990   05 Jun 2027 09:43:30.949            15.959          7679.469
       123   05 Jun 2027 09:44:16.757   05 Jun 2027 09:44:23.599             6.842           493.344
       124   05 Jun 2027 09:45:07.043   05 Jun 2027 09:45:10.002             2.959          1344.437
       125   05 Jun 2027 09:45:29.617   05 Jun 2027 09:45:31.264             1.647            75.938
       126   05 Jun 2027 09:46:32.007   05 Jun 2027 09:46:41.264             9.257          1888.500
       127   05 Jun 2027 09:47:41.802   05 Jun 2027 09:47:48.576             6.774          1891.812
       128   05 Jun 2027 09:48:02.089   05 Jun 2027 09:48:03.612             1.523           416.219
       129   05 Jun 2027 09:49:04.444   05 Jun 2027 09:49:06.179             1.735           725.594
       130   05 Jun 2027 11:20:49.203   05 Jun 2027 11:21:04.421            15.218          7056.031
       131   05 Jun 2027 11:21:11.417   05 Jun 2027 11:21:13.314             1.897           218.625
       132   05 Jun 2027 11:21:20.560   05 Jun 2027 11:21:24.924             4.364           202.969
       133   05 Jun 2027 11:21:41.811   05 Jun 2027 11:21:46.134             4.323           527.719
       134   05 Jun 2027 11:21:54.025   05 Jun 2027 11:21:55.145             1.120           141.500
       135   05 Jun 2027 11:22:21.888   05 Jun 2027 11:22:23.662             1.774           657.781
       136   05 Jun 2027 11:23:45.250   05 Jun 2027 11:23:54.462             9.212          2549.625
       137   05 Jun 2027 11:25:00.936   05 Jun 2027 11:25:06.018             5.082          2077.313
       138   06 Jun 2027 03:44:00.485   06 Jun 2027 03:44:34.468            33.983         16991.500
       139   06 Jun 2027 03:44:48.992   06 Jun 2027 03:46:10.266            81.274         40637.000
       140   06 Jun 2027 03:46:45.191   06 Jun 2027 03:46:48.546             3.355          1677.500
       141   06 Jun 2027 05:07:20.938   06 Jun 2027 05:08:14.574            53.636         26818.000
       142   06 Jun 2027 05:08:24.919   06 Jun 2027 05:08:40.601            15.682          7841.000
       143   06 Jun 2027 06:43:56.364   06 Jun 2027 06:45:46.761           110.397         55198.500
       144   06 Jun 2027 08:19:06.580   06 Jun 2027 08:19:25.723            19.143          9571.500
       145   06 Jun 2027 08:20:01.655   06 Jun 2027 08:20:06.479             4.824          1588.719
       146   06 Jun 2027 08:20:37.094   06 Jun 2027 08:20:37.094             0.000             0.000
       147   06 Jun 2027 08:21:55.245   06 Jun 2027 08:22:00.937             5.692          2716.125
       148   06 Jun 2027 08:23:07.720   06 Jun 2027 08:23:17.483             9.763          1598.031
       149   06 Jun 2027 08:23:35.918   06 Jun 2027 08:23:36.885             0.967           372.687
       150   06 Jun 2027 08:24:09.566   06 Jun 2027 08:24:12.565             2.999           951.937
       151   06 Jun 2027 08:24:26.390   06 Jun 2027 08:24:26.390             0.000             0.000
       152   06 Jun 2027 08:24:42.681   06 Jun 2027 08:24:45.360             2.679           823.188
       153   06 Jun 2027 08:24:46.628   06 Jun 2027 08:24:46.923             0.295            18.500
       154   06 Jun 2027 09:55:27.338   06 Jun 2027 09:55:40.718            13.380          6057.812
       155   06 Jun 2027 09:56:45.165   06 Jun 2027 09:56:47.624             2.459          1155.781
       156   06 Jun 2027 09:57:15.467   06 Jun 2027 09:57:16.842             1.375           132.125
       157   06 Jun 2027 09:57:40.349   06 Jun 2027 09:57:44.020             3.671           734.594
       158   06 Jun 2027 09:58:36.766   06 Jun 2027 09:58:40.179             3.413          1623.031
       159   06 Jun 2027 09:58:55.316   06 Jun 2027 09:59:03.335             8.019           116.938
       160   06 Jun 2027 09:59:12.183   06 Jun 2027 09:59:12.183             0.000             0.000
       161   06 Jun 2027 09:59:37.565   06 Jun 2027 09:59:39.633             2.068          1009.406
       162   06 Jun 2027 10:00:02.375   06 Jun 2027 10:00:06.325             3.950           537.469
       163   06 Jun 2027 10:00:55.193   06 Jun 2027 10:00:56.980             1.787           802.000
       164   06 Jun 2027 11:32:52.588   06 Jun 2027 11:33:08.655            16.067          7828.188
       165   06 Jun 2027 11:33:22.381   06 Jun 2027 11:33:23.351             0.970           332.156
       166   06 Jun 2027 11:34:05.314   06 Jun 2027 11:34:17.103            11.789          1266.781
       167   06 Jun 2027 11:34:49.384   06 Jun 2027 11:34:51.609             2.225           849.500
       168   06 Jun 2027 11:35:52.992   06 Jun 2027 11:35:57.137             4.145          1918.219
       169   06 Jun 2027 11:36:30.347   06 Jun 2027 11:36:37.532             7.185          1037.813
       170   06 Jun 2027 11:37:22.062   06 Jun 2027 11:37:25.002             2.940           892.406
       171   07 Jun 2027 03:45:13.655   07 Jun 2027 03:45:14.683             1.028           514.000
       172   07 Jun 2027 03:55:57.295   07 Jun 2027 03:56:37.302            40.007         20003.500
       173   07 Jun 2027 03:56:55.458   07 Jun 2027 03:58:17.485            82.027         41013.500
       174   07 Jun 2027 05:19:54.260   07 Jun 2027 05:21:15.004            80.744         40372.000
       175   07 Jun 2027 06:55:43.681   07 Jun 2027 06:57:16.892            93.211         46605.500
       176   07 Jun 2027 06:57:46.507   07 Jun 2027 06:57:46.507             0.000             0.000
       177   07 Jun 2027 06:58:21.716   07 Jun 2027 06:58:32.421            10.705          5352.500
       178   07 Jun 2027 06:59:15.771   07 Jun 2027 06:59:31.335            15.564          7782.000
       179   07 Jun 2027 08:30:36.515   07 Jun 2027 08:30:55.843            19.328          8923.282
       180   07 Jun 2027 08:31:44.721   07 Jun 2027 08:31:48.534             3.813          1356.469
       181   07 Jun 2027 08:31:58.419   07 Jun 2027 08:32:01.916             3.497           308.906
       182   07 Jun 2027 08:32:48.007   07 Jun 2027 08:32:50.834             2.827          1386.625
       183   07 Jun 2027 08:33:20.585   07 Jun 2027 08:33:25.090             4.505           753.125
       184   07 Jun 2027 08:33:45.738   07 Jun 2027 08:33:48.905             3.167           174.656
       185   07 Jun 2027 08:34:01.954   07 Jun 2027 08:34:05.893             3.939           407.781
       186   07 Jun 2027 08:34:53.198   07 Jun 2027 08:34:55.704             2.506           911.125
       187   07 Jun 2027 08:35:26.113   07 Jun 2027 08:35:30.565             4.452           950.281
       188   07 Jun 2027 08:36:04.840   07 Jun 2027 08:36:07.483             2.643           554.594
       189   07 Jun 2027 08:36:21.059   07 Jun 2027 08:36:23.139             2.080           424.250
       190   07 Jun 2027 08:37:14.671   07 Jun 2027 08:37:18.024             3.353          1522.281
       191   07 Jun 2027 08:37:48.307   07 Jun 2027 08:37:51.278             2.971           185.906
       192   07 Jun 2027 10:07:06.462   07 Jun 2027 10:07:23.494            17.032          7498.719
       193   07 Jun 2027 10:09:13.148   07 Jun 2027 10:09:15.093             1.945           274.938
       194   07 Jun 2027 10:09:34.169   07 Jun 2027 10:09:38.580             4.411            13.437
       195   07 Jun 2027 10:09:50.767   07 Jun 2027 10:09:51.496             0.729           167.719
       196   07 Jun 2027 10:10:04.013   07 Jun 2027 10:10:06.300             2.287           391.156
       197   07 Jun 2027 10:11:16.308   07 Jun 2027 10:11:24.868             8.560          2187.750
       198   07 Jun 2027 10:11:39.697   07 Jun 2027 10:11:40.933             1.236           463.406
       199   07 Jun 2027 10:11:48.833   07 Jun 2027 10:11:54.535             5.702           212.312
       200   07 Jun 2027 10:12:13.501   07 Jun 2027 10:12:20.515             7.014           212.437
       201   07 Jun 2027 10:13:19.284   07 Jun 2027 10:13:23.652             4.368          1836.531
       202   07 Jun 2027 11:45:23.987   07 Jun 2027 11:45:29.002             5.015          2507.500
       203   07 Jun 2027 11:46:22.766   07 Jun 2027 11:46:38.406            15.640          6735.719
       204   07 Jun 2027 11:47:35.521   07 Jun 2027 11:47:39.628             4.107          1394.313
       205   07 Jun 2027 11:48:27.432   07 Jun 2027 11:48:33.905             6.473          1493.875
       206   07 Jun 2027 11:48:50.750   07 Jun 2027 11:48:59.407             8.657           477.500
       207   08 Jun 2027 03:56:32.373   08 Jun 2027 03:56:48.753            16.380          8190.000
       208   08 Jun 2027 04:07:53.492   08 Jun 2027 04:09:28.463            94.971         47485.500
       209   08 Jun 2027 05:30:28.914   08 Jun 2027 05:31:32.669            63.755         31877.500
       210   08 Jun 2027 05:32:03.746   08 Jun 2027 05:32:29.141            25.395         12697.500
       211   08 Jun 2027 05:33:04.909   08 Jun 2027 05:33:19.729            14.820          7410.000
       212   08 Jun 2027 07:06:00.152   08 Jun 2027 07:06:50.930            50.778         25389.000
       213   08 Jun 2027 07:07:28.996   08 Jun 2027 07:08:29.006            60.010         30005.000
       214   08 Jun 2027 07:10:19.650   08 Jun 2027 07:10:23.940             4.290          2145.000
       215   08 Jun 2027 07:11:52.131   08 Jun 2027 07:12:07.854            15.723          7861.500
       216   08 Jun 2027 08:42:19.980   08 Jun 2027 08:42:39.915            19.935          7502.906
       217   08 Jun 2027 08:42:50.417   08 Jun 2027 08:42:51.287             0.870           180.031
       218   08 Jun 2027 08:45:29.186   08 Jun 2027 08:45:34.135             4.949          2474.500
       219   08 Jun 2027 08:45:48.612   08 Jun 2027 08:45:52.995             4.383          1923.656
       220   08 Jun 2027 08:46:20.047   08 Jun 2027 08:46:29.283             9.236           762.406
       221   08 Jun 2027 08:47:17.906   08 Jun 2027 08:47:21.801             3.895          1097.625
       222   08 Jun 2027 08:47:36.347   08 Jun 2027 08:47:36.583             0.236            56.969
       223   08 Jun 2027 08:48:23.388   08 Jun 2027 08:48:23.388             0.000             0.000
       224   08 Jun 2027 08:48:41.072   08 Jun 2027 08:48:47.716             6.644          1349.313
       225   08 Jun 2027 08:49:34.213   08 Jun 2027 08:49:40.487             6.274          1453.031
       226   08 Jun 2027 08:49:48.880   08 Jun 2027 08:49:50.074             1.194           217.656
       227   08 Jun 2027 10:19:26.309   08 Jun 2027 10:19:47.829            21.520          7914.875
       228   08 Jun 2027 10:20:09.595   08 Jun 2027 10:20:14.064             4.469           357.125
       229   08 Jun 2027 10:21:01.333   08 Jun 2027 10:21:04.307             2.974           617.406
       230   08 Jun 2027 10:21:14.932   08 Jun 2027 10:21:15.695             0.763           332.031
       231   08 Jun 2027 10:21:28.763   08 Jun 2027 10:21:29.250             0.487           169.344
       232   08 Jun 2027 10:21:56.031   08 Jun 2027 10:21:58.305             2.274           484.250
       233   08 Jun 2027 10:22:07.264   08 Jun 2027 10:22:07.512             0.248           124.000
       234   08 Jun 2027 10:22:29.076   08 Jun 2027 10:22:30.854             1.778           829.844
       235   08 Jun 2027 10:22:44.113   08 Jun 2027 10:22:46.165             2.052           414.344
       236   08 Jun 2027 10:22:54.318   08 Jun 2027 10:22:54.853             0.535            84.438
       237   08 Jun 2027 10:23:32.958   08 Jun 2027 10:23:37.517             4.559          1165.625
       238   08 Jun 2027 10:24:20.440   08 Jun 2027 10:24:24.692             4.252          1320.000
       239   08 Jun 2027 10:25:25.775   08 Jun 2027 10:25:33.403             7.628          1617.656
       240   08 Jun 2027 11:57:21.721   08 Jun 2027 11:57:34.425            12.704          6352.000
       241   08 Jun 2027 11:58:01.917   08 Jun 2027 11:58:05.411             3.494          1053.812
       242   08 Jun 2027 11:58:57.064   08 Jun 2027 11:58:59.660             2.596          1139.000
       243   08 Jun 2027 11:59:27.001   08 Jun 2027 11:59:30.564             3.563           799.813
       244   08 Jun 2027 11:59:46.724   08 Jun 2027 11:59:48.357             1.633           464.406
       245   09 Jun 2027 04:08:12.630   09 Jun 2027 04:08:42.921            30.291         15145.500
       246   09 Jun 2027 04:09:19.201   09 Jun 2027 04:09:47.574            28.373         14186.500
       247   09 Jun 2027 04:19:56.738   09 Jun 2027 04:20:44.171            47.433         23716.500
       248   09 Jun 2027 05:42:11.454   09 Jun 2027 05:43:17.480            66.026         33013.000
       249   09 Jun 2027 05:44:05.779   09 Jun 2027 05:44:30.893            25.114         12557.000
       250   09 Jun 2027 05:44:56.589   09 Jun 2027 05:44:56.589             0.000             0.000
       251   09 Jun 2027 05:47:03.346   09 Jun 2027 05:47:03.346             0.000             0.000
       252   09 Jun 2027 07:17:08.315   09 Jun 2027 07:19:04.839           116.524         58262.000
       253   09 Jun 2027 07:19:27.035   09 Jun 2027 07:19:31.093             4.058          2029.000
       254   09 Jun 2027 07:19:55.121   09 Jun 2027 07:20:05.244            10.123          5061.500
       255   09 Jun 2027 07:22:07.144   09 Jun 2027 07:22:17.726            10.582          4768.000
       256   09 Jun 2027 07:24:04.202   09 Jun 2027 07:24:10.504             6.302          3151.000
       257   09 Jun 2027 07:24:21.755   09 Jun 2027 07:24:23.668             1.913           448.532
       258   09 Jun 2027 08:54:37.803   09 Jun 2027 08:54:55.039            17.236          7906.219
       259   09 Jun 2027 08:57:26.899   09 Jun 2027 08:57:38.223            11.324          3786.187
       260   09 Jun 2027 08:58:07.201   09 Jun 2027 08:58:11.211             4.010           842.031
       261   09 Jun 2027 08:58:52.613   09 Jun 2027 08:58:56.174             3.561          1193.750
       262   09 Jun 2027 08:59:08.883   09 Jun 2027 08:59:11.180             2.297           397.156
       263   09 Jun 2027 09:00:14.514   09 Jun 2027 09:00:20.111             5.597          1484.219
       264   09 Jun 2027 09:00:46.977   09 Jun 2027 09:00:46.977             0.000             0.000
       265   09 Jun 2027 09:01:35.382   09 Jun 2027 09:01:39.903             4.521          2097.125
       266   09 Jun 2027 09:01:48.988   09 Jun 2027 09:01:50.478             1.490           192.938
       267   09 Jun 2027 09:01:54.148   09 Jun 2027 09:01:54.945             0.797           111.969
       268   09 Jun 2027 10:31:22.431   09 Jun 2027 10:31:41.448            19.017          8055.594
       269   09 Jun 2027 10:31:50.570   09 Jun 2027 10:31:53.036             2.466           159.531
       270   09 Jun 2027 10:32:24.541   09 Jun 2027 10:32:27.555             3.014           825.469
       271   09 Jun 2027 10:33:16.822   09 Jun 2027 10:33:18.567             1.745           632.187
       272   09 Jun 2027 10:33:28.061   09 Jun 2027 10:33:35.998             7.937           206.125
       273   09 Jun 2027 10:33:41.913   09 Jun 2027 10:33:44.603             2.690           181.437
       274   09 Jun 2027 10:34:17.374   09 Jun 2027 10:34:18.889             1.515           708.656
       275   09 Jun 2027 10:35:18.935   09 Jun 2027 10:35:19.523             0.588           294.000
       276   09 Jun 2027 10:35:23.320   09 Jun 2027 10:35:28.563             5.243          1701.094
       277   09 Jun 2027 10:35:51.066   09 Jun 2027 10:35:53.035             1.969           703.219
       278   09 Jun 2027 10:37:31.344   09 Jun 2027 10:37:35.277             3.933          1966.500
       279   09 Jun 2027 10:37:39.448   09 Jun 2027 10:37:41.777             2.329           554.969
       280   10 Jun 2027 03:00:00.000   10 Jun 2027 03:00:10.701            10.701          5350.500
       281   10 Jun 2027 03:00:16.105   10 Jun 2027 03:00:53.059            36.954         18477.000
       282   10 Jun 2027 04:19:46.132   10 Jun 2027 04:20:30.091            43.959         21979.500
       283   10 Jun 2027 04:21:41.676   10 Jun 2027 04:21:46.840             5.164          2582.000
       284   10 Jun 2027 04:31:59.016   10 Jun 2027 04:32:29.674            30.658         15329.000
       285   10 Jun 2027 05:53:43.408   10 Jun 2027 05:55:03.113            79.705         39852.500
       286   10 Jun 2027 05:55:51.901   10 Jun 2027 05:56:06.156            14.255          7127.500
       287   10 Jun 2027 05:56:14.001   10 Jun 2027 05:56:14.001             0.000             0.000
       288   10 Jun 2027 05:57:10.634   10 Jun 2027 05:57:17.106             6.472          3236.000
       289   10 Jun 2027 07:28:37.120   10 Jun 2027 07:30:36.112           118.992         58763.531
       290   10 Jun 2027 07:31:43.585   10 Jun 2027 07:31:43.585             0.000             0.000
       291   10 Jun 2027 07:32:47.429   10 Jun 2027 07:32:52.365             4.936          2468.000
       292   10 Jun 2027 07:32:59.903   10 Jun 2027 07:33:00.867             0.964           482.000
       293   10 Jun 2027 07:36:02.196   10 Jun 2027 07:36:18.673            16.477          6912.812
       294   10 Jun 2027 07:37:31.893   10 Jun 2027 07:37:32.158             0.265           132.500
       295   10 Jun 2027 07:37:42.103   10 Jun 2027 07:37:43.461             1.358           679.000
       296   10 Jun 2027 07:37:45.730   10 Jun 2027 07:37:52.584             6.854          1858.312
       297   10 Jun 2027 09:06:31.586   10 Jun 2027 09:06:49.189            17.603          8194.094
       298   10 Jun 2027 09:07:22.023   10 Jun 2027 09:07:28.095             6.072           950.844
       299   10 Jun 2027 09:09:21.951   10 Jun 2027 09:09:29.002             7.051          3463.125
       300   10 Jun 2027 09:10:43.532   10 Jun 2027 09:10:48.346             4.814          2329.063
       301   10 Jun 2027 09:11:01.388   10 Jun 2027 09:11:02.255             0.867           407.563
       302   10 Jun 2027 09:11:42.293   10 Jun 2027 09:11:47.946             5.653           802.906
       303   10 Jun 2027 09:12:05.857   10 Jun 2027 09:12:07.606             1.749           377.875
       304   10 Jun 2027 09:12:34.447   10 Jun 2027 09:12:37.152             2.705           838.781
       305   10 Jun 2027 09:13:26.944   10 Jun 2027 09:13:31.374             4.430          1556.000
       306   10 Jun 2027 09:13:36.075   10 Jun 2027 09:13:36.295             0.220           110.000
       307   10 Jun 2027 10:43:15.738   10 Jun 2027 10:43:36.382            20.644          9526.343
       308   10 Jun 2027 10:43:50.450   10 Jun 2027 10:43:54.016             3.566           380.594
       309   10 Jun 2027 10:44:56.743   10 Jun 2027 10:45:01.523             4.780           885.406
       310   10 Jun 2027 10:46:42.859   10 Jun 2027 10:46:48.339             5.480          1881.313
       311   10 Jun 2027 10:47:19.572   10 Jun 2027 10:47:20.534             0.962           481.000
       312   10 Jun 2027 10:47:30.245   10 Jun 2027 10:47:33.434             3.189           601.187
       313   10 Jun 2027 10:47:46.234   10 Jun 2027 10:47:47.047             0.813           400.000
       314   10 Jun 2027 10:47:49.617   10 Jun 2027 10:47:49.778             0.161            39.031
       315   10 Jun 2027 10:48:41.377   10 Jun 2027 10:48:44.886             3.509          1589.750
       316   10 Jun 2027 10:49:28.214   10 Jun 2027 10:49:31.662             3.448          1354.000
       317   10 Jun 2027 10:49:36.527   10 Jun 2027 10:49:49.904            13.377           152.031
       318   11 Jun 2027 03:07:48.425   11 Jun 2027 03:08:34.591            46.166         23083.000
       319   11 Jun 2027 03:08:56.930   11 Jun 2027 03:08:59.856             2.926          1463.000
       320   11 Jun 2027 03:09:29.784   11 Jun 2027 03:09:41.862            12.078          6039.000
       321   11 Jun 2027 03:10:08.189   11 Jun 2027 03:10:21.546            13.357          6678.500
       322   11 Jun 2027 03:10:48.284   11 Jun 2027 03:10:48.284             0.000             0.000
       323   11 Jun 2027 03:11:31.004   11 Jun 2027 03:11:31.004             0.000             0.000
       324   11 Jun 2027 04:31:41.887   11 Jun 2027 04:32:14.260            32.373         16186.500
       325   11 Jun 2027 04:33:43.203   11 Jun 2027 04:33:45.422             2.219          1109.500
       326   11 Jun 2027 06:07:42.125   11 Jun 2027 06:09:46.541           124.416         62208.000
       327   11 Jun 2027 06:10:24.010   11 Jun 2027 06:10:28.655             4.645          2322.500
       328   11 Jun 2027 07:41:30.245   11 Jun 2027 07:43:05.782            95.537         47768.500
       329   11 Jun 2027 07:43:09.909   11 Jun 2027 07:43:11.692             1.783           279.781
       330   11 Jun 2027 07:44:43.602   11 Jun 2027 07:44:49.255             5.653          2826.500
       331   11 Jun 2027 07:45:24.378   11 Jun 2027 07:45:26.323             1.945           972.500
       332   11 Jun 2027 07:46:06.627   11 Jun 2027 07:46:11.550             4.923          1430.281
       333   11 Jun 2027 07:46:25.563   11 Jun 2027 07:46:26.618             1.055           324.875
       334   11 Jun 2027 07:46:42.743   11 Jun 2027 07:46:43.592             0.849           339.844
       335   11 Jun 2027 07:47:08.373   11 Jun 2027 07:47:09.812             1.439           719.500
       336   11 Jun 2027 07:48:11.207   11 Jun 2027 07:48:13.954             2.747          1373.500
       337   11 Jun 2027 07:48:31.122   11 Jun 2027 07:48:31.122             0.000             0.000
       338   11 Jun 2027 07:48:38.769   11 Jun 2027 07:48:39.625             0.856           428.000
       339   11 Jun 2027 07:48:59.761   11 Jun 2027 07:49:02.985             3.224          1560.032
       340   11 Jun 2027 07:49:58.508   11 Jun 2027 07:49:58.508             0.000             0.000
       341   11 Jun 2027 09:18:40.339   11 Jun 2027 09:19:05.934            25.595         10137.437
       342   11 Jun 2027 09:20:49.567   11 Jun 2027 09:20:51.400             1.833           860.406
       343   11 Jun 2027 09:20:54.420   11 Jun 2027 09:20:56.737             2.317            25.500
       344   11 Jun 2027 09:21:41.225   11 Jun 2027 09:21:45.060             3.835          1155.250
       345   11 Jun 2027 09:22:09.450   11 Jun 2027 09:22:10.804             1.354           561.375
       346   11 Jun 2027 09:22:19.875   11 Jun 2027 09:22:25.856             5.981           283.469
       347   11 Jun 2027 09:22:36.869   11 Jun 2027 09:22:37.331             0.462            47.719
       348   11 Jun 2027 09:23:23.512   11 Jun 2027 09:23:29.679             6.167          1254.094
       349   11 Jun 2027 09:23:32.147   11 Jun 2027 09:23:37.740             5.593            53.781
       350   11 Jun 2027 09:24:02.846   11 Jun 2027 09:24:05.066             2.220           772.156
       351   11 Jun 2027 10:55:54.583   11 Jun 2027 10:56:09.166            14.583          7017.938
       352   11 Jun 2027 10:57:42.698   11 Jun 2027 10:57:48.702             6.004          2332.469
       353   11 Jun 2027 10:58:58.567   11 Jun 2027 10:59:10.049            11.482          2183.281
       354   11 Jun 2027 10:59:19.308   11 Jun 2027 10:59:20.724             1.416           194.187
       355   11 Jun 2027 10:59:31.761   11 Jun 2027 10:59:32.586             0.825           295.844
       356   11 Jun 2027 10:59:42.371   11 Jun 2027 10:59:43.698             1.327           305.781
       357   11 Jun 2027 11:00:14.180   11 Jun 2027 11:00:16.144             1.964           907.187
       358   11 Jun 2027 11:01:00.177   11 Jun 2027 11:01:04.503             4.326          1376.031
       359   11 Jun 2027 11:01:14.982   11 Jun 2027 11:01:16.229             1.247           109.875
       360   12 Jun 2027 03:20:12.726   12 Jun 2027 03:22:25.709           132.983         66491.500
       361   12 Jun 2027 03:22:58.445   12 Jun 2027 03:22:59.674             1.229           614.500
       362   12 Jun 2027 04:43:34.466   12 Jun 2027 04:44:10.907            36.441         18220.500
       363   12 Jun 2027 06:19:55.397   12 Jun 2027 06:21:48.454           113.057         56528.500
       364   12 Jun 2027 06:22:16.606   12 Jun 2027 06:22:16.606             0.000             0.000
       365   12 Jun 2027 06:22:30.946   12 Jun 2027 06:22:31.470             0.524           262.000
       366   12 Jun 2027 06:22:52.684   12 Jun 2027 06:23:01.242             8.558          4279.000
       367   12 Jun 2027 07:53:57.459   12 Jun 2027 07:54:56.869            59.410         28270.000
       368   12 Jun 2027 07:55:44.851   12 Jun 2027 07:55:50.895             6.044          1499.437
       369   12 Jun 2027 07:55:59.006   12 Jun 2027 07:55:59.006             0.000             0.000
       370   12 Jun 2027 07:56:00.554   12 Jun 2027 07:56:06.748             6.194           245.906
       371   12 Jun 2027 07:57:36.520   12 Jun 2027 07:57:42.790             6.270          2801.344
       372   12 Jun 2027 07:58:43.285   12 Jun 2027 07:58:48.275             4.990          1890.469
       373   12 Jun 2027 07:59:20.325   12 Jun 2027 07:59:22.822             2.497           912.844
       374   12 Jun 2027 08:00:34.500   12 Jun 2027 08:00:36.626             2.126          1063.000
       375   12 Jun 2027 08:00:36.754   12 Jun 2027 08:00:39.755             3.001          1124.438
       376   12 Jun 2027 08:01:27.887   12 Jun 2027 08:01:33.672             5.785          1504.125
       377   12 Jun 2027 08:01:42.422   12 Jun 2027 08:01:44.403             1.981           106.844
       378   12 Jun 2027 09:31:05.041   12 Jun 2027 09:31:23.602            18.561          7484.562
       379   12 Jun 2027 09:32:09.746   12 Jun 2027 09:32:10.203             0.457           228.500
       380   12 Jun 2027 09:33:27.820   12 Jun 2027 09:33:36.894             9.074          2798.062
       381   12 Jun 2027 09:34:14.297   12 Jun 2027 09:34:16.686             2.389           223.406
       382   12 Jun 2027 09:34:39.071   12 Jun 2027 09:34:40.588             1.517           699.531
       383   12 Jun 2027 09:35:24.735   12 Jun 2027 09:35:29.739             5.004          1245.469
       384   12 Jun 2027 09:36:09.949   12 Jun 2027 09:36:13.877             3.928          1256.562
       385   12 Jun 2027 09:36:43.141   12 Jun 2027 09:36:50.420             7.279           733.500
       386   12 Jun 2027 09:37:14.587   12 Jun 2027 09:37:17.229             2.642           374.125
       387   12 Jun 2027 09:37:44.924   12 Jun 2027 09:37:46.663             1.739           477.000
       388   12 Jun 2027 11:08:02.942   12 Jun 2027 11:08:20.989            18.047          8414.781
       389   12 Jun 2027 11:09:01.796   12 Jun 2027 11:09:04.356             2.560          1111.500
       390   12 Jun 2027 11:09:42.121   12 Jun 2027 11:09:46.071             3.950           762.406
       391   12 Jun 2027 11:11:00.740   12 Jun 2027 11:11:04.910             4.170          2081.812
       392   12 Jun 2027 11:11:18.058   12 Jun 2027 11:11:23.325             5.267           410.875
       393   12 Jun 2027 11:11:52.812   12 Jun 2027 11:11:55.209             2.397           921.469
       394   12 Jun 2027 11:12:16.341   12 Jun 2027 11:12:18.175             1.834           660.375
       395   12 Jun 2027 11:12:47.944   12 Jun 2027 11:12:48.002             0.058            29.000
       396   13 Jun 2027 03:32:31.224   13 Jun 2027 03:34:23.883           112.659         56329.500
       397   13 Jun 2027 04:55:35.192   13 Jun 2027 04:56:38.042            62.850         31425.000
       398   13 Jun 2027 06:32:01.598   13 Jun 2027 06:33:18.441            76.843         38421.500
       399   13 Jun 2027 06:33:28.480   13 Jun 2027 06:33:42.290            13.810          6905.000
       400   13 Jun 2027 06:34:17.779   13 Jun 2027 06:34:22.981             5.202          2601.000
       401   13 Jun 2027 06:34:34.890   13 Jun 2027 06:34:37.586             2.696          1348.000
       402   13 Jun 2027 08:07:10.168   13 Jun 2027 08:08:05.939            55.771         27775.687
       403   13 Jun 2027 08:09:04.650   13 Jun 2027 08:09:09.006             4.356          1587.594
       404   13 Jun 2027 08:09:13.569   13 Jun 2027 08:09:14.606             1.037           142.594
       405   13 Jun 2027 08:09:38.341   13 Jun 2027 08:09:40.535             2.194           514.969
       406   13 Jun 2027 08:10:42.884   13 Jun 2027 08:10:48.540             5.656          1694.031
       407   13 Jun 2027 08:11:23.629   13 Jun 2027 08:11:23.629             0.000             0.000
       408   13 Jun 2027 08:12:35.342   13 Jun 2027 08:12:37.820             2.478          1239.000
       409   13 Jun 2027 08:13:09.776   13 Jun 2027 08:13:17.727             7.951          2933.719
       410   13 Jun 2027 08:13:29.531   13 Jun 2027 08:13:30.069             0.538           177.562
       411   13 Jun 2027 09:43:30.674   13 Jun 2027 09:43:45.977            15.303          6842.625
       412   13 Jun 2027 09:45:12.279   13 Jun 2027 09:45:18.172             5.893          1975.844
       413   13 Jun 2027 09:45:48.640   13 Jun 2027 09:45:50.916             2.276           952.125
       414   13 Jun 2027 09:45:58.042   13 Jun 2027 09:46:04.057             6.015           207.250
       415   13 Jun 2027 09:46:18.314   13 Jun 2027 09:46:19.207             0.893           416.656
       416   13 Jun 2027 09:47:15.620   13 Jun 2027 09:47:19.072             3.452          1494.594
       417   13 Jun 2027 09:47:39.300   13 Jun 2027 09:47:43.338             4.038           463.844
       418   13 Jun 2027 09:48:19.647   13 Jun 2027 09:48:22.443             2.796           715.000
       419   13 Jun 2027 11:21:04.751   13 Jun 2027 11:21:15.740            10.989          5494.500
       420   13 Jun 2027 11:21:46.842   13 Jun 2027 11:21:59.017            12.175          1996.156
       421   13 Jun 2027 11:22:36.609   13 Jun 2027 11:22:39.462             2.853           739.687
       422   13 Jun 2027 11:24:03.948   13 Jun 2027 11:24:09.951             6.003          2640.188
       423   13 Jun 2027 11:24:10.900   13 Jun 2027 11:24:15.519             4.619            29.656
       424   13 Jun 2027 11:25:03.430   13 Jun 2027 11:25:06.578             3.148          1497.219
       425   13 Jun 2027 11:25:21.051   13 Jun 2027 11:25:22.404             1.353           206.812
