uniorb/output/strategy_1/Camera/Camera_KinoSat_111404.txt

KinoSat_111404
-------------------------
    Access    *     Start Time (UTCG)     *     Stop Time (UTCG)  *   Duration (s) *   Data (Mbytes)
         1   01 Jun 2027 03:33:07.342   01 Jun 2027 03:35:27.622           140.280         70140.000
         2   01 Jun 2027 03:36:40.428   01 Jun 2027 03:36:41.932             1.504           752.000
         3   01 Jun 2027 03:39:55.263   01 Jun 2027 03:40:15.499            20.236         10118.000
         4   01 Jun 2027 04:57:57.439   01 Jun 2027 04:58:06.697             9.258          4629.000
         5   01 Jun 2027 04:58:17.098   01 Jun 2027 04:58:41.223            24.125         12062.500
         6   01 Jun 2027 04:58:57.034   01 Jun 2027 04:59:13.177            16.143          8071.500
         7   01 Jun 2027 05:09:41.604   01 Jun 2027 05:10:34.074            52.470         26235.000
         8   01 Jun 2027 06:31:56.610   01 Jun 2027 06:33:02.547            65.937         32968.500
         9   01 Jun 2027 06:34:22.763   01 Jun 2027 06:34:41.608            18.845          9422.500
        10   01 Jun 2027 08:06:54.269   01 Jun 2027 08:08:49.154           114.885         57442.500
        11   01 Jun 2027 08:08:58.176   01 Jun 2027 08:09:05.572             7.396          3698.000
        12   01 Jun 2027 08:12:10.465   01 Jun 2027 08:12:35.055            24.590         12295.000
        13   01 Jun 2027 09:44:54.103   01 Jun 2027 09:46:20.433            86.330         43165.000
        14   01 Jun 2027 09:49:01.971   01 Jun 2027 09:49:01.971             0.000             0.000
        15   01 Jun 2027 09:50:35.220   01 Jun 2027 09:51:04.844            29.624         14812.000
        16   01 Jun 2027 09:51:14.757   01 Jun 2027 09:51:16.035             1.278           639.000
        17   01 Jun 2027 11:21:07.655   01 Jun 2027 11:22:06.632            58.977         29488.500
        18   01 Jun 2027 11:22:43.147   01 Jun 2027 11:23:35.894            52.747         26373.500
        19   01 Jun 2027 11:25:02.824   01 Jun 2027 11:25:19.191            16.367          8183.500
        20   01 Jun 2027 11:27:25.219   01 Jun 2027 11:27:39.699            14.480          7240.000
        21   02 Jun 2027 03:45:09.450   02 Jun 2027 03:47:08.240           118.790         59395.000
        22   02 Jun 2027 03:49:21.752   02 Jun 2027 03:49:35.486            13.734          6867.000
        23   02 Jun 2027 03:52:07.904   02 Jun 2027 03:52:09.292             1.388           694.000
        24   02 Jun 2027 05:09:30.820   02 Jun 2027 05:10:31.037            60.217         30108.500
        25   02 Jun 2027 05:21:46.739   02 Jun 2027 05:22:10.714            23.975         11987.500
        26   02 Jun 2027 06:43:29.529   02 Jun 2027 06:44:49.362            79.833         39916.500
        27   02 Jun 2027 06:46:12.416   02 Jun 2027 06:46:12.416             0.000             0.000
        28   02 Jun 2027 06:46:39.817   02 Jun 2027 06:46:48.296             8.479          4239.500
        29   02 Jun 2027 06:48:05.290   02 Jun 2027 06:48:05.290             0.000             0.000
        30   02 Jun 2027 06:48:10.490   02 Jun 2027 06:48:15.868             5.378          2689.000
        31   02 Jun 2027 08:18:22.375   02 Jun 2027 08:19:55.299            92.924         46462.000
        32   02 Jun 2027 08:20:31.826   02 Jun 2027 08:20:41.423             9.597          4798.500
        33   02 Jun 2027 08:22:19.246   02 Jun 2027 08:22:29.773            10.527          5263.500
        34   02 Jun 2027 08:22:59.043   02 Jun 2027 08:23:39.138            40.095         20047.500
        35   02 Jun 2027 08:23:55.164   02 Jun 2027 08:24:02.113             6.949          3474.500
        36   02 Jun 2027 08:27:18.085   02 Jun 2027 08:27:21.764             3.679          1839.500
        37   02 Jun 2027 09:56:16.200   02 Jun 2027 09:56:58.593            42.393         21196.500
        38   02 Jun 2027 09:59:16.463   02 Jun 2027 09:59:16.463             0.000             0.000
        39   02 Jun 2027 10:00:15.071   02 Jun 2027 10:01:13.451            58.380         29190.000
        40   02 Jun 2027 10:02:09.598   02 Jun 2027 10:02:29.968            20.370         10185.000
        41   02 Jun 2027 10:03:15.190   02 Jun 2027 10:03:17.978             2.788          1394.000
        42   02 Jun 2027 11:33:00.191   02 Jun 2027 11:34:55.200           115.009         57504.500
        43   02 Jun 2027 11:36:55.027   02 Jun 2027 11:36:57.987             2.960          1480.000
        44   02 Jun 2027 11:38:08.052   02 Jun 2027 11:38:15.295             7.243          3621.500
        45   03 Jun 2027 03:57:33.904   03 Jun 2027 03:58:41.221            67.317         33658.500
        46   03 Jun 2027 03:59:19.349   03 Jun 2027 03:59:44.078            24.729         12364.500
        47   03 Jun 2027 03:59:54.101   03 Jun 2027 04:00:02.992             8.891          4445.500
        48   03 Jun 2027 05:21:26.881   03 Jun 2027 05:22:36.246            69.365         34682.500
        49   03 Jun 2027 05:22:58.930   03 Jun 2027 05:22:58.930             0.000             0.000
        50   03 Jun 2027 05:23:35.449   03 Jun 2027 05:23:43.754             8.305          4152.500
        51   03 Jun 2027 06:57:27.794   03 Jun 2027 06:59:27.106           119.312         59656.000
        52   03 Jun 2027 06:59:55.131   03 Jun 2027 07:00:08.482            13.351          6675.500
        53   03 Jun 2027 08:31:15.260   03 Jun 2027 08:33:14.233           118.973         59486.500
        54   03 Jun 2027 08:37:12.038   03 Jun 2027 08:37:12.038             0.000             0.000
        55   03 Jun 2027 08:38:20.253   03 Jun 2027 08:38:20.253             0.000             0.000
        56   03 Jun 2027 10:08:24.221   03 Jun 2027 10:09:36.969            72.748         36374.000
        57   03 Jun 2027 10:12:16.151   03 Jun 2027 10:12:16.151             0.000             0.000
        58   03 Jun 2027 10:12:59.269   03 Jun 2027 10:13:37.022            37.753         18354.594
        59   03 Jun 2027 10:13:47.655   03 Jun 2027 10:13:48.567             0.912           280.969
        60   03 Jun 2027 10:15:07.564   03 Jun 2027 10:15:08.683             1.119           559.500
        61   03 Jun 2027 11:45:38.753   03 Jun 2027 11:45:49.620            10.867          5433.500
        62   03 Jun 2027 11:45:53.598   03 Jun 2027 11:46:02.091             8.493          3936.719
        63   03 Jun 2027 11:47:23.133   03 Jun 2027 11:47:27.097             3.964          1982.000
        64   03 Jun 2027 11:47:35.154   03 Jun 2027 11:47:37.495             2.341           387.719
        65   03 Jun 2027 11:47:57.919   03 Jun 2027 11:48:04.897             6.978           380.375
        66   03 Jun 2027 11:48:52.404   03 Jun 2027 11:48:54.628             2.224          1112.000
        67   03 Jun 2027 11:48:55.788   03 Jun 2027 11:48:56.498             0.710           266.281
        68   03 Jun 2027 11:49:58.438   03 Jun 2027 11:50:02.383             3.945          1935.625
        69   03 Jun 2027 11:50:56.664   03 Jun 2027 11:51:00.090             3.426          1693.219
        70   03 Jun 2027 11:51:27.350   03 Jun 2027 11:51:29.504             2.154           726.719
        71   04 Jun 2027 04:09:57.415   04 Jun 2027 04:11:13.743            76.328         38164.000
        72   04 Jun 2027 04:11:53.687   04 Jun 2027 04:12:17.481            23.794         11897.000
        73   04 Jun 2027 04:12:36.335   04 Jun 2027 04:12:57.767            21.432         10716.000
        74   04 Jun 2027 05:33:19.959   04 Jun 2027 05:34:52.008            92.049         46024.500
        75   04 Jun 2027 07:09:40.861   04 Jun 2027 07:11:43.137           122.276         61138.000
        76   04 Jun 2027 07:12:44.916   04 Jun 2027 07:12:46.141             1.225           612.500
        77   04 Jun 2027 08:43:40.787   04 Jun 2027 08:44:10.249            29.462         13367.688
        78   04 Jun 2027 08:45:20.385   04 Jun 2027 08:45:25.394             5.009          1586.031
        79   04 Jun 2027 08:47:09.033   04 Jun 2027 08:47:15.763             6.730          3233.063
        80   04 Jun 2027 08:47:28.998   04 Jun 2027 08:47:39.269            10.271            97.469
        81   04 Jun 2027 08:50:14.682   04 Jun 2027 08:50:21.304             6.622          3311.000
        82   04 Jun 2027 08:50:46.653   04 Jun 2027 08:50:53.114             6.461          2239.250
        83   04 Jun 2027 08:51:42.359   04 Jun 2027 08:51:44.443             2.084           801.875
        84   04 Jun 2027 10:20:49.674   04 Jun 2027 10:21:06.068            16.394          5585.875
        85   04 Jun 2027 10:21:20.044   04 Jun 2027 10:21:21.758             1.714            95.219
        86   04 Jun 2027 10:22:51.951   04 Jun 2027 10:22:56.550             4.599          1741.031
        87   04 Jun 2027 10:23:19.240   04 Jun 2027 10:23:23.564             4.324           309.250
        88   04 Jun 2027 10:23:36.978   04 Jun 2027 10:23:38.712             1.734           378.281
        89   04 Jun 2027 10:24:01.873   04 Jun 2027 10:24:03.354             1.481           466.750
        90   04 Jun 2027 10:25:36.218   04 Jun 2027 10:25:45.539             9.321          2075.344
        91   04 Jun 2027 10:25:51.130   04 Jun 2027 10:25:53.955             2.825           141.156
        92   04 Jun 2027 10:26:12.274   04 Jun 2027 10:26:13.503             1.229           554.031
        93   04 Jun 2027 10:27:03.967   04 Jun 2027 10:27:07.009             3.042          1521.000
        94   04 Jun 2027 10:27:08.628   04 Jun 2027 10:27:10.321             1.693           106.594
        95   04 Jun 2027 10:27:19.454   04 Jun 2027 10:27:19.625             0.171            85.500
        96   04 Jun 2027 11:57:48.437   04 Jun 2027 11:58:06.768            18.331          8614.813
        97   04 Jun 2027 11:59:20.122   04 Jun 2027 11:59:25.122             5.000          1991.781
        98   05 Jun 2027 04:22:16.571   05 Jun 2027 04:24:04.052           107.481         53740.500
        99   05 Jun 2027 04:24:32.043   05 Jun 2027 04:24:34.563             2.520          1260.000
       100   05 Jun 2027 04:25:34.981   05 Jun 2027 04:25:48.401            13.420          6710.000
       101   05 Jun 2027 05:45:14.078   05 Jun 2027 05:46:03.717            49.639         24819.500
       102   05 Jun 2027 05:46:38.361   05 Jun 2027 05:47:01.749            23.388         11694.000
       103   05 Jun 2027 07:21:46.677   05 Jun 2027 07:23:55.121           128.444         64222.000
       104   05 Jun 2027 07:24:34.544   05 Jun 2027 07:24:44.585            10.041          3895.094
       105   05 Jun 2027 08:56:55.524   05 Jun 2027 08:57:11.607            16.083          6769.437
       106   05 Jun 2027 08:57:44.795   05 Jun 2027 08:57:46.938             2.143          1011.531
       107   05 Jun 2027 08:58:07.058   05 Jun 2027 08:58:07.751             0.693           346.500
       108   05 Jun 2027 08:59:21.018   05 Jun 2027 08:59:31.074            10.056          2370.281
       109   05 Jun 2027 09:00:22.676   05 Jun 2027 09:00:27.539             4.863           511.219
       110   05 Jun 2027 09:02:21.900   05 Jun 2027 09:02:30.361             8.461          3342.750
       111   05 Jun 2027 09:02:54.159   05 Jun 2027 09:02:54.159             0.000             0.000
       112   05 Jun 2027 09:03:32.588   05 Jun 2027 09:03:37.140             4.552          1836.844
       113   05 Jun 2027 10:33:15.868   05 Jun 2027 10:33:28.431            12.563          6081.094
       114   05 Jun 2027 10:34:00.518   05 Jun 2027 10:34:03.146             2.628            28.437
       115   05 Jun 2027 10:34:59.437   05 Jun 2027 10:35:01.981             2.544          1141.563
       116   05 Jun 2027 10:35:15.071   05 Jun 2027 10:35:20.045             4.974           163.844
       117   05 Jun 2027 10:35:30.893   05 Jun 2027 10:35:31.360             0.467            74.063
       118   05 Jun 2027 10:35:34.756   05 Jun 2027 10:35:35.323             0.567           106.125
       119   05 Jun 2027 10:35:42.289   05 Jun 2027 10:35:45.726             3.437           198.437
       120   05 Jun 2027 10:37:00.915   05 Jun 2027 10:37:04.830             3.915          1814.531
       121   05 Jun 2027 10:37:24.857   05 Jun 2027 10:37:27.495             2.638           520.156
       122   05 Jun 2027 10:37:34.815   05 Jun 2027 10:37:37.228             2.413            76.156
       123   05 Jun 2027 10:37:56.735   05 Jun 2027 10:37:58.199             1.464           108.750
       124   05 Jun 2027 10:38:48.982   05 Jun 2027 10:38:56.513             7.531          1513.875
       125   05 Jun 2027 10:39:26.239   05 Jun 2027 10:39:29.343             3.104           928.938
       126   06 Jun 2027 03:00:00.000   06 Jun 2027 03:00:03.912             3.912          1956.000
       127   06 Jun 2027 03:00:29.206   06 Jun 2027 03:00:51.422            22.216         11108.000
       128   06 Jun 2027 03:01:52.346   06 Jun 2027 03:01:53.762             1.416           708.000
       129   06 Jun 2027 04:34:00.811   06 Jun 2027 04:34:35.607            34.796         17398.000
       130   06 Jun 2027 04:34:49.428   06 Jun 2027 04:35:24.518            35.090         17545.000
       131   06 Jun 2027 04:35:39.564   06 Jun 2027 04:36:15.346            35.782         17891.000
       132   06 Jun 2027 05:57:21.604   06 Jun 2027 05:58:39.031            77.427         38713.500
       133   06 Jun 2027 05:59:33.437   06 Jun 2027 05:59:51.467            18.030          9015.000
       134   06 Jun 2027 07:33:57.181   06 Jun 2027 07:35:37.311           100.130         49837.530
       135   06 Jun 2027 07:36:18.586   06 Jun 2027 07:36:18.586             0.000             0.000
       136   06 Jun 2027 09:09:07.453   06 Jun 2027 09:09:21.329            13.876          6873.156
       137   06 Jun 2027 09:10:36.901   06 Jun 2027 09:10:42.648             5.747          2361.625
       138   06 Jun 2027 09:12:03.033   06 Jun 2027 09:12:03.033             0.000             0.000
       139   06 Jun 2027 09:12:15.802   06 Jun 2027 09:12:25.306             9.504          2911.063
       140   06 Jun 2027 09:14:21.961   06 Jun 2027 09:14:21.961             0.000             0.000
       141   06 Jun 2027 09:15:29.039   06 Jun 2027 09:15:40.799            11.760          5741.656
       142   06 Jun 2027 10:45:27.526   06 Jun 2027 10:45:44.283            16.757          7234.562
       143   06 Jun 2027 10:47:23.865   06 Jun 2027 10:47:31.680             7.815          2821.531
       144   06 Jun 2027 10:47:54.637   06 Jun 2027 10:47:57.833             3.196           523.219
       145   06 Jun 2027 10:48:25.105   06 Jun 2027 10:48:27.864             2.759           720.406
       146   06 Jun 2027 10:48:40.905   06 Jun 2027 10:48:41.742             0.837           407.531
       147   06 Jun 2027 10:49:07.667   06 Jun 2027 10:49:10.298             2.631           676.344
       148   06 Jun 2027 10:49:49.945   06 Jun 2027 10:49:57.805             7.860          1131.125
       149   06 Jun 2027 10:50:18.526   06 Jun 2027 10:50:25.369             6.843           540.719
       150   06 Jun 2027 10:50:45.817   06 Jun 2027 10:50:48.116             2.299           490.813
       151   06 Jun 2027 10:51:15.512   06 Jun 2027 10:51:20.895             5.383           611.281
       152   06 Jun 2027 10:51:21.352   06 Jun 2027 10:51:22.241             0.889            14.281
       153   07 Jun 2027 03:08:50.142   07 Jun 2027 03:10:00.244            70.102         35051.000
       154   07 Jun 2027 03:10:53.218   07 Jun 2027 03:11:01.042             7.824          3912.000
       155   07 Jun 2027 03:11:14.148   07 Jun 2027 03:11:14.798             0.650           325.000
       156   07 Jun 2027 03:13:24.638   07 Jun 2027 03:13:24.638             0.000             0.000
       157   07 Jun 2027 03:13:32.897   07 Jun 2027 03:13:44.467            11.570          5785.000
       158   07 Jun 2027 03:13:48.320   07 Jun 2027 03:13:53.908             5.588          2794.000
       159   07 Jun 2027 04:35:14.646   07 Jun 2027 04:35:15.489             0.843           421.500
       160   07 Jun 2027 04:45:57.489   07 Jun 2027 04:46:38.338            40.849         20424.500
       161   07 Jun 2027 04:46:55.155   07 Jun 2027 04:47:17.744            22.589         11294.500
       162   07 Jun 2027 04:48:22.650   07 Jun 2027 04:48:31.863             9.213          4606.500
       163   07 Jun 2027 04:48:57.323   07 Jun 2027 04:49:15.205            17.882          8941.000
       164   07 Jun 2027 06:09:55.245   07 Jun 2027 06:10:51.672            56.427         28213.500
       165   07 Jun 2027 07:45:44.141   07 Jun 2027 07:47:26.970           102.829         51414.500
       166   07 Jun 2027 07:48:21.999   07 Jun 2027 07:48:21.999             0.000             0.000
       167   07 Jun 2027 07:48:25.584   07 Jun 2027 07:48:26.393             0.809           404.500
       168   07 Jun 2027 07:49:35.906   07 Jun 2027 07:49:43.598             7.692          3797.781
       169   07 Jun 2027 09:20:36.910   07 Jun 2027 09:20:49.263            12.353          5371.812
       170   07 Jun 2027 09:21:04.667   07 Jun 2027 09:21:06.027             1.360           130.156
       171   07 Jun 2027 09:23:44.758   07 Jun 2027 09:23:54.955            10.197          4960.344
       172   07 Jun 2027 09:24:20.220   07 Jun 2027 09:24:23.141             2.921           789.531
       173   07 Jun 2027 09:26:21.382   07 Jun 2027 09:26:21.382             0.000             0.000
       174   07 Jun 2027 09:27:20.809   07 Jun 2027 09:27:31.913            11.104          5409.688
       175   07 Jun 2027 10:57:07.182   07 Jun 2027 10:57:25.928            18.746          7960.875
       176   07 Jun 2027 10:58:00.235   07 Jun 2027 10:58:01.277             1.042           192.813
       177   07 Jun 2027 10:59:09.553   07 Jun 2027 10:59:14.110             4.557          1731.656
       178   07 Jun 2027 10:59:24.255   07 Jun 2027 10:59:27.010             2.755           317.031
       179   07 Jun 2027 10:59:52.510   07 Jun 2027 10:59:53.872             1.362           568.281
       180   07 Jun 2027 11:00:20.236   07 Jun 2027 11:00:21.166             0.930           465.000
       181   07 Jun 2027 11:00:40.127   07 Jun 2027 11:00:42.183             2.056           630.687
       182   07 Jun 2027 11:01:03.251   07 Jun 2027 11:01:04.753             1.502           658.375
       183   07 Jun 2027 11:01:20.841   07 Jun 2027 11:01:21.821             0.980           490.000
       184   07 Jun 2027 11:01:32.769   07 Jun 2027 11:01:36.234             3.465           354.875
       185   07 Jun 2027 11:02:10.096   07 Jun 2027 11:02:14.293             4.197          1014.156
       186   07 Jun 2027 11:02:21.212   07 Jun 2027 11:02:30.341             9.129           102.688
       187   07 Jun 2027 11:03:22.138   07 Jun 2027 11:03:26.055             3.917          1618.656
       188   07 Jun 2027 11:03:27.984   07 Jun 2027 11:03:29.138             1.154            55.531
       189   08 Jun 2027 03:20:54.288   08 Jun 2027 03:22:24.719            90.431         45215.500
       190   08 Jun 2027 03:22:58.098   08 Jun 2027 03:23:02.182             4.084          2042.000
       191   08 Jun 2027 03:24:11.074   08 Jun 2027 03:24:22.507            11.433          5716.500
       192   08 Jun 2027 03:25:39.667   08 Jun 2027 03:25:43.297             3.630          1815.000
       193   08 Jun 2027 03:27:16.402   08 Jun 2027 03:27:20.211             3.809          1904.500
       194   08 Jun 2027 03:27:32.632   08 Jun 2027 03:27:33.010             0.378           189.000
       195   08 Jun 2027 03:27:57.766   08 Jun 2027 03:28:31.709            33.943         16971.500
       196   08 Jun 2027 04:46:33.114   08 Jun 2027 04:46:47.979            14.865          7432.500
       197   08 Jun 2027 04:57:54.430   08 Jun 2027 04:58:42.985            48.555         24277.500
       198   08 Jun 2027 04:59:00.097   08 Jun 2027 04:59:19.942            19.845          9922.500
       199   08 Jun 2027 06:20:30.090   08 Jun 2027 06:21:05.492            35.402         17701.000
       200   08 Jun 2027 06:21:47.946   08 Jun 2027 06:22:08.865            20.919         10459.500
       201   08 Jun 2027 06:24:27.219   08 Jun 2027 06:24:49.460            22.241         11120.500
       202   08 Jun 2027 07:56:00.918   08 Jun 2027 07:56:51.752            50.834         25417.000
       203   08 Jun 2027 07:57:29.530   08 Jun 2027 07:57:34.393             4.863          2431.500
       204   08 Jun 2027 07:59:02.065   08 Jun 2027 07:59:13.829            11.764          5827.938
       205   08 Jun 2027 08:00:25.380   08 Jun 2027 08:00:29.744             4.364          2163.969
       206   08 Jun 2027 08:00:54.269   08 Jun 2027 08:00:57.711             3.442           760.625
       207   08 Jun 2027 08:01:30.578   08 Jun 2027 08:01:31.605             1.027           444.031
       208   08 Jun 2027 08:01:52.041   08 Jun 2027 08:01:55.240             3.199           532.156
       209   08 Jun 2027 09:32:21.080   08 Jun 2027 09:32:30.579             9.499          4115.437
       210   08 Jun 2027 09:34:38.075   08 Jun 2027 09:34:55.189            17.114          3560.188
       211   08 Jun 2027 09:36:02.798   08 Jun 2027 09:36:06.545             3.747           824.938
       212   08 Jun 2027 09:36:55.072   08 Jun 2027 09:36:59.405             4.333          1243.969
       213   08 Jun 2027 09:37:36.796   08 Jun 2027 09:37:45.576             8.780          1085.094
       214   08 Jun 2027 09:38:02.728   08 Jun 2027 09:38:05.536             2.808           472.438
       215   08 Jun 2027 09:38:42.627   08 Jun 2027 09:38:44.579             1.952           906.719
       216   08 Jun 2027 09:39:27.930   08 Jun 2027 09:39:31.177             3.247           946.781
       217   08 Jun 2027 09:39:32.919   08 Jun 2027 09:39:33.200             0.281            54.438
       218   08 Jun 2027 09:39:53.023   08 Jun 2027 09:39:53.184             0.161            80.500
       219   08 Jun 2027 11:09:27.157   08 Jun 2027 11:09:45.277            18.120          6561.000
       220   08 Jun 2027 11:10:19.691   08 Jun 2027 11:10:24.177             4.486          1064.281
       221   08 Jun 2027 11:11:16.001   08 Jun 2027 11:11:22.916             6.915          1202.281
       222   08 Jun 2027 11:11:28.262   08 Jun 2027 11:11:32.000             3.738           167.063
       223   08 Jun 2027 11:12:09.196   08 Jun 2027 11:12:11.980             2.784          1023.594
       224   08 Jun 2027 11:12:23.371   08 Jun 2027 11:12:23.666             0.295            86.812
       225   08 Jun 2027 11:13:02.440   08 Jun 2027 11:13:06.288             3.848          1026.687
       226   08 Jun 2027 11:13:22.184   08 Jun 2027 11:13:25.307             3.123           482.438
       227   08 Jun 2027 11:13:36.965   08 Jun 2027 11:13:38.615             1.650           149.250
       228   08 Jun 2027 11:13:53.714   08 Jun 2027 11:13:55.640             1.926           471.844
       229   08 Jun 2027 11:15:02.430   08 Jun 2027 11:15:07.862             5.432          1943.969
       230   08 Jun 2027 11:15:16.821   08 Jun 2027 11:15:20.229             3.408           236.438
       231   08 Jun 2027 11:15:40.099   08 Jun 2027 11:15:44.013             3.914           620.938
       232   09 Jun 2027 03:33:24.446   09 Jun 2027 03:34:57.123            92.677         46338.500
       233   09 Jun 2027 03:35:20.189   09 Jun 2027 03:35:26.515             6.326          3163.000
       234   09 Jun 2027 03:36:17.263   09 Jun 2027 03:36:29.273            12.010          6005.000
       235   09 Jun 2027 03:37:28.200   09 Jun 2027 03:37:34.792             6.592          3296.000
       236   09 Jun 2027 03:39:34.272   09 Jun 2027 03:40:11.647            37.375         18687.500
       237   09 Jun 2027 04:58:13.707   09 Jun 2027 04:58:49.514            35.807         17903.500
       238   09 Jun 2027 04:58:53.667   09 Jun 2027 04:58:54.281             0.614           307.000
       239   09 Jun 2027 04:59:08.803   09 Jun 2027 04:59:14.545             5.742          2871.000
       240   09 Jun 2027 05:09:54.622   09 Jun 2027 05:10:33.682            39.060         19530.000
       241   09 Jun 2027 05:10:48.559   09 Jun 2027 05:10:48.559             0.000             0.000
       242   09 Jun 2027 06:32:12.246   09 Jun 2027 06:33:18.454            66.208         33104.000
       243   09 Jun 2027 06:34:06.220   09 Jun 2027 06:34:26.861            20.641         10320.500
       244   09 Jun 2027 08:07:08.473   09 Jun 2027 08:07:42.853            34.380         17123.593
       245   09 Jun 2027 08:08:35.437   09 Jun 2027 08:08:37.925             2.488           986.594
       246   09 Jun 2027 08:09:22.758   09 Jun 2027 08:09:28.538             5.780          1198.281
       247   09 Jun 2027 08:11:02.757   09 Jun 2027 08:11:09.586             6.829          2891.656
       248   09 Jun 2027 08:12:27.052   09 Jun 2027 08:12:32.088             5.036          2250.281
       249   09 Jun 2027 08:13:16.129   09 Jun 2027 08:13:19.644             3.515          1376.281
       250   09 Jun 2027 08:13:33.245   09 Jun 2027 08:13:34.819             1.574           380.094
       251   09 Jun 2027 09:44:38.601   09 Jun 2027 09:44:49.382            10.781          4439.625
       252   09 Jun 2027 09:45:09.315   09 Jun 2027 09:45:12.327             3.012            28.187
       253   09 Jun 2027 09:48:15.106   09 Jun 2027 09:48:24.262             9.156          4578.000
       254   09 Jun 2027 09:48:31.646   09 Jun 2027 09:48:38.205             6.559          1364.594
       255   09 Jun 2027 09:49:48.629   09 Jun 2027 09:49:53.330             4.701          1264.406
       256   09 Jun 2027 09:50:03.403   09 Jun 2027 09:50:05.792             2.389           314.781
       257   09 Jun 2027 09:50:22.673   09 Jun 2027 09:50:24.276             1.603           403.531
       258   09 Jun 2027 09:50:50.334   09 Jun 2027 09:50:54.223             3.889           814.312
       259   09 Jun 2027 09:51:19.702   09 Jun 2027 09:51:22.375             2.673           796.219
       260   09 Jun 2027 11:21:23.373   09 Jun 2027 11:21:37.832            14.459          6926.313
       261   09 Jun 2027 11:22:24.440   09 Jun 2027 11:22:29.249             4.809          1418.812
       262   09 Jun 2027 11:22:43.046   09 Jun 2027 11:22:50.705             7.659           156.625
       263   09 Jun 2027 11:23:17.997   09 Jun 2027 11:23:19.843             1.846           754.594
       264   09 Jun 2027 11:23:39.115   09 Jun 2027 11:23:41.995             2.880           391.906
       265   09 Jun 2027 11:24:07.278   09 Jun 2027 11:24:08.067             0.789           394.500
       266   09 Jun 2027 11:24:19.808   09 Jun 2027 11:24:21.037             1.229           368.531
       267   09 Jun 2027 11:25:19.679   09 Jun 2027 11:25:19.679             0.000             0.000
       268   09 Jun 2027 11:25:34.024   09 Jun 2027 11:25:35.613             1.589           794.500
       269   09 Jun 2027 11:26:47.294   09 Jun 2027 11:26:55.287             7.993          2999.062
       270   09 Jun 2027 11:27:27.321   09 Jun 2027 11:27:28.470             1.149           574.500
       271   09 Jun 2027 11:27:49.448   09 Jun 2027 11:27:50.252             0.804           402.000
       272   10 Jun 2027 03:45:26.427   10 Jun 2027 03:47:01.188            94.761         47380.500
       273   10 Jun 2027 03:48:40.744   10 Jun 2027 03:48:56.050            15.306          7653.000
       274   10 Jun 2027 03:49:18.634   10 Jun 2027 03:49:30.115            11.481          5740.500
       275   10 Jun 2027 03:49:53.107   10 Jun 2027 03:50:10.404            17.297          8648.500
       276   10 Jun 2027 03:51:08.061   10 Jun 2027 03:51:19.335            11.274          5637.000
       277   10 Jun 2027 05:09:47.302   10 Jun 2027 05:10:50.956            63.654         31827.000
       278   10 Jun 2027 05:11:15.377   10 Jun 2027 05:11:33.257            17.880          8940.000
       279   10 Jun 2027 05:22:02.841   10 Jun 2027 05:22:28.033            25.192         12596.000
       280   10 Jun 2027 06:43:44.240   10 Jun 2027 06:45:03.974            79.734         39867.000
       281   10 Jun 2027 06:47:10.674   10 Jun 2027 06:47:30.582            19.908          9954.000
       282   10 Jun 2027 06:48:37.217   10 Jun 2027 06:48:44.605             7.388          3632.687
       283   10 Jun 2027 08:18:37.784   10 Jun 2027 08:18:53.955            16.171          8085.500
       284   10 Jun 2027 08:19:31.011   10 Jun 2027 08:19:33.285             2.274          1137.000
       285   10 Jun 2027 08:20:36.919   10 Jun 2027 08:20:45.561             8.642          4225.844
       286   10 Jun 2027 08:22:03.604   10 Jun 2027 08:22:07.321             3.717          1858.500
       287   10 Jun 2027 08:22:23.654   10 Jun 2027 08:22:26.441             2.787          1090.750
       288   10 Jun 2027 08:23:16.398   10 Jun 2027 08:23:16.398             0.000             0.000
       289   10 Jun 2027 08:24:27.027   10 Jun 2027 08:24:33.672             6.645          3113.031
       290   10 Jun 2027 08:25:49.940   10 Jun 2027 08:25:51.654             1.714           857.000
       291   10 Jun 2027 08:26:09.324   10 Jun 2027 08:26:11.707             2.383          1191.500
       292   10 Jun 2027 08:27:33.454   10 Jun 2027 08:27:39.843             6.389          2800.688
       293   10 Jun 2027 09:56:32.804   10 Jun 2027 09:56:46.012            13.208          5946.063
       294   10 Jun 2027 09:57:24.792   10 Jun 2027 09:57:28.541             3.749          1015.281
       295   10 Jun 2027 09:58:03.519   10 Jun 2027 09:58:05.207             1.688           435.656
       296   10 Jun 2027 09:58:10.912   10 Jun 2027 09:58:12.415             1.503           178.281
       297   10 Jun 2027 09:58:44.950   10 Jun 2027 09:58:47.078             2.128          1016.719
       298   10 Jun 2027 09:59:30.446   10 Jun 2027 09:59:32.199             1.753           216.906
       299   10 Jun 2027 09:59:53.255   10 Jun 2027 09:59:55.893             2.638           313.250
       300   10 Jun 2027 10:00:43.067   10 Jun 2027 10:00:47.191             4.124          1008.031
       301   10 Jun 2027 10:01:55.586   10 Jun 2027 10:02:01.792             6.206          2115.750
       302   10 Jun 2027 10:02:11.052   10 Jun 2027 10:02:13.451             2.399           289.375
       303   10 Jun 2027 10:02:24.086   10 Jun 2027 10:02:25.632             1.546           299.250
       304   10 Jun 2027 10:03:07.775   10 Jun 2027 10:03:13.216             5.441          1220.312
       305   10 Jun 2027 10:03:32.032   10 Jun 2027 10:03:33.783             1.751           588.000
       306   10 Jun 2027 10:03:36.577   10 Jun 2027 10:03:38.975             2.398            87.312
       307   10 Jun 2027 11:33:17.422   10 Jun 2027 11:33:30.557            13.135          6567.500
       308   10 Jun 2027 11:33:52.057   10 Jun 2027 11:33:54.833             2.776          1225.813
       309   10 Jun 2027 11:34:32.260   10 Jun 2027 11:34:33.776             1.516           703.281
       310   10 Jun 2027 11:35:38.891   10 Jun 2027 11:35:42.944             4.053          1964.531
       311   10 Jun 2027 11:35:48.312   10 Jun 2027 11:35:49.168             0.856           167.750
       312   10 Jun 2027 11:36:10.891   10 Jun 2027 11:36:13.488             2.597           471.219
       313   10 Jun 2027 11:36:15.040   10 Jun 2027 11:36:18.644             3.604            48.500
       314   10 Jun 2027 11:37:22.982   10 Jun 2027 11:37:29.947             6.965          1412.875
       315   10 Jun 2027 11:37:43.891   10 Jun 2027 11:37:47.318             3.427           435.750
       316   10 Jun 2027 11:38:18.541   10 Jun 2027 11:38:20.907             2.366           950.500
       317   10 Jun 2027 11:38:29.883   10 Jun 2027 11:38:34.420             4.537           280.500
       318   10 Jun 2027 11:39:06.676   10 Jun 2027 11:39:09.209             2.533           999.312
       319   10 Jun 2027 11:39:28.471   10 Jun 2027 11:39:28.471             0.000             0.000
       320   10 Jun 2027 11:39:43.099   10 Jun 2027 11:39:47.372             4.273           803.969
       321   10 Jun 2027 11:39:59.150   10 Jun 2027 11:40:00.663             1.513           134.031
       322   11 Jun 2027 03:57:52.047   11 Jun 2027 03:59:45.393           113.346         56673.000
       323   11 Jun 2027 04:01:32.204   11 Jun 2027 04:01:41.569             9.365          4682.500
       324   11 Jun 2027 05:21:43.051   11 Jun 2027 05:22:41.539            58.488         29244.000
       325   11 Jun 2027 05:22:52.278   11 Jun 2027 05:23:15.147            22.869         11434.500
       326   11 Jun 2027 06:57:43.021   11 Jun 2027 06:59:42.868           119.847         59923.500
       327   11 Jun 2027 07:00:33.378   11 Jun 2027 07:00:33.378             0.000             0.000
       328   11 Jun 2027 08:31:31.107   11 Jun 2027 08:32:00.048            28.941         12757.688
       329   11 Jun 2027 08:33:26.904   11 Jun 2027 08:33:32.523             5.619          1269.531
       330   11 Jun 2027 08:34:49.630   11 Jun 2027 08:34:53.616             3.986          1897.062
       331   11 Jun 2027 08:35:20.823   11 Jun 2027 08:35:27.038             6.215           649.375
       332   11 Jun 2027 08:36:12.281   11 Jun 2027 08:36:12.480             0.199            99.500
       333   11 Jun 2027 08:36:16.317   11 Jun 2027 08:36:21.133             4.816           507.469
       334   11 Jun 2027 08:37:23.300   11 Jun 2027 08:37:27.279             3.979          1778.813
       335   11 Jun 2027 08:38:15.849   11 Jun 2027 08:38:18.987             3.138          1517.813
       336   11 Jun 2027 08:38:43.267   11 Jun 2027 08:38:43.910             0.643           321.500
       337   11 Jun 2027 08:38:46.986   11 Jun 2027 08:38:49.958             2.972           235.812
       338   11 Jun 2027 08:39:04.057   11 Jun 2027 08:39:09.341             5.284           401.438
       339   11 Jun 2027 08:39:14.664   11 Jun 2027 08:39:18.039             3.375           166.344
       340   11 Jun 2027 08:39:34.285   11 Jun 2027 08:39:36.696             2.411           419.906
       341   11 Jun 2027 08:39:59.128   11 Jun 2027 08:40:02.145             3.017           679.094
       342   11 Jun 2027 10:08:42.691   11 Jun 2027 10:08:57.465            14.774          7228.813
       343   11 Jun 2027 10:12:34.131   11 Jun 2027 10:12:45.453            11.322          4852.656
       344   11 Jun 2027 10:13:19.292   11 Jun 2027 10:13:21.080             1.788           221.688
       345   11 Jun 2027 10:13:42.870   11 Jun 2027 10:13:44.296             1.426           516.281
       346   11 Jun 2027 10:14:06.463   11 Jun 2027 10:14:09.455             2.992           653.562
       347   11 Jun 2027 10:15:09.205   11 Jun 2027 10:15:12.978             3.773          1790.031
       348   11 Jun 2027 10:15:26.096   11 Jun 2027 10:15:26.096             0.000             0.000
       349   11 Jun 2027 11:45:56.399   11 Jun 2027 11:46:05.971             9.572          4786.000
       350   11 Jun 2027 11:46:10.747   11 Jun 2027 11:46:16.123             5.376          2236.406
       351   11 Jun 2027 11:47:03.589   11 Jun 2027 11:47:08.104             4.515           999.656
       352   11 Jun 2027 11:47:41.241   11 Jun 2027 11:47:43.942             2.701           594.125
       353   11 Jun 2027 11:48:28.360   11 Jun 2027 11:48:32.568             4.208          1388.063
       354   11 Jun 2027 11:48:58.205   11 Jun 2027 11:49:06.393             8.188           708.906
       355   11 Jun 2027 11:49:27.343   11 Jun 2027 11:49:32.910             5.567           654.687
       356   11 Jun 2027 11:49:51.803   11 Jun 2027 11:49:52.586             0.783           153.688
       357   11 Jun 2027 11:51:08.806   11 Jun 2027 11:51:15.291             6.485          2182.375
       358   11 Jun 2027 11:51:28.256   11 Jun 2027 11:51:29.368             1.112           405.156
       359   12 Jun 2027 04:10:13.519   12 Jun 2027 04:11:47.558            94.039         47019.500
       360   12 Jun 2027 04:12:58.954   12 Jun 2027 04:13:12.391            13.437          6718.500
       361   12 Jun 2027 05:33:35.405   12 Jun 2027 05:35:07.390            91.985         45992.500
       362   12 Jun 2027 07:09:56.523   12 Jun 2027 07:12:01.125           124.602         62301.000
       363   12 Jun 2027 08:43:59.529   12 Jun 2027 08:44:18.273            18.744          8981.813
       364   12 Jun 2027 08:45:37.988   12 Jun 2027 08:45:41.449             3.461          1609.188
       365   12 Jun 2027 08:45:56.420   12 Jun 2027 08:45:56.420             0.000             0.000
       366   12 Jun 2027 08:46:06.655   12 Jun 2027 08:46:07.143             0.488           244.000
       367   12 Jun 2027 08:46:27.418   12 Jun 2027 08:46:36.607             9.189          1138.281
       368   12 Jun 2027 08:47:03.462   12 Jun 2027 08:47:05.658             2.196           371.531
       369   12 Jun 2027 08:48:58.532   12 Jun 2027 08:49:07.813             9.281          3446.875
       370   12 Jun 2027 08:49:39.888   12 Jun 2027 08:49:41.716             1.828           888.156
       371   12 Jun 2027 08:49:49.517   12 Jun 2027 08:49:51.989             2.472           243.781
       372   12 Jun 2027 08:50:11.241   12 Jun 2027 08:50:16.566             5.325           350.438
       373   12 Jun 2027 08:50:39.686   12 Jun 2027 08:50:41.683             1.997           529.969
       374   12 Jun 2027 08:51:04.394   12 Jun 2027 08:51:04.704             0.310           155.000
       375   12 Jun 2027 08:51:25.492   12 Jun 2027 08:51:29.044             3.552          1198.062
       376   12 Jun 2027 08:51:58.374   12 Jun 2027 08:51:58.891             0.517           258.500
       377   12 Jun 2027 08:52:00.315   12 Jun 2027 08:52:00.956             0.641           320.500
       378   12 Jun 2027 10:21:06.274   12 Jun 2027 10:21:20.424            14.150          6604.438
       379   12 Jun 2027 10:23:08.186   12 Jun 2027 10:23:12.339             4.153          1812.250
       380   12 Jun 2027 10:23:13.046   12 Jun 2027 10:23:14.302             1.256            22.094
       381   12 Jun 2027 10:24:02.818   12 Jun 2027 10:24:06.794             3.976          1213.156
       382   12 Jun 2027 10:24:21.965   12 Jun 2027 10:24:25.054             3.089           253.094
       383   12 Jun 2027 10:25:35.262   12 Jun 2027 10:25:38.025             2.763           659.406
       384   12 Jun 2027 10:26:56.331   12 Jun 2027 10:27:04.232             7.901          2354.094
       385   12 Jun 2027 10:27:39.773   12 Jun 2027 10:27:40.559             0.786           393.000
       386   12 Jun 2027 11:58:03.913   12 Jun 2027 11:58:24.295            20.382          6188.719
       387   12 Jun 2027 11:59:38.525   12 Jun 2027 11:59:40.753             2.228          1114.000
       388   13 Jun 2027 04:22:37.769   13 Jun 2027 04:24:20.625           102.856         51428.000
       389   13 Jun 2027 04:24:47.738   13 Jun 2027 04:24:51.758             4.020          2010.000
       390   13 Jun 2027 05:45:37.103   13 Jun 2027 05:46:54.365            77.262         38631.000
       391   13 Jun 2027 05:47:52.597   13 Jun 2027 05:48:07.926            15.329          7664.500
       392   13 Jun 2027 07:22:02.997   13 Jun 2027 07:24:13.283           130.286         65143.000
       393   13 Jun 2027 07:25:04.942   13 Jun 2027 07:25:10.012             5.070          2436.000
       394   13 Jun 2027 08:57:11.337   13 Jun 2027 08:57:29.734            18.397          8391.844
       395   13 Jun 2027 08:58:16.138   13 Jun 2027 08:58:21.026             4.888          1267.844
       396   13 Jun 2027 09:00:22.706   13 Jun 2027 09:00:32.869            10.163          3591.125
       397   13 Jun 2027 09:00:56.551   13 Jun 2027 09:00:56.551             0.000             0.000
       398   13 Jun 2027 09:01:18.554   13 Jun 2027 09:01:22.429             3.875          1178.406
       399   13 Jun 2027 09:01:57.801   13 Jun 2027 09:02:00.093             2.292          1005.750
       400   13 Jun 2027 09:02:03.909   13 Jun 2027 09:02:04.319             0.410            66.938
       401   13 Jun 2027 09:02:20.176   13 Jun 2027 09:02:27.500             7.324           437.250
       402   13 Jun 2027 09:03:20.130   13 Jun 2027 09:03:23.403             3.273          1325.844
       403   13 Jun 2027 09:03:47.936   13 Jun 2027 09:03:50.588             2.652           624.063
       404   13 Jun 2027 09:03:53.115   13 Jun 2027 09:03:54.014             0.899            76.594
       405   13 Jun 2027 10:33:32.047   13 Jun 2027 10:33:43.083            11.036          5488.719
       406   13 Jun 2027 10:33:49.645   13 Jun 2027 10:33:50.004             0.359           151.625
       407   13 Jun 2027 10:34:01.349   13 Jun 2027 10:34:01.811             0.462            70.188
       408   13 Jun 2027 10:34:18.495   13 Jun 2027 10:34:18.947             0.452           222.344
       409   13 Jun 2027 10:35:17.891   13 Jun 2027 10:35:27.111             9.220          1234.469
       410   13 Jun 2027 10:35:31.573   13 Jun 2027 10:35:36.073             4.500            73.750
       411   13 Jun 2027 10:35:45.591   13 Jun 2027 10:35:47.477             1.886            28.906
       412   13 Jun 2027 10:35:51.227   13 Jun 2027 10:35:52.080             0.853           117.187
       413   13 Jun 2027 10:36:18.462   13 Jun 2027 10:36:21.400             2.938           778.625
       414   13 Jun 2027 10:36:44.464   13 Jun 2027 10:36:50.231             5.767           720.750
       415   13 Jun 2027 10:37:15.433   13 Jun 2027 10:37:17.220             1.787           416.344
       416   13 Jun 2027 10:37:41.198   13 Jun 2027 10:37:43.034             1.836           562.281
       417   13 Jun 2027 10:37:48.730   13 Jun 2027 10:37:50.751             2.021            26.531
       418   13 Jun 2027 10:38:57.295   13 Jun 2027 10:39:02.214             4.919          2079.500
       419   13 Jun 2027 10:39:13.469   13 Jun 2027 10:39:14.597             1.128           252.062
       420   13 Jun 2027 10:39:19.682   13 Jun 2027 10:39:24.258             4.576           158.906
       421   13 Jun 2027 10:39:35.950   13 Jun 2027 10:39:37.412             1.462           365.375
