uniorb/output/strategy_1/Camera/Camera_KinoSat_110604.txt

KinoSat_110604
-------------------------
    Access    *     Start Time (UTCG)     *     Stop Time (UTCG)  *   Duration (s) *   Data (Mbytes)
         1   01 Jun 2027 03:53:42.974   01 Jun 2027 03:55:41.456           118.482         59241.000
         2   01 Jun 2027 05:28:47.635   01 Jun 2027 05:30:45.352           117.717         58858.500
         3   01 Jun 2027 05:30:54.886   01 Jun 2027 05:31:14.728            19.842          9921.000
         4   01 Jun 2027 05:34:46.938   01 Jun 2027 05:35:00.801            13.863          6931.500
         5   01 Jun 2027 05:35:34.365   01 Jun 2027 05:35:40.218             5.853          2926.500
         6   01 Jun 2027 07:04:52.981   01 Jun 2027 07:06:17.479            84.498         42249.000
         7   01 Jun 2027 07:07:21.406   01 Jun 2027 07:08:12.849            51.443         25721.500
         8   01 Jun 2027 07:08:24.031   01 Jun 2027 07:08:27.017             2.986          1493.000
         9   01 Jun 2027 07:10:28.778   01 Jun 2027 07:10:28.778             0.000             0.000
        10   01 Jun 2027 07:10:50.011   01 Jun 2027 07:11:12.544            22.533         11266.500
        11   01 Jun 2027 08:42:51.116   01 Jun 2027 08:44:47.271           116.155         58077.500
        12   01 Jun 2027 08:45:07.918   01 Jun 2027 08:45:14.006             6.088          3044.000
        13   01 Jun 2027 08:45:49.618   01 Jun 2027 08:45:56.269             6.651          3325.500
        14   01 Jun 2027 08:46:24.089   01 Jun 2027 08:46:24.089             0.000             0.000
        15   01 Jun 2027 08:47:06.629   01 Jun 2027 08:47:15.662             9.033          4516.500
        16   01 Jun 2027 10:18:42.374   01 Jun 2027 10:20:26.081           103.707         51853.500
        17   01 Jun 2027 10:20:32.226   01 Jun 2027 10:20:40.846             8.620          4310.000
        18   01 Jun 2027 10:23:35.729   01 Jun 2027 10:23:38.311             2.582          1291.000
        19   01 Jun 2027 10:23:41.296   01 Jun 2027 10:23:56.888            15.592          7796.000
        20   02 Jun 2027 04:05:27.627   02 Jun 2027 04:06:17.097            49.470         24735.000
        21   02 Jun 2027 05:40:13.340   02 Jun 2027 05:42:30.126           136.786         68393.000
        22   02 Jun 2027 05:42:49.529   02 Jun 2027 05:42:49.529             0.000             0.000
        23   02 Jun 2027 05:44:37.656   02 Jun 2027 05:44:47.520             9.864          4932.000
        24   02 Jun 2027 05:46:41.271   02 Jun 2027 05:47:07.538            26.267         13133.500
        25   02 Jun 2027 05:47:41.882   02 Jun 2027 05:47:46.103             4.221          2110.500
        26   02 Jun 2027 07:17:02.798   02 Jun 2027 07:19:26.213           143.415         71707.500
        27   02 Jun 2027 07:20:50.753   02 Jun 2027 07:21:02.065            11.312          5656.000
        28   02 Jun 2027 07:21:20.868   02 Jun 2027 07:21:29.023             8.155          4077.500
        29   02 Jun 2027 08:55:13.297   02 Jun 2027 08:57:28.301           135.004         67502.000
        30   02 Jun 2027 08:57:34.314   02 Jun 2027 08:57:50.444            16.130          8065.000
        31   02 Jun 2027 08:58:51.871   02 Jun 2027 08:58:55.104             3.233          1616.500
        32   02 Jun 2027 08:58:57.174   02 Jun 2027 08:58:57.716             0.542           271.000
        33   02 Jun 2027 10:28:30.915   02 Jun 2027 10:30:15.000           104.085         52042.500
        34   02 Jun 2027 10:30:18.296   02 Jun 2027 10:30:38.475            20.179         10089.500
        35   02 Jun 2027 10:34:24.716   02 Jun 2027 10:34:46.220            21.504         10752.000
        36   03 Jun 2027 04:15:15.656   03 Jun 2027 04:15:53.883            38.227         19113.500
        37   03 Jun 2027 04:17:23.409   03 Jun 2027 04:17:32.923             9.514          4757.000
        38   03 Jun 2027 04:18:02.725   03 Jun 2027 04:18:02.725             0.000             0.000
        39   03 Jun 2027 04:19:14.734   03 Jun 2027 04:19:40.978            26.244         13122.000
        40   03 Jun 2027 04:21:44.345   03 Jun 2027 04:21:46.623             2.278          1139.000
        41   03 Jun 2027 04:23:07.056   03 Jun 2027 04:23:09.581             2.525          1262.500
        42   03 Jun 2027 05:52:20.266   03 Jun 2027 05:54:41.073           140.807         70403.500
        43   03 Jun 2027 05:58:49.977   03 Jun 2027 05:59:06.697            16.720          8360.000
        44   03 Jun 2027 05:59:45.966   03 Jun 2027 05:59:46.465             0.499           249.500
        45   03 Jun 2027 07:29:18.368   03 Jun 2027 07:32:01.061           162.693         81346.500
        46   03 Jun 2027 07:33:10.493   03 Jun 2027 07:33:15.137             4.644          2322.000
        47   03 Jun 2027 07:33:55.872   03 Jun 2027 07:34:02.086             6.214          3107.000
        48   03 Jun 2027 07:34:37.333   03 Jun 2027 07:34:45.283             7.950          3975.000
        49   03 Jun 2027 07:35:10.917   03 Jun 2027 07:35:10.989             0.072            36.000
        50   03 Jun 2027 09:07:14.648   03 Jun 2027 09:09:35.431           140.783         70391.500
        51   03 Jun 2027 09:10:55.659   03 Jun 2027 09:10:59.139             3.480          1740.000
        52   03 Jun 2027 10:40:36.083   03 Jun 2027 10:41:36.080            59.997         29526.346
        53   03 Jun 2027 10:41:41.817   03 Jun 2027 10:41:42.959             1.142           162.688
        54   03 Jun 2027 10:42:46.497   03 Jun 2027 10:42:46.497             0.000             0.000
        55   03 Jun 2027 10:43:46.162   03 Jun 2027 10:43:53.175             7.013          3506.500
        56   03 Jun 2027 10:44:43.292   03 Jun 2027 10:44:47.108             3.816          1644.406
        57   03 Jun 2027 10:46:26.617   03 Jun 2027 10:46:28.309             1.692           846.000
        58   03 Jun 2027 10:47:29.021   03 Jun 2027 10:47:32.629             3.608          1804.000
        59   04 Jun 2027 04:26:43.509   04 Jun 2027 04:28:15.947            92.438         46219.000
        60   04 Jun 2027 04:30:06.048   04 Jun 2027 04:30:07.208             1.160           580.000
        61   04 Jun 2027 04:31:01.829   04 Jun 2027 04:31:11.700             9.871          4935.500
        62   04 Jun 2027 04:31:58.173   04 Jun 2027 04:31:58.173             0.000             0.000
        63   04 Jun 2027 04:32:36.641   04 Jun 2027 04:32:45.077             8.436          4218.000
        64   04 Jun 2027 04:34:18.575   04 Jun 2027 04:34:27.634             9.059          4529.500
        65   04 Jun 2027 06:04:22.301   04 Jun 2027 06:05:43.517            81.216         40608.000
        66   04 Jun 2027 06:06:02.722   04 Jun 2027 06:06:39.971            37.249         18624.500
        67   04 Jun 2027 06:08:24.240   04 Jun 2027 06:08:30.081             5.841          2920.500
        68   04 Jun 2027 06:09:45.711   04 Jun 2027 06:10:05.029            19.318          9659.000
        69   04 Jun 2027 07:41:08.997   04 Jun 2027 07:43:16.613           127.616         63808.000
        70   04 Jun 2027 07:44:46.080   04 Jun 2027 07:45:00.811            14.731          7365.500
        71   04 Jun 2027 07:45:24.255   04 Jun 2027 07:45:28.090             3.835          1917.500
        72   04 Jun 2027 07:46:01.513   04 Jun 2027 07:46:01.585             0.072            36.000
        73   04 Jun 2027 07:46:40.273   04 Jun 2027 07:46:54.652            14.379          5378.125
        74   04 Jun 2027 07:47:24.553   04 Jun 2027 07:47:26.168             1.615           359.500
        75   04 Jun 2027 09:19:11.815   04 Jun 2027 09:19:35.497            23.682         10795.875
        76   04 Jun 2027 09:19:55.793   04 Jun 2027 09:19:58.844             3.051           634.250
        77   04 Jun 2027 09:20:21.743   04 Jun 2027 09:20:26.561             4.818           715.594
        78   04 Jun 2027 09:21:31.294   04 Jun 2027 09:21:35.242             3.948          1738.531
        79   04 Jun 2027 09:21:59.775   04 Jun 2027 09:22:01.602             1.827           537.406
        80   04 Jun 2027 09:22:13.793   04 Jun 2027 09:22:13.793             0.000             0.000
        81   04 Jun 2027 09:22:16.237   04 Jun 2027 09:22:17.283             1.046           457.344
        82   04 Jun 2027 09:22:25.116   04 Jun 2027 09:22:25.917             0.801           244.781
        83   04 Jun 2027 09:22:42.396   04 Jun 2027 09:22:43.065             0.669           295.812
        84   04 Jun 2027 09:23:15.099   04 Jun 2027 09:23:15.099             0.000             0.000
        85   04 Jun 2027 10:53:02.392   04 Jun 2027 10:53:05.315             2.923          1353.313
        86   04 Jun 2027 10:53:23.910   04 Jun 2027 10:53:23.910             0.000             0.000
        87   04 Jun 2027 10:53:30.256   04 Jun 2027 10:53:30.750             0.494           201.687
        88   04 Jun 2027 10:53:52.552   04 Jun 2027 10:54:01.042             8.490            47.094
        89   04 Jun 2027 10:54:30.541   04 Jun 2027 10:54:33.659             3.118           528.531
        90   04 Jun 2027 10:55:12.749   04 Jun 2027 10:55:19.674             6.925           932.969
        91   04 Jun 2027 10:56:04.435   04 Jun 2027 10:56:07.170             2.735          1240.125
        92   04 Jun 2027 10:56:42.589   04 Jun 2027 10:56:44.724             2.135          1067.500
        93   04 Jun 2027 10:56:54.285   04 Jun 2027 10:56:55.191             0.906           338.125
        94   04 Jun 2027 10:57:52.721   04 Jun 2027 10:58:00.124             7.403          1278.687
        95   04 Jun 2027 10:58:42.250   04 Jun 2027 10:58:45.710             3.460          1310.812
        96   05 Jun 2027 03:03:24.572   05 Jun 2027 03:03:35.903            11.331          5665.500
        97   05 Jun 2027 03:04:24.757   05 Jun 2027 03:04:24.757             0.000             0.000
        98   05 Jun 2027 03:04:36.857   05 Jun 2027 03:04:36.959             0.102            51.000
        99   05 Jun 2027 03:05:44.474   05 Jun 2027 03:05:47.536             3.062          1531.000
       100   05 Jun 2027 03:06:28.162   05 Jun 2027 03:06:46.349            18.187          9093.500
       101   05 Jun 2027 03:07:50.284   05 Jun 2027 03:07:50.284             0.000             0.000
       102   05 Jun 2027 03:08:06.141   05 Jun 2027 03:08:06.302             0.161            80.500
       103   05 Jun 2027 04:38:17.275   05 Jun 2027 04:39:38.468            81.193         40596.500
       104   05 Jun 2027 04:40:48.069   05 Jun 2027 04:41:01.041            12.972          6486.000
       105   05 Jun 2027 04:41:06.757   05 Jun 2027 04:41:08.818             2.061          1030.500
       106   05 Jun 2027 04:41:13.608   05 Jun 2027 04:41:13.608             0.000             0.000
       107   05 Jun 2027 04:43:17.641   05 Jun 2027 04:43:36.791            19.150          9575.000
       108   05 Jun 2027 04:43:53.799   05 Jun 2027 04:44:03.852            10.053          5026.500
       109   05 Jun 2027 04:46:52.583   05 Jun 2027 04:47:07.308            14.725          7362.500
       110   05 Jun 2027 04:47:13.472   05 Jun 2027 04:47:25.751            12.279          6139.500
       111   05 Jun 2027 06:16:24.087   05 Jun 2027 06:17:56.439            92.352         46176.000
       112   05 Jun 2027 06:18:48.539   05 Jun 2027 06:18:48.539             0.000             0.000
       113   05 Jun 2027 06:18:55.159   05 Jun 2027 06:19:01.809             6.650          3325.000
       114   05 Jun 2027 06:19:33.331   05 Jun 2027 06:19:48.240            14.909          7454.500
       115   05 Jun 2027 06:20:30.197   05 Jun 2027 06:20:31.979             1.782           891.000
       116   05 Jun 2027 06:22:54.951   05 Jun 2027 06:23:01.559             6.608          3304.000
       117   05 Jun 2027 06:23:36.725   05 Jun 2027 06:23:47.063            10.338          5169.000
       118   05 Jun 2027 07:53:19.083   05 Jun 2027 07:53:44.081            24.998         12499.000
       119   05 Jun 2027 07:53:51.418   05 Jun 2027 07:54:59.257            67.839         33795.999
       120   05 Jun 2027 07:56:09.669   05 Jun 2027 07:56:16.291             6.622          1986.344
       121   05 Jun 2027 07:56:49.598   05 Jun 2027 07:56:55.146             5.548           859.750
       122   05 Jun 2027 07:57:43.443   05 Jun 2027 07:57:45.761             2.318          1159.000
       123   05 Jun 2027 07:59:01.928   05 Jun 2027 07:59:01.928             0.000             0.000
       124   05 Jun 2027 09:30:26.560   05 Jun 2027 09:30:47.527            20.967          9674.750
       125   05 Jun 2027 09:32:06.831   05 Jun 2027 09:32:13.730             6.899          2233.469
       126   05 Jun 2027 09:32:15.316   05 Jun 2027 09:32:19.976             4.660            17.250
       127   05 Jun 2027 09:33:37.417   05 Jun 2027 09:33:39.547             2.130          1065.000
       128   05 Jun 2027 11:05:20.229   05 Jun 2027 11:05:32.823            12.594          4651.125
       129   05 Jun 2027 11:05:42.301   05 Jun 2027 11:05:42.301             0.000             0.000
       130   05 Jun 2027 11:05:50.991   05 Jun 2027 11:05:53.458             2.467           448.969
       131   05 Jun 2027 11:07:08.764   05 Jun 2027 11:07:16.430             7.666           725.750
       132   05 Jun 2027 11:07:31.574   05 Jun 2027 11:07:34.721             3.147           282.094
       133   05 Jun 2027 11:07:53.231   05 Jun 2027 11:07:54.633             1.402           363.781
       134   05 Jun 2027 11:08:11.102   05 Jun 2027 11:08:13.997             2.895           335.531
       135   05 Jun 2027 11:08:42.477   05 Jun 2027 11:08:45.316             2.839           451.469
       136   05 Jun 2027 11:08:46.249   05 Jun 2027 11:08:46.249             0.000             0.000
       137   05 Jun 2027 11:09:53.440   05 Jun 2027 11:09:56.173             2.733          1366.500
       138   05 Jun 2027 11:10:11.137   05 Jun 2027 11:10:15.146             4.009          1230.000
       139   06 Jun 2027 03:17:46.198   06 Jun 2027 03:18:13.501            27.303         13651.500
       140   06 Jun 2027 03:18:48.578   06 Jun 2027 03:18:52.907             4.329          2164.500
       141   06 Jun 2027 03:18:58.252   06 Jun 2027 03:18:58.252             0.000             0.000
       142   06 Jun 2027 03:19:58.363   06 Jun 2027 03:20:03.320             4.957          2478.500
       143   06 Jun 2027 03:20:08.711   06 Jun 2027 03:20:49.935            41.224         20612.000
       144   06 Jun 2027 04:51:18.552   06 Jun 2027 04:53:00.989           102.437         51218.500
       145   06 Jun 2027 04:54:28.290   06 Jun 2027 04:54:34.670             6.380          3190.000
       146   06 Jun 2027 04:58:26.378   06 Jun 2027 04:58:48.566            22.188         11094.000
       147   06 Jun 2027 04:59:50.051   06 Jun 2027 04:59:51.636             1.585           792.500
       148   06 Jun 2027 06:28:51.163   06 Jun 2027 06:30:40.103           108.940         54470.000
       149   06 Jun 2027 06:34:08.683   06 Jun 2027 06:34:31.048            22.365         11182.500
       150   06 Jun 2027 08:05:45.829   06 Jun 2027 08:06:45.278            59.449         29662.719
       151   06 Jun 2027 08:06:52.380   06 Jun 2027 08:06:54.602             2.222           181.000
       152   06 Jun 2027 08:07:23.360   06 Jun 2027 08:07:26.167             2.807           898.688
       153   06 Jun 2027 08:08:23.856   06 Jun 2027 08:08:33.405             9.549           971.594
       154   06 Jun 2027 08:09:16.691   06 Jun 2027 08:09:16.691             0.000             0.000
       155   06 Jun 2027 08:09:41.653   06 Jun 2027 08:09:43.241             1.588           794.000
       156   06 Jun 2027 08:10:55.071   06 Jun 2027 08:10:55.382             0.311           155.500
       157   06 Jun 2027 09:42:40.100   06 Jun 2027 09:42:59.724            19.624          9025.750
       158   06 Jun 2027 09:43:11.283   06 Jun 2027 09:43:11.757             0.474           236.062
       159   06 Jun 2027 09:43:36.665   06 Jun 2027 09:43:43.955             7.290           500.594
       160   06 Jun 2027 09:44:02.322   06 Jun 2027 09:44:03.066             0.744           372.000
       161   06 Jun 2027 09:44:45.330   06 Jun 2027 09:44:51.759             6.429          1522.719
       162   06 Jun 2027 09:45:45.230   06 Jun 2027 09:45:49.792             4.562          1623.344
       163   06 Jun 2027 09:46:19.668   06 Jun 2027 09:46:20.233             0.565           282.500
       164   06 Jun 2027 09:46:59.883   06 Jun 2027 09:47:05.749             5.866          1890.187
       165   06 Jun 2027 11:19:49.695   06 Jun 2027 11:19:52.390             2.695          1206.875
       166   06 Jun 2027 11:20:10.140   06 Jun 2027 11:20:11.758             1.618           554.687
       167   06 Jun 2027 11:20:18.384   06 Jun 2027 11:20:19.725             1.341           161.531
       168   06 Jun 2027 11:20:47.854   06 Jun 2027 11:20:50.201             2.347           330.500
       169   06 Jun 2027 11:21:52.690   06 Jun 2027 11:22:06.066            13.376          1791.563
       170   07 Jun 2027 03:29:50.194   07 Jun 2027 03:30:31.164            40.970         20485.000
       171   07 Jun 2027 03:30:58.887   07 Jun 2027 03:31:01.112             2.225          1112.500
       172   07 Jun 2027 05:01:58.119   07 Jun 2027 05:02:08.656            10.537          5268.500
       173   07 Jun 2027 05:03:57.197   07 Jun 2027 05:05:40.407           103.210         51605.000
       174   07 Jun 2027 05:06:21.512   07 Jun 2027 05:06:39.921            18.409          9204.500
       175   07 Jun 2027 05:08:35.025   07 Jun 2027 05:08:44.719             9.694          4847.000
       176   07 Jun 2027 05:09:03.632   07 Jun 2027 05:09:03.632             0.000             0.000
       177   07 Jun 2027 05:09:10.298   07 Jun 2027 05:09:16.253             5.955          2977.500
       178   07 Jun 2027 05:09:52.730   07 Jun 2027 05:09:55.990             3.260          1630.000
       179   07 Jun 2027 05:10:15.443   07 Jun 2027 05:10:29.067            13.624          6812.000
       180   07 Jun 2027 05:11:45.347   07 Jun 2027 05:11:45.855             0.508           254.000
       181   07 Jun 2027 06:40:55.647   07 Jun 2027 06:43:03.094           127.447         63723.500
       182   07 Jun 2027 06:43:39.449   07 Jun 2027 06:43:48.001             8.552          4276.000
       183   07 Jun 2027 08:18:26.724   07 Jun 2027 08:19:17.878            51.154         24984.061
       184   07 Jun 2027 08:19:54.984   07 Jun 2027 08:19:55.929             0.945           472.500
       185   07 Jun 2027 08:20:16.671   07 Jun 2027 08:20:17.567             0.896           448.000
       186   07 Jun 2027 08:21:03.709   07 Jun 2027 08:21:05.746             2.037          1018.500
       187   07 Jun 2027 08:22:11.710   07 Jun 2027 08:22:13.041             1.331           665.500
       188   07 Jun 2027 09:54:45.044   07 Jun 2027 09:55:02.316            17.272          8147.563
       189   07 Jun 2027 09:55:26.502   07 Jun 2027 09:55:28.787             2.285           580.719
       190   07 Jun 2027 09:56:15.679   07 Jun 2027 09:56:19.061             3.382           796.344
       191   07 Jun 2027 09:56:53.067   07 Jun 2027 09:56:53.791             0.724           362.000
       192   07 Jun 2027 09:57:54.812   07 Jun 2027 09:58:00.372             5.560          2500.906
       193   07 Jun 2027 09:58:21.050   07 Jun 2027 09:58:23.251             2.201           584.438
       194   07 Jun 2027 09:59:16.274   07 Jun 2027 09:59:16.662             0.388           194.000
       195   07 Jun 2027 11:32:59.395   07 Jun 2027 11:33:03.632             4.237          1685.531
       196   08 Jun 2027 03:42:00.195   08 Jun 2027 03:42:36.363            36.168         18084.000
       197   08 Jun 2027 03:43:03.598   08 Jun 2027 03:43:03.598             0.000             0.000
       198   08 Jun 2027 03:43:25.929   08 Jun 2027 03:43:52.428            26.499         13249.500
       199   08 Jun 2027 05:17:11.179   08 Jun 2027 05:18:44.385            93.206         46603.000
       200   08 Jun 2027 05:19:08.577   08 Jun 2027 05:19:40.290            31.713         15856.500
       201   08 Jun 2027 05:20:15.495   08 Jun 2027 05:20:30.822            15.327          7663.500
       202   08 Jun 2027 05:22:39.436   08 Jun 2027 05:22:43.308             3.872          1936.000
       203   08 Jun 2027 05:23:46.083   08 Jun 2027 05:23:48.163             2.080          1040.000
       204   08 Jun 2027 06:53:30.160   08 Jun 2027 06:54:44.131            73.971         36985.500
       205   08 Jun 2027 06:54:48.331   08 Jun 2027 06:55:38.036            49.705         24852.500
       206   08 Jun 2027 06:57:51.902   08 Jun 2027 06:58:05.276            13.374          6687.000
       207   08 Jun 2027 08:30:53.043   08 Jun 2027 08:31:26.267            33.224         16541.751
       208   08 Jun 2027 08:32:23.920   08 Jun 2027 08:32:38.088            14.168          1483.406
       209   08 Jun 2027 08:33:37.345   08 Jun 2027 08:33:42.713             5.368          1736.625
       210   08 Jun 2027 08:34:55.223   08 Jun 2027 08:35:01.071             5.848          2265.938
       211   08 Jun 2027 10:07:02.406   08 Jun 2027 10:07:17.034            14.628          7278.125
       212   08 Jun 2027 10:07:24.648   08 Jun 2027 10:07:31.182             6.534           237.937
       213   08 Jun 2027 10:08:54.541   08 Jun 2027 10:08:57.666             3.125          1541.250
       214   08 Jun 2027 10:09:52.610   08 Jun 2027 10:09:54.607             1.997            85.594
       215   08 Jun 2027 10:10:07.556   08 Jun 2027 10:10:09.295             1.739            42.000
       216   08 Jun 2027 10:10:39.622   08 Jun 2027 10:10:43.731             4.109           947.719
       217   08 Jun 2027 10:11:25.595   08 Jun 2027 10:11:28.618             3.023           551.219
       218   08 Jun 2027 10:11:29.316   08 Jun 2027 10:11:31.195             1.879            21.812
       219   09 Jun 2027 03:53:57.350   09 Jun 2027 03:54:36.509            39.159         19579.500
       220   09 Jun 2027 03:55:57.299   09 Jun 2027 03:55:57.299             0.000             0.000
       221   09 Jun 2027 03:57:05.467   09 Jun 2027 03:57:21.332            15.865          7932.500
       222   09 Jun 2027 05:29:01.616   09 Jun 2027 05:31:37.000           155.384         77692.000
       223   09 Jun 2027 05:35:01.608   09 Jun 2027 05:35:01.608             0.000             0.000
       224   09 Jun 2027 05:35:30.692   09 Jun 2027 05:35:54.537            23.845         11922.500
       225   09 Jun 2027 07:05:07.250   09 Jun 2027 07:07:24.372           137.122         67802.688
       226   09 Jun 2027 07:08:27.698   09 Jun 2027 07:08:32.515             4.817          1834.344
       227   09 Jun 2027 07:11:03.484   09 Jun 2027 07:11:05.056             1.572           786.000
       228   09 Jun 2027 08:43:05.799   09 Jun 2027 08:43:35.813            30.014         14108.156
       229   09 Jun 2027 08:44:21.231   09 Jun 2027 08:44:23.649             2.418           937.656
       230   09 Jun 2027 08:45:16.345   09 Jun 2027 08:45:19.775             3.430          1167.625
       231   09 Jun 2027 08:46:24.660   09 Jun 2027 08:46:29.072             4.412          2027.656
       232   09 Jun 2027 08:47:23.586   09 Jun 2027 08:47:29.948             6.362          1582.562
       233   09 Jun 2027 10:18:56.863   09 Jun 2027 10:19:13.995            17.132          8007.312
       234   09 Jun 2027 10:20:06.414   09 Jun 2027 10:20:07.920             1.506           753.000
       235   09 Jun 2027 10:20:16.884   09 Jun 2027 10:20:17.191             0.307           153.500
       236   09 Jun 2027 10:21:04.951   09 Jun 2027 10:21:10.710             5.759          2431.406
       237   09 Jun 2027 10:21:51.128   09 Jun 2027 10:21:55.481             4.353          1208.125
       238   09 Jun 2027 10:21:59.614   09 Jun 2027 10:22:00.091             0.477            48.781
       239   09 Jun 2027 10:22:32.627   09 Jun 2027 10:22:34.628             2.001           410.250
       240   09 Jun 2027 10:23:17.384   09 Jun 2027 10:23:19.791             2.407          1097.688
       241   09 Jun 2027 10:23:33.116   09 Jun 2027 10:23:33.437             0.321           160.500
       242   10 Jun 2027 04:05:42.084   10 Jun 2027 04:06:53.521            71.437         35718.500
       243   10 Jun 2027 04:10:02.537   10 Jun 2027 04:10:05.430             2.893          1446.500
       244   10 Jun 2027 05:40:27.994   10 Jun 2027 05:42:16.212           108.218         54109.000
       245   10 Jun 2027 05:42:51.038   10 Jun 2027 05:43:15.336            24.298         12149.000
       246   10 Jun 2027 05:45:58.701   10 Jun 2027 05:45:59.897             1.196           598.000
       247   10 Jun 2027 05:47:56.586   10 Jun 2027 05:48:00.778             4.192          2096.000
       248   10 Jun 2027 07:17:17.571   10 Jun 2027 07:19:40.868           143.297         71189.281
       249   10 Jun 2027 07:21:05.539   10 Jun 2027 07:21:11.961             6.422          2645.969
       250   10 Jun 2027 07:21:58.234   10 Jun 2027 07:22:04.202             5.968          1295.219
       251   10 Jun 2027 07:23:07.057   10 Jun 2027 07:23:11.261             4.204          1964.219
       252   10 Jun 2027 08:55:27.962   10 Jun 2027 08:55:54.877            26.915         13457.500
       253   10 Jun 2027 08:56:35.431   10 Jun 2027 08:56:41.401             5.970          2946.312
       254   10 Jun 2027 08:56:45.087   10 Jun 2027 08:56:49.863             4.776           115.188
       255   10 Jun 2027 08:57:38.665   10 Jun 2027 08:57:42.981             4.316           985.937
       256   10 Jun 2027 08:59:02.898   10 Jun 2027 08:59:06.846             3.948          1799.156
       257   10 Jun 2027 08:59:13.008   10 Jun 2027 08:59:14.587             1.579           100.719
       258   10 Jun 2027 10:28:45.301   10 Jun 2027 10:29:02.814            17.513          7844.031
       259   10 Jun 2027 10:30:32.333   10 Jun 2027 10:30:33.836             1.503           751.500
       260   10 Jun 2027 10:30:52.273   10 Jun 2027 10:30:55.190             2.917           614.438
       261   10 Jun 2027 10:31:08.992   10 Jun 2027 10:31:11.331             2.339           271.500
       262   10 Jun 2027 10:31:23.943   10 Jun 2027 10:31:27.863             3.920           101.375
       263   10 Jun 2027 10:32:17.284   10 Jun 2027 10:32:18.555             1.271           440.031
       264   10 Jun 2027 10:32:49.769   10 Jun 2027 10:32:52.087             2.318           975.437
       265   10 Jun 2027 10:33:29.599   10 Jun 2027 10:33:44.376            14.777          1029.531
       266   10 Jun 2027 10:34:03.678   10 Jun 2027 10:34:03.678             0.000             0.000
       267   10 Jun 2027 10:34:06.931   10 Jun 2027 10:34:09.627             2.696           610.469
       268   10 Jun 2027 10:35:03.911   10 Jun 2027 10:35:05.640             1.729           864.500
       269   10 Jun 2027 10:35:28.498   10 Jun 2027 10:35:32.749             4.251          1362.969
       270   11 Jun 2027 04:15:30.071   11 Jun 2027 04:16:45.044            74.973         37486.500
       271   11 Jun 2027 04:18:29.074   11 Jun 2027 04:18:29.978             0.904           452.000
       272   11 Jun 2027 04:18:58.246   11 Jun 2027 04:19:02.326             4.080          2040.000
       273   11 Jun 2027 04:23:21.234   11 Jun 2027 04:23:24.411             3.177          1588.500
       274   11 Jun 2027 05:52:34.809   11 Jun 2027 05:54:53.219           138.410         69205.000
       275   11 Jun 2027 05:56:12.503   11 Jun 2027 05:56:19.916             7.413          3706.500
       276   11 Jun 2027 05:58:50.475   11 Jun 2027 05:58:58.164             7.689          3844.500
       277   11 Jun 2027 05:59:04.380   11 Jun 2027 05:59:21.319            16.939          8469.500
       278   11 Jun 2027 06:00:00.659   11 Jun 2027 06:00:01.202             0.543           271.500
       279   11 Jun 2027 07:29:32.948   11 Jun 2027 07:31:36.200           123.252         61626.000
       280   11 Jun 2027 07:32:28.961   11 Jun 2027 07:32:31.497             2.536          1268.000
       281   11 Jun 2027 07:32:49.921   11 Jun 2027 07:33:00.025            10.104          4543.655
       282   11 Jun 2027 07:33:57.134   11 Jun 2027 07:34:00.603             3.469          1734.500
       283   11 Jun 2027 07:34:11.032   11 Jun 2027 07:34:12.140             1.108           376.063
       284   11 Jun 2027 07:34:22.157   11 Jun 2027 07:34:22.157             0.000             0.000
       285   11 Jun 2027 07:35:32.595   11 Jun 2027 07:35:32.595             0.000             0.000
       286   11 Jun 2027 09:07:29.224   11 Jun 2027 09:07:59.707            30.483         14269.094
       287   11 Jun 2027 09:09:07.569   11 Jun 2027 09:09:12.560             4.991          2001.250
       288   11 Jun 2027 09:09:32.556   11 Jun 2027 09:09:40.514             7.958           533.031
       289   11 Jun 2027 09:10:20.597   11 Jun 2027 09:10:20.597             0.000             0.000
       290   11 Jun 2027 09:10:39.657   11 Jun 2027 09:10:45.006             5.349          1814.875
       291   11 Jun 2027 09:10:58.677   11 Jun 2027 09:11:01.085             2.408           246.906
       292   11 Jun 2027 10:40:50.875   11 Jun 2027 10:41:00.629             9.754          4828.562
       293   11 Jun 2027 10:41:53.357   11 Jun 2027 10:41:56.862             3.505           404.156
       294   11 Jun 2027 10:42:19.796   11 Jun 2027 10:42:19.796             0.000             0.000
       295   11 Jun 2027 10:42:53.085   11 Jun 2027 10:42:59.872             6.787          1457.469
       296   11 Jun 2027 10:43:02.742   11 Jun 2027 10:43:03.000             0.258            31.312
       297   11 Jun 2027 10:43:35.696   11 Jun 2027 10:43:41.009             5.313           322.094
       298   11 Jun 2027 10:44:39.411   11 Jun 2027 10:44:48.232             8.821          1619.094
       299   11 Jun 2027 10:45:37.395   11 Jun 2027 10:45:42.459             5.064          1419.094
       300   11 Jun 2027 10:46:41.109   11 Jun 2027 10:46:43.080             1.971           985.500
       301   11 Jun 2027 10:47:43.875   11 Jun 2027 10:47:46.697             2.822          1411.000
       302   12 Jun 2027 04:26:57.688   12 Jun 2027 04:28:46.910           109.222         54611.000
       303   12 Jun 2027 04:31:19.123   12 Jun 2027 04:31:19.123             0.000             0.000
       304   12 Jun 2027 04:32:59.995   12 Jun 2027 04:33:11.538            11.543          5771.500
       305   12 Jun 2027 04:33:58.014   12 Jun 2027 04:34:05.353             7.339          3669.500
       306   12 Jun 2027 06:04:36.861   12 Jun 2027 06:05:59.016            82.155         41077.500
       307   12 Jun 2027 06:06:03.134   12 Jun 2027 06:06:21.989            18.855          9427.500
       308   12 Jun 2027 06:06:27.805   12 Jun 2027 06:06:33.337             5.532          2766.000
       309   12 Jun 2027 06:07:21.682   12 Jun 2027 06:07:34.901            13.219          6609.500
       310   12 Jun 2027 06:09:09.189   12 Jun 2027 06:09:09.189             0.000             0.000
       311   12 Jun 2027 06:09:09.566   12 Jun 2027 06:09:12.100             2.534          1267.000
       312   12 Jun 2027 06:10:42.941   12 Jun 2027 06:10:49.366             6.425          3212.500
       313   12 Jun 2027 06:11:36.720   12 Jun 2027 06:11:39.133             2.413          1206.500
       314   12 Jun 2027 07:41:23.783   12 Jun 2027 07:43:12.413           108.630         54315.000
       315   12 Jun 2027 07:44:22.102   12 Jun 2027 07:44:28.240             6.138          3069.000
       316   12 Jun 2027 07:44:29.958   12 Jun 2027 07:44:31.416             1.458           585.126
       317   12 Jun 2027 07:45:38.439   12 Jun 2027 07:45:38.439             0.000             0.000
       318   12 Jun 2027 07:45:44.690   12 Jun 2027 07:45:48.033             3.343          1671.500
       319   12 Jun 2027 07:46:36.263   12 Jun 2027 07:46:40.736             4.473          1966.187
       320   12 Jun 2027 07:46:55.913   12 Jun 2027 07:46:56.865             0.952           240.375
       321   12 Jun 2027 09:19:26.237   12 Jun 2027 09:19:51.074            24.837         11475.719
       322   12 Jun 2027 09:20:57.353   12 Jun 2027 09:21:02.028             4.675          2071.219
       323   12 Jun 2027 09:21:35.748   12 Jun 2027 09:21:40.108             4.360           926.437
       324   12 Jun 2027 09:22:16.172   12 Jun 2027 09:22:18.584             2.412           940.438
       325   12 Jun 2027 09:22:32.322   12 Jun 2027 09:22:37.487             5.165           429.313
       326   12 Jun 2027 09:23:18.908   12 Jun 2027 09:23:23.579             4.671          1240.469
       327   12 Jun 2027 09:23:34.998   12 Jun 2027 09:23:36.649             1.651           356.844
       328   12 Jun 2027 10:53:17.132   12 Jun 2027 10:53:22.764             5.632          2231.719
       329   12 Jun 2027 10:53:40.645   12 Jun 2027 10:53:41.218             0.573            67.625
       330   12 Jun 2027 10:54:06.047   12 Jun 2027 10:54:08.954             2.907           647.781
       331   12 Jun 2027 10:54:45.264   12 Jun 2027 10:54:46.625             1.361           522.344
       332   12 Jun 2027 10:54:57.649   12 Jun 2027 10:55:03.974             6.325           344.500
       333   12 Jun 2027 10:55:59.199   12 Jun 2027 10:56:01.188             1.989           973.906
       334   12 Jun 2027 10:56:21.829   12 Jun 2027 10:56:23.577             1.748           423.187
       335   12 Jun 2027 10:56:39.166   12 Jun 2027 10:56:43.733             4.567           346.531
       336   12 Jun 2027 10:57:52.697   12 Jun 2027 10:57:57.882             5.185          1850.563
       337   12 Jun 2027 10:58:46.185   12 Jun 2027 10:58:49.362             3.177          1386.875
       338   12 Jun 2027 10:59:46.131   12 Jun 2027 10:59:50.803             4.672          1536.687
       339   13 Jun 2027 03:03:38.898   13 Jun 2027 03:03:39.595             0.697           348.500
       340   13 Jun 2027 03:03:50.795   13 Jun 2027 03:03:56.725             5.930          2965.000
       341   13 Jun 2027 03:04:52.013   13 Jun 2027 03:04:52.013             0.000             0.000
       342   13 Jun 2027 03:05:48.056   13 Jun 2027 03:05:58.959            10.903          5451.500
       343   13 Jun 2027 03:07:02.174   13 Jun 2027 03:07:13.021            10.847          5423.500
       344   13 Jun 2027 03:08:21.988   13 Jun 2027 03:08:23.246             1.258           629.000
       345   13 Jun 2027 04:38:31.858   13 Jun 2027 04:39:51.965            80.107         40053.500
       346   13 Jun 2027 04:41:02.957   13 Jun 2027 04:41:24.213            21.256         10628.000
       347   13 Jun 2027 04:43:33.386   13 Jun 2027 04:43:46.811            13.425          6712.500
       348   13 Jun 2027 04:43:54.355   13 Jun 2027 04:43:59.318             4.963          2481.500
       349   13 Jun 2027 04:47:27.833   13 Jun 2027 04:47:41.169            13.336          6668.000
       350   13 Jun 2027 06:16:38.958   13 Jun 2027 06:18:21.549           102.591         51295.500
       351   13 Jun 2027 06:18:41.351   13 Jun 2027 06:18:54.397            13.046          6523.000
       352   13 Jun 2027 06:20:44.495   13 Jun 2027 06:21:06.933            22.438         11219.000
       353   13 Jun 2027 06:22:09.622   13 Jun 2027 06:22:13.328             3.706          1853.000
       354   13 Jun 2027 07:53:34.011   13 Jun 2027 07:55:12.270            98.259         48638.031
       355   13 Jun 2027 07:56:21.791   13 Jun 2027 07:56:22.449             0.658           329.000
       356   13 Jun 2027 07:57:34.564   13 Jun 2027 07:57:36.467             1.903           951.500
       357   13 Jun 2027 07:57:57.807   13 Jun 2027 07:57:57.807             0.000             0.000
       358   13 Jun 2027 07:58:00.404   13 Jun 2027 07:58:09.808             9.404          3630.344
       359   13 Jun 2027 07:58:35.095   13 Jun 2027 07:58:35.095             0.000             0.000
       360   13 Jun 2027 09:30:41.162   13 Jun 2027 09:31:07.058            25.896         11328.406
       361   13 Jun 2027 09:32:53.790   13 Jun 2027 09:33:01.657             7.867          3248.375
       362   13 Jun 2027 09:33:33.985   13 Jun 2027 09:33:40.691             6.706          1010.250
       363   13 Jun 2027 09:33:59.358   13 Jun 2027 09:34:04.295             4.937           313.375
       364   13 Jun 2027 09:35:01.763   13 Jun 2027 09:35:06.094             4.331          1523.469
       365   13 Jun 2027 11:05:35.565   13 Jun 2027 11:05:49.165            13.600          4827.625
       366   13 Jun 2027 11:06:05.999   13 Jun 2027 11:06:08.234             2.235           454.594
       367   13 Jun 2027 11:07:23.629   13 Jun 2027 11:07:32.008             8.379           721.094
       368   13 Jun 2027 11:07:46.972   13 Jun 2027 11:07:50.548             3.576           305.531
       369   13 Jun 2027 11:07:57.388   13 Jun 2027 11:07:57.737             0.349            14.563
       370   13 Jun 2027 11:08:23.367   13 Jun 2027 11:08:25.634             2.267           478.344
       371   13 Jun 2027 11:08:57.775   13 Jun 2027 11:08:59.015             1.240           475.250
       372   13 Jun 2027 11:09:19.549   13 Jun 2027 11:09:19.549             0.000             0.000
       373   13 Jun 2027 11:10:08.293   13 Jun 2027 11:10:11.998             3.705          1852.500
       374   13 Jun 2027 11:10:25.875   13 Jun 2027 11:10:28.239             2.364           706.437
