uniorb/output/strategy_1/Camera/Camera_KinoSat_111902.txt

KinoSat_111902
-------------------------
    Access    *     Start Time (UTCG)     *     Stop Time (UTCG)  *   Duration (s) *   Data (Mbytes)
         1   01 Jun 2027 03:29:31.061   01 Jun 2027 03:31:39.081           128.020         64010.000
         2   01 Jun 2027 03:32:01.655   01 Jun 2027 03:32:26.875            25.220         12610.000
         3   01 Jun 2027 05:07:47.395   01 Jun 2027 05:07:58.502            11.107          5553.500
         4   01 Jun 2027 05:08:49.287   01 Jun 2027 05:10:16.616            87.329         43664.500
         5   01 Jun 2027 05:11:05.331   01 Jun 2027 05:11:10.040             4.709          2354.500
         6   01 Jun 2027 05:13:16.677   01 Jun 2027 05:13:21.184             4.507          2253.500
         7   01 Jun 2027 05:13:50.645   01 Jun 2027 05:13:55.799             5.154          2577.000
         8   01 Jun 2027 05:15:56.432   01 Jun 2027 05:16:29.061            32.629         16314.500
         9   01 Jun 2027 06:45:57.991   01 Jun 2027 06:46:36.408            38.417         19208.500
        10   01 Jun 2027 06:47:04.878   01 Jun 2027 06:47:37.307            32.429         16214.500
        11   01 Jun 2027 06:48:38.296   01 Jun 2027 06:48:45.139             6.843          3421.500
        12   01 Jun 2027 08:10:07.353   01 Jun 2027 08:12:07.964           120.611         60305.500
        13   01 Jun 2027 08:12:35.055   01 Jun 2027 08:12:35.055             0.000             0.000
        14   01 Jun 2027 09:45:50.431   01 Jun 2027 09:46:08.220            17.789          8894.500
        15   01 Jun 2027 09:49:20.026   01 Jun 2027 09:49:20.026             0.000             0.000
        16   01 Jun 2027 11:20:47.829   01 Jun 2027 11:21:18.093            30.264         15132.000
        17   01 Jun 2027 11:23:23.992   01 Jun 2027 11:23:56.460            32.468         16234.000
        18   01 Jun 2027 11:27:08.572   01 Jun 2027 11:27:47.058            38.486         19243.000
        19   02 Jun 2027 03:42:07.327   02 Jun 2027 03:44:35.976           148.649         74324.500
        20   02 Jun 2027 05:20:52.757   02 Jun 2027 05:22:23.075            90.318         45159.000
        21   02 Jun 2027 05:24:31.021   02 Jun 2027 05:24:34.938             3.917          1958.500
        22   02 Jun 2027 05:27:09.201   02 Jun 2027 05:27:17.534             8.333          4166.500
        23   02 Jun 2027 05:27:51.483   02 Jun 2027 05:28:31.479            39.996         19998.000
        24   02 Jun 2027 06:46:54.382   02 Jun 2027 06:47:29.111            34.729         17364.500
        25   02 Jun 2027 06:57:54.476   02 Jun 2027 06:58:45.374            50.898         25449.000
        26   02 Jun 2027 07:00:32.993   02 Jun 2027 07:00:36.811             3.818          1909.000
        27   02 Jun 2027 07:00:56.003   02 Jun 2027 07:01:04.690             8.687          4343.500
        28   02 Jun 2027 08:20:54.770   02 Jun 2027 08:22:45.624           110.854         55427.000
        29   02 Jun 2027 08:24:02.113   02 Jun 2027 08:24:13.715            11.602          5801.000
        30   02 Jun 2027 09:56:26.424   02 Jun 2027 09:56:32.523             6.099          3049.500
        31   02 Jun 2027 09:57:36.136   02 Jun 2027 09:57:58.321            22.185         11092.500
        32   02 Jun 2027 10:01:40.939   02 Jun 2027 10:01:40.939             0.000             0.000
        33   02 Jun 2027 11:32:21.456   02 Jun 2027 11:32:58.956            37.500         18750.000
        34   02 Jun 2027 11:38:42.378   02 Jun 2027 11:39:55.069            72.691         36345.500
        35   03 Jun 2027 03:54:16.163   03 Jun 2027 03:56:00.847           104.684         52342.000
        36   03 Jun 2027 03:56:15.170   03 Jun 2027 03:56:24.088             8.918          4459.000
        37   03 Jun 2027 03:58:39.310   03 Jun 2027 03:58:39.310             0.000             0.000
        38   03 Jun 2027 03:59:14.571   03 Jun 2027 03:59:19.349             4.778          2389.000
        39   03 Jun 2027 04:00:18.290   03 Jun 2027 04:00:22.361             4.071          2035.500
        40   03 Jun 2027 05:33:21.044   03 Jun 2027 05:34:57.451            96.407         48203.500
        41   03 Jun 2027 05:35:52.285   03 Jun 2027 05:36:04.102            11.817          5908.500
        42   03 Jun 2027 05:38:13.622   03 Jun 2027 05:38:33.324            19.702          9851.000
        43   03 Jun 2027 05:38:56.270   03 Jun 2027 05:39:16.863            20.593         10296.500
        44   03 Jun 2027 06:58:15.236   03 Jun 2027 06:59:44.094            88.858         44429.000
        45   03 Jun 2027 07:09:57.465   03 Jun 2027 07:10:36.683            39.218         19609.000
        46   03 Jun 2027 07:10:59.262   03 Jun 2027 07:11:03.514             4.252          2126.000
        47   03 Jun 2027 08:32:10.816   03 Jun 2027 08:33:25.994            75.178         37589.000
        48   03 Jun 2027 08:34:10.301   03 Jun 2027 08:34:45.475            35.174         17587.000
        49   03 Jun 2027 10:07:18.159   03 Jun 2027 10:07:44.515            26.356         13178.000
        50   03 Jun 2027 10:07:47.541   03 Jun 2027 10:07:49.921             2.380          1190.000
        51   03 Jun 2027 10:09:19.895   03 Jun 2027 10:09:43.975            24.080         12040.000
        52   03 Jun 2027 11:51:00.090   03 Jun 2027 11:51:54.611            54.521         27260.500
        53   04 Jun 2027 04:06:35.004   04 Jun 2027 04:07:05.998            30.994         15497.000
        54   04 Jun 2027 04:07:07.429   04 Jun 2027 04:08:22.780            75.351         37675.500
        55   04 Jun 2027 04:09:33.235   04 Jun 2027 04:09:45.129            11.894          5947.000
        56   04 Jun 2027 04:10:45.552   04 Jun 2027 04:10:46.966             1.414           707.000
        57   04 Jun 2027 05:45:31.875   04 Jun 2027 05:47:21.720           109.845         54922.500
        58   04 Jun 2027 05:47:41.707   04 Jun 2027 05:47:51.556             9.849          4924.500
        59   04 Jun 2027 05:50:08.861   04 Jun 2027 05:50:35.550            26.689         13344.500
        60   04 Jun 2027 05:52:20.410   04 Jun 2027 05:52:31.986            11.576          5788.000
        61   04 Jun 2027 07:09:41.399   04 Jun 2027 07:11:41.661           120.262         58903.376
        62   04 Jun 2027 07:21:58.570   04 Jun 2027 07:22:11.644            13.074          6537.000
        63   04 Jun 2027 08:43:55.824   04 Jun 2027 08:44:23.556            27.732         13866.000
        64   04 Jun 2027 08:45:04.088   04 Jun 2027 08:45:15.142            11.054          5527.000
        65   04 Jun 2027 08:45:59.431   04 Jun 2027 08:46:03.340             3.909          1600.562
        66   04 Jun 2027 08:46:45.386   04 Jun 2027 08:46:46.992             1.606           356.188
        67   04 Jun 2027 08:48:59.334   04 Jun 2027 08:48:59.334             0.000             0.000
        68   04 Jun 2027 10:18:47.792   04 Jun 2027 10:19:02.556            14.764          6046.031
        69   04 Jun 2027 10:20:35.710   04 Jun 2027 10:20:35.710             0.000             0.000
        70   04 Jun 2027 10:22:15.096   04 Jun 2027 10:22:24.810             9.714          4852.656
        71   04 Jun 2027 10:24:16.750   04 Jun 2027 10:24:16.750             0.000             0.000
        72   04 Jun 2027 10:25:32.943   04 Jun 2027 10:25:45.539            12.596          5443.875
        73   04 Jun 2027 10:27:04.121   04 Jun 2027 10:27:08.628             4.507          1788.500
        74   04 Jun 2027 10:27:19.625   04 Jun 2027 10:27:21.828             2.203           343.656
        75   04 Jun 2027 10:27:26.264   04 Jun 2027 10:27:27.404             1.140            41.813
        76   05 Jun 2027 04:19:19.806   05 Jun 2027 04:19:43.408            23.602         11801.000
        77   05 Jun 2027 04:19:46.658   05 Jun 2027 04:21:01.911            75.253         37626.500
        78   05 Jun 2027 04:21:09.329   05 Jun 2027 04:21:11.116             1.787           893.500
        79   05 Jun 2027 04:21:24.972   05 Jun 2027 04:21:34.072             9.100          4550.000
        80   05 Jun 2027 04:22:14.695   05 Jun 2027 04:22:27.707            13.012          6506.000
        81   05 Jun 2027 04:22:46.881   05 Jun 2027 04:22:48.985             2.104          1052.000
        82   05 Jun 2027 05:57:42.501   05 Jun 2027 05:59:35.513           113.012         56506.000
        83   05 Jun 2027 06:00:04.663   05 Jun 2027 06:00:07.609             2.946          1473.000
        84   05 Jun 2027 06:00:48.509   05 Jun 2027 06:00:51.379             2.870          1435.000
        85   05 Jun 2027 06:01:16.173   05 Jun 2027 06:01:24.264             8.091          4045.500
        86   05 Jun 2027 06:01:45.721   05 Jun 2027 06:01:55.841            10.120          5060.000
        87   05 Jun 2027 07:21:45.817   05 Jun 2027 07:22:58.293            72.476         36238.000
        88   05 Jun 2027 08:57:43.268   05 Jun 2027 08:58:06.028            22.760         11380.000
        89   05 Jun 2027 08:58:08.602   05 Jun 2027 08:58:16.537             7.935          3088.187
        90   05 Jun 2027 08:59:18.042   05 Jun 2027 08:59:18.042             0.000             0.000
        91   05 Jun 2027 09:00:06.317   05 Jun 2027 09:00:14.189             7.872          2833.844
        92   05 Jun 2027 09:00:34.932   05 Jun 2027 09:00:39.311             4.379           383.000
        93   05 Jun 2027 10:31:32.663   05 Jun 2027 10:31:45.353            12.690          5777.531
        94   05 Jun 2027 10:32:29.946   05 Jun 2027 10:32:31.245             1.299           437.281
        95   05 Jun 2027 10:34:11.151   05 Jun 2027 10:34:16.360             5.209          2127.063
        96   05 Jun 2027 10:38:22.189   05 Jun 2027 10:38:22.189             0.000             0.000
        97   05 Jun 2027 10:39:25.554   05 Jun 2027 10:39:44.223            18.669          8427.875
        98   06 Jun 2027 03:00:00.000   06 Jun 2027 03:00:29.206            29.206         14603.000
        99   06 Jun 2027 04:31:57.376   06 Jun 2027 04:32:42.111            44.735         22367.500
       100   06 Jun 2027 04:32:51.161   06 Jun 2027 04:33:34.616            43.455         21727.500
       101   06 Jun 2027 04:33:35.919   06 Jun 2027 04:33:36.091             0.172            86.000
       102   06 Jun 2027 04:33:39.673   06 Jun 2027 04:33:42.655             2.982          1491.000
       103   06 Jun 2027 04:36:34.079   06 Jun 2027 04:36:43.881             9.802          4901.000
       104   06 Jun 2027 06:10:17.348   06 Jun 2027 06:12:45.675           148.327         74163.500
       105   06 Jun 2027 07:33:40.886   06 Jun 2027 07:35:08.650            87.764         43801.500
       106   06 Jun 2027 07:35:25.373   06 Jun 2027 07:35:25.373             0.000             0.000
       107   06 Jun 2027 09:10:00.535   06 Jun 2027 09:10:31.609            31.074         14130.094
       108   06 Jun 2027 09:12:03.033   06 Jun 2027 09:12:12.127             9.094          2768.750
       109   06 Jun 2027 09:12:57.080   06 Jun 2027 09:12:57.080             0.000             0.000
       110   06 Jun 2027 10:43:36.675   06 Jun 2027 10:43:47.281            10.606          4958.906
       111   06 Jun 2027 10:46:37.462   06 Jun 2027 10:46:46.928             9.466          4363.687
       112   06 Jun 2027 10:48:16.162   06 Jun 2027 10:48:16.162             0.000             0.000
       113   06 Jun 2027 10:49:26.827   06 Jun 2027 10:49:41.188            14.361          4740.344
       114   06 Jun 2027 10:50:59.403   06 Jun 2027 10:51:00.712             1.309           654.500
       115   06 Jun 2027 10:51:00.794   06 Jun 2027 10:51:01.301             0.507           253.500
       116   06 Jun 2027 10:51:09.843   06 Jun 2027 10:51:09.843             0.000             0.000
       117   06 Jun 2027 10:51:22.929   06 Jun 2027 10:51:26.224             3.295          1044.938
       118   06 Jun 2027 10:51:27.279   06 Jun 2027 10:51:28.377             1.098            32.969
       119   07 Jun 2027 03:05:49.878   07 Jun 2027 03:06:03.327            13.449          6724.500
       120   07 Jun 2027 03:06:07.193   07 Jun 2027 03:06:19.160            11.967          5983.500
       121   07 Jun 2027 03:07:27.094   07 Jun 2027 03:08:01.150            34.056         17028.000
       122   07 Jun 2027 03:08:57.743   07 Jun 2027 03:09:22.523            24.780         12390.000
       123   07 Jun 2027 03:10:13.236   07 Jun 2027 03:10:13.236             0.000             0.000
       124   07 Jun 2027 03:11:01.042   07 Jun 2027 03:11:01.720             0.678           339.000
       125   07 Jun 2027 03:13:13.816   07 Jun 2027 03:13:21.502             7.686          3843.000
       126   07 Jun 2027 04:43:51.223   07 Jun 2027 04:43:56.839             5.616          2808.000
       127   07 Jun 2027 04:44:09.174   07 Jun 2027 04:45:17.572            68.398         34199.000
       128   07 Jun 2027 04:45:57.764   07 Jun 2027 04:45:59.800             2.036          1018.000
       129   07 Jun 2027 04:46:54.614   07 Jun 2027 04:47:11.527            16.913          8456.500
       130   07 Jun 2027 04:47:27.460   07 Jun 2027 04:47:32.126             4.666          2333.000
       131   07 Jun 2027 06:21:55.519   07 Jun 2027 06:23:40.445           104.926         52463.000
       132   07 Jun 2027 06:25:45.167   07 Jun 2027 06:25:57.013            11.846          5923.000
       133   07 Jun 2027 07:45:31.675   07 Jun 2027 07:47:00.353            88.678         44080.938
       134   07 Jun 2027 09:22:02.992   07 Jun 2027 09:22:24.213            21.221          8772.563
       135   07 Jun 2027 09:23:53.639   07 Jun 2027 09:23:58.419             4.780          2386.656
       136   07 Jun 2027 09:24:27.699   07 Jun 2027 09:24:30.943             3.244           915.000
       137   07 Jun 2027 10:56:30.379   07 Jun 2027 10:56:44.924            14.545          5673.281
       138   07 Jun 2027 11:01:10.872   07 Jun 2027 11:01:23.480            12.608          6020.938
       139   07 Jun 2027 11:02:17.926   07 Jun 2027 11:02:21.212             3.286          1411.156
       140   07 Jun 2027 11:03:47.444   07 Jun 2027 11:03:52.168             4.724          2053.938
       141   08 Jun 2027 03:17:51.637   08 Jun 2027 03:18:40.585            48.948         24474.000
       142   08 Jun 2027 03:18:55.435   08 Jun 2027 03:19:32.338            36.903         18451.500
       143   08 Jun 2027 03:20:05.444   08 Jun 2027 03:20:21.297            15.853          7926.500
       144   08 Jun 2027 03:20:46.066   08 Jun 2027 03:20:56.662            10.596          5298.000
       145   08 Jun 2027 03:22:44.816   08 Jun 2027 03:22:50.803             5.987          2993.500
       146   08 Jun 2027 03:24:22.507   08 Jun 2027 03:24:24.774             2.267          1133.500
       147   08 Jun 2027 04:56:00.152   08 Jun 2027 04:57:01.618            61.466         30733.000
       148   08 Jun 2027 04:57:09.294   08 Jun 2027 04:57:24.671            15.377          7688.500
       149   08 Jun 2027 04:57:40.082   08 Jun 2027 04:57:44.290             4.208          2104.000
       150   08 Jun 2027 04:58:54.608   08 Jun 2027 04:59:21.158            26.550         13275.000
       151   08 Jun 2027 05:00:06.725   08 Jun 2027 05:00:13.738             7.013          3506.500
       152   08 Jun 2027 05:01:35.539   08 Jun 2027 05:01:38.760             3.221          1610.500
       153   08 Jun 2027 06:34:18.602   08 Jun 2027 06:34:49.448            30.846         15423.000
       154   08 Jun 2027 06:35:07.928   08 Jun 2027 06:35:54.260            46.332         23166.000
       155   08 Jun 2027 06:36:45.645   08 Jun 2027 06:37:06.160            20.515         10257.500
       156   08 Jun 2027 07:57:41.746   08 Jun 2027 07:58:31.227            49.481         23015.406
       157   08 Jun 2027 07:59:12.963   08 Jun 2027 07:59:16.133             3.170          1248.313
       158   08 Jun 2027 08:00:25.380   08 Jun 2027 08:00:28.465             3.085          1542.500
       159   08 Jun 2027 08:00:29.929   08 Jun 2027 08:00:31.365             1.436           667.219
       160   08 Jun 2027 09:34:12.792   08 Jun 2027 09:34:29.416            16.624          7945.313
       161   08 Jun 2027 09:36:42.989   08 Jun 2027 09:36:53.171            10.182          4088.969
       162   08 Jun 2027 11:09:22.501   08 Jun 2027 11:09:37.452            14.951          6026.062
       163   08 Jun 2027 11:15:33.447   08 Jun 2027 11:15:56.873            23.426         10793.000
       164   09 Jun 2027 03:29:49.629   09 Jun 2027 03:32:01.989           132.360         66180.000
       165   09 Jun 2027 03:36:28.892   09 Jun 2027 03:36:43.504            14.612          7306.000
       166   09 Jun 2027 05:08:05.967   09 Jun 2027 05:08:13.053             7.086          3543.000
       167   09 Jun 2027 05:09:06.951   09 Jun 2027 05:10:34.030            87.079         43539.500
       168   09 Jun 2027 05:11:21.718   09 Jun 2027 05:11:26.439             4.721          2360.500
       169   09 Jun 2027 05:11:33.131   09 Jun 2027 05:11:36.447             3.316          1658.000
       170   09 Jun 2027 05:12:34.606   09 Jun 2027 05:12:39.838             5.232          2616.000
       171   09 Jun 2027 05:14:14.330   09 Jun 2027 05:14:14.415             0.085            42.500
       172   09 Jun 2027 05:16:09.019   09 Jun 2027 05:16:45.551            36.532         18266.000
       173   09 Jun 2027 06:46:15.618   09 Jun 2027 06:46:54.624            39.006         19503.000
       174   09 Jun 2027 06:47:18.087   09 Jun 2027 06:48:07.692            49.605         24802.500
       175   09 Jun 2027 06:48:29.185   09 Jun 2027 06:48:29.752             0.567           283.500
       176   09 Jun 2027 08:10:22.016   09 Jun 2027 08:10:58.585            36.569         17897.594
       177   09 Jun 2027 09:47:36.472   09 Jun 2027 09:48:00.438            23.966         10463.469
       178   09 Jun 2027 09:49:20.559   09 Jun 2027 09:49:26.714             6.155          2045.406
       179   09 Jun 2027 09:49:35.612   09 Jun 2027 09:49:36.753             1.141            52.750
       180   09 Jun 2027 11:21:04.696   09 Jun 2027 11:21:17.117            12.421          3877.719
       181   09 Jun 2027 11:21:50.416   09 Jun 2027 11:21:53.421             3.005           556.656
       182   09 Jun 2027 11:22:31.559   09 Jun 2027 11:22:35.968             4.409           222.469
       183   09 Jun 2027 11:23:33.745   09 Jun 2027 11:23:37.982             4.237          1584.344
       184   09 Jun 2027 11:27:42.739   09 Jun 2027 11:27:59.337            16.598          7397.219
       185   10 Jun 2027 03:42:27.314   10 Jun 2027 03:44:50.476           143.162         71581.000
       186   10 Jun 2027 03:46:37.976   10 Jun 2027 03:46:40.832             2.856          1428.000
       187   10 Jun 2027 05:21:10.796   10 Jun 2027 05:23:13.549           122.753         61376.500
       188   10 Jun 2027 05:25:44.629   10 Jun 2027 05:25:45.960             1.331           665.500
       189   10 Jun 2027 05:25:59.345   10 Jun 2027 05:26:14.556            15.211          7605.500
       190   10 Jun 2027 05:27:41.968   10 Jun 2027 05:27:42.548             0.580           290.000
       191   10 Jun 2027 05:28:10.599   10 Jun 2027 05:28:49.906            39.307         19653.500
       192   10 Jun 2027 06:47:08.008   10 Jun 2027 06:47:49.125            41.117         20558.500
       193   10 Jun 2027 06:58:12.121   10 Jun 2027 06:58:34.929            22.808         11273.500
       194   10 Jun 2027 07:00:48.234   10 Jun 2027 07:00:48.234             0.000             0.000
       195   10 Jun 2027 07:01:14.050   10 Jun 2027 07:01:19.450             5.400          2700.000
       196   10 Jun 2027 08:21:10.033   10 Jun 2027 08:21:44.153            34.120         16258.125
       197   10 Jun 2027 08:23:03.051   10 Jun 2027 08:23:11.029             7.978          2313.125
       198   10 Jun 2027 08:24:27.027   10 Jun 2027 08:24:31.938             4.911          2207.156
       199   10 Jun 2027 09:58:14.722   10 Jun 2027 09:58:14.722             0.000             0.000
       200   10 Jun 2027 10:00:06.204   10 Jun 2027 10:00:33.096            26.892         13144.969
       201   10 Jun 2027 10:01:00.511   10 Jun 2027 10:01:02.652             2.141           856.719
       202   10 Jun 2027 11:35:23.290   10 Jun 2027 11:35:55.812            32.522         14609.438
       203   10 Jun 2027 11:36:05.342   10 Jun 2027 11:36:06.469             1.127            95.281
       204   10 Jun 2027 11:37:10.508   10 Jun 2027 11:37:16.222             5.714          1733.375
       205   10 Jun 2027 11:37:48.125   10 Jun 2027 11:37:50.853             2.728           785.719
       206   10 Jun 2027 11:38:34.698   10 Jun 2027 11:38:40.822             6.124          1308.281
       207   10 Jun 2027 11:38:55.161   10 Jun 2027 11:38:55.891             0.730            79.687
       208   10 Jun 2027 11:38:56.253   10 Jun 2027 11:38:58.197             1.944             7.125
       209   10 Jun 2027 11:39:31.587   10 Jun 2027 11:39:35.771             4.184          1043.438
       210   10 Jun 2027 11:40:08.570   10 Jun 2027 11:40:12.904             4.334          1024.969
       211   11 Jun 2027 03:54:34.324   11 Jun 2027 03:54:39.925             5.601          2800.500
       212   11 Jun 2027 03:56:09.287   11 Jun 2027 03:56:19.307            10.020          5010.000
       213   11 Jun 2027 03:56:21.531   11 Jun 2027 03:57:31.816            70.285         35142.500
       214   11 Jun 2027 03:59:03.369   11 Jun 2027 03:59:14.927            11.558          5779.000
       215   11 Jun 2027 05:33:40.576   11 Jun 2027 05:35:41.885           121.309         60654.500
       216   11 Jun 2027 05:37:10.705   11 Jun 2027 05:37:26.535            15.830          7915.000
       217   11 Jun 2027 05:37:50.286   11 Jun 2027 05:38:15.493            25.207         12603.500
       218   11 Jun 2027 05:40:25.877   11 Jun 2027 05:40:47.412            21.535         10767.500
       219   11 Jun 2027 06:58:32.146   11 Jun 2027 07:00:02.614            90.468         45234.000
       220   11 Jun 2027 07:10:14.880   11 Jun 2027 07:10:40.746            25.866         12397.688
       221   11 Jun 2027 08:32:27.664   11 Jun 2027 08:33:01.303            33.639         16819.500
       222   11 Jun 2027 08:33:15.214   11 Jun 2027 08:33:15.214             0.000             0.000
       223   11 Jun 2027 08:34:49.630   11 Jun 2027 08:34:58.383             8.753          3399.719
       224   11 Jun 2027 08:36:57.362   11 Jun 2027 08:37:03.877             6.515          3257.500
       225   11 Jun 2027 08:37:13.735   11 Jun 2027 08:37:16.211             2.476           628.938
       226   11 Jun 2027 08:37:27.279   11 Jun 2027 08:37:29.285             2.006           124.344
       227   11 Jun 2027 10:07:34.066   11 Jun 2027 10:07:49.630            15.564          7530.156
       228   11 Jun 2027 10:09:59.889   11 Jun 2027 10:09:59.889             0.000             0.000
       229   11 Jun 2027 10:13:30.865   11 Jun 2027 10:13:30.865             0.000             0.000
       230   11 Jun 2027 11:50:18.075   11 Jun 2027 11:51:06.629            48.554         24277.000
       231   11 Jun 2027 11:51:15.291   11 Jun 2027 11:51:19.691             4.400          1543.594
       232   11 Jun 2027 11:51:44.869   11 Jun 2027 11:51:47.360             2.491           786.813
       233   12 Jun 2027 04:06:53.638   12 Jun 2027 04:08:03.659            70.021         35010.500
       234   12 Jun 2027 04:08:04.828   12 Jun 2027 04:08:19.692            14.864          7432.000
       235   12 Jun 2027 04:10:30.280   12 Jun 2027 04:10:46.794            16.514          8257.000
       236   12 Jun 2027 04:11:13.649   12 Jun 2027 04:11:16.336             2.687          1343.500
       237   12 Jun 2027 05:45:41.329   12 Jun 2027 05:47:52.055           130.726         65363.000
       238   12 Jun 2027 05:50:07.584   12 Jun 2027 05:50:23.816            16.232          8116.000
       239   12 Jun 2027 05:50:37.276   12 Jun 2027 05:50:50.292            13.016          6508.000
       240   12 Jun 2027 05:52:39.180   12 Jun 2027 05:52:47.792             8.612          4306.000
       241   12 Jun 2027 07:10:00.731   12 Jun 2027 07:11:36.290            95.559         45111.031
       242   12 Jun 2027 07:22:16.552   12 Jun 2027 07:22:32.808            16.256          7852.531
       243   12 Jun 2027 08:44:13.489   12 Jun 2027 08:44:39.970            26.481         13240.500
       244   12 Jun 2027 08:45:20.573   12 Jun 2027 08:45:25.255             4.682          1646.406
       245   12 Jun 2027 08:47:02.056   12 Jun 2027 08:47:02.056             0.000             0.000
       246   12 Jun 2027 08:47:08.232   12 Jun 2027 08:47:15.833             7.601          2312.906
       247   12 Jun 2027 08:48:38.038   12 Jun 2027 08:48:44.896             6.858          2226.812
       248   12 Jun 2027 10:21:04.465   12 Jun 2027 10:21:22.813            18.348          8345.062
       249   12 Jun 2027 10:22:53.582   12 Jun 2027 10:22:59.628             6.046          2467.719
       250   12 Jun 2027 10:23:34.267   12 Jun 2027 10:23:35.009             0.742           268.000
       251   12 Jun 2027 10:25:04.811   12 Jun 2027 10:25:09.530             4.719          1969.812
       252   13 Jun 2027 04:19:38.072   13 Jun 2027 04:21:17.634            99.562         49781.000
       253   13 Jun 2027 04:24:20.625   13 Jun 2027 04:24:26.126             5.501          2750.500
       254   13 Jun 2027 05:58:01.626   13 Jun 2027 06:00:05.161           123.535         61767.500
       255   13 Jun 2027 06:02:00.042   13 Jun 2027 06:02:10.405            10.363          5181.500
       256   13 Jun 2027 07:22:03.247   13 Jun 2027 07:23:47.875           104.628         52314.000
       257   13 Jun 2027 08:58:00.858   13 Jun 2027 08:58:39.869            39.011         17791.906
       258   13 Jun 2027 09:00:40.845   13 Jun 2027 09:00:49.300             8.455          3364.344
       259   13 Jun 2027 10:31:50.037   13 Jun 2027 10:32:05.947            15.910          6046.000
       260   13 Jun 2027 10:33:55.732   13 Jun 2027 10:33:57.902             2.170          1024.156
       261   13 Jun 2027 10:34:27.174   13 Jun 2027 10:34:28.176             1.002           373.500
       262   13 Jun 2027 10:37:54.727   13 Jun 2027 10:38:08.484            13.757          6454.719
       263   13 Jun 2027 10:38:32.462   13 Jun 2027 10:38:32.462             0.000             0.000
