uniorb/output/strategy_1/Camera/Camera_KinoSat_111402.txt

KinoSat_111402
-------------------------
    Access    *     Start Time (UTCG)     *     Stop Time (UTCG)  *   Duration (s) *   Data (Mbytes)
         1   01 Jun 2027 03:52:31.757   01 Jun 2027 03:54:43.530           131.773         65886.500
         2   01 Jun 2027 03:55:47.754   01 Jun 2027 03:55:48.646             0.892           446.000
         3   01 Jun 2027 03:56:09.370   01 Jun 2027 03:56:23.616            14.246          7123.000
         4   01 Jun 2027 03:57:25.103   01 Jun 2027 03:57:42.865            17.762          8881.000
         5   01 Jun 2027 05:16:38.086   01 Jun 2027 05:17:38.990            60.904         30452.000
         6   01 Jun 2027 06:50:24.435   01 Jun 2027 06:52:19.681           115.246         57623.000
         7   01 Jun 2027 06:53:22.018   01 Jun 2027 06:53:29.310             7.292          3646.000
         8   01 Jun 2027 06:54:38.629   01 Jun 2027 06:54:38.629             0.000             0.000
         9   01 Jun 2027 06:55:50.665   01 Jun 2027 06:56:27.167            36.502         18251.000
        10   01 Jun 2027 08:26:24.922   01 Jun 2027 08:28:15.709           110.787         55393.500
        11   01 Jun 2027 08:34:16.345   01 Jun 2027 08:34:31.637            15.292          7646.000
        12   01 Jun 2027 08:34:49.884   01 Jun 2027 08:34:49.884             0.000             0.000
        13   01 Jun 2027 10:03:27.530   01 Jun 2027 10:04:08.135            40.605         20302.500
        14   01 Jun 2027 10:07:24.172   01 Jun 2027 10:08:19.964            55.792         27896.000
        15   01 Jun 2027 10:08:29.960   01 Jun 2027 10:08:53.071            23.111         11555.500
        16   01 Jun 2027 11:40:22.314   01 Jun 2027 11:42:31.923           129.609         64804.500
        17   01 Jun 2027 11:43:14.060   01 Jun 2027 11:43:18.078             4.018          2009.000
        18   01 Jun 2027 11:44:08.667   01 Jun 2027 11:44:13.500             4.833          2416.500
        19   01 Jun 2027 11:46:13.851   01 Jun 2027 11:46:23.470             9.619          4809.500
        20   01 Jun 2027 11:46:33.759   01 Jun 2027 11:46:33.759             0.000             0.000
        21   02 Jun 2027 04:05:07.992   02 Jun 2027 04:06:57.013           109.021         54510.500
        22   02 Jun 2027 04:07:30.284   02 Jun 2027 04:07:43.504            13.220          6610.000
        23   02 Jun 2027 04:07:56.499   02 Jun 2027 04:08:11.748            15.249          7624.500
        24   02 Jun 2027 05:28:32.941   02 Jun 2027 05:29:30.568            57.627         28813.500
        25   02 Jun 2027 05:30:08.184   02 Jun 2027 05:30:23.567            15.383          7691.500
        26   02 Jun 2027 07:04:52.138   02 Jun 2027 07:06:47.402           115.264         57632.000
        27   02 Jun 2027 07:07:43.807   02 Jun 2027 07:07:43.807             0.000             0.000
        28   02 Jun 2027 08:38:21.838   02 Jun 2027 08:40:37.273           135.435         67717.500
        29   02 Jun 2027 08:42:50.749   02 Jun 2027 08:42:56.375             5.626          2813.000
        30   02 Jun 2027 08:45:50.056   02 Jun 2027 08:45:58.415             8.359          4179.500
        31   02 Jun 2027 10:15:53.623   02 Jun 2027 10:17:45.820           112.197         56098.500
        32   02 Jun 2027 10:22:10.251   02 Jun 2027 10:22:25.266            15.015          7507.500
        33   02 Jun 2027 11:52:50.024   02 Jun 2027 11:54:31.046           101.022         50511.000
        34   02 Jun 2027 11:54:38.195   02 Jun 2027 11:54:42.493             4.298          2149.000
        35   02 Jun 2027 11:56:08.642   02 Jun 2027 11:56:20.127            11.485          5742.500
        36   02 Jun 2027 11:58:02.796   02 Jun 2027 11:58:05.812             3.016          1508.000
        37   02 Jun 2027 11:58:15.703   02 Jun 2027 11:58:17.429             1.726           863.000
        38   03 Jun 2027 04:16:46.618   03 Jun 2027 04:17:57.270            70.652         35326.000
        39   03 Jun 2027 04:19:38.779   03 Jun 2027 04:19:39.848             1.069           534.500
        40   03 Jun 2027 04:19:45.415   03 Jun 2027 04:19:59.374            13.959          6979.500
        41   03 Jun 2027 05:40:24.401   03 Jun 2027 05:41:58.095            93.694         46847.000
        42   03 Jun 2027 05:42:45.681   03 Jun 2027 05:42:47.740             2.059          1029.500
        43   03 Jun 2027 07:16:53.801   03 Jun 2027 07:19:22.163           148.362         74181.000
        44   03 Jun 2027 08:51:01.595   03 Jun 2027 08:53:09.463           127.868         63934.000
        45   03 Jun 2027 08:57:50.961   03 Jun 2027 08:57:59.697             8.736          4368.000
        46   03 Jun 2027 08:58:08.179   03 Jun 2027 08:58:21.734            13.555          6777.500
        47   03 Jun 2027 08:58:34.262   03 Jun 2027 08:58:34.262             0.000             0.000
        48   03 Jun 2027 08:58:48.255   03 Jun 2027 08:58:48.684             0.429           214.500
        49   03 Jun 2027 10:27:59.986   03 Jun 2027 10:29:02.698            62.712         30691.376
        50   03 Jun 2027 10:29:05.544   03 Jun 2027 10:29:06.073             0.529            25.844
        51   03 Jun 2027 10:29:21.160   03 Jun 2027 10:29:22.828             1.668           368.125
        52   03 Jun 2027 10:30:02.785   03 Jun 2027 10:30:09.991             7.206          1090.562
        53   03 Jun 2027 10:30:15.930   03 Jun 2027 10:30:18.896             2.966           138.750
        54   03 Jun 2027 10:30:29.332   03 Jun 2027 10:30:30.019             0.687           326.125
        55   03 Jun 2027 10:30:42.602   03 Jun 2027 10:30:43.405             0.803           209.719
        56   03 Jun 2027 10:30:51.510   03 Jun 2027 10:30:52.206             0.696           253.281
        57   03 Jun 2027 10:31:12.845   03 Jun 2027 10:31:18.140             5.295           559.719
        58   03 Jun 2027 10:31:56.245   03 Jun 2027 10:31:58.966             2.721           329.375
        59   03 Jun 2027 10:32:12.345   03 Jun 2027 10:32:16.926             4.581           374.719
        60   03 Jun 2027 10:32:38.182   03 Jun 2027 10:32:42.989             4.807           644.906
        61   03 Jun 2027 10:33:01.138   03 Jun 2027 10:33:03.550             2.412           567.156
        62   03 Jun 2027 10:34:36.737   03 Jun 2027 10:34:42.981             6.244          2813.031
        63   04 Jun 2027 04:29:12.913   04 Jun 2027 04:29:38.070            25.157         12578.500
        64   04 Jun 2027 04:29:59.892   04 Jun 2027 04:30:53.281            53.389         26694.500
        65   04 Jun 2027 04:32:29.109   04 Jun 2027 04:32:50.701            21.592         10796.000
        66   04 Jun 2027 04:33:04.151   04 Jun 2027 04:33:09.876             5.725          2862.500
        67   04 Jun 2027 05:52:33.508   04 Jun 2027 05:53:44.968            71.460         35730.000
        68   04 Jun 2027 07:29:04.038   04 Jun 2027 07:31:11.801           127.763         63881.500
        69   04 Jun 2027 07:31:42.640   04 Jun 2027 07:31:56.405            13.765          6882.500
        70   04 Jun 2027 07:31:58.072   04 Jun 2027 07:32:02.880             4.808          2404.000
        71   04 Jun 2027 09:04:14.134   04 Jun 2027 09:04:35.125            20.991          9991.625
        72   04 Jun 2027 09:05:32.394   04 Jun 2027 09:05:32.507             0.113            56.500
        73   04 Jun 2027 09:05:44.933   04 Jun 2027 09:05:49.982             5.049          2121.469
        74   04 Jun 2027 09:05:53.185   04 Jun 2027 09:05:54.479             1.294           100.094
        75   04 Jun 2027 09:06:18.005   04 Jun 2027 09:06:19.999             1.994           115.000
        76   04 Jun 2027 09:07:13.221   04 Jun 2027 09:07:17.367             4.146          1250.969
        77   04 Jun 2027 09:09:30.576   04 Jun 2027 09:09:38.477             7.901          3685.406
        78   04 Jun 2027 09:10:10.963   04 Jun 2027 09:10:12.998             2.035           903.719
        79   04 Jun 2027 09:10:37.335   04 Jun 2027 09:10:40.656             3.321           760.531
        80   04 Jun 2027 10:40:36.281   04 Jun 2027 10:40:52.133            15.852          6827.187
        81   04 Jun 2027 10:42:16.728   04 Jun 2027 10:42:20.417             3.689          1844.500
        82   04 Jun 2027 10:42:31.074   04 Jun 2027 10:42:32.120             1.046           360.656
        83   04 Jun 2027 10:43:13.785   04 Jun 2027 10:43:17.371             3.586          1297.500
        84   04 Jun 2027 10:43:46.251   04 Jun 2027 10:43:48.120             1.869           902.500
        85   04 Jun 2027 10:44:10.807   04 Jun 2027 10:44:14.373             3.566           708.969
        86   04 Jun 2027 10:44:26.852   04 Jun 2027 10:44:27.982             1.130           313.000
        87   04 Jun 2027 10:44:52.198   04 Jun 2027 10:45:00.281             8.083           756.750
        88   04 Jun 2027 10:45:51.311   04 Jun 2027 10:45:54.177             2.866          1221.344
        89   04 Jun 2027 10:46:46.605   04 Jun 2027 10:46:49.652             3.047          1523.500
        90   05 Jun 2027 03:02:56.338   05 Jun 2027 03:03:12.595            16.257          8128.500
        91   05 Jun 2027 03:03:24.621   05 Jun 2027 03:03:36.192            11.571          5785.500
        92   05 Jun 2027 03:03:58.907   05 Jun 2027 03:04:28.540            29.633         14816.500
        93   05 Jun 2027 03:05:14.711   05 Jun 2027 03:05:35.416            20.705         10352.500
        94   05 Jun 2027 03:09:00.384   05 Jun 2027 03:09:02.070             1.686           843.000
        95   05 Jun 2027 04:41:07.656   05 Jun 2027 04:41:45.333            37.677         18838.500
        96   05 Jun 2027 04:42:15.245   05 Jun 2027 04:42:49.274            34.029         17014.500
        97   05 Jun 2027 04:43:28.749   05 Jun 2027 04:43:28.803             0.054            27.000
        98   05 Jun 2027 04:43:58.664   05 Jun 2027 04:44:18.218            19.554          9777.000
        99   05 Jun 2027 06:05:13.506   05 Jun 2027 06:06:12.913            59.407         29703.500
       100   05 Jun 2027 07:40:59.105   05 Jun 2027 07:42:43.451           104.346         52173.000
       101   05 Jun 2027 07:43:41.031   05 Jun 2027 07:43:50.858             9.827          4121.156
       102   05 Jun 2027 09:15:56.343   05 Jun 2027 09:16:09.336            12.993          6156.031
       103   05 Jun 2027 09:17:02.756   05 Jun 2027 09:17:06.255             3.499          1534.719
       104   05 Jun 2027 09:17:29.639   05 Jun 2027 09:17:38.381             8.742           617.875
       105   05 Jun 2027 09:17:47.079   05 Jun 2027 09:17:47.444             0.365           178.031
       106   05 Jun 2027 09:18:21.545   05 Jun 2027 09:18:21.545             0.000             0.000
       107   05 Jun 2027 09:19:02.039   05 Jun 2027 09:19:06.380             4.341          1955.906
       108   05 Jun 2027 09:22:33.758   05 Jun 2027 09:22:47.186            13.428          6392.750
       109   05 Jun 2027 10:52:08.869   05 Jun 2027 10:52:29.785            20.916          9479.000
       110   05 Jun 2027 10:52:57.213   05 Jun 2027 10:52:58.504             1.291           413.812
       111   05 Jun 2027 10:53:20.090   05 Jun 2027 10:53:21.399             1.309           607.187
       112   05 Jun 2027 10:54:17.739   05 Jun 2027 10:54:19.814             2.075           776.063
       113   05 Jun 2027 10:54:25.754   05 Jun 2027 10:54:28.473             2.719           185.625
       114   05 Jun 2027 10:55:11.795   05 Jun 2027 10:55:14.222             2.427           927.781
       115   05 Jun 2027 10:55:19.112   05 Jun 2027 10:55:21.052             1.940           152.813
       116   05 Jun 2027 10:55:47.032   05 Jun 2027 10:55:49.865             2.833           370.688
       117   05 Jun 2027 10:55:53.520   05 Jun 2027 10:55:53.520             0.000             0.000
       118   05 Jun 2027 10:56:16.091   05 Jun 2027 10:56:16.512             0.421           210.500
       119   05 Jun 2027 10:56:55.038   05 Jun 2027 10:57:05.497            10.459          1785.687
       120   05 Jun 2027 10:57:43.833   05 Jun 2027 10:57:49.202             5.369          1135.688
       121   05 Jun 2027 10:58:28.322   05 Jun 2027 10:58:32.952             4.630          1222.500
       122   06 Jun 2027 03:16:01.654   06 Jun 2027 03:17:29.168            87.514         43757.000
       123   06 Jun 2027 03:18:04.155   06 Jun 2027 03:18:08.426             4.271          2135.500
       124   06 Jun 2027 03:19:07.007   06 Jun 2027 03:19:15.734             8.727          4363.500
       125   06 Jun 2027 03:22:11.858   06 Jun 2027 03:22:19.720             7.862          3931.000
       126   06 Jun 2027 03:22:49.249   06 Jun 2027 03:23:03.102            13.853          6926.500
       127   06 Jun 2027 04:42:00.287   06 Jun 2027 04:42:22.443            22.156         11078.000
       128   06 Jun 2027 04:42:27.616   06 Jun 2027 04:42:40.138            12.522          6261.000
       129   06 Jun 2027 04:53:03.858   06 Jun 2027 04:53:40.053            36.195         18097.500
       130   06 Jun 2027 04:54:03.586   06 Jun 2027 04:54:28.290            24.704         12352.000
       131   06 Jun 2027 04:55:11.063   06 Jun 2027 04:55:20.961             9.898          4949.000
       132   06 Jun 2027 06:16:02.698   06 Jun 2027 06:17:03.212            60.514         30257.000
       133   06 Jun 2027 06:19:25.082   06 Jun 2027 06:19:25.082             0.000             0.000
       134   06 Jun 2027 06:19:41.081   06 Jun 2027 06:19:57.654            16.573          8286.500
       135   06 Jun 2027 07:51:34.935   06 Jun 2027 07:51:42.745             7.810          3905.000
       136   06 Jun 2027 07:52:45.078   06 Jun 2027 07:53:40.090            55.012         25935.937
       137   06 Jun 2027 07:54:25.853   06 Jun 2027 07:54:28.145             2.292          1146.000
       138   06 Jun 2027 07:55:29.253   06 Jun 2027 07:55:33.230             3.977          1926.813
       139   06 Jun 2027 07:56:37.446   06 Jun 2027 07:56:41.992             4.546          2006.750
       140   06 Jun 2027 09:27:30.060   06 Jun 2027 09:27:33.491             3.431          1715.500
       141   06 Jun 2027 09:29:35.847   06 Jun 2027 09:29:51.274            15.427          6544.500
       142   06 Jun 2027 09:31:03.477   06 Jun 2027 09:31:03.646             0.169            84.500
       143   06 Jun 2027 09:31:21.739   06 Jun 2027 09:31:25.711             3.972          1503.438
       144   06 Jun 2027 09:33:29.277   06 Jun 2027 09:33:29.277             0.000             0.000
       145   06 Jun 2027 09:34:22.536   06 Jun 2027 09:34:35.452            12.916          5160.844
       146   06 Jun 2027 11:04:30.851   06 Jun 2027 11:04:47.846            16.995          8420.500
       147   06 Jun 2027 11:05:40.345   06 Jun 2027 11:05:42.843             2.498           989.406
       148   06 Jun 2027 11:06:10.779   06 Jun 2027 11:06:13.002             2.223           140.813
       149   06 Jun 2027 11:06:33.402   06 Jun 2027 11:06:37.544             4.142           637.500
       150   06 Jun 2027 11:06:59.913   06 Jun 2027 11:07:07.172             7.259           483.406
       151   06 Jun 2027 11:07:39.729   06 Jun 2027 11:07:42.284             2.555           753.094
       152   06 Jun 2027 11:07:53.787   06 Jun 2027 11:07:56.386             2.599           346.531
       153   06 Jun 2027 11:08:16.524   06 Jun 2027 11:08:16.524             0.000             0.000
       154   06 Jun 2027 11:08:49.442   06 Jun 2027 11:08:52.983             3.541          1384.125
       155   06 Jun 2027 11:09:11.981   06 Jun 2027 11:09:19.842             7.861           593.688
       156   06 Jun 2027 11:09:44.197   06 Jun 2027 11:09:47.139             2.942           729.063
       157   07 Jun 2027 03:28:26.014   07 Jun 2027 03:30:03.849            97.835         48917.500
       158   07 Jun 2027 03:30:14.303   07 Jun 2027 03:30:14.303             0.000             0.000
       159   07 Jun 2027 03:31:20.878   07 Jun 2027 03:31:30.091             9.213          4606.500
       160   07 Jun 2027 03:32:03.047   07 Jun 2027 03:32:03.754             0.707           353.500
       161   07 Jun 2027 03:32:42.975   07 Jun 2027 03:32:43.482             0.507           253.500
       162   07 Jun 2027 03:34:26.076   07 Jun 2027 03:34:37.713            11.637          5818.500
       163   07 Jun 2027 04:53:23.456   07 Jun 2027 04:53:52.149            28.693         14346.500
       164   07 Jun 2027 05:05:05.902   07 Jun 2027 05:06:06.444            60.542         30271.000
       165   07 Jun 2027 06:27:18.957   07 Jun 2027 06:28:32.765            73.808         36904.000
       166   07 Jun 2027 06:31:25.037   07 Jun 2027 06:31:25.037             0.000             0.000
       167   07 Jun 2027 08:02:26.615   07 Jun 2027 08:03:30.633            64.018         31770.906
       168   07 Jun 2027 08:04:00.971   07 Jun 2027 08:04:04.326             3.355           748.781
       169   07 Jun 2027 08:05:20.495   07 Jun 2027 08:05:20.495             0.000             0.000
       170   07 Jun 2027 08:05:32.035   07 Jun 2027 08:05:37.206             5.171          2530.750
       171   07 Jun 2027 08:06:23.769   07 Jun 2027 08:06:30.153             6.384           981.156
       172   07 Jun 2027 08:08:02.032   07 Jun 2027 08:08:02.032             0.000             0.000
       173   07 Jun 2027 08:08:07.206   07 Jun 2027 08:08:13.230             6.024          2274.969
       174   07 Jun 2027 08:10:24.884   07 Jun 2027 08:10:27.867             2.983          1491.500
       175   07 Jun 2027 09:39:39.119   07 Jun 2027 09:39:50.171            11.052          4238.875
       176   07 Jun 2027 09:40:34.656   07 Jun 2027 09:40:38.819             4.163           843.313
       177   07 Jun 2027 09:40:40.003   07 Jun 2027 09:40:44.075             4.072            37.000
       178   07 Jun 2027 09:40:53.270   07 Jun 2027 09:40:54.101             0.831           151.406
       179   07 Jun 2027 09:41:05.781   07 Jun 2027 09:41:08.205             2.424           313.531
       180   07 Jun 2027 09:42:04.850   07 Jun 2027 09:42:07.316             2.466          1009.125
       181   07 Jun 2027 09:43:23.485   07 Jun 2027 09:43:29.235             5.750           854.187
       182   07 Jun 2027 09:46:07.131   07 Jun 2027 09:46:14.897             7.766          3883.000
       183   07 Jun 2027 09:46:40.233   07 Jun 2027 09:46:44.379             4.146          1527.031
       184   07 Jun 2027 11:16:36.261   07 Jun 2027 11:16:49.034            12.773          6065.375
       185   07 Jun 2027 11:17:31.064   07 Jun 2027 11:17:33.803             2.739          1258.500
       186   07 Jun 2027 11:17:55.419   07 Jun 2027 11:17:55.900             0.481           240.500
       187   07 Jun 2027 11:18:25.914   07 Jun 2027 11:18:30.725             4.811          1350.906
       188   07 Jun 2027 11:18:41.230   07 Jun 2027 11:18:46.229             4.999           269.000
       189   07 Jun 2027 11:19:22.511   07 Jun 2027 11:19:26.400             3.889          1133.812
       190   07 Jun 2027 11:19:56.568   07 Jun 2027 11:19:58.394             1.826           749.031
       191   07 Jun 2027 11:19:59.335   07 Jun 2027 11:20:10.716            11.381            17.750
       192   07 Jun 2027 11:20:11.499   07 Jun 2027 11:20:15.067             3.568            24.469
       193   07 Jun 2027 11:20:31.692   07 Jun 2027 11:20:36.165             4.473           464.719
       194   07 Jun 2027 11:21:01.515   07 Jun 2027 11:21:01.515             0.000             0.000
       195   07 Jun 2027 11:22:05.972   07 Jun 2027 11:22:11.420             5.448          2543.906
       196   07 Jun 2027 11:22:21.779   07 Jun 2027 11:22:23.223             1.444           323.719
       197   07 Jun 2027 11:22:31.595   07 Jun 2027 11:22:34.162             2.567             5.344
       198   07 Jun 2027 11:22:35.567   07 Jun 2027 11:22:35.874             0.307             5.094
       199   08 Jun 2027 03:40:42.994   08 Jun 2027 03:42:55.736           132.742         66371.000
       200   08 Jun 2027 03:43:24.562   08 Jun 2027 03:43:34.495             9.933          4966.500
       201   08 Jun 2027 03:45:33.542   08 Jun 2027 03:45:49.644            16.102          8051.000
       202   08 Jun 2027 05:04:50.794   08 Jun 2027 05:05:33.381            42.587         21293.500
       203   08 Jun 2027 05:07:03.168   08 Jun 2027 05:07:05.425             2.257          1128.500
       204   08 Jun 2027 05:17:02.758   08 Jun 2027 05:17:41.020            38.262         19131.000
       205   08 Jun 2027 06:39:04.266   08 Jun 2027 06:40:16.472            72.206         36103.000
       206   08 Jun 2027 06:41:08.629   08 Jun 2027 06:41:08.629             0.000             0.000
       207   08 Jun 2027 06:41:19.990   08 Jun 2027 06:41:36.652            16.662          8331.000
       208   08 Jun 2027 08:13:56.170   08 Jun 2027 08:14:31.298            35.128         15628.062
       209   08 Jun 2027 08:15:17.926   08 Jun 2027 08:15:22.058             4.132          1107.906
       210   08 Jun 2027 08:15:53.760   08 Jun 2027 08:15:54.432             0.672           336.000
       211   08 Jun 2027 08:19:29.621   08 Jun 2027 08:19:45.213            15.592          6963.969
       212   08 Jun 2027 08:20:13.422   08 Jun 2027 08:20:18.354             4.932           544.344
       213   08 Jun 2027 08:21:40.502   08 Jun 2027 08:21:43.963             3.461          1730.500
       214   08 Jun 2027 08:22:16.636   08 Jun 2027 08:22:25.559             8.923          1857.656
       215   08 Jun 2027 09:51:41.237   08 Jun 2027 09:51:58.793            17.556          5690.781
       216   08 Jun 2027 09:52:38.326   08 Jun 2027 09:52:41.710             3.384           802.125
       217   08 Jun 2027 09:52:51.613   08 Jun 2027 09:52:52.920             1.307           309.469
       218   08 Jun 2027 09:53:04.095   08 Jun 2027 09:53:06.695             2.600           141.625
       219   08 Jun 2027 09:53:19.020   08 Jun 2027 09:53:20.655             1.635           350.531
       220   08 Jun 2027 09:53:21.249   08 Jun 2027 09:53:22.243             0.994            10.656
       221   08 Jun 2027 09:53:29.415   08 Jun 2027 09:53:30.421             1.006           224.125
       222   08 Jun 2027 09:54:39.124   08 Jun 2027 09:54:45.331             6.207          2146.969
       223   08 Jun 2027 09:55:40.958   08 Jun 2027 09:55:45.728             4.770          1716.000
       224   08 Jun 2027 09:55:49.552   08 Jun 2027 09:55:49.552             0.000             0.000
       225   08 Jun 2027 09:56:35.501   08 Jun 2027 09:56:39.863             4.362          1512.625
       226   08 Jun 2027 09:56:43.895   08 Jun 2027 09:56:48.116             4.221           126.000
       227   08 Jun 2027 09:57:34.122   08 Jun 2027 09:57:37.634             3.512          1437.688
       228   08 Jun 2027 09:58:03.028   08 Jun 2027 09:58:09.674             6.646           793.563
       229   08 Jun 2027 09:58:23.746   08 Jun 2027 09:58:24.615             0.869           290.750
       230   08 Jun 2027 09:58:54.426   08 Jun 2027 09:58:57.190             2.764           931.594
       231   08 Jun 2027 11:28:28.993   08 Jun 2027 11:28:42.899            13.906          6953.000
       232   08 Jun 2027 11:28:57.799   08 Jun 2027 11:29:00.938             3.139           970.375
       233   08 Jun 2027 11:30:08.265   08 Jun 2027 11:30:13.244             4.979          1768.875
       234   08 Jun 2027 11:30:27.964   08 Jun 2027 11:30:34.118             6.154           456.031
       235   08 Jun 2027 11:30:58.882   08 Jun 2027 11:31:05.066             6.184           358.656
       236   08 Jun 2027 11:31:23.319   08 Jun 2027 11:31:24.974             1.655           437.531
       237   08 Jun 2027 11:32:18.696   08 Jun 2027 11:32:24.447             5.751          1678.812
       238   08 Jun 2027 11:32:50.479   08 Jun 2027 11:32:52.181             1.702           813.500
       239   08 Jun 2027 11:32:59.442   08 Jun 2027 11:33:00.553             1.111           226.906
       240   08 Jun 2027 11:34:05.151   08 Jun 2027 11:34:09.817             4.666          2018.688
       241   08 Jun 2027 11:34:36.239   08 Jun 2027 11:34:37.106             0.867           433.500
       242   08 Jun 2027 11:34:54.503   08 Jun 2027 11:34:58.279             3.776           786.125
       243   08 Jun 2027 11:35:03.614   08 Jun 2027 11:35:11.198             7.584           166.719
       244   09 Jun 2027 03:52:50.121   09 Jun 2027 03:54:35.878           105.757         52878.500
       245   09 Jun 2027 03:54:43.744   09 Jun 2027 03:55:05.516            21.772         10886.000
       246   09 Jun 2027 03:55:11.156   09 Jun 2027 03:55:22.121            10.965          5482.500
       247   09 Jun 2027 03:56:56.964   09 Jun 2027 03:57:01.001             4.037          2018.500
       248   09 Jun 2027 05:16:54.185   09 Jun 2027 05:17:53.679            59.494         29747.000
       249   09 Jun 2027 06:52:51.343   09 Jun 2027 06:54:33.889           102.546         51273.000
       250   09 Jun 2027 06:56:08.753   09 Jun 2027 06:56:36.036            27.283         11513.718
       251   09 Jun 2027 08:26:41.188   09 Jun 2027 08:26:59.790            18.602          8936.406
       252   09 Jun 2027 08:27:35.589   09 Jun 2027 08:27:36.759             1.170           415.094
       253   09 Jun 2027 08:28:04.015   09 Jun 2027 08:28:05.298             1.283           529.219
       254   09 Jun 2027 08:28:32.643   09 Jun 2027 08:28:33.563             0.920           146.844
       255   09 Jun 2027 08:28:38.391   09 Jun 2027 08:28:39.671             1.280           150.875
       256   09 Jun 2027 08:28:51.228   09 Jun 2027 08:28:52.380             1.152           351.813
       257   09 Jun 2027 08:29:37.297   09 Jun 2027 08:29:39.910             2.613          1076.875
       258   09 Jun 2027 08:30:26.928   09 Jun 2027 08:30:34.156             7.228           927.344
       259   09 Jun 2027 08:30:35.371   09 Jun 2027 08:30:37.514             2.143            15.938
       260   09 Jun 2027 08:30:49.780   09 Jun 2027 08:30:51.507             1.727           168.375
       261   09 Jun 2027 08:31:39.640   09 Jun 2027 08:31:42.186             2.546          1273.000
       262   09 Jun 2027 08:32:33.942   09 Jun 2027 08:32:38.099             4.157          1668.688
       263   09 Jun 2027 08:33:15.029   09 Jun 2027 08:33:23.597             8.568          1083.188
       264   09 Jun 2027 08:33:52.761   09 Jun 2027 08:33:55.375             2.614           726.375
       265   09 Jun 2027 08:34:29.984   09 Jun 2027 08:34:33.022             3.038          1032.281
       266   09 Jun 2027 08:34:46.281   09 Jun 2027 08:34:50.001             3.720           414.344
       267   09 Jun 2027 10:03:44.413   09 Jun 2027 10:04:00.063            15.650          6944.437
       268   09 Jun 2027 10:04:55.702   09 Jun 2027 10:04:58.302             2.600           882.594
       269   09 Jun 2027 10:05:20.477   09 Jun 2027 10:05:22.021             1.544           491.250
       270   09 Jun 2027 10:05:49.406   09 Jun 2027 10:05:51.382             1.976           848.750
       271   09 Jun 2027 10:07:42.172   09 Jun 2027 10:07:51.892             9.720          2184.844
       272   09 Jun 2027 10:07:54.815   09 Jun 2027 10:07:55.854             1.039            68.906
       273   09 Jun 2027 10:08:33.676   09 Jun 2027 10:08:36.184             2.508          1181.937
       274   09 Jun 2027 10:08:53.485   09 Jun 2027 10:08:53.485             0.000             0.000
       275   09 Jun 2027 10:08:56.949   09 Jun 2027 10:08:58.120             1.171           534.187
       276   09 Jun 2027 10:09:45.837   09 Jun 2027 10:09:48.375             2.538          1269.000
       277   09 Jun 2027 10:10:30.962   09 Jun 2027 10:10:34.205             3.243          1553.000
       278   09 Jun 2027 10:10:37.147   09 Jun 2027 10:10:38.843             1.696            91.938
       279   09 Jun 2027 11:40:38.798   09 Jun 2027 11:40:51.214            12.416          6186.719
       280   09 Jun 2027 11:41:12.468   09 Jun 2027 11:41:13.961             1.493           664.187
       281   09 Jun 2027 11:41:41.866   09 Jun 2027 11:41:47.351             5.485           430.719
       282   09 Jun 2027 11:42:58.388   09 Jun 2027 11:43:07.239             8.851          1500.687
       283   09 Jun 2027 11:43:32.739   09 Jun 2027 11:43:34.851             2.112           562.906
       284   09 Jun 2027 11:44:15.526   09 Jun 2027 11:44:18.191             2.665          1110.906
       285   09 Jun 2027 11:44:29.565   09 Jun 2027 11:44:30.586             1.021           355.438
       286   09 Jun 2027 11:44:35.172   09 Jun 2027 11:44:36.854             1.682           143.312
       287   09 Jun 2027 11:45:01.014   09 Jun 2027 11:45:04.933             3.919           755.000
       288   09 Jun 2027 11:45:53.352   09 Jun 2027 11:45:55.452             2.100          1040.281
       289   09 Jun 2027 11:46:10.059   09 Jun 2027 11:46:12.838             2.779           456.469
       290   09 Jun 2027 11:46:38.123   09 Jun 2027 11:46:40.373             2.250           790.156
       291   10 Jun 2027 04:05:24.318   10 Jun 2027 04:07:38.773           134.455         67227.500
       292   10 Jun 2027 04:08:16.782   10 Jun 2027 04:08:17.145             0.363           181.500
       293   10 Jun 2027 04:09:55.605   10 Jun 2027 04:10:01.630             6.025          3012.500
       294   10 Jun 2027 05:28:48.582   10 Jun 2027 05:30:01.792            73.210         36605.000
       295   10 Jun 2027 07:05:09.330   10 Jun 2027 07:07:16.778           127.448         63724.000
       296   10 Jun 2027 07:07:29.775   10 Jun 2027 07:07:35.293             5.518          1646.250
       297   10 Jun 2027 08:38:39.398   10 Jun 2027 08:38:55.595            16.197          7186.031
       298   10 Jun 2027 08:39:15.070   10 Jun 2027 08:39:16.572             1.502           106.219
       299   10 Jun 2027 08:40:54.769   10 Jun 2027 08:41:02.294             7.525          1864.750
       300   10 Jun 2027 08:41:59.313   10 Jun 2027 08:42:02.713             3.400          1614.906
       301   10 Jun 2027 08:43:12.172   10 Jun 2027 08:43:16.185             4.013          1911.969
       302   10 Jun 2027 08:44:29.012   10 Jun 2027 08:44:33.563             4.551          1708.125
       303   10 Jun 2027 08:45:24.728   10 Jun 2027 08:45:29.160             4.432          1560.531
       304   10 Jun 2027 08:45:47.962   10 Jun 2027 08:45:49.943             1.981           587.563
       305   10 Jun 2027 08:46:51.003   10 Jun 2027 08:46:56.106             5.103          1908.125
       306   10 Jun 2027 08:47:07.507   10 Jun 2027 08:47:07.956             0.449           163.188
       307   10 Jun 2027 10:16:10.511   10 Jun 2027 10:16:27.763            17.252          6589.813
       308   10 Jun 2027 10:16:50.049   10 Jun 2027 10:16:51.304             1.255           225.406
       309   10 Jun 2027 10:17:21.049   10 Jun 2027 10:17:23.329             2.280           192.344
       310   10 Jun 2027 10:18:07.269   10 Jun 2027 10:18:10.118             2.849           987.719
       311   10 Jun 2027 10:18:15.540   10 Jun 2027 10:18:19.988             4.448            98.687
       312   10 Jun 2027 10:18:42.516   10 Jun 2027 10:18:43.223             0.707           268.969
       313   10 Jun 2027 10:19:35.145   10 Jun 2027 10:19:38.474             3.329          1622.563
       314   10 Jun 2027 10:21:01.823   10 Jun 2027 10:21:06.305             4.482          2111.656
       315   10 Jun 2027 10:21:32.220   10 Jun 2027 10:21:35.059             2.839           809.844
       316   10 Jun 2027 10:22:18.946   10 Jun 2027 10:22:21.135             2.189          1094.500
       317   10 Jun 2027 10:22:38.806   10 Jun 2027 10:22:42.054             3.248           749.031
       318   10 Jun 2027 11:53:06.338   10 Jun 2027 11:53:28.170            21.832          7786.000
       319   10 Jun 2027 11:54:47.669   10 Jun 2027 11:54:54.248             6.579          2138.437
       320   10 Jun 2027 11:55:43.137   10 Jun 2027 11:55:51.298             8.161          1523.875
       321   10 Jun 2027 11:56:36.244   10 Jun 2027 11:56:40.078             3.834          1404.563
       322   10 Jun 2027 11:57:47.523   10 Jun 2027 11:57:52.736             5.213          1392.281
       323   10 Jun 2027 11:58:30.228   10 Jun 2027 11:58:34.692             4.464          1148.969
       324   11 Jun 2027 04:17:03.070   11 Jun 2027 04:18:38.668            95.598         47799.000
       325   11 Jun 2027 04:20:01.117   11 Jun 2027 04:20:13.995            12.878          6439.000
       326   11 Jun 2027 05:40:39.520   11 Jun 2027 05:42:02.821            83.301         41650.500
       327   11 Jun 2027 07:17:11.246   11 Jun 2027 07:19:27.424           136.178         66582.938
       328   11 Jun 2027 07:19:39.374   11 Jun 2027 07:19:40.419             1.045           309.844
       329   11 Jun 2027 07:19:47.128   11 Jun 2027 07:19:47.128             0.000             0.000
       330   11 Jun 2027 08:51:38.822   11 Jun 2027 08:51:54.973            16.151          7353.563
       331   11 Jun 2027 08:52:46.697   11 Jun 2027 08:52:50.470             3.773          1616.375
       332   11 Jun 2027 08:53:27.336   11 Jun 2027 08:53:27.336             0.000             0.000
       333   11 Jun 2027 08:54:01.071   11 Jun 2027 08:54:09.378             8.307          1891.000
       334   11 Jun 2027 08:55:32.455   11 Jun 2027 08:55:40.466             8.011          1626.625
       335   11 Jun 2027 08:56:00.573   11 Jun 2027 08:56:04.252             3.679           588.500
       336   11 Jun 2027 08:57:00.159   11 Jun 2027 08:57:05.396             5.237          1645.687
       337   11 Jun 2027 08:57:08.586   11 Jun 2027 08:57:11.231             2.645            99.687
       338   11 Jun 2027 08:57:12.035   11 Jun 2027 08:57:12.742             0.707            23.687
       339   11 Jun 2027 08:57:18.729   11 Jun 2027 08:57:20.445             1.716           187.094
       340   11 Jun 2027 08:58:17.032   11 Jun 2027 08:58:24.155             7.123           966.906
       341   11 Jun 2027 10:28:18.536   11 Jun 2027 10:28:30.980            12.444          6027.688
       342   11 Jun 2027 10:30:24.775   11 Jun 2027 10:30:31.009             6.234          2003.875
       343   11 Jun 2027 10:30:32.360   11 Jun 2027 10:30:35.246             2.886            42.219
       344   11 Jun 2027 10:30:44.361   11 Jun 2027 10:30:46.486             2.125           284.844
       345   11 Jun 2027 10:30:57.317   11 Jun 2027 10:30:59.415             2.098           164.719
       346   11 Jun 2027 10:31:09.047   11 Jun 2027 10:31:09.992             0.945           297.594
       347   11 Jun 2027 10:31:28.415   11 Jun 2027 10:31:35.390             6.975           566.719
       348   11 Jun 2027 10:32:58.520   11 Jun 2027 10:33:04.514             5.994          1924.906
       349   11 Jun 2027 10:33:24.391   11 Jun 2027 10:33:28.807             4.416           512.500
       350   11 Jun 2027 10:34:20.646   11 Jun 2027 10:34:26.176             5.530          1619.969
       351   11 Jun 2027 10:34:33.015   11 Jun 2027 10:34:33.550             0.535           115.000
       352   12 Jun 2027 04:29:27.669   12 Jun 2027 04:29:55.328            27.659         13829.500
       353   12 Jun 2027 04:30:15.931   12 Jun 2027 04:31:50.524            94.593         47296.500
       354   12 Jun 2027 04:33:18.854   12 Jun 2027 04:33:18.854             0.000             0.000
       355   12 Jun 2027 05:52:49.711   12 Jun 2027 05:54:01.703            71.992         35996.000
       356   12 Jun 2027 05:54:28.786   12 Jun 2027 05:54:41.180            12.394          6197.000
       357   12 Jun 2027 07:29:20.924   12 Jun 2027 07:30:58.404            97.480         48740.000
       358   12 Jun 2027 07:31:01.062   12 Jun 2027 07:31:04.648             3.586          1793.000
       359   12 Jun 2027 09:04:30.428   12 Jun 2027 09:04:56.647            26.219         12969.687
       360   12 Jun 2027 09:06:02.466   12 Jun 2027 09:06:05.469             3.003           375.250
       361   12 Jun 2027 09:06:28.982   12 Jun 2027 09:06:30.527             1.545           726.531
       362   12 Jun 2027 09:07:26.525   12 Jun 2027 09:07:29.416             2.891          1211.344
       363   12 Jun 2027 09:07:50.801   12 Jun 2027 09:07:53.248             2.447           663.531
       364   12 Jun 2027 09:09:47.729   12 Jun 2027 09:09:52.986             5.257          2508.781
       365   12 Jun 2027 09:10:25.044   12 Jun 2027 09:10:27.879             2.835           860.656
       366   12 Jun 2027 09:10:52.199   12 Jun 2027 09:10:54.693             2.494           725.031
       367   12 Jun 2027 10:40:53.480   12 Jun 2027 10:41:05.114            11.634          5755.094
       368   12 Jun 2027 10:41:33.438   12 Jun 2027 10:41:33.626             0.188            90.281
       369   12 Jun 2027 10:41:57.863   12 Jun 2027 10:42:00.654             2.791           113.719
       370   12 Jun 2027 10:42:45.941   12 Jun 2027 10:42:48.520             2.579          1208.531
       371   12 Jun 2027 10:42:53.480   12 Jun 2027 10:42:55.378             1.898           155.000
       372   12 Jun 2027 10:43:07.941   12 Jun 2027 10:43:18.224            10.283           392.594
       373   12 Jun 2027 10:44:48.837   12 Jun 2027 10:44:56.848             8.011          2570.750
       374   12 Jun 2027 10:45:34.712   12 Jun 2027 10:45:42.683             7.971           812.281
       375   12 Jun 2027 10:45:55.427   12 Jun 2027 10:45:57.832             2.405            74.344
       376   12 Jun 2027 10:46:17.881   12 Jun 2027 10:46:19.089             1.208           591.156
       377   12 Jun 2027 10:46:33.591   12 Jun 2027 10:46:35.757             2.166           401.969
       378   12 Jun 2027 10:46:38.678   12 Jun 2027 10:46:39.206             0.528            72.250
       379   13 Jun 2027 03:03:12.725   13 Jun 2027 03:03:26.770            14.045          7022.500
       380   13 Jun 2027 03:04:15.092   13 Jun 2027 03:04:43.160            28.068         14034.000
       381   13 Jun 2027 03:04:58.058   13 Jun 2027 03:05:05.184             7.126          3563.000
       382   13 Jun 2027 03:05:32.664   13 Jun 2027 03:05:51.651            18.987          9493.500
       383   13 Jun 2027 03:07:53.007   13 Jun 2027 03:07:56.617             3.610          1805.000
       384   13 Jun 2027 03:11:20.907   13 Jun 2027 03:11:25.883             4.976          2488.000
       385   13 Jun 2027 04:41:23.805   13 Jun 2027 04:42:01.884            38.079         19039.500
       386   13 Jun 2027 04:42:31.169   13 Jun 2027 04:43:06.603            35.434         17717.000
       387   13 Jun 2027 04:44:52.834   13 Jun 2027 04:44:52.901             0.067            33.500
       388   13 Jun 2027 04:44:58.544   13 Jun 2027 04:45:00.454             1.910           955.000
       389   13 Jun 2027 06:05:29.628   13 Jun 2027 06:06:16.233            46.605         23302.500
       390   13 Jun 2027 06:06:43.582   13 Jun 2027 06:06:58.702            15.120          7560.000
       391   13 Jun 2027 07:41:14.858   13 Jun 2027 07:43:01.760           106.902         53451.000
       392   13 Jun 2027 07:43:46.097   13 Jun 2027 07:43:46.097             0.000             0.000
       393   13 Jun 2027 07:43:57.453   13 Jun 2027 07:44:10.648            13.195          6076.687
       394   13 Jun 2027 07:44:19.149   13 Jun 2027 07:44:20.734             1.585           171.469
       395   13 Jun 2027 09:16:18.303   13 Jun 2027 09:16:34.933            16.630          7214.344
       396   13 Jun 2027 09:18:03.454   13 Jun 2027 09:18:12.080             8.626          2703.969
       397   13 Jun 2027 09:19:25.450   13 Jun 2027 09:19:32.651             7.201          2114.125
       398   13 Jun 2027 09:20:30.180   13 Jun 2027 09:20:30.180             0.000             0.000
       399   13 Jun 2027 09:22:49.483   13 Jun 2027 09:23:03.719            14.236          5506.500
       400   13 Jun 2027 09:23:11.390   13 Jun 2027 09:23:14.793             3.403           134.781
       401   13 Jun 2027 10:52:25.389   13 Jun 2027 10:52:40.061            14.672          7246.500
       402   13 Jun 2027 10:54:08.533   13 Jun 2027 10:54:13.670             5.137          2030.156
       403   13 Jun 2027 10:54:58.386   13 Jun 2027 10:54:59.365             0.979           489.500
       404   13 Jun 2027 10:55:19.395   13 Jun 2027 10:55:27.145             7.750           769.969
       405   13 Jun 2027 10:55:29.000   13 Jun 2027 10:55:32.790             3.790            44.219
       406   13 Jun 2027 10:56:12.442   13 Jun 2027 10:56:15.300             2.858          1239.125
       407   13 Jun 2027 10:56:45.933   13 Jun 2027 10:56:54.893             8.960           550.156
       408   13 Jun 2027 10:57:49.100   13 Jun 2027 10:57:53.867             4.767          1645.406
       409   13 Jun 2027 10:58:04.456   13 Jun 2027 10:58:07.130             2.674           330.906
