uniorb/output/strategy_1/Camera/Camera_KinoSat_111802.txt

KinoSat_111802
-------------------------
    Access    *     Start Time (UTCG)     *     Stop Time (UTCG)  *   Duration (s) *   Data (Mbytes)
         1   01 Jun 2027 03:34:07.685   01 Jun 2027 03:36:15.261           127.576         63788.000
         2   01 Jun 2027 03:37:16.565   01 Jun 2027 03:37:37.329            20.764         10382.000
         3   01 Jun 2027 05:13:39.798   01 Jun 2027 05:15:11.946            92.148         46074.000
         4   01 Jun 2027 05:15:33.982   01 Jun 2027 05:15:35.585             1.603           801.500
         5   01 Jun 2027 05:16:00.424   01 Jun 2027 05:16:17.794            17.370          8685.000
         6   01 Jun 2027 05:16:55.298   01 Jun 2027 05:16:55.298             0.000             0.000
         7   01 Jun 2027 05:17:11.727   01 Jun 2027 05:17:15.771             4.044          2022.000
         8   01 Jun 2027 05:18:28.314   01 Jun 2027 05:18:39.007            10.693          5346.500
         9   01 Jun 2027 05:20:00.592   01 Jun 2027 05:20:18.143            17.551          8775.500
        10   01 Jun 2027 06:38:00.939   01 Jun 2027 06:39:18.686            77.747         38873.500
        11   01 Jun 2027 06:49:40.894   01 Jun 2027 06:49:59.933            19.039          9519.500
        12   01 Jun 2027 08:11:58.852   01 Jun 2027 08:13:05.244            66.392         33196.000
        13   01 Jun 2027 08:13:52.795   01 Jun 2027 08:14:46.732            53.937         26968.500
        14   01 Jun 2027 09:46:53.363   01 Jun 2027 09:47:27.708            34.345         17172.500
        15   01 Jun 2027 09:48:05.352   01 Jun 2027 09:48:13.583             8.231          4115.500
        16   01 Jun 2027 09:49:01.971   01 Jun 2027 09:49:20.026            18.055          9027.500
        17   01 Jun 2027 09:50:29.826   01 Jun 2027 09:50:35.220             5.394          2697.000
        18   01 Jun 2027 09:52:07.507   01 Jun 2027 09:52:29.949            22.442         11221.000
        19   01 Jun 2027 11:30:30.509   01 Jun 2027 11:31:44.629            74.120         37060.000
        20   02 Jun 2027 03:46:34.984   02 Jun 2027 03:46:52.919            17.935          8967.500
        21   02 Jun 2027 03:47:00.492   02 Jun 2027 03:47:30.247            29.755         14877.500
        22   02 Jun 2027 03:47:35.163   02 Jun 2027 03:48:23.959            48.796         24398.000
        23   02 Jun 2027 03:48:41.027   02 Jun 2027 03:48:47.641             6.614          3307.000
        24   02 Jun 2027 03:50:22.299   02 Jun 2027 03:50:31.489             9.190          4595.000
        25   02 Jun 2027 03:51:03.851   02 Jun 2027 03:51:18.780            14.929          7464.500
        26   02 Jun 2027 05:25:16.585   02 Jun 2027 05:26:53.149            96.564         48282.000
        27   02 Jun 2027 05:27:51.483   02 Jun 2027 05:27:51.483             0.000             0.000
        28   02 Jun 2027 05:28:30.602   02 Jun 2027 05:28:48.762            18.160          9080.000
        29   02 Jun 2027 05:29:06.276   02 Jun 2027 05:29:17.098            10.822          5411.000
        30   02 Jun 2027 06:49:34.681   02 Jun 2027 06:50:57.978            83.297         41648.500
        31   02 Jun 2027 06:51:21.856   02 Jun 2027 06:51:29.126             7.270          3635.000
        32   02 Jun 2027 07:01:56.460   02 Jun 2027 07:02:06.481            10.021          5010.500
        33   02 Jun 2027 08:23:30.788   02 Jun 2027 08:24:50.918            80.130         40065.000
        34   02 Jun 2027 08:25:39.220   02 Jun 2027 08:26:18.803            39.583         19791.500
        35   02 Jun 2027 08:27:48.707   02 Jun 2027 08:27:48.707             0.000             0.000
        36   02 Jun 2027 08:28:12.481   02 Jun 2027 08:28:31.978            19.497          9748.500
        37   02 Jun 2027 09:58:23.894   02 Jun 2027 09:59:16.463            52.569         26284.500
        38   02 Jun 2027 10:00:30.262   02 Jun 2027 10:00:40.939            10.677          5338.500
        39   02 Jun 2027 10:01:13.451   02 Jun 2027 10:01:40.939            27.488         13744.000
        40   02 Jun 2027 10:07:21.712   02 Jun 2027 10:07:47.278            25.566         12783.000
        41   02 Jun 2027 11:36:19.987   02 Jun 2027 11:36:25.965             5.978          2989.000
        42   02 Jun 2027 11:42:11.366   02 Jun 2027 11:43:44.672            93.306         46653.000
        43   03 Jun 2027 03:59:10.967   03 Jun 2027 03:59:23.555            12.588          6294.000
        44   03 Jun 2027 03:59:33.954   03 Jun 2027 04:00:34.452            60.498         30249.000
        45   03 Jun 2027 04:00:42.723   03 Jun 2027 04:01:10.244            27.521         13760.500
        46   03 Jun 2027 04:01:19.921   03 Jun 2027 04:01:27.484             7.563          3781.500
        47   03 Jun 2027 05:37:42.126   03 Jun 2027 05:38:56.270            74.144         37072.000
        48   03 Jun 2027 05:39:21.231   03 Jun 2027 05:39:53.789            32.558         16279.000
        49   03 Jun 2027 07:01:30.526   03 Jun 2027 07:03:10.593           100.067         50033.500
        50   03 Jun 2027 07:03:20.500   03 Jun 2027 07:03:32.278            11.778          5889.000
        51   03 Jun 2027 08:37:30.271   03 Jun 2027 08:39:46.102           135.831         67915.500
        52   03 Jun 2027 10:11:17.776   03 Jun 2027 10:12:16.151            58.375         29187.500
        53   03 Jun 2027 10:13:53.091   03 Jun 2027 10:13:53.091             0.000             0.000
        54   03 Jun 2027 10:18:04.775   03 Jun 2027 10:18:04.775             0.000             0.000
        55   03 Jun 2027 10:18:09.326   03 Jun 2027 10:18:37.715            28.389         14194.500
        56   03 Jun 2027 10:18:41.431   03 Jun 2027 10:18:47.533             6.102          3051.000
        57   03 Jun 2027 11:48:32.386   03 Jun 2027 11:48:52.404            20.018          9562.937
        58   03 Jun 2027 11:49:29.861   03 Jun 2027 11:49:32.478             2.617          1090.719
        59   03 Jun 2027 11:50:52.742   03 Jun 2027 11:50:56.664             3.922          1961.000
        60   03 Jun 2027 11:51:12.463   03 Jun 2027 11:51:14.734             2.271           744.219
        61   03 Jun 2027 11:53:24.538   03 Jun 2027 11:53:40.636            16.098          3929.125
        62   03 Jun 2027 11:54:41.418   03 Jun 2027 11:54:46.872             5.454          1819.031
        63   03 Jun 2027 11:55:09.239   03 Jun 2027 11:55:10.549             1.310           530.094
        64   04 Jun 2027 04:11:44.176   04 Jun 2027 04:11:53.507             9.331          4665.500
        65   04 Jun 2027 04:12:35.004   04 Jun 2027 04:13:41.802            66.798         33399.000
        66   04 Jun 2027 04:15:23.139   04 Jun 2027 04:15:34.675            11.536          5768.000
        67   04 Jun 2027 04:17:01.408   04 Jun 2027 04:17:04.007             2.599          1299.500
        68   04 Jun 2027 04:17:19.913   04 Jun 2027 04:17:28.231             8.318          4159.000
        69   04 Jun 2027 05:50:00.765   04 Jun 2027 05:51:52.246           111.481         55740.500
        70   04 Jun 2027 05:52:32.067   04 Jun 2027 05:53:15.786            43.719         21859.500
        71   04 Jun 2027 07:13:22.750   04 Jun 2027 07:15:05.082           102.332         51166.000
        72   04 Jun 2027 07:15:40.542   04 Jun 2027 07:15:40.542             0.000             0.000
        73   04 Jun 2027 08:49:44.321   04 Jun 2027 08:50:14.682            30.361         15180.500
        74   04 Jun 2027 08:50:24.622   04 Jun 2027 08:50:24.622             0.000             0.000
        75   04 Jun 2027 08:52:32.871   04 Jun 2027 08:52:48.402            15.531          7381.968
        76   04 Jun 2027 10:22:02.721   04 Jun 2027 10:22:14.033            11.312          5569.844
        77   04 Jun 2027 10:23:49.585   04 Jun 2027 10:23:52.497             2.912           738.844
        78   04 Jun 2027 10:25:45.539   04 Jun 2027 10:25:51.130             5.591          2774.656
        79   04 Jun 2027 10:26:54.763   04 Jun 2027 10:26:57.284             2.521          1260.500
        80   04 Jun 2027 10:27:37.294   04 Jun 2027 10:27:41.790             4.496          1275.125
        81   04 Jun 2027 10:30:26.109   04 Jun 2027 10:30:31.295             5.186          2593.000
        82   04 Jun 2027 10:30:58.082   04 Jun 2027 10:31:08.401            10.319          3379.063
        83   04 Jun 2027 10:31:43.846   04 Jun 2027 10:31:45.979             2.133          1066.500
        84   05 Jun 2027 04:23:50.590   05 Jun 2027 04:24:52.201            61.611         30805.500
        85   05 Jun 2027 04:24:58.162   05 Jun 2027 04:25:27.010            28.848         14424.000
        86   05 Jun 2027 04:26:27.787   05 Jun 2027 04:26:50.510            22.723         11361.500
        87   05 Jun 2027 04:27:19.407   05 Jun 2027 04:27:25.295             5.888          2944.000
        88   05 Jun 2027 06:02:53.687   05 Jun 2027 06:04:57.315           123.628         61814.000
        89   05 Jun 2027 06:05:23.622   05 Jun 2027 06:05:46.657            23.035         11517.500
        90   05 Jun 2027 07:25:26.189   05 Jun 2027 07:26:31.419            65.230         32615.000
        91   05 Jun 2027 07:27:00.074   05 Jun 2027 07:27:13.168            13.094          6547.000
        92   05 Jun 2027 07:28:04.182   05 Jun 2027 07:28:04.255             0.073            36.500
        93   05 Jun 2027 09:01:51.573   05 Jun 2027 09:02:12.358            20.785          9212.812
        94   05 Jun 2027 10:36:59.899   05 Jun 2027 10:37:22.880            22.981         10182.094
        95   05 Jun 2027 10:38:00.538   05 Jun 2027 10:38:03.947             3.409           803.844
        96   05 Jun 2027 10:43:02.113   05 Jun 2027 10:43:25.306            23.193          9236.281
        97   05 Jun 2027 10:43:40.544   05 Jun 2027 10:43:41.753             1.209           377.406
        98   05 Jun 2027 10:43:42.472   05 Jun 2027 10:43:42.572             0.100            22.469
        99   06 Jun 2027 03:01:15.466   06 Jun 2027 03:01:52.346            36.880         18440.000
       100   06 Jun 2027 03:02:10.210   06 Jun 2027 03:02:10.210             0.000             0.000
       101   06 Jun 2027 03:03:54.210   06 Jun 2027 03:04:13.181            18.971          9485.500
       102   06 Jun 2027 03:04:29.867   06 Jun 2027 03:04:38.536             8.669          4334.500
       103   06 Jun 2027 04:35:49.396   06 Jun 2027 04:36:34.840            45.444         22722.000
       104   06 Jun 2027 04:36:55.649   06 Jun 2027 04:37:19.788            24.139         12069.500
       105   06 Jun 2027 04:38:38.004   06 Jun 2027 04:38:38.004             0.000             0.000
       106   06 Jun 2027 04:38:48.196   06 Jun 2027 04:39:08.271            20.075         10037.500
       107   06 Jun 2027 04:41:07.380   06 Jun 2027 04:41:24.489            17.109          8554.500
       108   06 Jun 2027 06:14:02.872   06 Jun 2027 06:15:52.892           110.020         55010.000
       109   06 Jun 2027 06:16:22.438   06 Jun 2027 06:16:41.699            19.261          9630.500
       110   06 Jun 2027 07:37:24.054   06 Jun 2027 07:38:27.401            63.347         31673.500
       111   06 Jun 2027 07:40:18.220   06 Jun 2027 07:40:26.919             8.699          3750.406
       112   06 Jun 2027 09:14:01.288   06 Jun 2027 09:14:12.328            11.040          4545.563
       113   06 Jun 2027 10:49:11.204   06 Jun 2027 10:49:24.090            12.886          6134.781
       114   06 Jun 2027 10:52:01.290   06 Jun 2027 10:52:11.571            10.281          4826.969
       115   06 Jun 2027 10:52:28.430   06 Jun 2027 10:52:28.430             0.000             0.000
       116   06 Jun 2027 10:55:33.326   06 Jun 2027 10:55:45.662            12.336          6092.531
       117   07 Jun 2027 03:09:37.291   07 Jun 2027 03:10:00.042            22.751         11375.500
       118   07 Jun 2027 03:10:01.876   07 Jun 2027 03:10:50.803            48.927         24463.500
       119   07 Jun 2027 03:11:16.271   07 Jun 2027 03:11:22.480             6.209          3104.500
       120   07 Jun 2027 03:13:22.290   07 Jun 2027 03:13:24.638             2.348          1174.000
       121   07 Jun 2027 03:15:07.548   07 Jun 2027 03:15:09.431             1.883           941.500
       122   07 Jun 2027 03:15:41.274   07 Jun 2027 03:15:56.320            15.046          7523.000
       123   07 Jun 2027 04:48:54.768   07 Jun 2027 04:49:57.334            62.566         31283.000
       124   07 Jun 2027 04:50:22.269   07 Jun 2027 04:50:36.013            13.744          6872.000
       125   07 Jun 2027 04:50:59.969   07 Jun 2027 04:51:04.813             4.844          2422.000
       126   07 Jun 2027 04:52:05.612   07 Jun 2027 04:52:08.459             2.847          1423.500
       127   07 Jun 2027 04:52:11.546   07 Jun 2027 04:52:16.463             4.917          2458.500
       128   07 Jun 2027 04:52:44.288   07 Jun 2027 04:52:44.288             0.000             0.000
       129   07 Jun 2027 04:52:57.614   07 Jun 2027 04:53:05.347             7.733          3866.500
       130   07 Jun 2027 04:53:50.951   07 Jun 2027 04:54:02.989            12.038          6019.000
       131   07 Jun 2027 04:55:18.231   07 Jun 2027 04:55:29.709            11.478          5739.000
       132   07 Jun 2027 06:15:16.003   07 Jun 2027 06:15:23.444             7.441          3720.500
       133   07 Jun 2027 06:26:00.604   07 Jun 2027 06:26:42.477            41.873         20936.500
       134   07 Jun 2027 06:26:47.831   07 Jun 2027 06:26:58.998            11.167          5583.500
       135   07 Jun 2027 06:27:37.073   07 Jun 2027 06:27:56.390            19.317          9658.500
       136   07 Jun 2027 06:29:27.750   07 Jun 2027 06:29:36.487             8.737          4368.500
       137   07 Jun 2027 07:50:00.430   07 Jun 2027 07:51:09.912            69.482         32245.156
       138   07 Jun 2027 09:25:45.229   07 Jun 2027 09:25:53.584             8.355          4177.500
       139   07 Jun 2027 09:26:09.212   07 Jun 2027 09:26:12.116             2.904          1291.500
       140   07 Jun 2027 09:28:09.678   07 Jun 2027 09:28:17.387             7.709          3384.250
       141   07 Jun 2027 11:00:51.703   07 Jun 2027 11:01:04.753            13.050          5774.000
       142   07 Jun 2027 11:03:00.045   07 Jun 2027 11:03:00.045             0.000             0.000
       143   07 Jun 2027 11:03:53.237   07 Jun 2027 11:03:56.938             3.701          1850.500
       144   07 Jun 2027 11:07:24.709   07 Jun 2027 11:07:46.767            22.058          9716.250
       145   07 Jun 2027 11:07:49.044   07 Jun 2027 11:07:49.044             0.000             0.000
       146   08 Jun 2027 03:22:17.778   08 Jun 2027 03:24:11.074           113.296         56648.000
       147   08 Jun 2027 03:27:16.183   08 Jun 2027 03:27:18.494             2.311          1155.500
       148   08 Jun 2027 03:27:35.635   08 Jun 2027 03:27:49.132            13.497          6748.500
       149   08 Jun 2027 03:28:37.502   08 Jun 2027 03:28:40.438             2.936          1468.000
       150   08 Jun 2027 05:01:15.502   08 Jun 2027 05:02:30.603            75.101         37550.500
       151   08 Jun 2027 05:03:57.789   08 Jun 2027 05:04:04.586             6.797          3398.500
       152   08 Jun 2027 05:05:10.949   08 Jun 2027 05:05:25.257            14.308          7154.000
       153   08 Jun 2027 05:07:15.224   08 Jun 2027 05:07:15.945             0.721           360.500
       154   08 Jun 2027 05:08:04.795   08 Jun 2027 05:08:33.295            28.500         14250.000
       155   08 Jun 2027 06:26:33.045   08 Jun 2027 06:27:45.515            72.470         36235.000
       156   08 Jun 2027 06:37:59.288   08 Jun 2027 06:38:42.171            42.883         21441.500
       157   08 Jun 2027 08:00:38.497   08 Jun 2027 08:01:18.114            39.617         18955.781
       158   08 Jun 2027 08:01:20.449   08 Jun 2027 08:01:26.128             5.679            33.469
       159   08 Jun 2027 08:03:56.196   08 Jun 2027 08:04:06.495            10.299          4083.625
       160   08 Jun 2027 08:04:24.579   08 Jun 2027 08:04:24.579             0.000             0.000
       161   08 Jun 2027 08:05:13.091   08 Jun 2027 08:05:17.187             4.096          2048.000
       162   08 Jun 2027 09:35:59.505   08 Jun 2027 09:36:11.963            12.458          4076.969
       163   08 Jun 2027 09:40:15.291   08 Jun 2027 09:40:24.503             9.212          4606.000
       164   08 Jun 2027 09:40:40.925   08 Jun 2027 09:40:48.201             7.276          3246.531
       165   08 Jun 2027 11:12:27.912   08 Jun 2027 11:12:38.232            10.320          5160.000
       166   08 Jun 2027 11:13:18.377   08 Jun 2027 11:13:25.307             6.930          2174.500
       167   08 Jun 2027 11:15:37.614   08 Jun 2027 11:15:37.614             0.000             0.000
       168   08 Jun 2027 11:17:03.683   08 Jun 2027 11:17:18.620            14.937          6824.250
       169   08 Jun 2027 11:17:35.317   08 Jun 2027 11:17:37.121             1.804           359.344
       170   08 Jun 2027 11:17:44.390   08 Jun 2027 11:17:44.871             0.481           169.750
       171   08 Jun 2027 11:18:01.537   08 Jun 2027 11:18:02.592             1.055           261.156
       172   08 Jun 2027 11:18:35.363   08 Jun 2027 11:18:39.155             3.792          1024.094
       173   08 Jun 2027 11:19:14.964   08 Jun 2027 11:19:23.755             8.791          1119.031
       174   08 Jun 2027 11:19:36.710   08 Jun 2027 11:19:37.215             0.505           150.344
       175   09 Jun 2027 03:34:25.952   09 Jun 2027 03:36:28.892           122.940         61470.000
       176   09 Jun 2027 03:36:43.504   09 Jun 2027 03:36:54.391            10.887          5443.500
       177   09 Jun 2027 05:13:31.397   09 Jun 2027 05:14:56.879            85.482         42741.000
       178   09 Jun 2027 05:16:45.551   09 Jun 2027 05:17:11.327            25.776         12888.000
       179   09 Jun 2027 05:20:14.268   09 Jun 2027 05:20:35.365            21.097         10548.500
       180   09 Jun 2027 06:37:46.807   09 Jun 2027 06:38:57.049            70.242         35121.000
       181   09 Jun 2027 06:49:58.588   09 Jun 2027 06:50:17.953            19.365          9682.500
       182   09 Jun 2027 08:12:14.793   09 Jun 2027 08:12:50.659            35.866         17716.375
       183   09 Jun 2027 08:14:10.415   09 Jun 2027 08:14:16.701             6.286          1988.062
       184   09 Jun 2027 08:15:04.010   09 Jun 2027 08:15:08.636             4.626          1314.844
       185   09 Jun 2027 08:15:35.024   09 Jun 2027 08:15:36.921             1.897           312.375
       186   09 Jun 2027 09:47:08.570   09 Jun 2027 09:47:22.796            14.226          4910.469
       187   09 Jun 2027 09:48:15.106   09 Jun 2027 09:48:15.106             0.000             0.000
       188   09 Jun 2027 09:48:24.262   09 Jun 2027 09:48:30.538             6.276          1268.719
       189   09 Jun 2027 09:50:24.276   09 Jun 2027 09:50:35.615            11.339          3519.688
       190   09 Jun 2027 09:53:11.995   09 Jun 2027 09:53:22.182            10.187          4646.281
       191   09 Jun 2027 09:53:49.763   09 Jun 2027 09:53:55.894             6.131           308.625
       192   09 Jun 2027 11:26:15.755   09 Jun 2027 11:26:42.637            26.882         11103.063
       193   09 Jun 2027 11:27:41.242   09 Jun 2027 11:27:42.739             1.497           748.500
       194   09 Jun 2027 11:30:53.435   09 Jun 2027 11:31:10.292            16.857          6896.625
       195   09 Jun 2027 11:31:30.450   09 Jun 2027 11:31:33.604             3.154           516.687
       196   09 Jun 2027 11:31:36.609   09 Jun 2027 11:31:37.356             0.747            58.469
       197   10 Jun 2027 03:46:52.790   10 Jun 2027 03:47:09.396            16.606          8303.000
       198   10 Jun 2027 03:47:18.799   10 Jun 2027 03:47:47.668            28.869         14434.500
       199   10 Jun 2027 03:47:52.390   10 Jun 2027 03:48:46.706            54.316         27158.000
       200   10 Jun 2027 03:48:47.908   10 Jun 2027 03:49:05.622            17.714          8857.000
       201   10 Jun 2027 03:49:30.115   10 Jun 2027 03:49:53.107            22.992         11496.000
       202   10 Jun 2027 03:51:19.335   10 Jun 2027 03:51:19.335             0.000             0.000
       203   10 Jun 2027 03:51:35.791   10 Jun 2027 03:51:41.603             5.812          2906.000
       204   10 Jun 2027 03:51:53.087   10 Jun 2027 03:51:55.253             2.166          1083.000
       205   10 Jun 2027 03:52:44.445   10 Jun 2027 03:52:47.972             3.527          1763.500
       206   10 Jun 2027 05:25:36.375   10 Jun 2027 05:27:05.517            89.142         44571.000
       207   10 Jun 2027 05:27:12.135   10 Jun 2027 05:27:34.548            22.413         11206.500
       208   10 Jun 2027 05:27:42.548   10 Jun 2027 05:27:44.127             1.579           789.500
       209   10 Jun 2027 05:28:39.669   10 Jun 2027 05:29:06.654            26.985         13492.500
       210   10 Jun 2027 05:29:22.895   10 Jun 2027 05:29:33.470            10.575          5287.500
       211   10 Jun 2027 05:30:07.699   10 Jun 2027 05:30:09.323             1.624           812.000
       212   10 Jun 2027 06:49:52.346   10 Jun 2027 06:50:37.118            44.772         22386.000
       213   10 Jun 2027 06:51:46.798   10 Jun 2027 06:51:57.282            10.484          5242.000
       214   10 Jun 2027 07:02:19.865   10 Jun 2027 07:02:25.951             6.086          3043.000
       215   10 Jun 2027 08:23:44.296   10 Jun 2027 08:24:06.317            22.021          9984.531
       216   10 Jun 2027 08:25:43.900   10 Jun 2027 08:25:49.940             6.040          2356.000
       217   10 Jun 2027 08:27:11.389   10 Jun 2027 08:27:18.608             7.219          2429.906
       218   10 Jun 2027 08:28:49.727   10 Jun 2027 08:28:49.727             0.000             0.000
       219   10 Jun 2027 08:29:05.184   10 Jun 2027 08:29:12.866             7.682          2866.562
       220   10 Jun 2027 09:58:39.263   10 Jun 2027 09:58:50.413            11.150          4538.750
       221   10 Jun 2027 10:00:33.096   10 Jun 2027 10:00:37.113             4.017          1903.031
       222   10 Jun 2027 10:02:14.510   10 Jun 2027 10:02:20.264             5.754          2657.594
       223   10 Jun 2027 10:04:25.429   10 Jun 2027 10:04:33.054             7.625          3791.969
       224   10 Jun 2027 10:07:37.751   10 Jun 2027 10:07:46.265             8.514          3953.219
       225   10 Jun 2027 11:36:36.314   10 Jun 2027 11:36:49.268            12.954          6477.000
       226   10 Jun 2027 11:38:58.197   10 Jun 2027 11:38:58.197             0.000             0.000
       227   10 Jun 2027 11:40:57.742   10 Jun 2027 11:41:03.169             5.427          2713.500
       228   10 Jun 2027 11:42:25.950   10 Jun 2027 11:42:45.468            19.518          7947.125
       229   10 Jun 2027 11:43:25.305   10 Jun 2027 11:43:27.321             2.016          1008.000
       230   10 Jun 2027 11:43:41.800   10 Jun 2027 11:43:44.697             2.897           652.469
       231   11 Jun 2027 03:59:29.539   11 Jun 2027 03:59:40.559            11.020          5510.000
       232   11 Jun 2027 03:59:52.206   11 Jun 2027 04:00:53.577            61.371         30685.500
       233   11 Jun 2027 04:00:59.461   11 Jun 2027 04:01:30.625            31.164         15582.000
       234   11 Jun 2027 04:01:37.616   11 Jun 2027 04:01:52.312            14.696          7348.000
       235   11 Jun 2027 05:37:59.182   11 Jun 2027 05:39:08.760            69.578         34789.000
       236   11 Jun 2027 05:39:35.360   11 Jun 2027 05:40:00.730            25.370         12685.000
       237   11 Jun 2027 05:41:28.852   11 Jun 2027 05:41:36.907             8.055          4027.500
       238   11 Jun 2027 07:01:48.956   11 Jun 2027 07:03:26.381            97.425         48712.500
       239   11 Jun 2027 07:03:28.670   11 Jun 2027 07:03:36.536             7.866          3933.000
       240   11 Jun 2027 07:03:50.203   11 Jun 2027 07:03:59.728             9.525          4762.500
       241   11 Jun 2027 08:37:47.974   11 Jun 2027 08:38:15.849            27.875         12936.250
       242   11 Jun 2027 08:38:37.504   11 Jun 2027 08:38:40.360             2.856           676.719
       243   11 Jun 2027 08:40:50.347   11 Jun 2027 08:40:50.347             0.000             0.000
       244   11 Jun 2027 10:11:32.947   11 Jun 2027 10:11:47.703            14.756          6633.469
       245   11 Jun 2027 10:13:18.802   11 Jun 2027 10:13:18.802             0.000             0.000
       246   11 Jun 2027 10:16:25.000   11 Jun 2027 10:16:41.679            16.679          7214.656
       247   11 Jun 2027 10:17:32.016   11 Jun 2027 10:17:32.562             0.546           273.000
       248   11 Jun 2027 10:18:24.242   11 Jun 2027 10:18:29.275             5.033          2501.375
       249   11 Jun 2027 10:19:06.461   11 Jun 2027 10:19:06.461             0.000             0.000
       250   11 Jun 2027 11:48:57.413   11 Jun 2027 11:49:13.466            16.053          7965.062
       251   11 Jun 2027 11:50:16.356   11 Jun 2027 11:50:18.075             1.719           859.500
       252   11 Jun 2027 11:53:35.884   11 Jun 2027 11:53:52.243            16.359          7287.344
       253   11 Jun 2027 11:54:57.172   11 Jun 2027 11:55:01.929             4.757          1784.844
       254   11 Jun 2027 11:55:25.524   11 Jun 2027 11:55:25.524             0.000             0.000
       255   12 Jun 2027 04:12:00.637   12 Jun 2027 04:12:27.266            26.629         13314.500
       256   12 Jun 2027 04:12:34.152   12 Jun 2027 04:13:50.469            76.317         38158.500
       257   12 Jun 2027 04:14:13.089   12 Jun 2027 04:14:15.153             2.064          1032.000
       258   12 Jun 2027 04:14:21.346   12 Jun 2027 04:14:26.217             4.871          2435.500
       259   12 Jun 2027 04:16:05.289   12 Jun 2027 04:16:14.106             8.817          4408.500
       260   12 Jun 2027 05:49:59.643   12 Jun 2027 05:52:10.832           131.189         65594.500
       261   12 Jun 2027 05:52:45.887   12 Jun 2027 05:52:47.632             1.745           872.500
       262   12 Jun 2027 05:53:30.897   12 Jun 2027 05:53:39.083             8.186          4093.000
       263   12 Jun 2027 07:13:40.506   12 Jun 2027 07:15:01.548            81.042         40521.000
       264   12 Jun 2027 07:15:26.044   12 Jun 2027 07:15:35.862             9.818          4909.000
       265   12 Jun 2027 07:16:15.088   12 Jun 2027 07:16:15.464             0.376           188.000
       266   12 Jun 2027 08:50:02.586   12 Jun 2027 08:50:34.418            31.832         15532.156
       267   12 Jun 2027 08:52:50.536   12 Jun 2027 08:53:03.061            12.525          4253.687
       268   12 Jun 2027 10:24:06.794   12 Jun 2027 10:24:18.645            11.851          5745.625
       269   12 Jun 2027 10:27:04.232   12 Jun 2027 10:27:13.495             9.263          4631.500
       270   12 Jun 2027 10:27:40.559   12 Jun 2027 10:27:42.188             1.629           814.500
       271   12 Jun 2027 10:27:44.819   12 Jun 2027 10:27:45.748             0.929           155.531
       272   12 Jun 2027 10:28:05.023   12 Jun 2027 10:28:10.440             5.417           602.344
       273   12 Jun 2027 10:28:21.628   12 Jun 2027 10:28:23.364             1.736           349.625
       274   12 Jun 2027 10:29:19.332   12 Jun 2027 10:29:23.393             4.061          1734.437
       275   12 Jun 2027 10:29:25.509   12 Jun 2027 10:29:26.505             0.996             1.500
       276   12 Jun 2027 10:30:38.999   12 Jun 2027 10:30:43.759             4.760          2235.063
       277   12 Jun 2027 10:31:18.630   12 Jun 2027 10:31:18.630             0.000             0.000
       278   12 Jun 2027 10:32:00.562   12 Jun 2027 10:32:00.562             0.000             0.000
       279   12 Jun 2027 10:32:03.398   12 Jun 2027 10:32:06.172             2.774          1387.000
       280   13 Jun 2027 04:24:06.666   13 Jun 2027 04:25:08.705            62.039         31019.500
       281   13 Jun 2027 04:25:15.213   13 Jun 2027 04:25:40.455            25.242         12621.000
       282   13 Jun 2027 04:26:42.300   13 Jun 2027 04:26:55.673            13.373          6686.500
       283   13 Jun 2027 04:27:37.515   13 Jun 2027 04:28:21.355            43.840         21920.000
       284   13 Jun 2027 06:03:12.982   13 Jun 2027 06:04:50.583            97.601         48800.500
       285   13 Jun 2027 06:06:02.300   13 Jun 2027 06:06:02.300             0.000             0.000
       286   13 Jun 2027 07:25:44.334   13 Jun 2027 07:27:27.813           103.479         51739.500
       287   13 Jun 2027 07:28:20.452   13 Jun 2027 07:28:23.027             2.575          1287.500
       288   13 Jun 2027 09:02:13.468   13 Jun 2027 09:02:35.610            22.142          9501.438
       289   13 Jun 2027 09:03:10.192   13 Jun 2027 09:03:10.192             0.000             0.000
       290   13 Jun 2027 09:04:50.206   13 Jun 2027 09:05:02.274            12.068          4195.375
       291   13 Jun 2027 09:05:30.536   13 Jun 2027 09:05:34.885             4.349           749.500
       292   13 Jun 2027 10:37:18.732   13 Jun 2027 10:37:29.215            10.483          4446.344
       293   13 Jun 2027 10:38:26.268   13 Jun 2027 10:38:26.268             0.000             0.000
       294   13 Jun 2027 10:38:32.462   13 Jun 2027 10:38:37.462             5.000          1179.219
       295   13 Jun 2027 10:39:51.165   13 Jun 2027 10:39:54.236             3.071          1178.000
       296   13 Jun 2027 10:40:27.824   13 Jun 2027 10:40:31.052             3.228           983.531
       297   13 Jun 2027 10:41:29.950   13 Jun 2027 10:41:39.478             9.528          1512.437
       298   13 Jun 2027 10:41:47.007   13 Jun 2027 10:41:51.379             4.372           187.031
       299   13 Jun 2027 10:42:39.196   13 Jun 2027 10:42:41.352             2.156           895.250
       300   13 Jun 2027 10:43:14.645   13 Jun 2027 10:43:16.449             1.804           901.719
       301   13 Jun 2027 10:43:27.582   13 Jun 2027 10:43:28.771             1.189           274.625
       302   13 Jun 2027 10:43:58.127   13 Jun 2027 10:44:00.308             2.181           741.188
