uniorb/output/strategy_1/Camera/Camera_KinoSat_110804.txt

KinoSat_110804
-------------------------
    Access    *     Start Time (UTCG)     *     Stop Time (UTCG)  *   Duration (s) *   Data (Mbytes)
         1   01 Jun 2027 03:43:43.998   01 Jun 2027 03:44:44.677            60.679         30339.500
         2   01 Jun 2027 03:45:25.473   01 Jun 2027 03:45:56.590            31.117         15558.500
         3   01 Jun 2027 03:47:11.439   01 Jun 2027 03:47:22.828            11.389          5694.500
         4   01 Jun 2027 03:47:58.178   01 Jun 2027 03:47:58.744             0.566           283.000
         5   01 Jun 2027 03:48:11.890   01 Jun 2027 03:48:20.640             8.750          4375.000
         6   01 Jun 2027 05:18:47.573   01 Jun 2027 05:20:05.896            78.323         39161.500
         7   01 Jun 2027 05:20:37.832   01 Jun 2027 05:21:09.431            31.599         15799.500
         8   01 Jun 2027 05:24:12.269   01 Jun 2027 05:24:30.062            17.793          8896.500
         9   01 Jun 2027 05:24:39.625   01 Jun 2027 05:24:57.087            17.462          8731.000
        10   01 Jun 2027 05:25:24.651   01 Jun 2027 05:25:30.991             6.340          3170.000
        11   01 Jun 2027 06:55:45.682   01 Jun 2027 06:57:25.154            99.472         49736.000
        12   01 Jun 2027 06:57:57.071   01 Jun 2027 06:58:21.032            23.961         11980.500
        13   01 Jun 2027 08:32:43.825   01 Jun 2027 08:34:25.272           101.447         50723.500
        14   01 Jun 2027 08:35:03.357   01 Jun 2027 08:35:16.304            12.947          6473.500
        15   01 Jun 2027 08:35:31.268   01 Jun 2027 08:35:42.469            11.201          5600.500
        16   01 Jun 2027 08:36:02.783   01 Jun 2027 08:36:07.910             5.127          2563.500
        17   01 Jun 2027 08:36:48.075   01 Jun 2027 08:36:50.020             1.945           972.500
        18   01 Jun 2027 10:10:38.762   01 Jun 2027 10:12:18.074            99.312         49656.000
        19   01 Jun 2027 10:12:19.312   01 Jun 2027 10:12:29.639            10.327          5163.500
        20   01 Jun 2027 10:13:33.124   01 Jun 2027 10:13:37.556             4.432          2216.000
        21   01 Jun 2027 11:43:57.889   01 Jun 2027 11:45:49.290           111.401         55700.500
        22   01 Jun 2027 11:46:23.470   01 Jun 2027 11:46:33.759            10.289          5144.500
        23   01 Jun 2027 11:48:41.445   01 Jun 2027 11:48:47.720             6.275          3137.500
        24   02 Jun 2027 03:55:08.320   02 Jun 2027 03:55:46.998            38.678         19339.000
        25   02 Jun 2027 03:57:57.507   02 Jun 2027 03:58:07.040             9.533          4766.500
        26   02 Jun 2027 03:59:15.369   02 Jun 2027 03:59:19.836             4.467          2233.500
        27   02 Jun 2027 03:59:28.204   02 Jun 2027 03:59:40.253            12.049          6024.500
        28   02 Jun 2027 05:30:12.499   02 Jun 2027 05:32:29.460           136.961         68480.500
        29   02 Jun 2027 05:33:29.711   02 Jun 2027 05:33:31.648             1.937           968.500
        30   02 Jun 2027 05:33:56.057   02 Jun 2027 05:34:15.246            19.189          9594.500
        31   02 Jun 2027 05:35:40.389   02 Jun 2027 05:35:42.820             2.431          1215.500
        32   02 Jun 2027 05:36:36.150   02 Jun 2027 05:36:37.124             0.974           487.000
        33   02 Jun 2027 07:07:48.388   02 Jun 2027 07:09:38.788           110.400         55200.000
        34   02 Jun 2027 07:10:23.839   02 Jun 2027 07:10:38.413            14.574          7287.000
        35   02 Jun 2027 07:11:23.813   02 Jun 2027 07:11:47.454            23.641         11820.500
        36   02 Jun 2027 07:13:56.001   02 Jun 2027 07:14:00.246             4.245          2122.500
        37   02 Jun 2027 08:44:33.390   02 Jun 2027 08:46:52.470           139.080         69540.000
        38   02 Jun 2027 08:47:52.987   02 Jun 2027 08:48:03.933            10.946          5473.000
        39   02 Jun 2027 08:48:25.321   02 Jun 2027 08:48:29.667             4.346          2173.000
        40   02 Jun 2027 08:49:48.365   02 Jun 2027 08:49:52.022             3.657          1828.500
        41   02 Jun 2027 10:22:38.131   02 Jun 2027 10:24:32.860           114.729         57364.500
        42   02 Jun 2027 10:26:10.432   02 Jun 2027 10:26:18.948             8.516          4258.000
        43   02 Jun 2027 10:26:37.193   02 Jun 2027 10:26:47.202            10.009          5004.500
        44   02 Jun 2027 11:56:24.214   02 Jun 2027 11:58:03.794            99.580         49790.000
        45   03 Jun 2027 04:06:50.267   03 Jun 2027 04:07:25.335            35.068         17534.000
        46   03 Jun 2027 04:08:11.170   03 Jun 2027 04:08:21.971            10.801          5400.500
        47   03 Jun 2027 05:41:43.006   03 Jun 2027 05:43:59.271           136.265         68132.500
        48   03 Jun 2027 05:44:26.267   03 Jun 2027 05:44:27.417             1.150           575.000
        49   03 Jun 2027 05:44:43.323   03 Jun 2027 05:44:52.882             9.559          4779.500
        50   03 Jun 2027 05:45:24.262   03 Jun 2027 05:45:26.404             2.142          1071.000
        51   03 Jun 2027 05:48:08.172   03 Jun 2027 05:48:13.393             5.221          2610.500
        52   03 Jun 2027 05:49:07.131   03 Jun 2027 05:49:15.557             8.426          4213.000
        53   03 Jun 2027 05:51:02.175   03 Jun 2027 05:51:02.241             0.066            33.000
        54   03 Jun 2027 07:19:48.265   03 Jun 2027 07:20:35.969            47.704         23852.000
        55   03 Jun 2027 07:21:01.474   03 Jun 2027 07:21:51.863            50.389         25194.500
        56   03 Jun 2027 07:23:05.542   03 Jun 2027 07:23:56.855            51.313         25656.500
        57   03 Jun 2027 07:24:48.447   03 Jun 2027 07:24:54.589             6.142          3071.000
        58   03 Jun 2027 07:25:26.048   03 Jun 2027 07:25:35.241             9.193          4596.500
        59   03 Jun 2027 07:26:59.560   03 Jun 2027 07:27:15.015            15.455          7727.500
        60   03 Jun 2027 08:56:41.594   03 Jun 2027 08:59:15.658           154.064         77032.000
        61   03 Jun 2027 09:00:53.726   03 Jun 2027 09:01:02.020             8.294          4147.000
        62   03 Jun 2027 09:02:47.866   03 Jun 2027 09:02:48.179             0.313           156.500
        63   03 Jun 2027 10:33:51.237   03 Jun 2027 10:34:57.173            65.936         31408.156
        64   03 Jun 2027 10:35:22.981   03 Jun 2027 10:35:27.398             4.417           549.375
        65   03 Jun 2027 10:36:35.059   03 Jun 2027 10:36:38.898             3.839          1919.500
        66   03 Jun 2027 10:37:30.428   03 Jun 2027 10:37:39.815             9.387          1693.750
        67   04 Jun 2027 04:21:09.381   04 Jun 2027 04:22:10.218            60.837         30418.500
        68   04 Jun 2027 04:23:29.799   04 Jun 2027 04:23:42.195            12.396          6198.000
        69   04 Jun 2027 05:54:42.687   04 Jun 2027 05:56:34.784           112.097         56048.500
        70   04 Jun 2027 05:57:11.167   04 Jun 2027 05:57:13.275             2.108          1054.000
        71   04 Jun 2027 06:00:20.400   04 Jun 2027 06:00:38.487            18.087          9043.500
        72   04 Jun 2027 06:02:15.907   04 Jun 2027 06:02:19.624             3.717          1858.500
        73   04 Jun 2027 06:02:55.685   04 Jun 2027 06:03:00.527             4.842          2421.000
        74   04 Jun 2027 06:03:09.530   04 Jun 2027 06:03:12.264             2.734          1367.000
        75   04 Jun 2027 06:03:15.145   04 Jun 2027 06:03:16.382             1.237           618.500
        76   04 Jun 2027 07:32:10.844   04 Jun 2027 07:34:12.417           121.573         60786.500
        77   04 Jun 2027 07:35:15.958   04 Jun 2027 07:35:33.823            17.865          8932.500
        78   04 Jun 2027 07:36:00.080   04 Jun 2027 07:36:09.113             9.033          4516.500
        79   04 Jun 2027 07:36:21.041   04 Jun 2027 07:36:22.670             1.629           814.500
        80   04 Jun 2027 07:36:28.732   04 Jun 2027 07:36:29.696             0.964           326.438
        81   04 Jun 2027 07:36:39.361   04 Jun 2027 07:36:39.992             0.631           206.281
        82   04 Jun 2027 07:37:55.309   04 Jun 2027 07:37:55.309             0.000             0.000
        83   04 Jun 2027 09:09:09.814   04 Jun 2027 09:09:42.044            32.230         15830.063
        84   04 Jun 2027 09:11:18.123   04 Jun 2027 09:11:25.061             6.938          1992.625
        85   04 Jun 2027 09:11:59.376   04 Jun 2027 09:12:04.485             5.109          1072.344
        86   04 Jun 2027 09:12:30.513   04 Jun 2027 09:12:30.513             0.000             0.000
        87   04 Jun 2027 09:12:41.493   04 Jun 2027 09:12:44.152             2.659          1050.656
        88   04 Jun 2027 09:13:30.351   04 Jun 2027 09:13:33.290             2.939          1362.563
        89   04 Jun 2027 09:14:14.784   04 Jun 2027 09:14:17.922             3.138           802.844
        90   04 Jun 2027 09:14:26.879   04 Jun 2027 09:14:30.482             3.603           208.219
        91   04 Jun 2027 10:46:03.843   04 Jun 2027 10:46:18.749            14.906          6751.031
        92   04 Jun 2027 10:46:31.347   04 Jun 2027 10:46:34.853             3.506           393.687
        93   04 Jun 2027 10:46:46.160   04 Jun 2027 10:46:49.652             3.492           319.594
        94   04 Jun 2027 10:47:11.111   04 Jun 2027 10:47:13.490             2.379           592.469
        95   04 Jun 2027 10:48:06.664   04 Jun 2027 10:48:11.591             4.927          1573.281
        96   04 Jun 2027 10:49:06.255   04 Jun 2027 10:49:11.021             4.766          1513.719
        97   04 Jun 2027 10:49:54.995   04 Jun 2027 10:49:57.326             2.331          1038.594
        98   04 Jun 2027 10:50:35.214   04 Jun 2027 10:50:40.086             4.872          1184.000
        99   05 Jun 2027 04:33:14.602   05 Jun 2027 04:34:50.531            95.929         47964.500
       100   05 Jun 2027 06:05:24.627   05 Jun 2027 06:05:33.990             9.363          4681.500
       101   05 Jun 2027 06:07:21.604   05 Jun 2027 06:08:58.164            96.560         48280.000
       102   05 Jun 2027 06:09:19.466   05 Jun 2027 06:09:27.326             7.860          3930.000
       103   05 Jun 2027 06:09:52.212   05 Jun 2027 06:09:53.163             0.951           475.500
       104   05 Jun 2027 06:10:13.027   05 Jun 2027 06:10:29.488            16.461          8230.500
       105   05 Jun 2027 06:12:01.190   05 Jun 2027 06:12:01.269             0.079            39.500
       106   05 Jun 2027 06:13:29.654   05 Jun 2027 06:13:29.689             0.035            17.500
       107   05 Jun 2027 06:14:15.337   05 Jun 2027 06:14:19.678             4.341          2170.500
       108   05 Jun 2027 06:14:22.719   05 Jun 2027 06:14:30.373             7.654          3827.000
       109   05 Jun 2027 07:44:19.907   05 Jun 2027 07:46:05.551           105.644         52124.968
       110   05 Jun 2027 07:47:12.073   05 Jun 2027 07:47:12.980             0.907           453.500
       111   05 Jun 2027 07:47:27.884   05 Jun 2027 07:47:31.490             3.606          1234.844
       112   05 Jun 2027 07:48:15.844   05 Jun 2027 07:48:20.302             4.458          1386.063
       113   05 Jun 2027 07:48:44.954   05 Jun 2027 07:48:46.410             1.456           638.781
       114   05 Jun 2027 07:49:04.212   05 Jun 2027 07:49:09.288             5.076           190.281
       115   05 Jun 2027 07:50:36.679   05 Jun 2027 07:50:39.191             2.512          1256.000
       116   05 Jun 2027 07:50:54.659   05 Jun 2027 07:50:58.373             3.714          1510.875
       117   05 Jun 2027 09:21:38.913   05 Jun 2027 09:22:00.519            21.606         10755.312
       118   05 Jun 2027 09:22:02.373   05 Jun 2027 09:22:03.530             1.157            36.625
       119   05 Jun 2027 09:22:41.439   05 Jun 2027 09:22:47.186             5.747           877.937
       120   05 Jun 2027 09:22:59.721   05 Jun 2027 09:23:00.960             1.239           391.719
       121   05 Jun 2027 09:24:08.443   05 Jun 2027 09:24:14.982             6.539          1938.625
       122   05 Jun 2027 09:25:00.901   05 Jun 2027 09:25:05.127             4.226          1080.594
       123   05 Jun 2027 09:25:10.573   05 Jun 2027 09:25:10.573             0.000             0.000
       124   05 Jun 2027 09:25:21.466   05 Jun 2027 09:25:25.020             3.554           484.250
       125   05 Jun 2027 10:58:05.090   05 Jun 2027 10:58:18.933            13.843          6921.500
       126   05 Jun 2027 10:58:32.952   05 Jun 2027 10:58:36.781             3.829          1246.813
       127   05 Jun 2027 10:59:05.769   05 Jun 2027 10:59:07.374             1.605           593.656
       128   05 Jun 2027 11:00:02.627   05 Jun 2027 11:00:08.538             5.911          1726.656
       129   05 Jun 2027 11:00:29.911   05 Jun 2027 11:00:31.911             2.000           426.344
       130   05 Jun 2027 11:00:37.395   05 Jun 2027 11:00:38.165             0.770            98.125
       131   05 Jun 2027 11:01:02.285   05 Jun 2027 11:01:04.722             2.437           723.094
       132   05 Jun 2027 11:01:40.727   05 Jun 2027 11:01:46.236             5.509          1031.813
       133   05 Jun 2027 11:02:23.596   05 Jun 2027 11:02:26.968             3.372           853.469
       134   06 Jun 2027 03:08:55.826   06 Jun 2027 03:09:12.353            16.527          8263.500
       135   06 Jun 2027 03:09:37.609   06 Jun 2027 03:09:46.283             8.674          4337.000
       136   06 Jun 2027 03:10:16.202   06 Jun 2027 03:10:18.531             2.329          1164.500
       137   06 Jun 2027 03:10:31.332   06 Jun 2027 03:10:31.332             0.000             0.000
       138   06 Jun 2027 04:45:24.096   06 Jun 2027 04:47:11.943           107.847         53923.500
       139   06 Jun 2027 04:48:09.783   06 Jun 2027 04:48:23.029            13.246          6623.000
       140   06 Jun 2027 06:20:34.913   06 Jun 2027 06:22:32.650           117.737         58868.500
       141   06 Jun 2027 06:25:18.165   06 Jun 2027 06:25:23.474             5.309          2654.500
       142   06 Jun 2027 06:26:21.884   06 Jun 2027 06:26:21.884             0.000             0.000
       143   06 Jun 2027 06:26:28.420   06 Jun 2027 06:26:30.900             2.480          1240.000
       144   06 Jun 2027 06:26:59.715   06 Jun 2027 06:26:59.715             0.000             0.000
       145   06 Jun 2027 07:56:53.785   06 Jun 2027 07:58:04.975            71.190         35383.094
       146   06 Jun 2027 07:58:30.251   06 Jun 2027 07:58:32.485             2.234           789.875
       147   06 Jun 2027 07:58:51.257   06 Jun 2027 07:58:54.866             3.609           586.625
       148   06 Jun 2027 07:59:46.003   06 Jun 2027 07:59:51.092             5.089           951.469
       149   06 Jun 2027 08:00:20.923   06 Jun 2027 08:00:22.211             1.288           447.625
       150   06 Jun 2027 08:01:25.972   06 Jun 2027 08:01:25.972             0.000             0.000
       151   06 Jun 2027 08:01:32.790   06 Jun 2027 08:01:38.720             5.930          2184.000
       152   06 Jun 2027 08:02:14.490   06 Jun 2027 08:02:17.513             3.023          1117.812
       153   06 Jun 2027 09:34:17.054   06 Jun 2027 09:34:36.430            19.376          9688.000
       154   06 Jun 2027 09:34:52.868   06 Jun 2027 09:34:55.544             2.676          1338.000
       155   06 Jun 2027 09:35:10.470   06 Jun 2027 09:35:13.809             3.339           520.625
       156   06 Jun 2027 09:35:17.726   06 Jun 2027 09:35:18.322             0.596           122.406
       157   06 Jun 2027 09:36:07.169   06 Jun 2027 09:36:14.045             6.876          1526.469
       158   06 Jun 2027 09:36:53.149   06 Jun 2027 09:36:57.383             4.234           889.344
       159   06 Jun 2027 09:37:28.793   06 Jun 2027 09:37:30.154             1.361           624.594
       160   06 Jun 2027 09:37:55.731   06 Jun 2027 09:37:58.164             2.433           799.281
       161   06 Jun 2027 09:38:12.196   06 Jun 2027 09:38:16.451             4.255           370.219
       162   06 Jun 2027 11:10:28.004   06 Jun 2027 11:10:43.612            15.608          6972.125
       163   06 Jun 2027 11:11:16.474   06 Jun 2027 11:11:19.564             3.090           798.625
       164   06 Jun 2027 11:12:02.309   06 Jun 2027 11:12:04.041             1.732           866.000
       165   06 Jun 2027 11:12:07.388   06 Jun 2027 11:12:09.102             1.714           574.375
       166   06 Jun 2027 11:12:33.110   06 Jun 2027 11:12:37.017             3.907           750.250
       167   06 Jun 2027 11:13:48.092   06 Jun 2027 11:13:55.659             7.567          2170.188
       168   07 Jun 2027 03:20:56.827   07 Jun 2027 03:21:16.729            19.902          9951.000
       169   07 Jun 2027 03:21:32.914   07 Jun 2027 03:21:45.664            12.750          6375.000
       170   07 Jun 2027 03:22:23.315   07 Jun 2027 03:23:15.704            52.389         26194.500
       171   07 Jun 2027 04:57:24.373   07 Jun 2027 04:58:48.195            83.822         41911.000
       172   07 Jun 2027 06:32:37.267   07 Jun 2027 06:34:17.188            99.921         49960.500
       173   07 Jun 2027 06:34:44.282   07 Jun 2027 06:34:55.345            11.063          5531.500
       174   07 Jun 2027 06:38:01.046   07 Jun 2027 06:38:18.848            17.802          8901.000
       175   07 Jun 2027 06:38:39.198   07 Jun 2027 06:38:46.794             7.596          3798.000
       176   07 Jun 2027 08:08:32.570   07 Jun 2027 08:09:24.848            52.278         26139.000
       177   07 Jun 2027 08:10:32.704   07 Jun 2027 08:10:37.950             5.246          2242.281
       178   07 Jun 2027 08:10:59.604   07 Jun 2027 08:11:00.972             1.368           504.906
       179   07 Jun 2027 08:11:08.813   07 Jun 2027 08:11:10.016             1.203           245.031
       180   07 Jun 2027 08:12:14.892   07 Jun 2027 08:12:18.501             3.609          1798.469
       181   07 Jun 2027 08:12:39.045   07 Jun 2027 08:12:40.376             1.331           224.625
       182   07 Jun 2027 08:14:09.224   07 Jun 2027 08:14:14.734             5.510          2726.281
       183   07 Jun 2027 09:46:32.073   07 Jun 2027 09:46:52.344            20.271          9919.313
       184   07 Jun 2027 09:47:32.633   07 Jun 2027 09:47:33.613             0.980           457.719
       185   07 Jun 2027 09:48:49.712   07 Jun 2027 09:48:55.452             5.740          2304.406
       186   07 Jun 2027 09:49:52.236   07 Jun 2027 09:49:56.067             3.831          1774.500
       187   07 Jun 2027 09:50:19.803   07 Jun 2027 09:50:23.771             3.968           727.906
       188   07 Jun 2027 11:22:23.223   07 Jun 2027 11:22:40.661            17.438          8240.156
       189   07 Jun 2027 11:23:40.337   07 Jun 2027 11:23:49.394             9.057          1852.125
       190   07 Jun 2027 11:24:06.586   07 Jun 2027 11:24:08.512             1.926           504.781
       191   07 Jun 2027 11:24:16.548   07 Jun 2027 11:24:17.654             1.106           144.719
       192   07 Jun 2027 11:24:49.917   07 Jun 2027 11:24:51.220             1.303           651.500
       193   07 Jun 2027 11:25:03.569   07 Jun 2027 11:25:05.214             1.645           742.625
       194   07 Jun 2027 11:26:01.219   07 Jun 2027 11:26:02.016             0.797           398.500
       195   07 Jun 2027 11:26:12.466   07 Jun 2027 11:26:15.057             2.591           790.625
       196   07 Jun 2027 11:26:35.084   07 Jun 2027 11:26:36.366             1.282           625.844
       197   07 Jun 2027 11:26:45.650   07 Jun 2027 11:26:46.025             0.375           142.750
       198   07 Jun 2027 11:27:13.007   07 Jun 2027 11:27:16.060             3.053           750.844
       199   08 Jun 2027 03:33:23.020   08 Jun 2027 03:34:10.246            47.226         23613.000
       200   08 Jun 2027 03:35:58.440   08 Jun 2027 03:36:20.118            21.678         10839.000
       201   08 Jun 2027 05:09:08.458   08 Jun 2027 05:10:47.204            98.746         49373.000
       202   08 Jun 2027 05:11:03.088   08 Jun 2027 05:11:21.222            18.134          9067.000
       203   08 Jun 2027 05:12:48.370   08 Jun 2027 05:12:59.449            11.079          5539.500
       204   08 Jun 2027 05:13:15.603   08 Jun 2027 05:13:21.819             6.216          3108.000
       205   08 Jun 2027 06:43:52.346   08 Jun 2027 06:45:23.065            90.719         45359.500
       206   08 Jun 2027 06:46:10.159   08 Jun 2027 06:46:22.674            12.515          6257.500
       207   08 Jun 2027 06:47:06.888   08 Jun 2027 06:47:08.727             1.839           919.500
       208   08 Jun 2027 06:47:52.809   08 Jun 2027 06:48:05.489            12.680          6340.000
       209   08 Jun 2027 06:51:13.963   08 Jun 2027 06:51:22.525             8.562          4281.000
       210   08 Jun 2027 08:20:41.955   08 Jun 2027 08:21:19.672            37.717         18178.063
       211   08 Jun 2027 08:22:31.752   08 Jun 2027 08:22:34.038             2.286           868.250
       212   08 Jun 2027 08:22:36.792   08 Jun 2027 08:22:44.399             7.607            29.438
       213   08 Jun 2027 08:23:01.986   08 Jun 2027 08:23:04.223             2.237           549.594
       214   08 Jun 2027 08:23:31.555   08 Jun 2027 08:23:34.235             2.680           543.656
       215   08 Jun 2027 08:24:26.782   08 Jun 2027 08:24:30.790             4.008          1530.687
       216   08 Jun 2027 08:25:13.094   08 Jun 2027 08:25:13.094             0.000             0.000
       217   08 Jun 2027 08:26:03.061   08 Jun 2027 08:26:12.895             9.834          2604.844
       218   08 Jun 2027 09:58:54.172   08 Jun 2027 09:59:14.447            20.275          7739.156
       219   08 Jun 2027 10:00:23.088   08 Jun 2027 10:00:27.844             4.756          2057.937
       220   08 Jun 2027 10:00:44.274   08 Jun 2027 10:00:45.330             1.056           330.156
       221   08 Jun 2027 10:00:47.503   08 Jun 2027 10:00:50.296             2.793            67.906
       222   08 Jun 2027 10:01:07.819   08 Jun 2027 10:01:11.329             3.510           474.437
       223   08 Jun 2027 10:01:44.068   08 Jun 2027 10:01:46.584             2.516           478.281
       224   08 Jun 2027 10:02:37.381   08 Jun 2027 10:02:38.282             0.901           450.500
       225   08 Jun 2027 11:32:11.970   08 Jun 2027 11:32:33.345            21.375          7924.688
       226   08 Jun 2027 11:34:05.151   08 Jun 2027 11:34:09.817             4.666          2018.688
       227   08 Jun 2027 11:34:14.291   08 Jun 2027 11:34:14.608             0.317           139.406
       228   08 Jun 2027 11:34:30.395   08 Jun 2027 11:34:30.395             0.000             0.000
       229   08 Jun 2027 11:34:37.106   08 Jun 2027 11:34:45.141             8.035           666.406
       230   08 Jun 2027 11:35:12.613   08 Jun 2027 11:35:14.899             2.286           565.937
       231   08 Jun 2027 11:35:20.746   08 Jun 2027 11:35:27.298             6.552           170.000
       232   08 Jun 2027 11:35:57.085   08 Jun 2027 11:35:59.122             2.037           575.250
       233   08 Jun 2027 11:37:00.614   08 Jun 2027 11:37:03.080             2.466          1233.000
       234   08 Jun 2027 11:37:27.064   08 Jun 2027 11:37:38.532            11.468          1180.594
       235   08 Jun 2027 11:38:51.205   08 Jun 2027 11:38:55.476             4.271          1413.406
       236   08 Jun 2027 11:39:40.931   08 Jun 2027 11:39:43.404             2.473           868.250
       237   08 Jun 2027 11:39:44.922   08 Jun 2027 11:39:54.320             9.398            47.437
       238   09 Jun 2027 03:43:58.272   09 Jun 2027 03:44:43.136            44.864         22432.000
       239   09 Jun 2027 03:46:11.694   09 Jun 2027 03:46:11.694             0.000             0.000
       240   09 Jun 2027 03:47:18.521   09 Jun 2027 03:47:26.173             7.652          3826.000
       241   09 Jun 2027 03:47:37.897   09 Jun 2027 03:47:54.303            16.406          8203.000
       242   09 Jun 2027 05:19:01.712   09 Jun 2027 05:20:20.729            79.017         39508.500
       243   09 Jun 2027 05:20:52.376   09 Jun 2027 05:21:35.947            43.571         21785.500
       244   09 Jun 2027 05:21:44.331   09 Jun 2027 05:21:58.034            13.703          6851.500
       245   09 Jun 2027 06:56:00.406   09 Jun 2027 06:57:39.586            99.180         49590.000
       246   09 Jun 2027 06:58:11.751   09 Jun 2027 06:58:34.961            23.210         11605.000
       247   09 Jun 2027 07:00:17.716   09 Jun 2027 07:00:19.915             2.199          1099.500
       248   09 Jun 2027 07:02:20.028   09 Jun 2027 07:02:25.255             5.227          2613.500
       249   09 Jun 2027 07:02:46.994   09 Jun 2027 07:03:01.616            14.622          6755.000
       250   09 Jun 2027 08:32:58.467   09 Jun 2027 08:33:33.760            35.293         16113.687
       251   09 Jun 2027 08:33:55.419   09 Jun 2027 08:33:56.951             1.532           676.844
       252   09 Jun 2027 08:34:42.089   09 Jun 2027 08:34:46.281             4.192          1106.719
       253   09 Jun 2027 08:35:13.787   09 Jun 2027 08:35:16.719             2.932           847.312
       254   09 Jun 2027 08:36:01.614   09 Jun 2027 08:36:10.121             8.507          1352.125
       255   09 Jun 2027 08:36:19.074   09 Jun 2027 08:36:21.297             2.223            33.031
       256   09 Jun 2027 08:36:42.517   09 Jun 2027 08:36:45.129             2.612           562.187
       257   09 Jun 2027 08:36:55.322   09 Jun 2027 08:36:56.810             1.488           210.938
       258   09 Jun 2027 08:36:59.853   09 Jun 2027 08:37:00.207             0.354             4.375
       259   09 Jun 2027 08:37:55.808   09 Jun 2027 08:38:00.473             4.665          1602.000
       260   09 Jun 2027 08:38:12.671   09 Jun 2027 08:38:13.302             0.631           131.656
       261   09 Jun 2027 08:38:21.986   09 Jun 2027 08:38:28.088             6.102           250.312
       262   09 Jun 2027 10:10:53.877   09 Jun 2027 10:11:12.657            18.780          8515.625
       263   09 Jun 2027 10:12:28.781   09 Jun 2027 10:12:34.203             5.422          2340.687
       264   09 Jun 2027 10:13:03.730   09 Jun 2027 10:13:05.645             1.915           922.719
       265   09 Jun 2027 10:14:10.731   09 Jun 2027 10:14:14.127             3.396          1138.031
       266   09 Jun 2027 10:14:28.929   09 Jun 2027 10:14:29.776             0.847           421.281
       267   09 Jun 2027 10:14:31.727   09 Jun 2027 10:14:33.197             1.470            37.563
       268   09 Jun 2027 11:44:13.657   09 Jun 2027 11:44:23.629             9.972          4801.125
       269   09 Jun 2027 11:45:43.501   09 Jun 2027 11:45:46.241             2.740          1327.719
       270   09 Jun 2027 11:46:14.725   09 Jun 2027 11:46:16.703             1.978           851.437
       271   09 Jun 2027 11:46:48.828   09 Jun 2027 11:46:51.521             2.693           912.188
       272   09 Jun 2027 11:47:16.973   09 Jun 2027 11:47:19.774             2.801           328.375
       273   09 Jun 2027 11:47:46.491   09 Jun 2027 11:47:48.998             2.507           606.250
       274   09 Jun 2027 11:48:12.705   09 Jun 2027 11:48:12.705             0.000             0.000
       275   09 Jun 2027 11:48:22.552   09 Jun 2027 11:48:30.693             8.141           718.906
       276   09 Jun 2027 11:48:39.526   09 Jun 2027 11:48:42.359             2.833           276.031
       277   09 Jun 2027 11:50:20.893   09 Jun 2027 11:50:23.865             2.972          1486.000
       278   09 Jun 2027 11:51:12.143   09 Jun 2027 11:51:23.121            10.978          2417.406
       279   09 Jun 2027 11:51:53.256   09 Jun 2027 11:51:53.256             0.000             0.000
       280   10 Jun 2027 03:55:22.822   10 Jun 2027 03:56:47.111            84.289         42144.500
       281   10 Jun 2027 05:30:26.402   10 Jun 2027 05:32:36.297           129.895         64947.500
       282   10 Jun 2027 05:33:44.556   10 Jun 2027 05:33:45.736             1.180           590.000
       283   10 Jun 2027 05:38:33.743   10 Jun 2027 05:38:50.082            16.339          8169.500
       284   10 Jun 2027 05:38:51.523   10 Jun 2027 05:39:05.588            14.065          7032.500
       285   10 Jun 2027 07:08:02.360   10 Jun 2027 07:09:52.933           110.573         55286.500
       286   10 Jun 2027 07:10:05.681   10 Jun 2027 07:10:09.218             3.537          1768.500
       287   10 Jun 2027 07:10:56.808   10 Jun 2027 07:10:56.996             0.188            94.000
       288   10 Jun 2027 07:11:30.043   10 Jun 2027 07:11:39.097             9.054          4229.000
       289   10 Jun 2027 07:12:32.465   10 Jun 2027 07:12:32.803             0.338           169.000
       290   10 Jun 2027 07:13:02.882   10 Jun 2027 07:13:06.631             3.749          1874.500
       291   10 Jun 2027 07:13:25.678   10 Jun 2027 07:13:27.663             1.985           992.500
       292   10 Jun 2027 07:14:10.443   10 Jun 2027 07:14:14.926             4.483          1398.875
       293   10 Jun 2027 08:44:48.168   10 Jun 2027 08:44:57.740             9.572          4786.000
       294   10 Jun 2027 08:45:07.030   10 Jun 2027 08:45:24.728            17.698          8257.031
       295   10 Jun 2027 08:45:41.028   10 Jun 2027 08:45:42.939             1.911           509.375
       296   10 Jun 2027 08:47:07.956   10 Jun 2027 08:47:09.832             1.876           609.625
       297   10 Jun 2027 08:47:58.661   10 Jun 2027 08:48:02.904             4.243          1289.375
       298   10 Jun 2027 08:48:19.170   10 Jun 2027 08:48:21.972             2.802           353.000
       299   10 Jun 2027 08:48:45.223   10 Jun 2027 08:48:46.008             0.785           306.375
       300   10 Jun 2027 08:48:50.819   10 Jun 2027 08:48:56.964             6.145            63.594
       301   10 Jun 2027 08:49:03.480   10 Jun 2027 08:49:07.099             3.619           203.625
       302   10 Jun 2027 08:50:06.511   10 Jun 2027 08:50:09.902             3.391          1259.187
       303   10 Jun 2027 08:50:12.790   10 Jun 2027 08:50:13.479             0.689            90.250
       304   10 Jun 2027 08:50:22.201   10 Jun 2027 08:50:26.741             4.540           219.750
       305   10 Jun 2027 08:50:59.491   10 Jun 2027 08:51:01.019             1.528           752.031
       306   10 Jun 2027 08:51:10.071   10 Jun 2027 08:51:11.159             1.088           282.875
       307   10 Jun 2027 10:22:53.119   10 Jun 2027 10:23:11.664            18.545          8890.937
       308   10 Jun 2027 10:23:19.128   10 Jun 2027 10:23:19.566             0.438           181.000
       309   10 Jun 2027 10:24:00.309   10 Jun 2027 10:24:04.020             3.711          1222.500
       310   10 Jun 2027 10:24:21.489   10 Jun 2027 10:24:21.489             0.000             0.000
       311   10 Jun 2027 10:24:25.766   10 Jun 2027 10:24:32.493             6.727           679.563
       312   10 Jun 2027 10:24:47.881   10 Jun 2027 10:24:49.113             1.232           480.875
       313   10 Jun 2027 10:24:59.689   10 Jun 2027 10:25:01.762             2.073           330.500
       314   10 Jun 2027 10:25:52.661   10 Jun 2027 10:25:57.918             5.257          1590.594
       315   10 Jun 2027 10:26:02.009   10 Jun 2027 10:26:03.310             1.301           104.813
       316   10 Jun 2027 10:26:03.817   10 Jun 2027 10:26:04.483             0.666            15.844
       317   10 Jun 2027 10:26:25.431   10 Jun 2027 10:26:26.754             1.323           581.406
       318   10 Jun 2027 10:26:57.223   10 Jun 2027 10:27:01.988             4.765           780.281
       319   10 Jun 2027 11:56:40.078   10 Jun 2027 11:56:43.886             3.808          1426.937
       320   10 Jun 2027 11:56:55.003   10 Jun 2027 11:56:56.610             1.607           219.875
       321   10 Jun 2027 11:57:53.461   10 Jun 2027 11:57:56.450             2.989          1252.906
       322   10 Jun 2027 11:58:08.372   10 Jun 2027 11:58:08.372             0.000             0.000
       323   10 Jun 2027 11:58:38.857   10 Jun 2027 11:58:44.341             5.484          1068.563
       324   10 Jun 2027 11:58:53.851   10 Jun 2027 11:58:53.851             0.000             0.000
       325   10 Jun 2027 11:59:18.622   10 Jun 2027 11:59:23.680             5.058          1071.281
       326   11 Jun 2027 04:07:05.108   11 Jun 2027 04:07:57.728            52.620         26310.000
       327   11 Jun 2027 04:08:42.059   11 Jun 2027 04:08:47.814             5.755          2877.500
       328   11 Jun 2027 04:09:42.468   11 Jun 2027 04:09:45.297             2.829          1414.500
       329   11 Jun 2027 04:11:29.020   11 Jun 2027 04:11:42.698            13.678          6839.000
       330   11 Jun 2027 05:41:57.474   11 Jun 2027 05:44:13.678           136.204         68102.000
       331   11 Jun 2027 05:45:17.004   11 Jun 2027 05:45:31.339            14.335          7167.500
       332   11 Jun 2027 05:49:22.617   11 Jun 2027 05:49:30.773             8.156          4078.000
       333   11 Jun 2027 05:49:31.110   11 Jun 2027 05:49:32.732             1.622           811.000
       334   11 Jun 2027 05:50:54.788   11 Jun 2027 05:50:59.866             5.078          2539.000
       335   11 Jun 2027 07:20:02.939   11 Jun 2027 07:20:50.500            47.561         23780.500
       336   11 Jun 2027 07:21:01.786   11 Jun 2027 07:22:06.586            64.800         32400.000
       337   11 Jun 2027 07:23:20.646   11 Jun 2027 07:23:31.351            10.705          5352.500
       338   11 Jun 2027 07:24:04.371   11 Jun 2027 07:24:13.335             8.964          4482.000
       339   11 Jun 2027 07:25:03.755   11 Jun 2027 07:25:03.755             0.000             0.000
       340   11 Jun 2027 07:25:37.446   11 Jun 2027 07:25:49.977            12.531          4948.501
       341   11 Jun 2027 08:56:56.853   11 Jun 2027 08:57:25.218            28.365         13080.438
       342   11 Jun 2027 08:58:14.222   11 Jun 2027 08:58:17.032             2.810          1211.000
       343   11 Jun 2027 08:58:28.958   11 Jun 2027 08:58:34.775             5.817           372.687
       344   11 Jun 2027 08:59:03.178   11 Jun 2027 08:59:04.222             1.044           402.469
       345   11 Jun 2027 09:00:04.598   11 Jun 2027 09:00:09.432             4.834          1767.156
       346   11 Jun 2027 09:00:28.415   11 Jun 2027 09:00:32.682             4.267           593.219
       347   11 Jun 2027 09:00:59.576   11 Jun 2027 09:01:00.315             0.739           205.969
       348   11 Jun 2027 09:01:19.596   11 Jun 2027 09:01:20.919             1.323           602.531
       349   11 Jun 2027 09:01:57.097   11 Jun 2027 09:01:57.721             0.624           312.000
       350   11 Jun 2027 09:02:25.023   11 Jun 2027 09:02:31.098             6.075          1170.250
       351   11 Jun 2027 09:02:50.623   11 Jun 2027 09:02:54.865             4.242           331.375
       352   11 Jun 2027 09:03:02.562   11 Jun 2027 09:03:04.104             1.542           240.531
       353   11 Jun 2027 10:34:06.106   11 Jun 2027 10:34:26.176            20.070          7518.813
       354   11 Jun 2027 10:35:32.281   11 Jun 2027 10:35:37.537             5.256          2065.781
       355   11 Jun 2027 10:36:38.564   11 Jun 2027 10:36:46.030             7.466          1752.844
       356   11 Jun 2027 10:37:03.530   11 Jun 2027 10:37:03.530             0.000             0.000
       357   11 Jun 2027 10:37:25.722   11 Jun 2027 10:37:25.962             0.240           120.000
       358   11 Jun 2027 10:37:56.771   11 Jun 2027 10:38:07.248            10.477          1934.000
       359   12 Jun 2027 04:21:24.305   12 Jun 2027 04:22:24.938            60.633         30316.500
       360   12 Jun 2027 04:23:25.809   12 Jun 2027 04:23:44.847            19.038          9519.000
       361   12 Jun 2027 05:54:57.574   12 Jun 2027 05:56:55.799           118.225         59112.500
       362   12 Jun 2027 05:57:17.198   12 Jun 2027 05:57:19.024             1.826           913.000
       363   12 Jun 2027 05:58:18.204   12 Jun 2027 05:58:38.952            20.748         10374.000
       364   12 Jun 2027 06:03:09.647   12 Jun 2027 06:03:20.730            11.083          5541.500
       365   12 Jun 2027 06:03:29.901   12 Jun 2027 06:03:31.193             1.292           646.000
       366   12 Jun 2027 07:32:27.919   12 Jun 2027 07:34:14.835           106.916         53458.000
       367   12 Jun 2027 07:34:23.551   12 Jun 2027 07:34:23.551             0.000             0.000
       368   12 Jun 2027 07:35:32.266   12 Jun 2027 07:35:35.712             3.446          1723.000
       369   12 Jun 2027 07:36:29.018   12 Jun 2027 07:36:37.830             8.812          4406.000
       370   12 Jun 2027 07:39:12.020   12 Jun 2027 07:39:14.947             2.927          1463.500
       371   12 Jun 2027 09:09:24.696   12 Jun 2027 09:09:52.174            27.478         13161.719
       372   12 Jun 2027 09:11:15.185   12 Jun 2027 09:11:19.886             4.701           834.813
       373   12 Jun 2027 09:12:07.830   12 Jun 2027 09:12:10.030             2.200          1100.000
       374   12 Jun 2027 09:12:12.708   12 Jun 2027 09:12:14.048             1.340           399.250
       375   12 Jun 2027 09:13:10.368   12 Jun 2027 09:13:16.213             5.845           900.281
       376   12 Jun 2027 09:13:50.280   12 Jun 2027 09:13:50.280             0.000             0.000
       377   12 Jun 2027 09:14:04.609   12 Jun 2027 09:14:07.597             2.988          1132.625
       378   12 Jun 2027 09:14:48.398   12 Jun 2027 09:14:52.485             4.087           595.406
       379   12 Jun 2027 10:46:18.727   12 Jun 2027 10:46:33.591            14.864          6349.906
       380   12 Jun 2027 10:46:46.006   12 Jun 2027 10:46:50.770             4.764           387.969
       381   12 Jun 2027 10:47:23.694   12 Jun 2027 10:47:25.717             2.023           657.625
       382   12 Jun 2027 10:49:01.976   12 Jun 2027 10:49:08.166             6.190          3008.094
       383   12 Jun 2027 10:49:17.204   12 Jun 2027 10:49:20.118             2.914           249.625
       384   12 Jun 2027 10:49:23.347   12 Jun 2027 10:49:23.347             0.000             0.000
       385   12 Jun 2027 10:50:12.506   12 Jun 2027 10:50:13.391             0.885           442.500
       386   12 Jun 2027 10:50:50.662   12 Jun 2027 10:50:54.834             4.172          2086.000
       387   13 Jun 2027 04:33:29.356   13 Jun 2027 04:34:32.994            63.638         31819.000
       388   13 Jun 2027 04:35:05.025   13 Jun 2027 04:35:25.406            20.381         10190.500
       389   13 Jun 2027 04:36:28.226   13 Jun 2027 04:36:33.241             5.015          2507.500
       390   13 Jun 2027 04:36:54.168   13 Jun 2027 04:37:05.086            10.918          5459.000
       391   13 Jun 2027 06:05:38.764   13 Jun 2027 06:05:48.754             9.990          4995.000
       392   13 Jun 2027 06:07:36.426   13 Jun 2027 06:09:05.358            88.932         44466.000
       393   13 Jun 2027 06:11:51.671   13 Jun 2027 06:11:56.116             4.445          2222.500
       394   13 Jun 2027 06:12:15.028   13 Jun 2027 06:12:19.167             4.139          2069.500
       395   13 Jun 2027 06:13:44.293   13 Jun 2027 06:14:07.432            23.139         11569.500
       396   13 Jun 2027 06:15:18.350   13 Jun 2027 06:15:22.173             3.823          1911.500
       397   13 Jun 2027 06:15:25.344   13 Jun 2027 06:15:25.477             0.133            66.500
       398   13 Jun 2027 07:44:35.120   13 Jun 2027 07:46:31.131           116.011         55076.500
       399   13 Jun 2027 07:47:26.587   13 Jun 2027 07:47:29.106             2.519          1219.438
       400   13 Jun 2027 07:47:38.382   13 Jun 2027 07:47:39.104             0.722           289.875
       401   13 Jun 2027 07:50:22.719   13 Jun 2027 07:50:31.584             8.865          4149.969
       402   13 Jun 2027 07:50:52.337   13 Jun 2027 07:50:56.737             4.400           648.531
       403   13 Jun 2027 07:51:09.256   13 Jun 2027 07:51:10.136             0.880           391.219
       404   13 Jun 2027 09:21:56.182   13 Jun 2027 09:22:25.466            29.284         13204.719
       405   13 Jun 2027 09:23:31.160   13 Jun 2027 09:23:33.654             2.494          1247.000
       406   13 Jun 2027 09:23:57.958   13 Jun 2027 09:24:10.460            12.502          1240.500
       407   13 Jun 2027 09:24:53.581   13 Jun 2027 09:24:55.366             1.785           892.500
       408   13 Jun 2027 09:24:58.172   13 Jun 2027 09:25:00.268             2.096           474.219
       409   13 Jun 2027 09:25:22.656   13 Jun 2027 09:25:24.146             1.490           232.750
       410   13 Jun 2027 09:26:00.023   13 Jun 2027 09:26:00.403             0.380           190.000
       411   13 Jun 2027 09:26:02.758   13 Jun 2027 09:26:05.932             3.174           926.281
       412   13 Jun 2027 09:26:33.975   13 Jun 2027 09:26:37.226             3.251           876.344
       413   13 Jun 2027 10:58:20.414   13 Jun 2027 10:58:42.429            22.015          8130.781
       414   13 Jun 2027 10:59:22.393   13 Jun 2027 10:59:24.665             2.272          1086.969
       415   13 Jun 2027 10:59:32.863   13 Jun 2027 10:59:35.775             2.912           241.188
       416   13 Jun 2027 11:00:33.182   13 Jun 2027 11:00:35.903             2.721          1288.156
       417   13 Jun 2027 11:01:12.224   13 Jun 2027 11:01:16.934             4.710           986.187
       418   13 Jun 2027 11:02:14.621   13 Jun 2027 11:02:18.934             4.313          1764.281
       419   13 Jun 2027 11:02:32.804   13 Jun 2027 11:02:37.001             4.197           433.437
       420   13 Jun 2027 11:02:58.133   13 Jun 2027 11:03:01.985             3.852           660.375
       421   13 Jun 2027 11:03:03.055   13 Jun 2027 11:03:05.531             2.476            33.438
       422   13 Jun 2027 11:03:14.479   13 Jun 2027 11:03:15.646             1.167           237.844
