uniorb/output/strategy_1/Camera/Camera_KinoSat_112007.txt

KinoSat_112007
-------------------------
    Access    *     Start Time (UTCG)     *     Stop Time (UTCG)  *   Duration (s) *   Data (Mbytes)
         1   01 Jun 2027 04:14:12.963   01 Jun 2027 04:16:22.093           129.130         64565.000
         2   01 Jun 2027 04:17:58.971   01 Jun 2027 04:18:11.052            12.081          6040.500
         3   01 Jun 2027 05:52:57.998   01 Jun 2027 05:55:04.519           126.521         63260.500
         4   01 Jun 2027 05:55:44.534   01 Jun 2027 05:55:47.238             2.704          1352.000
         5   01 Jun 2027 05:58:32.519   01 Jun 2027 05:58:43.930            11.411          5705.500
         6   01 Jun 2027 05:59:57.933   01 Jun 2027 06:00:32.165            34.232         17116.000
         7   01 Jun 2027 07:18:37.307   01 Jun 2027 07:19:37.814            60.507         30253.500
         8   01 Jun 2027 07:29:54.208   01 Jun 2027 07:31:02.566            68.358         34179.000
         9   01 Jun 2027 07:31:17.286   01 Jun 2027 07:31:33.490            16.204          8102.000
        10   01 Jun 2027 08:52:29.497   01 Jun 2027 08:53:34.294            64.797         32398.500
        11   01 Jun 2027 08:53:47.870   01 Jun 2027 08:54:49.795            61.925         30962.500
        12   01 Jun 2027 10:33:24.245   01 Jun 2027 10:34:07.310            43.065         21532.500
        13   02 Jun 2027 04:26:20.126   02 Jun 2027 04:26:26.780             6.654          3327.000
        14   02 Jun 2027 04:26:33.567   02 Jun 2027 04:28:17.783           104.216         52108.000
        15   02 Jun 2027 04:28:56.839   02 Jun 2027 04:29:25.467            28.628         14314.000
        16   02 Jun 2027 04:31:23.656   02 Jun 2027 04:31:25.493             1.837           918.500
        17   02 Jun 2027 06:05:24.187   02 Jun 2027 06:07:14.898           110.711         55355.500
        18   02 Jun 2027 06:07:41.001   02 Jun 2027 06:07:50.108             9.107          4553.500
        19   02 Jun 2027 06:07:57.848   02 Jun 2027 06:07:59.812             1.964           982.000
        20   02 Jun 2027 06:09:00.406   02 Jun 2027 06:09:00.798             0.392           196.000
        21   02 Jun 2027 06:10:33.275   02 Jun 2027 06:10:41.055             7.780          3890.000
        22   02 Jun 2027 06:10:57.149   02 Jun 2027 06:10:57.819             0.670           335.000
        23   02 Jun 2027 06:11:30.006   02 Jun 2027 06:11:34.269             4.263          2131.500
        24   02 Jun 2027 06:12:12.627   02 Jun 2027 06:12:20.812             8.185          4092.500
        25   02 Jun 2027 07:30:13.941   02 Jun 2027 07:31:48.275            94.334         47167.000
        26   02 Jun 2027 07:41:53.736   02 Jun 2027 07:42:20.738            27.002         13501.000
        27   02 Jun 2027 07:42:43.898   02 Jun 2027 07:42:54.088            10.190          5095.000
        28   02 Jun 2027 09:04:12.930   02 Jun 2027 09:05:11.241            58.311         29155.500
        29   02 Jun 2027 09:07:58.124   02 Jun 2027 09:09:04.409            66.285         33142.500
        30   02 Jun 2027 10:39:10.066   02 Jun 2027 10:39:53.782            43.716         21858.000
        31   02 Jun 2027 10:40:27.280   02 Jun 2027 10:40:36.496             9.216          4608.000
        32   02 Jun 2027 10:45:24.748   02 Jun 2027 10:45:57.225            32.477         16238.500
        33   02 Jun 2027 10:47:10.237   02 Jun 2027 10:47:31.122            20.885         10442.500
        34   03 Jun 2027 03:01:44.364   03 Jun 2027 03:01:54.386            10.022          5011.000
        35   03 Jun 2027 03:02:07.167   03 Jun 2027 03:02:07.167             0.000             0.000
        36   03 Jun 2027 03:02:47.641   03 Jun 2027 03:02:58.425            10.784          5392.000
        37   03 Jun 2027 03:04:51.623   03 Jun 2027 03:05:12.404            20.781         10390.500
        38   03 Jun 2027 03:06:23.990   03 Jun 2027 03:06:31.326             7.336          3668.000
        39   03 Jun 2027 03:06:42.221   03 Jun 2027 03:06:49.283             7.062          3531.000
        40   03 Jun 2027 03:07:26.784   03 Jun 2027 03:07:30.785             4.001          2000.500
        41   03 Jun 2027 03:07:36.939   03 Jun 2027 03:07:38.975             2.036          1018.000
        42   03 Jun 2027 04:38:44.089   03 Jun 2027 04:39:06.037            21.948         10974.000
        43   03 Jun 2027 04:39:13.202   03 Jun 2027 04:39:43.087            29.885         14942.500
        44   03 Jun 2027 04:39:48.229   03 Jun 2027 04:40:28.005            39.776         19888.000
        45   03 Jun 2027 04:40:55.457   03 Jun 2027 04:40:55.457             0.000             0.000
        46   03 Jun 2027 04:41:26.219   03 Jun 2027 04:41:27.058             0.839           419.500
        47   03 Jun 2027 04:41:51.092   03 Jun 2027 04:42:01.228            10.136          5068.000
        48   03 Jun 2027 04:42:09.656   03 Jun 2027 04:42:10.355             0.699           349.500
        49   03 Jun 2027 04:42:25.735   03 Jun 2027 04:42:27.989             2.254          1127.000
        50   03 Jun 2027 04:42:58.937   03 Jun 2027 04:43:17.732            18.795          9397.500
        51   03 Jun 2027 06:17:28.410   03 Jun 2027 06:19:00.055            91.645         45822.500
        52   03 Jun 2027 06:20:26.577   03 Jun 2027 06:20:42.154            15.577          7788.500
        53   03 Jun 2027 06:21:14.999   03 Jun 2027 06:21:16.392             1.393           696.500
        54   03 Jun 2027 06:22:08.406   03 Jun 2027 06:22:13.422             5.016          2508.000
        55   03 Jun 2027 06:24:17.441   03 Jun 2027 06:24:24.328             6.887          3443.500
        56   03 Jun 2027 07:41:47.380   03 Jun 2027 07:43:01.616            74.236         37118.000
        57   03 Jun 2027 07:54:08.181   03 Jun 2027 07:54:28.191            20.010         10005.000
        58   03 Jun 2027 09:15:45.373   03 Jun 2027 09:16:29.196            43.823         21911.500
        59   03 Jun 2027 09:17:54.719   03 Jun 2027 09:18:48.400            53.681         26840.500
        60   03 Jun 2027 09:20:54.667   03 Jun 2027 09:21:37.032            42.365         21182.500
        61   03 Jun 2027 10:50:38.570   03 Jun 2027 10:51:41.628            63.058         31529.000
        62   03 Jun 2027 10:52:52.632   03 Jun 2027 10:53:01.809             9.177          4588.500
        63   03 Jun 2027 10:59:36.736   03 Jun 2027 10:59:44.765             8.029          4014.500
        64   04 Jun 2027 03:13:42.515   04 Jun 2027 03:13:56.085            13.570          6785.000
        65   04 Jun 2027 03:14:05.434   04 Jun 2027 03:14:07.814             2.380          1190.000
        66   04 Jun 2027 03:15:00.640   04 Jun 2027 03:15:00.640             0.000             0.000
        67   04 Jun 2027 03:15:58.504   04 Jun 2027 03:17:07.915            69.411         34705.500
        68   04 Jun 2027 03:17:59.290   04 Jun 2027 03:18:13.005            13.715          6857.500
        69   04 Jun 2027 03:19:52.476   04 Jun 2027 03:19:57.986             5.510          2755.000
        70   04 Jun 2027 04:51:23.597   04 Jun 2027 04:51:36.623            13.026          6513.000
        71   04 Jun 2027 04:51:46.602   04 Jun 2027 04:52:47.394            60.792         30396.000
        72   04 Jun 2027 04:52:56.478   04 Jun 2027 04:53:16.096            19.618          9809.000
        73   04 Jun 2027 04:53:46.025   04 Jun 2027 04:53:46.025             0.000             0.000
        74   04 Jun 2027 04:55:45.869   04 Jun 2027 04:55:46.106             0.237           118.500
        75   04 Jun 2027 06:29:54.801   04 Jun 2027 06:32:08.975           134.174         67087.000
        76   04 Jun 2027 06:32:40.127   04 Jun 2027 06:32:57.504            17.377          8688.500
        77   04 Jun 2027 07:53:43.681   04 Jun 2027 07:54:59.746            76.065         37704.753
        78   04 Jun 2027 07:55:20.154   04 Jun 2027 07:55:20.154             0.000             0.000
        79   04 Jun 2027 09:30:05.465   04 Jun 2027 09:30:46.548            41.083         20541.500
        80   04 Jun 2027 11:03:31.956   04 Jun 2027 11:03:55.523            23.567         11113.844
        81   04 Jun 2027 11:05:18.352   04 Jun 2027 11:05:22.129             3.777            72.094
        82   04 Jun 2027 11:06:20.981   04 Jun 2027 11:06:20.981             0.000             0.000
        83   04 Jun 2027 11:09:39.851   04 Jun 2027 11:09:39.851             0.000             0.000
        84   04 Jun 2027 11:10:44.227   04 Jun 2027 11:10:50.193             5.966          2983.000
        85   04 Jun 2027 11:11:02.653   04 Jun 2027 11:11:17.583            14.930          7082.563
        86   04 Jun 2027 11:11:30.432   04 Jun 2027 11:11:36.394             5.962           386.875
        87   04 Jun 2027 11:11:47.243   04 Jun 2027 11:11:50.685             3.442           286.469
        88   04 Jun 2027 11:12:02.446   04 Jun 2027 11:12:02.901             0.455            38.219
        89   05 Jun 2027 03:25:44.245   05 Jun 2027 03:26:37.979            53.734         26867.000
        90   05 Jun 2027 03:27:46.349   05 Jun 2027 03:28:07.969            21.620         10810.000
        91   05 Jun 2027 03:28:59.816   05 Jun 2027 03:29:28.449            28.633         14316.500
        92   05 Jun 2027 03:29:35.842   05 Jun 2027 03:29:42.508             6.666          3333.000
        93   05 Jun 2027 03:31:54.461   05 Jun 2027 03:32:34.646            40.185         20092.500
        94   05 Jun 2027 05:03:57.469   05 Jun 2027 05:04:24.736            27.267         13633.500
        95   05 Jun 2027 05:04:35.495   05 Jun 2027 05:05:25.560            50.065         25032.500
        96   05 Jun 2027 05:06:14.293   05 Jun 2027 05:06:20.372             6.079          3039.500
        97   05 Jun 2027 05:07:28.023   05 Jun 2027 05:07:44.465            16.442          8221.000
        98   05 Jun 2027 05:08:40.662   05 Jun 2027 05:08:47.658             6.996          3498.000
        99   05 Jun 2027 05:09:52.553   05 Jun 2027 05:09:54.923             2.370          1185.000
       100   05 Jun 2027 06:42:13.905   05 Jun 2027 06:43:53.969           100.064         50032.000
       101   05 Jun 2027 06:44:27.991   05 Jun 2027 06:44:39.372            11.381          5690.500
       102   05 Jun 2027 06:44:58.646   05 Jun 2027 06:45:05.776             7.130          3565.000
       103   05 Jun 2027 08:05:36.937   05 Jun 2027 08:06:22.654            45.717         22535.656
       104   05 Jun 2027 08:07:35.174   05 Jun 2027 08:07:35.174             0.000             0.000
       105   05 Jun 2027 08:08:04.197   05 Jun 2027 08:08:10.234             6.037          3018.500
       106   05 Jun 2027 09:41:57.678   05 Jun 2027 09:42:27.753            30.075         15013.625
       107   05 Jun 2027 11:15:59.684   05 Jun 2027 11:16:25.510            25.826         12073.125
       108   05 Jun 2027 11:17:00.633   05 Jun 2027 11:17:06.733             6.100           914.531
       109   05 Jun 2027 11:21:26.131   05 Jun 2027 11:21:30.252             4.121          2060.500
       110   05 Jun 2027 11:22:44.483   05 Jun 2027 11:23:00.204            15.721          6934.719
       111   05 Jun 2027 11:23:39.452   05 Jun 2027 11:23:39.452             0.000             0.000
       112   05 Jun 2027 11:23:59.678   05 Jun 2027 11:24:02.485             2.807          1403.500
       113   06 Jun 2027 03:37:50.422   06 Jun 2027 03:39:04.473            74.051         37025.500
       114   06 Jun 2027 03:39:14.070   06 Jun 2027 03:39:39.002            24.932         12466.000
       115   06 Jun 2027 03:41:14.702   06 Jun 2027 03:41:23.278             8.576          4288.000
       116   06 Jun 2027 03:43:59.733   06 Jun 2027 03:44:35.522            35.789         17894.500
       117   06 Jun 2027 05:16:04.498   06 Jun 2027 05:17:05.948            61.450         30725.000
       118   06 Jun 2027 05:17:11.567   06 Jun 2027 05:17:55.663            44.096         22048.000
       119   06 Jun 2027 05:18:22.366   06 Jun 2027 05:18:29.469             7.103          3551.500
       120   06 Jun 2027 05:18:51.842   06 Jun 2027 05:18:57.652             5.810          2905.000
       121   06 Jun 2027 05:19:23.441   06 Jun 2027 05:19:24.590             1.149           574.500
       122   06 Jun 2027 05:19:29.115   06 Jun 2027 05:19:41.875            12.760          6380.000
       123   06 Jun 2027 05:20:28.661   06 Jun 2027 05:20:38.026             9.365          4682.500
       124   06 Jun 2027 06:55:06.502   06 Jun 2027 06:56:39.942            93.440         46720.000
       125   06 Jun 2027 06:56:47.526   06 Jun 2027 06:56:48.968             1.442           721.000
       126   06 Jun 2027 08:17:33.426   06 Jun 2027 08:17:57.655            24.229         11237.751
       127   06 Jun 2027 08:19:05.871   06 Jun 2027 08:19:13.556             7.685          1987.000
       128   06 Jun 2027 09:54:03.864   06 Jun 2027 09:54:07.588             3.724          1862.000
       129   06 Jun 2027 09:54:39.438   06 Jun 2027 09:54:39.438             0.000             0.000
       130   06 Jun 2027 09:55:14.189   06 Jun 2027 09:55:30.639            16.450          7578.844
       131   06 Jun 2027 09:56:05.609   06 Jun 2027 09:56:05.609             0.000             0.000
       132   06 Jun 2027 09:56:25.327   06 Jun 2027 09:56:30.329             5.002          1578.719
       133   06 Jun 2027 09:57:06.148   06 Jun 2027 09:57:07.823             1.675           837.500
       134   06 Jun 2027 11:30:36.166   06 Jun 2027 11:30:59.932            23.766         10579.031
       135   06 Jun 2027 11:31:07.696   06 Jun 2027 11:31:10.584             2.888           193.719
       136   06 Jun 2027 11:31:39.693   06 Jun 2027 11:31:40.912             1.219           416.594
       137   06 Jun 2027 11:32:32.777   06 Jun 2027 11:32:34.098             1.321           432.469
       138   06 Jun 2027 11:35:55.182   06 Jun 2027 11:35:59.130             3.948          1974.000
       139   07 Jun 2027 03:49:48.860   07 Jun 2027 03:51:57.391           128.531         64265.500
       140   07 Jun 2027 03:53:42.118   07 Jun 2027 03:53:43.667             1.549           774.500
       141   07 Jun 2027 03:56:22.443   07 Jun 2027 03:56:32.356             9.913          4956.500
       142   07 Jun 2027 03:56:40.556   07 Jun 2027 03:56:47.108             6.552          3276.000
       143   07 Jun 2027 05:28:02.309   07 Jun 2027 05:28:50.721            48.412         24206.000
       144   07 Jun 2027 05:29:08.810   07 Jun 2027 05:30:30.186            81.376         40688.000
       145   07 Jun 2027 05:32:56.481   07 Jun 2027 05:32:56.481             0.000             0.000
       146   07 Jun 2027 07:06:16.316   07 Jun 2027 07:07:50.333            94.017         47008.500
       147   07 Jun 2027 07:09:08.315   07 Jun 2027 07:09:16.231             7.916          3958.000
       148   07 Jun 2027 08:29:38.729   07 Jun 2027 08:30:10.035            31.306         15397.000
       149   07 Jun 2027 08:31:22.603   07 Jun 2027 08:31:26.566             3.963          1895.500
       150   07 Jun 2027 08:31:57.175   07 Jun 2027 08:31:57.175             0.000             0.000
       151   07 Jun 2027 08:32:37.003   07 Jun 2027 08:32:37.830             0.827           413.500
       152   07 Jun 2027 10:06:14.591   07 Jun 2027 10:06:33.437            18.846          7759.875
       153   07 Jun 2027 11:41:24.775   07 Jun 2027 11:41:46.331            21.556         10778.000
       154   07 Jun 2027 11:47:48.437   07 Jun 2027 11:48:00.554            12.117          6058.500
       155   08 Jun 2027 04:01:50.396   08 Jun 2027 04:02:13.446            23.050         11525.000
       156   08 Jun 2027 04:02:13.830   08 Jun 2027 04:02:50.082            36.252         18126.000
       157   08 Jun 2027 04:03:06.367   08 Jun 2027 04:04:29.121            82.754         41377.000
       158   08 Jun 2027 05:41:07.835   08 Jun 2027 05:42:58.402           110.567         55283.500
       159   08 Jun 2027 05:46:04.655   08 Jun 2027 05:46:07.834             3.179          1589.500
       160   08 Jun 2027 05:47:43.396   08 Jun 2027 05:47:47.509             4.113          2056.500
       161   08 Jun 2027 05:47:59.237   08 Jun 2027 05:48:04.889             5.652          2826.000
       162   08 Jun 2027 05:48:50.755   08 Jun 2027 05:48:58.950             8.195          4097.500
       163   08 Jun 2027 07:18:13.790   08 Jun 2027 07:18:55.925            42.135         21067.500
       164   08 Jun 2027 07:19:01.614   08 Jun 2027 07:20:04.200            62.586         30054.595
       165   08 Jun 2027 07:20:24.789   08 Jun 2027 07:20:32.391             7.602           604.750
       166   08 Jun 2027 07:21:24.758   08 Jun 2027 07:21:28.356             3.598          1531.750
       167   08 Jun 2027 08:42:13.133   08 Jun 2027 08:42:42.368            29.235         13736.469
       168   08 Jun 2027 08:42:50.417   08 Jun 2027 08:42:50.417             0.000             0.000
       169   08 Jun 2027 08:43:22.922   08 Jun 2027 08:43:27.281             4.359          1195.813
       170   08 Jun 2027 08:44:05.762   08 Jun 2027 08:44:06.330             0.568           188.969
       171   08 Jun 2027 10:21:29.250   08 Jun 2027 10:21:29.250             0.000             0.000
       172   08 Jun 2027 11:53:29.985   08 Jun 2027 11:53:29.985             0.000             0.000
       173   08 Jun 2027 11:59:39.250   08 Jun 2027 12:00:00.000            20.750         10375.000
       174   09 Jun 2027 04:14:30.965   09 Jun 2027 04:15:08.648            37.683         18841.500
       175   09 Jun 2027 04:16:11.102   09 Jun 2027 04:17:39.954            88.852         44426.000
       176   09 Jun 2027 04:18:04.100   09 Jun 2027 04:18:06.615             2.515          1257.500
       177   09 Jun 2027 04:19:03.808   09 Jun 2027 04:19:10.399             6.591          3295.500
       178   09 Jun 2027 04:20:44.171   09 Jun 2027 04:20:56.912            12.741          6370.500
       179   09 Jun 2027 05:53:17.816   09 Jun 2027 05:55:16.682           118.866         59433.000
       180   09 Jun 2027 05:56:09.224   09 Jun 2027 05:56:12.707             3.483          1741.500
       181   09 Jun 2027 05:56:50.623   09 Jun 2027 05:57:04.357            13.734          6867.000
       182   09 Jun 2027 05:57:56.048   09 Jun 2027 05:58:00.622             4.574          2287.000
       183   09 Jun 2027 07:18:50.677   09 Jun 2027 07:19:58.022            67.345         33672.500
       184   09 Jun 2027 07:30:12.384   09 Jun 2027 07:30:54.033            41.649         20824.500
       185   09 Jun 2027 08:52:48.489   09 Jun 2027 08:53:16.719            28.230         14010.249
       186   09 Jun 2027 08:54:04.674   09 Jun 2027 08:54:07.827             3.153           701.250
       187   09 Jun 2027 08:54:15.051   09 Jun 2027 08:54:15.556             0.505           225.750
       188   09 Jun 2027 08:56:37.703   09 Jun 2027 08:56:44.728             7.025          3277.781
       189   09 Jun 2027 08:57:19.740   09 Jun 2027 08:57:21.874             2.134           337.313
       190   09 Jun 2027 10:33:36.998   09 Jun 2027 10:34:09.935            32.937         16226.625
       191   10 Jun 2027 04:26:39.089   10 Jun 2027 04:28:13.197            94.108         47054.000
       192   10 Jun 2027 04:28:14.102   10 Jun 2027 04:28:38.642            24.540         12270.000
       193   10 Jun 2027 04:29:44.628   10 Jun 2027 04:29:55.290            10.662          5331.000
       194   10 Jun 2027 04:31:01.982   10 Jun 2027 04:31:10.369             8.387          4193.500
       195   10 Jun 2027 06:05:43.703   10 Jun 2027 06:07:35.789           112.086         56043.000
       196   10 Jun 2027 06:08:24.846   10 Jun 2027 06:08:25.832             0.986           493.000
       197   10 Jun 2027 06:09:28.340   10 Jun 2027 06:09:32.308             3.968          1984.000
       198   10 Jun 2027 06:09:46.739   10 Jun 2027 06:09:53.030             6.291          3145.500
       199   10 Jun 2027 06:10:19.333   10 Jun 2027 06:10:38.028            18.695          9347.500
       200   10 Jun 2027 07:30:31.825   10 Jun 2027 07:32:04.064            92.239         46119.500
       201   10 Jun 2027 07:42:11.819   10 Jun 2027 07:42:30.870            19.051          7276.751
       202   10 Jun 2027 09:04:29.652   10 Jun 2027 09:04:52.214            22.562         11281.000
       203   10 Jun 2027 09:05:31.062   10 Jun 2027 09:05:36.075             5.013          2506.500
       204   10 Jun 2027 09:06:23.665   10 Jun 2027 09:06:32.585             8.920          4460.000
       205   10 Jun 2027 09:07:31.131   10 Jun 2027 09:07:37.422             6.291          2485.750
       206   10 Jun 2027 10:39:23.589   10 Jun 2027 10:39:37.376            13.787          6565.188
       207   10 Jun 2027 10:40:47.054   10 Jun 2027 10:40:52.031             4.977          1154.125
       208   10 Jun 2027 10:42:38.265   10 Jun 2027 10:42:38.265             0.000             0.000
       209   10 Jun 2027 10:43:43.332   10 Jun 2027 10:43:54.016            10.684          5199.219
       210   11 Jun 2027 03:02:02.394   11 Jun 2027 03:02:10.208             7.814          3907.000
       211   11 Jun 2027 03:03:02.731   11 Jun 2027 03:03:13.178            10.447          5223.500
       212   11 Jun 2027 03:04:15.165   11 Jun 2027 03:04:19.855             4.690          2345.000
       213   11 Jun 2027 03:04:27.019   11 Jun 2027 03:04:33.065             6.046          3023.000
       214   11 Jun 2027 03:05:06.566   11 Jun 2027 03:05:18.564            11.998          5999.000
       215   11 Jun 2027 03:06:06.287   11 Jun 2027 03:06:09.805             3.518          1759.000
       216   11 Jun 2027 03:06:23.105   11 Jun 2027 03:06:38.967            15.862          7931.000
       217   11 Jun 2027 03:08:41.030   11 Jun 2027 03:09:06.897            25.867         12933.500
       218   11 Jun 2027 04:39:06.088   11 Jun 2027 04:39:23.053            16.965          8482.500
       219   11 Jun 2027 04:39:44.283   11 Jun 2027 04:40:01.099            16.816          8408.000
       220   11 Jun 2027 04:40:05.866   11 Jun 2027 04:40:59.959            54.093         27046.500
       221   11 Jun 2027 04:41:44.456   11 Jun 2027 04:41:46.961             2.505          1252.500
       222   11 Jun 2027 04:42:40.457   11 Jun 2027 04:42:42.101             1.644           822.000
       223   11 Jun 2027 04:43:09.313   11 Jun 2027 04:43:16.822             7.509          3754.500
       224   11 Jun 2027 04:43:32.633   11 Jun 2027 04:43:40.624             7.991          3995.500
       225   11 Jun 2027 04:44:49.765   11 Jun 2027 04:44:51.492             1.727           863.500
       226   11 Jun 2027 06:17:48.960   11 Jun 2027 06:19:48.898           119.938         59969.000
       227   11 Jun 2027 06:20:00.446   11 Jun 2027 06:20:00.703             0.257           128.500
       228   11 Jun 2027 06:21:16.604   11 Jun 2027 06:21:16.604             0.000             0.000
       229   11 Jun 2027 06:21:47.925   11 Jun 2027 06:22:10.878            22.953         11476.500
       230   11 Jun 2027 07:42:05.633   11 Jun 2027 07:43:14.736            69.103         34551.500
       231   11 Jun 2027 07:54:28.122   11 Jun 2027 07:54:44.176            16.054          8027.000
       232   11 Jun 2027 09:16:01.451   11 Jun 2027 09:16:45.750            44.299         21491.093
       233   11 Jun 2027 09:21:08.904   11 Jun 2027 09:21:19.348            10.444          5222.000
       234   11 Jun 2027 10:50:54.454   11 Jun 2027 10:51:06.429            11.975          5724.375
       235   11 Jun 2027 10:51:16.846   11 Jun 2027 10:51:17.522             0.676            79.969
       236   11 Jun 2027 10:53:12.750   11 Jun 2027 10:53:12.750             0.000             0.000
       237   11 Jun 2027 10:54:34.924   11 Jun 2027 10:54:43.673             8.749          4374.500
       238   11 Jun 2027 10:58:06.546   11 Jun 2027 10:58:21.757            15.211          6879.500
       239   11 Jun 2027 11:00:16.635   11 Jun 2027 11:00:18.010             1.375           687.500
       240   12 Jun 2027 03:14:00.275   12 Jun 2027 03:14:37.511            37.236         18618.000
       241   12 Jun 2027 03:15:15.391   12 Jun 2027 03:15:20.050             4.659          2329.500
       242   12 Jun 2027 03:16:14.714   12 Jun 2027 03:16:29.548            14.834          7417.000
       243   12 Jun 2027 03:16:33.958   12 Jun 2027 03:17:21.200            47.242         23621.000
       244   12 Jun 2027 03:17:59.220   12 Jun 2027 03:18:17.689            18.469          9234.500
       245   12 Jun 2027 03:20:07.468   12 Jun 2027 03:20:28.664            21.196         10598.000
       246   12 Jun 2027 04:51:42.644   12 Jun 2027 04:51:53.980            11.336          5668.000
       247   12 Jun 2027 04:52:05.423   12 Jun 2027 04:53:06.268            60.845         30422.500
       248   12 Jun 2027 04:53:13.176   12 Jun 2027 04:53:20.070             6.894          3447.000
       249   12 Jun 2027 04:54:36.405   12 Jun 2027 04:54:37.000             0.595           297.500
       250   12 Jun 2027 04:55:12.761   12 Jun 2027 04:55:18.730             5.969          2984.500
       251   12 Jun 2027 04:55:27.739   12 Jun 2027 04:55:37.410             9.671          4835.500
       252   12 Jun 2027 04:56:39.705   12 Jun 2027 04:56:42.409             2.704          1352.000
       253   12 Jun 2027 06:30:12.723   12 Jun 2027 06:32:23.704           130.981         65490.500
       254   12 Jun 2027 06:32:54.752   12 Jun 2027 06:33:14.177            19.425          9712.500
       255   12 Jun 2027 07:54:01.554   12 Jun 2027 07:54:35.294            33.740         16870.000
       256   12 Jun 2027 07:55:21.046   12 Jun 2027 07:55:30.145             9.099          4549.500
       257   12 Jun 2027 07:55:38.767   12 Jun 2027 07:55:40.680             1.913           803.282
       258   12 Jun 2027 07:55:59.006   12 Jun 2027 07:56:00.554             1.548           442.344
       259   12 Jun 2027 09:30:01.293   12 Jun 2027 09:30:25.866            24.573         12286.500
       260   12 Jun 2027 09:31:03.996   12 Jun 2027 09:31:17.526            13.530          5242.219
       261   12 Jun 2027 11:03:48.578   12 Jun 2027 11:04:06.345            17.767          7682.625
       262   12 Jun 2027 11:05:34.418   12 Jun 2027 11:05:34.819             0.401            42.937
       263   12 Jun 2027 11:10:36.139   12 Jun 2027 11:10:57.745            21.606          9171.750
       264   13 Jun 2027 03:26:03.334   13 Jun 2027 03:26:52.592            49.258         24629.000
       265   13 Jun 2027 03:27:17.414   13 Jun 2027 03:28:14.693            57.279         28639.500
       266   13 Jun 2027 03:29:56.776   13 Jun 2027 03:30:26.712            29.936         14968.000
       267   13 Jun 2027 03:32:09.520   13 Jun 2027 03:32:23.784            14.264          7132.000
       268   13 Jun 2027 05:04:14.509   13 Jun 2027 05:04:40.930            26.421         13210.500
       269   13 Jun 2027 05:04:48.224   13 Jun 2027 05:05:35.736            47.512         23756.000
       270   13 Jun 2027 05:06:18.902   13 Jun 2027 05:06:29.665            10.763          5381.500
       271   13 Jun 2027 05:06:36.774   13 Jun 2027 05:06:41.987             5.213          2606.500
       272   13 Jun 2027 05:08:21.621   13 Jun 2027 05:08:25.952             4.331          2165.500
       273   13 Jun 2027 05:08:39.833   13 Jun 2027 05:08:58.696            18.863          9431.500
       274   13 Jun 2027 06:42:31.519   13 Jun 2027 06:44:25.716           114.197         57098.500
       275   13 Jun 2027 06:45:32.781   13 Jun 2027 06:45:32.781             0.000             0.000
       276   13 Jun 2027 08:05:53.831   13 Jun 2027 08:06:28.026            34.195         17097.500
       277   13 Jun 2027 08:07:22.460   13 Jun 2027 08:07:35.145            12.685          5319.906
       278   13 Jun 2027 08:08:21.203   13 Jun 2027 08:08:23.425             2.222          1096.031
       279   13 Jun 2027 09:42:15.528   13 Jun 2027 09:42:42.402            26.874         12775.063
       280   13 Jun 2027 11:14:33.486   13 Jun 2027 11:14:46.320            12.834          6417.000
       281   13 Jun 2027 11:18:07.144   13 Jun 2027 11:18:17.325            10.181          5090.500
       282   13 Jun 2027 11:21:42.180   13 Jun 2027 11:21:42.180             0.000             0.000
       283   13 Jun 2027 11:23:02.814   13 Jun 2027 11:23:17.531            14.717          7358.500
       284   13 Jun 2027 11:23:18.929   13 Jun 2027 11:23:34.069            15.140          5588.844
       285   13 Jun 2027 11:23:47.965   13 Jun 2027 11:23:49.544             1.579           434.250
       286   13 Jun 2027 11:24:16.451   13 Jun 2027 11:24:20.068             3.617           695.688
