uniorb/output/strategy_1/Camera/Camera_KinoSat_110707.txt

KinoSat_110707
-------------------------
    Access    *     Start Time (UTCG)     *     Stop Time (UTCG)  *   Duration (s) *   Data (Mbytes)
         1   01 Jun 2027 03:18:51.805   01 Jun 2027 03:19:50.727            58.922         29461.000
         2   01 Jun 2027 03:21:07.416   01 Jun 2027 03:21:13.713             6.297          3148.500
         3   01 Jun 2027 03:22:38.003   01 Jun 2027 03:22:57.553            19.550          9775.000
         4   01 Jun 2027 03:23:12.009   01 Jun 2027 03:23:14.376             2.367          1183.500
         5   01 Jun 2027 03:23:21.523   01 Jun 2027 03:23:21.523             0.000             0.000
         6   01 Jun 2027 03:23:24.962   01 Jun 2027 03:23:39.214            14.252          7126.000
         7   01 Jun 2027 04:53:50.113   01 Jun 2027 04:55:29.141            99.028         49514.000
         8   01 Jun 2027 04:56:14.753   01 Jun 2027 04:56:17.878             3.125          1562.500
         9   01 Jun 2027 04:56:23.844   01 Jun 2027 04:56:31.341             7.497          3748.500
        10   01 Jun 2027 04:56:57.872   01 Jun 2027 04:56:57.964             0.092            46.000
        11   01 Jun 2027 04:58:07.239   01 Jun 2027 04:58:15.451             8.212          4106.000
        12   01 Jun 2027 04:59:45.748   01 Jun 2027 04:59:58.889            13.141          6570.500
        13   01 Jun 2027 05:02:05.779   01 Jun 2027 05:02:11.270             5.491          2745.500
        14   01 Jun 2027 06:31:18.129   01 Jun 2027 06:32:41.694            83.565         41782.500
        15   01 Jun 2027 06:33:17.781   01 Jun 2027 06:33:49.968            32.187         16093.500
        16   01 Jun 2027 06:34:13.749   01 Jun 2027 06:34:15.166             1.417           708.500
        17   01 Jun 2027 06:35:13.935   01 Jun 2027 06:35:21.512             7.577          3788.500
        18   01 Jun 2027 06:36:18.342   01 Jun 2027 06:36:25.716             7.374          3687.000
        19   01 Jun 2027 06:38:35.736   01 Jun 2027 06:38:36.174             0.438           219.000
        20   01 Jun 2027 08:08:03.850   01 Jun 2027 08:10:15.187           131.337         65668.500
        21   01 Jun 2027 08:11:51.449   01 Jun 2027 08:12:14.243            22.794         11397.000
        22   01 Jun 2027 08:14:10.016   01 Jun 2027 08:14:11.758             1.742           871.000
        23   01 Jun 2027 09:46:01.531   01 Jun 2027 09:47:45.778           104.247         52123.500
        24   01 Jun 2027 09:49:12.409   01 Jun 2027 09:49:14.786             2.377          1188.500
        25   01 Jun 2027 09:49:46.139   01 Jun 2027 09:50:00.511            14.372          7186.000
        26   01 Jun 2027 11:19:39.212   01 Jun 2027 11:21:53.394           134.182         67091.000
        27   01 Jun 2027 11:23:51.290   01 Jun 2027 11:23:57.792             6.502          3251.000
        28   01 Jun 2027 11:25:12.729   01 Jun 2027 11:25:17.951             5.222          2611.000
        29   02 Jun 2027 03:30:28.392   02 Jun 2027 03:30:54.771            26.379         13189.500
        30   02 Jun 2027 03:32:41.332   02 Jun 2027 03:32:48.932             7.600          3800.000
        31   02 Jun 2027 03:36:08.687   02 Jun 2027 03:36:08.687             0.000             0.000
        32   02 Jun 2027 05:05:17.970   02 Jun 2027 05:08:02.206           164.236         82118.000
        33   02 Jun 2027 05:08:17.158   02 Jun 2027 05:08:21.385             4.227          2113.500
        34   02 Jun 2027 05:08:45.944   02 Jun 2027 05:08:46.428             0.484           242.000
        35   02 Jun 2027 05:08:50.261   02 Jun 2027 05:08:52.417             2.156          1078.000
        36   02 Jun 2027 05:10:31.037   02 Jun 2027 05:10:33.843             2.806          1403.000
        37   02 Jun 2027 05:12:40.202   02 Jun 2027 05:12:40.202             0.000             0.000
        38   02 Jun 2027 05:12:52.566   02 Jun 2027 05:12:55.848             3.282          1641.000
        39   02 Jun 2027 05:14:00.407   02 Jun 2027 05:14:00.407             0.000             0.000
        40   02 Jun 2027 06:43:11.173   02 Jun 2027 06:45:08.066           116.893         58446.500
        41   02 Jun 2027 06:46:36.809   02 Jun 2027 06:46:39.817             3.008          1504.000
        42   02 Jun 2027 06:46:48.296   02 Jun 2027 06:46:48.296             0.000             0.000
        43   02 Jun 2027 06:47:58.210   02 Jun 2027 06:48:05.290             7.080          3540.000
        44   02 Jun 2027 06:49:03.415   02 Jun 2027 06:49:18.309            14.894          7447.000
        45   02 Jun 2027 08:19:55.023   02 Jun 2027 08:20:20.492            25.469         12734.500
        46   02 Jun 2027 08:20:28.862   02 Jun 2027 08:22:29.937           121.075         60537.500
        47   02 Jun 2027 08:23:13.898   02 Jun 2027 08:23:37.721            23.823         11911.500
        48   02 Jun 2027 08:25:07.926   02 Jun 2027 08:25:07.943             0.017             8.500
        49   02 Jun 2027 08:25:57.690   02 Jun 2027 08:25:58.514             0.824           412.000
        50   02 Jun 2027 09:58:01.941   02 Jun 2027 09:59:44.592           102.651         51325.500
        51   02 Jun 2027 10:00:47.736   02 Jun 2027 10:00:51.305             3.569          1784.500
        52   02 Jun 2027 10:01:12.407   02 Jun 2027 10:01:12.407             0.000             0.000
        53   02 Jun 2027 10:01:34.988   02 Jun 2027 10:01:35.144             0.156            78.000
        54   02 Jun 2027 10:01:57.818   02 Jun 2027 10:02:10.767            12.949          6474.500
        55   02 Jun 2027 11:33:44.577   02 Jun 2027 11:35:33.573           108.996         54498.000
        56   03 Jun 2027 03:44:22.167   03 Jun 2027 03:44:42.820            20.653         10326.500
        57   03 Jun 2027 03:46:30.014   03 Jun 2027 03:46:36.962             6.948          3474.000
        58   03 Jun 2027 03:47:03.282   03 Jun 2027 03:47:03.282             0.000             0.000
        59   03 Jun 2027 05:18:09.559   03 Jun 2027 05:20:25.404           135.845         67922.500
        60   03 Jun 2027 05:20:56.921   03 Jun 2027 05:21:07.729            10.808          5404.000
        61   03 Jun 2027 05:24:12.036   03 Jun 2027 05:24:14.844             2.808          1404.000
        62   03 Jun 2027 05:24:51.866   03 Jun 2027 05:25:02.370            10.504          5252.000
        63   03 Jun 2027 05:26:40.187   03 Jun 2027 05:26:40.204             0.017             8.500
        64   03 Jun 2027 06:55:18.387   03 Jun 2027 06:55:40.388            22.001         11000.500
        65   03 Jun 2027 06:56:01.929   03 Jun 2027 06:57:21.946            80.017         40008.500
        66   03 Jun 2027 06:58:24.962   03 Jun 2027 06:58:26.845             1.883           941.500
        67   03 Jun 2027 06:58:57.699   03 Jun 2027 06:59:33.743            36.044         18022.000
        68   03 Jun 2027 06:59:44.681   03 Jun 2027 06:59:55.131            10.450          5225.000
        69   03 Jun 2027 07:00:08.482   03 Jun 2027 07:00:08.482             0.000             0.000
        70   03 Jun 2027 07:00:19.631   03 Jun 2027 07:00:29.990            10.359          5179.500
        71   03 Jun 2027 08:32:32.466   03 Jun 2027 08:34:55.653           143.187         71593.500
        72   03 Jun 2027 08:35:51.209   03 Jun 2027 08:35:51.209             0.000             0.000
        73   03 Jun 2027 08:36:06.454   03 Jun 2027 08:36:07.698             1.244           622.000
        74   03 Jun 2027 08:36:34.725   03 Jun 2027 08:36:45.951            11.226          5613.000
        75   03 Jun 2027 10:09:15.275   03 Jun 2027 10:10:34.341            79.066         39533.000
        76   03 Jun 2027 10:10:53.575   03 Jun 2027 10:10:54.590             1.015           507.500
        77   03 Jun 2027 10:11:47.211   03 Jun 2027 10:11:58.290            11.079          3392.342
        78   03 Jun 2027 10:13:09.748   03 Jun 2027 10:13:09.748             0.000             0.000
        79   03 Jun 2027 10:13:23.280   03 Jun 2027 10:13:30.359             7.079          2437.375
        80   03 Jun 2027 10:13:56.427   03 Jun 2027 10:14:04.649             8.222           814.625
        81   03 Jun 2027 11:44:26.608   03 Jun 2027 11:44:40.951            14.343          2548.031
        82   03 Jun 2027 11:46:14.690   03 Jun 2027 11:46:23.738             9.048          1780.813
        83   03 Jun 2027 11:46:54.657   03 Jun 2027 11:46:56.083             1.426           345.969
        84   03 Jun 2027 11:47:09.912   03 Jun 2027 11:47:12.467             2.555           432.156
        85   03 Jun 2027 11:47:35.154   03 Jun 2027 11:47:35.154             0.000             0.000
        86   03 Jun 2027 11:48:11.709   03 Jun 2027 11:48:15.103             3.394          1394.125
        87   03 Jun 2027 11:48:36.331   03 Jun 2027 11:48:43.292             6.961           568.594
        88   03 Jun 2027 11:48:55.788   03 Jun 2027 11:48:55.788             0.000             0.000
        89   04 Jun 2027 03:56:36.398   04 Jun 2027 03:57:26.243            49.845         24922.500
        90   04 Jun 2027 05:30:32.603   04 Jun 2027 05:32:57.261           144.658         72329.000
        91   04 Jun 2027 05:34:52.008   04 Jun 2027 05:34:57.864             5.856          2928.000
        92   04 Jun 2027 05:35:39.665   04 Jun 2027 05:35:50.129            10.464          5232.000
        93   04 Jun 2027 05:37:17.076   04 Jun 2027 05:37:17.194             0.118            59.000
        94   04 Jun 2027 05:38:13.909   04 Jun 2027 05:38:30.193            16.284          8142.000
        95   04 Jun 2027 07:07:43.931   04 Jun 2027 07:10:03.885           139.954         69977.000
        96   04 Jun 2027 07:12:08.089   04 Jun 2027 07:12:16.774             8.685          4342.500
        97   04 Jun 2027 07:12:36.616   04 Jun 2027 07:12:42.289             5.673          2836.500
        98   04 Jun 2027 07:13:13.631   04 Jun 2027 07:13:20.244             6.613          3306.500
        99   04 Jun 2027 07:13:30.692   04 Jun 2027 07:13:34.897             4.205          1889.062
       100   04 Jun 2027 07:13:47.056   04 Jun 2027 07:13:50.637             3.581           379.969
       101   04 Jun 2027 08:44:45.915   04 Jun 2027 08:45:22.657            36.742         18371.000
       102   04 Jun 2027 08:45:47.861   04 Jun 2027 08:45:51.636             3.775          1366.875
       103   04 Jun 2027 08:46:13.494   04 Jun 2027 08:46:21.953             8.459           488.625
       104   04 Jun 2027 08:47:50.072   04 Jun 2027 08:47:53.870             3.798          1712.687
       105   04 Jun 2027 08:48:33.158   04 Jun 2027 08:48:39.176             6.018          1141.719
       106   04 Jun 2027 08:49:26.711   04 Jun 2027 08:49:31.138             4.427          1485.469
       107   04 Jun 2027 08:49:37.473   04 Jun 2027 08:49:37.473             0.000             0.000
       108   04 Jun 2027 08:49:50.723   04 Jun 2027 08:49:52.511             1.788           575.969
       109   04 Jun 2027 10:21:30.482   04 Jun 2027 10:21:50.450            19.968          9064.281
       110   04 Jun 2027 10:22:47.121   04 Jun 2027 10:22:50.267             3.146          1543.937
       111   04 Jun 2027 10:23:46.880   04 Jun 2027 10:23:50.178             3.298          1611.219
       112   04 Jun 2027 10:25:18.301   04 Jun 2027 10:25:25.805             7.504          2585.312
       113   04 Jun 2027 11:59:40.032   04 Jun 2027 11:59:47.436             7.404          2192.187
       114   05 Jun 2027 04:08:40.820   05 Jun 2027 04:09:11.866            31.046         15523.000
       115   05 Jun 2027 04:09:40.256   05 Jun 2027 04:09:45.646             5.390          2695.000
       116   05 Jun 2027 04:11:37.321   05 Jun 2027 04:11:37.321             0.000             0.000
       117   05 Jun 2027 04:11:44.400   05 Jun 2027 04:11:57.146            12.746          6373.000
       118   05 Jun 2027 04:12:12.187   05 Jun 2027 04:12:13.825             1.638           819.000
       119   05 Jun 2027 05:43:49.568   05 Jun 2027 05:46:10.581           141.013         70506.500
       120   05 Jun 2027 05:46:17.172   05 Jun 2027 05:46:17.979             0.807           403.500
       121   05 Jun 2027 05:46:33.402   05 Jun 2027 05:46:35.887             2.485          1242.500
       122   05 Jun 2027 05:49:38.655   05 Jun 2027 05:49:54.195            15.540          7770.000
       123   05 Jun 2027 05:50:30.872   05 Jun 2027 05:50:38.181             7.309          3654.500
       124   05 Jun 2027 07:20:09.518   05 Jun 2027 07:22:15.933           126.415         63207.500
       125   05 Jun 2027 07:22:56.478   05 Jun 2027 07:23:04.293             7.815          3791.844
       126   05 Jun 2027 07:23:11.840   05 Jun 2027 07:23:12.522             0.682           235.844
       127   05 Jun 2027 07:24:02.496   05 Jun 2027 07:24:04.337             1.841           920.500
       128   05 Jun 2027 07:24:46.729   05 Jun 2027 07:24:50.399             3.670          1807.813
       129   05 Jun 2027 07:26:07.612   05 Jun 2027 07:26:11.893             4.281          2140.500
       130   05 Jun 2027 08:57:44.299   05 Jun 2027 08:58:16.537            32.238         13371.469
       131   05 Jun 2027 08:58:30.032   05 Jun 2027 08:58:31.892             1.860            97.406
       132   05 Jun 2027 08:59:00.687   05 Jun 2027 08:59:01.705             1.018           502.406
       133   05 Jun 2027 09:01:15.394   05 Jun 2027 09:01:21.784             6.390          3077.187
       134   05 Jun 2027 09:01:53.999   05 Jun 2027 09:01:57.153             3.154           857.187
       135   05 Jun 2027 10:33:46.915   05 Jun 2027 10:34:03.146            16.231          7442.937
       136   05 Jun 2027 10:34:20.966   05 Jun 2027 10:34:22.907             1.941           369.375
       137   05 Jun 2027 10:34:27.288   05 Jun 2027 10:34:30.606             3.318            71.563
       138   05 Jun 2027 10:35:29.255   05 Jun 2027 10:35:32.921             3.666          1815.187
       139   05 Jun 2027 10:36:29.312   05 Jun 2027 10:36:33.659             4.347          1687.156
       140   05 Jun 2027 10:37:08.212   05 Jun 2027 10:37:11.622             3.410           297.781
       141   05 Jun 2027 10:37:37.721   05 Jun 2027 10:37:44.290             6.569           441.844
       142   05 Jun 2027 10:37:56.735   05 Jun 2027 10:37:58.199             1.464           108.750
       143   06 Jun 2027 04:22:22.516   06 Jun 2027 04:23:50.892            88.376         44188.000
       144   06 Jun 2027 05:56:01.207   06 Jun 2027 05:58:16.764           135.557         67778.500
       145   06 Jun 2027 06:01:26.782   06 Jun 2027 06:01:26.782             0.000             0.000
       146   06 Jun 2027 06:01:43.560   06 Jun 2027 06:01:55.903            12.343          6171.500
       147   06 Jun 2027 07:32:22.278   06 Jun 2027 07:34:09.344           107.066         53533.000
       148   06 Jun 2027 07:34:28.369   06 Jun 2027 07:34:33.419             5.050          1558.250
       149   06 Jun 2027 07:34:45.924   06 Jun 2027 07:34:49.399             3.475           375.656
       150   06 Jun 2027 07:35:53.846   06 Jun 2027 07:35:54.516             0.670           335.000
       151   06 Jun 2027 07:36:59.183   06 Jun 2027 07:37:05.573             6.390          3195.000
       152   06 Jun 2027 07:38:17.868   06 Jun 2027 07:38:17.868             0.000             0.000
       153   06 Jun 2027 09:09:39.226   06 Jun 2027 09:10:04.056            24.830         11849.688
       154   06 Jun 2027 09:11:12.145   06 Jun 2027 09:11:19.288             7.143          1360.094
       155   06 Jun 2027 09:11:22.780   06 Jun 2027 09:11:25.370             2.590             7.344
       156   06 Jun 2027 09:12:02.389   06 Jun 2027 09:12:04.642             2.253           869.906
       157   06 Jun 2027 09:12:07.668   06 Jun 2027 09:12:12.127             4.459            74.594
       158   06 Jun 2027 09:12:29.474   06 Jun 2027 09:12:29.474             0.000             0.000
       159   06 Jun 2027 09:13:19.675   06 Jun 2027 09:13:25.342             5.667          2098.438
       160   06 Jun 2027 10:45:51.483   06 Jun 2027 10:46:05.670            14.187          6986.687
       161   06 Jun 2027 10:47:12.353   06 Jun 2027 10:47:17.721             5.368          1815.375
       162   06 Jun 2027 10:47:31.680   06 Jun 2027 10:47:35.273             3.593           354.406
       163   06 Jun 2027 10:48:36.471   06 Jun 2027 10:48:40.905             4.434          1739.125
       164   06 Jun 2027 10:49:07.667   06 Jun 2027 10:49:10.298             2.631           676.344
       165   06 Jun 2027 10:49:49.945   06 Jun 2027 10:49:57.805             7.860          1131.125
       166   06 Jun 2027 10:50:18.526   06 Jun 2027 10:50:18.526             0.000             0.000
       167   07 Jun 2027 04:32:39.366   07 Jun 2027 04:34:05.818            86.452         43226.000
       168   07 Jun 2027 04:34:46.402   07 Jun 2027 04:34:59.967            13.565          6782.500
       169   07 Jun 2027 06:07:33.025   07 Jun 2027 06:09:18.535           105.510         52755.000
       170   07 Jun 2027 06:09:20.578   07 Jun 2027 06:09:36.580            16.002          8001.000
       171   07 Jun 2027 06:11:16.816   07 Jun 2027 06:11:18.486             1.670           835.000
       172   07 Jun 2027 06:13:56.788   07 Jun 2027 06:13:56.940             0.152            76.000
       173   07 Jun 2027 06:14:11.277   07 Jun 2027 06:14:11.277             0.000             0.000
       174   07 Jun 2027 06:14:14.085   07 Jun 2027 06:14:30.625            16.540          8270.000
       175   07 Jun 2027 07:43:59.948   07 Jun 2027 07:45:18.012            78.064         39032.000
       176   07 Jun 2027 07:45:56.723   07 Jun 2027 07:46:24.040            27.317         13658.500
       177   07 Jun 2027 07:47:59.655   07 Jun 2027 07:48:19.352            19.697          8776.407
       178   07 Jun 2027 07:48:53.236   07 Jun 2027 07:48:54.940             1.704           437.313
       179   07 Jun 2027 07:49:16.972   07 Jun 2027 07:49:22.687             5.715           688.500
       180   07 Jun 2027 09:22:18.362   07 Jun 2027 09:22:43.428            25.066         12533.000
       181   07 Jun 2027 09:22:50.041   07 Jun 2027 09:22:51.735             1.694           363.344
       182   07 Jun 2027 09:23:17.654   07 Jun 2027 09:23:22.282             4.628           677.000
       183   07 Jun 2027 09:23:38.893   07 Jun 2027 09:23:41.087             2.194           469.312
       184   07 Jun 2027 09:23:57.713   07 Jun 2027 09:23:58.419             0.706           283.875
       185   07 Jun 2027 09:24:23.141   07 Jun 2027 09:24:23.801             0.660            87.281
       186   07 Jun 2027 09:24:58.666   07 Jun 2027 09:25:00.343             1.677           520.781
       187   07 Jun 2027 09:25:36.192   07 Jun 2027 09:25:37.890             1.698           749.438
       188   07 Jun 2027 10:57:44.894   07 Jun 2027 10:58:00.235            15.341          6761.812
       189   07 Jun 2027 10:58:34.358   07 Jun 2027 10:58:42.562             8.204          1033.781
       190   07 Jun 2027 10:59:42.576   07 Jun 2027 10:59:44.209             1.633           816.500
       191   07 Jun 2027 11:00:21.166   07 Jun 2027 11:00:25.519             4.353          1925.719
       192   07 Jun 2027 11:01:25.894   07 Jun 2027 11:01:32.606             6.712          1651.750
       193   07 Jun 2027 11:02:46.323   07 Jun 2027 11:02:54.732             8.409          2177.594
       194   07 Jun 2027 11:03:00.373   07 Jun 2027 11:03:00.779             0.406           176.281
       195   08 Jun 2027 03:07:23.302   08 Jun 2027 03:07:49.465            26.163         13081.500
       196   08 Jun 2027 03:08:16.704   08 Jun 2027 03:08:21.094             4.390          2195.000
       197   08 Jun 2027 03:08:58.556   08 Jun 2027 03:09:07.079             8.523          4261.500
       198   08 Jun 2027 04:42:55.650   08 Jun 2027 04:43:45.970            50.320         25160.000
       199   08 Jun 2027 04:44:24.031   08 Jun 2027 04:45:09.333            45.302         22651.000
       200   08 Jun 2027 04:46:13.323   08 Jun 2027 04:46:24.227            10.904          5452.000
       201   08 Jun 2027 04:46:47.979   08 Jun 2027 04:46:47.979             0.000             0.000
       202   08 Jun 2027 04:47:21.351   08 Jun 2027 04:47:50.199            28.848         14424.000
       203   08 Jun 2027 06:19:13.708   08 Jun 2027 06:20:34.211            80.503         40251.500
       204   08 Jun 2027 06:20:44.148   08 Jun 2027 06:20:56.711            12.563          6281.500
       205   08 Jun 2027 06:21:19.763   08 Jun 2027 06:21:32.518            12.755          6377.500
       206   08 Jun 2027 06:25:01.196   08 Jun 2027 06:25:09.528             8.332          4166.000
       207   08 Jun 2027 06:26:01.254   08 Jun 2027 06:26:06.518             5.264          2632.000
       208   08 Jun 2027 06:26:29.893   08 Jun 2027 06:26:34.241             4.348          2174.000
       209   08 Jun 2027 07:56:19.495   08 Jun 2027 07:57:46.661            87.166         43175.875
       210   08 Jun 2027 07:58:08.803   08 Jun 2027 07:58:09.405             0.602           195.531
       211   08 Jun 2027 07:58:23.381   08 Jun 2027 07:58:25.153             1.772           436.750
       212   08 Jun 2027 07:58:35.868   08 Jun 2027 07:58:36.544             0.676            43.375
       213   08 Jun 2027 07:59:24.656   08 Jun 2027 07:59:29.355             4.699           998.406
       214   08 Jun 2027 07:59:49.605   08 Jun 2027 07:59:53.939             4.334           632.813
       215   08 Jun 2027 08:00:04.005   08 Jun 2027 08:00:04.481             0.476           165.687
       216   08 Jun 2027 08:00:11.858   08 Jun 2027 08:00:12.270             0.412           162.094
       217   08 Jun 2027 08:00:16.188   08 Jun 2027 08:00:16.400             0.212            43.094
       218   08 Jun 2027 08:00:47.660   08 Jun 2027 08:00:47.660             0.000             0.000
       219   08 Jun 2027 08:01:06.764   08 Jun 2027 08:01:09.123             2.359          1030.813
       220   08 Jun 2027 08:01:56.717   08 Jun 2027 08:01:57.927             1.210           605.000
       221   08 Jun 2027 08:02:00.744   08 Jun 2027 08:02:07.056             6.312           748.875
       222   08 Jun 2027 09:34:16.633   08 Jun 2027 09:34:34.349            17.716          8858.000
       223   08 Jun 2027 09:34:56.754   08 Jun 2027 09:35:01.367             4.613          1898.781
       224   08 Jun 2027 09:35:58.811   08 Jun 2027 09:36:02.540             3.729          1746.531
       225   08 Jun 2027 09:37:03.127   08 Jun 2027 09:37:05.504             2.377          1188.500
       226   08 Jun 2027 09:37:26.795   08 Jun 2027 09:37:30.641             3.846          1370.187
       227   08 Jun 2027 09:38:13.612   08 Jun 2027 09:38:14.385             0.773           386.500
       228   08 Jun 2027 11:07:21.466   08 Jun 2027 11:07:32.802            11.336          5632.375
       229   08 Jun 2027 11:08:55.510   08 Jun 2027 11:08:58.109             2.599           981.219
       230   08 Jun 2027 11:09:12.423   08 Jun 2027 11:09:13.035             0.612            72.281
       231   08 Jun 2027 11:09:48.272   08 Jun 2027 11:09:50.551             2.279           999.125
       232   08 Jun 2027 11:10:11.049   08 Jun 2027 11:10:13.690             2.641           198.000
       233   08 Jun 2027 11:10:28.569   08 Jun 2027 11:10:37.528             8.959           464.969
       234   08 Jun 2027 11:10:50.426   08 Jun 2027 11:10:52.789             2.363           230.875
       235   08 Jun 2027 11:11:05.268   08 Jun 2027 11:11:08.132             2.864           369.344
       236   08 Jun 2027 11:11:35.854   08 Jun 2027 11:11:39.264             3.410           866.312
       237   08 Jun 2027 11:12:20.593   08 Jun 2027 11:12:23.371             2.778          1098.375
       238   08 Jun 2027 11:12:53.422   08 Jun 2027 11:12:59.015             5.593           939.094
       239   08 Jun 2027 11:13:07.619   08 Jun 2027 11:13:08.485             0.866           161.844
       240   08 Jun 2027 11:14:57.750   08 Jun 2027 11:15:03.269             5.519          2410.312
       241   09 Jun 2027 03:19:06.404   09 Jun 2027 03:20:04.531            58.127         29063.500
       242   09 Jun 2027 03:22:56.433   09 Jun 2027 03:22:56.433             0.000             0.000
       243   09 Jun 2027 04:54:04.484   09 Jun 2027 04:55:58.918           114.434         57217.000
       244   09 Jun 2027 04:56:07.949   09 Jun 2027 04:56:13.076             5.127          2563.500
       245   09 Jun 2027 04:56:57.848   09 Jun 2027 04:57:01.032             3.184          1592.000
       246   09 Jun 2027 04:57:10.733   09 Jun 2027 04:57:10.733             0.000             0.000
       247   09 Jun 2027 04:58:49.514   09 Jun 2027 04:58:53.667             4.153          2076.500
       248   09 Jun 2027 04:59:14.545   09 Jun 2027 04:59:14.545             0.000             0.000
       249   09 Jun 2027 05:00:02.024   09 Jun 2027 05:00:13.951            11.927          5963.500
       250   09 Jun 2027 05:00:38.186   09 Jun 2027 05:00:41.298             3.112          1556.000
       251   09 Jun 2027 05:00:55.214   09 Jun 2027 05:00:55.214             0.000             0.000
       252   09 Jun 2027 06:31:32.785   09 Jun 2027 06:33:21.163           108.378         54189.000
       253   09 Jun 2027 06:33:33.471   09 Jun 2027 06:33:35.217             1.746           873.000
       254   09 Jun 2027 06:34:30.113   09 Jun 2027 06:34:43.274            13.161          6580.500
       255   09 Jun 2027 06:38:32.264   09 Jun 2027 06:38:37.040             4.776          2388.000
       256   09 Jun 2027 08:08:17.675   09 Jun 2027 08:09:14.000            56.325         26702.781
       257   09 Jun 2027 08:10:03.947   09 Jun 2027 08:10:09.460             5.513          1560.844
       258   09 Jun 2027 08:11:30.330   09 Jun 2027 08:11:34.668             4.338          1393.594
       259   09 Jun 2027 08:12:28.905   09 Jun 2027 08:12:34.252             5.347          1694.906
       260   09 Jun 2027 08:14:02.258   09 Jun 2027 08:14:06.353             4.095          2047.500
       261   09 Jun 2027 09:46:15.962   09 Jun 2027 09:46:35.415            19.453          9726.500
       262   09 Jun 2027 09:46:53.384   09 Jun 2027 09:46:57.732             4.348           575.907
       263   09 Jun 2027 09:47:16.242   09 Jun 2027 09:47:22.796             6.554           578.438
       264   09 Jun 2027 09:48:01.433   09 Jun 2027 09:48:04.335             2.902          1068.344
       265   09 Jun 2027 09:48:50.016   09 Jun 2027 09:48:52.830             2.814          1268.281
       266   09 Jun 2027 09:49:48.659   09 Jun 2027 09:49:53.330             4.671          1502.719
       267   09 Jun 2027 09:50:20.245   09 Jun 2027 09:50:22.673             2.428           719.563
       268   09 Jun 2027 11:19:53.784   09 Jun 2027 11:20:00.163             6.379          1836.438
       269   09 Jun 2027 11:20:09.755   09 Jun 2027 11:20:10.257             0.502           175.500
       270   09 Jun 2027 11:21:21.429   09 Jun 2027 11:21:26.362             4.933          1992.406
       271   09 Jun 2027 11:22:04.815   09 Jun 2027 11:22:08.280             3.465           170.469
       272   09 Jun 2027 11:22:55.098   09 Jun 2027 11:22:58.839             3.741          1463.063
       273   09 Jun 2027 11:23:13.281   09 Jun 2027 11:23:17.997             4.716           451.312
       274   09 Jun 2027 11:24:14.461   09 Jun 2027 11:24:17.361             2.900          1399.406
       275   09 Jun 2027 11:25:08.677   09 Jun 2027 11:25:13.536             4.859          1558.937
       276   09 Jun 2027 11:25:34.024   09 Jun 2027 11:25:35.613             1.589           448.281
       277   09 Jun 2027 11:26:21.114   09 Jun 2027 11:26:29.509             8.395          1294.219
       278   10 Jun 2027 03:30:40.081   10 Jun 2027 03:31:47.824            67.743         33871.500
       279   10 Jun 2027 03:35:54.799   10 Jun 2027 03:35:54.799             0.000             0.000
       280   10 Jun 2027 03:36:24.546   10 Jun 2027 03:36:24.546             0.000             0.000
       281   10 Jun 2027 05:05:32.374   10 Jun 2027 05:07:49.552           137.178         68589.000
       282   10 Jun 2027 05:09:00.613   10 Jun 2027 05:09:05.292             4.679          2339.500
       283   10 Jun 2027 05:09:30.460   10 Jun 2027 05:09:34.208             3.748          1874.000
       284   10 Jun 2027 05:10:19.495   10 Jun 2027 05:10:25.777             6.282          3141.000
       285   10 Jun 2027 05:11:33.838   10 Jun 2027 05:11:33.838             0.000             0.000
       286   10 Jun 2027 05:12:31.893   10 Jun 2027 05:12:33.107             1.214           607.000
       287   10 Jun 2027 05:12:45.304   10 Jun 2027 05:12:45.304             0.000             0.000
       288   10 Jun 2027 05:14:16.216   10 Jun 2027 05:14:25.632             9.416          4708.000
       289   10 Jun 2027 06:43:25.805   10 Jun 2027 06:45:02.155            96.350         48175.000
       290   10 Jun 2027 06:45:14.879   10 Jun 2027 06:45:22.686             7.807          3903.500
       291   10 Jun 2027 06:46:00.532   10 Jun 2027 06:46:05.005             4.473          2236.500
       292   10 Jun 2027 06:46:17.007   10 Jun 2027 06:46:28.464            11.457          5728.500
       293   10 Jun 2027 06:48:26.487   10 Jun 2027 06:48:26.487             0.000             0.000
       294   10 Jun 2027 06:48:32.608   10 Jun 2027 06:48:48.097            15.489          6362.156
       295   10 Jun 2027 06:49:17.632   10 Jun 2027 06:49:21.042             3.410           510.500
       296   10 Jun 2027 08:20:09.694   10 Jun 2027 08:20:35.101            25.407         12703.500
       297   10 Jun 2027 08:20:43.902   10 Jun 2027 08:20:50.473             6.571          3285.500
       298   10 Jun 2027 08:21:02.551   10 Jun 2027 08:21:08.325             5.774          1827.250
       299   10 Jun 2027 08:21:21.483   10 Jun 2027 08:21:22.555             1.072           411.187
       300   10 Jun 2027 08:21:29.787   10 Jun 2027 08:21:30.608             0.821           226.000
       301   10 Jun 2027 08:23:11.029   10 Jun 2027 08:23:11.029             0.000             0.000
       302   10 Jun 2027 08:24:06.317   10 Jun 2027 08:24:17.019            10.702          2794.781
       303   10 Jun 2027 08:25:14.454   10 Jun 2027 08:25:18.290             3.836          1554.875
       304   10 Jun 2027 08:26:18.857   10 Jun 2027 08:26:18.857             0.000             0.000
       305   10 Jun 2027 09:58:16.213   10 Jun 2027 09:58:34.959            18.746          9373.000
       306   10 Jun 2027 09:58:58.890   10 Jun 2027 09:59:03.525             4.635          1570.656
       307   10 Jun 2027 09:59:55.893   10 Jun 2027 09:59:59.377             3.484          1636.500
       308   10 Jun 2027 10:00:37.176   10 Jun 2027 10:00:43.067             5.891          1181.219
       309   10 Jun 2027 10:01:27.374   10 Jun 2027 10:01:30.857             3.483           963.719
       310   10 Jun 2027 10:02:01.792   10 Jun 2027 10:02:09.067             7.275           833.562
       311   10 Jun 2027 11:34:00.088   10 Jun 2027 11:34:09.755             9.667          2170.781
       312   10 Jun 2027 11:34:51.633   10 Jun 2027 11:34:55.592             3.959           689.844
       313   10 Jun 2027 11:35:11.568   10 Jun 2027 11:35:13.572             2.004           464.625
       314   10 Jun 2027 11:36:18.644   10 Jun 2027 11:36:26.659             8.015          1787.281
       315   10 Jun 2027 11:36:33.978   10 Jun 2027 11:36:35.953             1.975           225.844
       316   10 Jun 2027 11:37:00.882   10 Jun 2027 11:37:03.831             2.949           779.031
       317   10 Jun 2027 11:37:17.899   10 Jun 2027 11:37:22.982             5.083           311.844
       318   10 Jun 2027 11:37:36.070   10 Jun 2027 11:37:37.888             1.818           331.625
       319   10 Jun 2027 11:37:51.531   10 Jun 2027 11:37:52.833             1.302           390.625
       320   11 Jun 2027 03:44:37.167   11 Jun 2027 03:44:58.306            21.139         10569.500
       321   11 Jun 2027 03:46:56.410   11 Jun 2027 03:47:12.718            16.308          8154.000
       322   11 Jun 2027 03:47:17.860   11 Jun 2027 03:47:17.860             0.000             0.000
       323   11 Jun 2027 03:47:53.817   11 Jun 2027 03:48:25.831            32.014         16007.000
       324   11 Jun 2027 05:18:24.470   11 Jun 2027 05:20:05.568           101.098         50549.000
       325   11 Jun 2027 05:20:07.404   11 Jun 2027 05:20:30.847            23.443         11721.500
       326   11 Jun 2027 05:23:04.615   11 Jun 2027 05:23:15.147            10.532          5266.000
       327   11 Jun 2027 05:24:14.696   11 Jun 2027 05:24:14.696             0.000             0.000
       328   11 Jun 2027 05:26:05.569   11 Jun 2027 05:26:18.769            13.200          6600.000
       329   11 Jun 2027 05:26:54.848   11 Jun 2027 05:26:55.009             0.161            80.500
       330   11 Jun 2027 06:55:33.260   11 Jun 2027 06:57:36.585           123.325         61662.500
       331   11 Jun 2027 06:59:49.189   11 Jun 2027 06:59:58.997             9.808          4904.000
       332   11 Jun 2027 08:32:47.666   11 Jun 2027 08:33:23.581            35.915         17507.688
       333   11 Jun 2027 08:33:28.187   11 Jun 2027 08:33:29.424             1.237           143.937
       334   11 Jun 2027 08:33:35.364   11 Jun 2027 08:33:36.031             0.667           185.625
       335   11 Jun 2027 08:34:58.383   11 Jun 2027 08:35:02.854             4.471          2178.594
       336   11 Jun 2027 08:35:33.476   11 Jun 2027 08:35:40.759             7.283           951.844
       337   11 Jun 2027 08:37:36.764   11 Jun 2027 08:37:46.018             9.254          3167.219
       338   11 Jun 2027 08:37:55.161   11 Jun 2027 08:37:55.631             0.470           185.156
       339   11 Jun 2027 08:38:11.862   11 Jun 2027 08:38:15.849             3.987           303.813
       340   11 Jun 2027 10:09:30.039   11 Jun 2027 10:09:48.015            17.976          8231.688
       341   11 Jun 2027 10:10:27.228   11 Jun 2027 10:10:31.571             4.343          1225.406
       342   11 Jun 2027 10:11:01.714   11 Jun 2027 10:11:05.546             3.832           784.594
       343   11 Jun 2027 10:11:19.609   11 Jun 2027 10:11:24.476             4.867           399.344
       344   11 Jun 2027 10:11:36.938   11 Jun 2027 10:11:44.088             7.150           325.938
       345   11 Jun 2027 10:11:56.212   11 Jun 2027 10:12:01.856             5.644           244.688
       346   11 Jun 2027 10:13:27.408   11 Jun 2027 10:13:35.016             7.608          2673.500
       347   11 Jun 2027 10:13:45.549   11 Jun 2027 10:13:47.030             1.481           329.156
       348   11 Jun 2027 11:44:41.539   11 Jun 2027 11:44:49.565             8.026          1447.156
       349   11 Jun 2027 11:46:58.218   11 Jun 2027 11:47:03.589             5.371          1815.844
       350   11 Jun 2027 11:48:32.755   11 Jun 2027 11:48:41.394             8.639          2782.094
       351   12 Jun 2027 03:56:50.230   12 Jun 2027 03:57:41.639            51.409         25704.500
       352   12 Jun 2027 03:57:52.881   12 Jun 2027 03:57:55.044             2.163          1081.500
       353   12 Jun 2027 03:59:03.086   12 Jun 2027 03:59:03.086             0.000             0.000
       354   12 Jun 2027 05:30:47.943   12 Jun 2027 05:32:23.630            95.687         47843.500
       355   12 Jun 2027 05:33:03.781   12 Jun 2027 05:33:42.909            39.128         19564.000
       356   12 Jun 2027 05:34:03.425   12 Jun 2027 05:34:31.432            28.007         14003.500
       357   12 Jun 2027 05:38:50.845   12 Jun 2027 05:38:53.665             2.820          1410.000
       358   12 Jun 2027 07:07:58.660   12 Jun 2027 07:10:07.386           128.726         63716.000
       359   12 Jun 2027 07:10:43.607   12 Jun 2027 07:10:45.795             2.188           520.344
       360   12 Jun 2027 07:11:08.130   12 Jun 2027 07:11:12.803             4.673           342.875
       361   12 Jun 2027 07:13:03.935   12 Jun 2027 07:13:06.161             2.226          1113.000
       362   12 Jun 2027 07:13:28.012   12 Jun 2027 07:13:34.949             6.937          2707.250
       363   12 Jun 2027 08:44:58.642   12 Jun 2027 08:45:29.162            30.520         14651.031
       364   12 Jun 2027 08:46:03.038   12 Jun 2027 08:46:03.794             0.756           378.000
       365   12 Jun 2027 08:46:07.143   12 Jun 2027 08:46:10.026             2.883           536.281
       366   12 Jun 2027 08:46:40.286   12 Jun 2027 08:46:43.065             2.779           871.563
       367   12 Jun 2027 08:47:43.159   12 Jun 2027 08:47:56.114            12.955          1066.250
       368   12 Jun 2027 08:48:16.798   12 Jun 2027 08:48:18.157             1.359           646.375
       369   12 Jun 2027 08:48:24.233   12 Jun 2027 08:48:24.233             0.000             0.000
       370   12 Jun 2027 08:48:48.985   12 Jun 2027 08:48:56.246             7.261           963.375
       371   12 Jun 2027 08:49:17.334   12 Jun 2027 08:49:18.250             0.916           458.000
       372   12 Jun 2027 08:49:41.716   12 Jun 2027 08:49:48.522             6.806           934.312
       373   12 Jun 2027 10:21:44.866   12 Jun 2027 10:22:03.661            18.795          9181.312
       374   12 Jun 2027 10:23:02.591   12 Jun 2027 10:23:04.995             2.404          1202.000
       375   12 Jun 2027 10:23:41.041   12 Jun 2027 10:23:45.135             4.094          1450.531
       376   12 Jun 2027 10:23:56.361   12 Jun 2027 10:23:56.361             0.000             0.000
       377   12 Jun 2027 10:24:27.813   12 Jun 2027 10:24:30.495             2.682          1307.844
       378   12 Jun 2027 10:25:24.143   12 Jun 2027 10:25:27.349             3.206           992.563
       379   12 Jun 2027 10:25:30.326   12 Jun 2027 10:25:33.248             2.922            75.313
       380   12 Jun 2027 10:25:49.378   12 Jun 2027 10:25:51.783             2.405           504.063
       381   12 Jun 2027 11:59:54.877   12 Jun 2027 11:59:55.968             1.091           545.500
       382   13 Jun 2027 04:08:55.611   13 Jun 2027 04:09:26.533            30.922         15461.000
       383   13 Jun 2027 04:10:27.191   13 Jun 2027 04:10:45.788            18.597          9298.500
       384   13 Jun 2027 05:44:04.469   13 Jun 2027 05:45:37.558            93.089         46544.500
       385   13 Jun 2027 05:46:02.186   13 Jun 2027 05:46:30.959            28.773         14386.500
       386   13 Jun 2027 05:46:53.340   13 Jun 2027 05:47:09.277            15.937          7968.500
       387   13 Jun 2027 05:47:35.844   13 Jun 2027 05:47:42.366             6.522          3261.000
       388   13 Jun 2027 05:49:54.238   13 Jun 2027 05:50:01.875             7.637          3818.500
       389   13 Jun 2027 05:50:45.429   13 Jun 2027 05:50:53.080             7.651          3825.500
       390   13 Jun 2027 07:20:24.494   13 Jun 2027 07:22:46.572           142.078         71039.000
       391   13 Jun 2027 07:24:03.925   13 Jun 2027 07:24:09.290             5.365          2682.500
       392   13 Jun 2027 07:25:22.960   13 Jun 2027 07:25:23.966             1.006           503.000
       393   13 Jun 2027 07:26:18.683   13 Jun 2027 07:26:21.885             3.202          1601.000
       394   13 Jun 2027 08:57:58.956   13 Jun 2027 08:58:35.152            36.196         14606.906
       395   13 Jun 2027 08:59:51.229   13 Jun 2027 08:59:56.126             4.897          2377.406
       396   13 Jun 2027 09:00:36.188   13 Jun 2027 09:00:38.275             2.087           868.063
       397   13 Jun 2027 09:01:41.882   13 Jun 2027 09:01:46.389             4.507          1771.875
       398   13 Jun 2027 09:01:56.304   13 Jun 2027 09:01:57.801             1.497           183.406
       399   13 Jun 2027 10:34:01.811   13 Jun 2027 10:34:18.495            16.684          7913.594
       400   13 Jun 2027 10:34:35.950   13 Jun 2027 10:34:38.388             2.438           323.469
       401   13 Jun 2027 10:34:42.087   13 Jun 2027 10:34:45.105             3.018            73.656
       402   13 Jun 2027 10:35:03.163   13 Jun 2027 10:35:06.194             3.031           492.438
       403   13 Jun 2027 10:35:44.666   13 Jun 2027 10:35:44.860             0.194            97.000
       404   13 Jun 2027 10:35:49.822   13 Jun 2027 10:35:52.080             2.258           875.656
       405   13 Jun 2027 10:36:37.385   13 Jun 2027 10:36:41.805             4.420          1261.844
       406   13 Jun 2027 10:37:02.110   13 Jun 2027 10:37:04.243             2.133           634.531
       407   13 Jun 2027 10:37:23.205   13 Jun 2027 10:37:29.215             6.010           242.875
       408   13 Jun 2027 10:37:52.392   13 Jun 2027 10:37:54.722             2.330           433.563
