uniorb/output/strategy_1/Camera/Camera_KinoSat_110710.txt

KinoSat_110710
-------------------------
    Access    *     Start Time (UTCG)     *     Stop Time (UTCG)  *   Duration (s) *   Data (Mbytes)
         1   01 Jun 2027 04:27:46.414   01 Jun 2027 04:29:53.992           127.578         63789.000
         2   01 Jun 2027 04:30:43.239   01 Jun 2027 04:30:43.239             0.000             0.000
         3   01 Jun 2027 04:30:57.673   01 Jun 2027 04:31:14.438            16.765          8382.500
         4   01 Jun 2027 06:02:44.381   01 Jun 2027 06:04:47.911           123.530         61765.000
         5   01 Jun 2027 06:05:11.626   01 Jun 2027 06:05:15.318             3.692          1846.000
         6   01 Jun 2027 06:08:58.300   01 Jun 2027 06:09:11.145            12.845          6422.500
         7   01 Jun 2027 06:09:43.925   01 Jun 2027 06:09:43.925             0.000             0.000
         8   01 Jun 2027 07:38:56.205   01 Jun 2027 07:41:25.005           148.800         74400.000
         9   01 Jun 2027 07:43:56.831   01 Jun 2027 07:44:07.434            10.603          5301.500
        10   01 Jun 2027 07:44:31.976   01 Jun 2027 07:44:44.984            13.008          6504.000
        11   01 Jun 2027 07:44:51.484   01 Jun 2027 07:44:55.886             4.402          2201.000
        12   01 Jun 2027 09:16:56.218   01 Jun 2027 09:19:04.345           128.127         64063.500
        13   01 Jun 2027 09:20:24.799   01 Jun 2027 09:20:33.449             8.650          4325.000
        14   01 Jun 2027 10:52:37.845   01 Jun 2027 10:54:43.621           125.776         62888.000
        15   01 Jun 2027 10:55:34.205   01 Jun 2027 10:55:38.661             4.456          2228.000
        16   01 Jun 2027 10:55:45.985   01 Jun 2027 10:55:58.334            12.349          6174.500
        17   01 Jun 2027 10:57:26.849   01 Jun 2027 10:57:36.188             9.339          4669.500
        18   02 Jun 2027 03:03:08.520   02 Jun 2027 03:03:18.374             9.854          4927.000
        19   02 Jun 2027 03:03:29.190   02 Jun 2027 03:03:33.309             4.119          2059.500
        20   02 Jun 2027 03:05:00.578   02 Jun 2027 03:05:00.578             0.000             0.000
        21   02 Jun 2027 03:05:16.081   02 Jun 2027 03:05:21.856             5.775          2887.500
        22   02 Jun 2027 03:05:53.667   02 Jun 2027 03:05:54.467             0.800           400.000
        23   02 Jun 2027 03:06:51.331   02 Jun 2027 03:06:55.241             3.910          1955.000
        24   02 Jun 2027 04:38:22.554   02 Jun 2027 04:38:28.110             5.556          2778.000
        25   02 Jun 2027 04:39:31.880   02 Jun 2027 04:41:05.398            93.518         46759.000
        26   02 Jun 2027 04:42:36.120   02 Jun 2027 04:42:53.722            17.602          8801.000
        27   02 Jun 2027 04:43:38.410   02 Jun 2027 04:43:42.670             4.260          2130.000
        28   02 Jun 2027 06:14:17.973   02 Jun 2027 06:15:44.200            86.227         43113.500
        29   02 Jun 2027 06:15:47.261   02 Jun 2027 06:16:08.550            21.289         10644.500
        30   02 Jun 2027 06:17:10.165   02 Jun 2027 06:17:18.192             8.027          4013.500
        31   02 Jun 2027 06:17:36.088   02 Jun 2027 06:17:44.466             8.378          4189.000
        32   02 Jun 2027 06:18:12.218   02 Jun 2027 06:18:17.246             5.028          2514.000
        33   02 Jun 2027 06:18:49.932   02 Jun 2027 06:18:56.164             6.232          3116.000
        34   02 Jun 2027 06:19:31.092   02 Jun 2027 06:19:33.198             2.106          1053.000
        35   02 Jun 2027 06:21:08.700   02 Jun 2027 06:21:28.916            20.216         10108.000
        36   02 Jun 2027 07:51:10.808   02 Jun 2027 07:53:02.244           111.436         55718.000
        37   02 Jun 2027 07:54:41.762   02 Jun 2027 07:54:54.183            12.421          6210.500
        38   02 Jun 2027 07:55:03.628   02 Jun 2027 07:55:13.114             9.486          4743.000
        39   02 Jun 2027 07:55:48.874   02 Jun 2027 07:55:50.499             1.625           812.500
        40   02 Jun 2027 07:56:14.727   02 Jun 2027 07:56:29.858            15.131          7565.500
        41   02 Jun 2027 09:29:18.044   02 Jun 2027 09:31:25.705           127.661         63830.500
        42   02 Jun 2027 09:32:51.399   02 Jun 2027 09:33:09.566            18.167          9083.500
        43   02 Jun 2027 11:02:33.885   02 Jun 2027 11:04:16.813           102.928         51464.000
        44   02 Jun 2027 11:04:22.799   02 Jun 2027 11:04:38.712            15.913          7956.500
        45   02 Jun 2027 11:05:08.775   02 Jun 2027 11:05:14.425             5.650          2825.000
        46   02 Jun 2027 11:05:29.896   02 Jun 2027 11:05:29.896             0.000             0.000
        47   02 Jun 2027 11:05:54.537   02 Jun 2027 11:05:58.360             3.823          1911.500
        48   02 Jun 2027 11:06:35.893   02 Jun 2027 11:06:39.077             3.184          1592.000
        49   02 Jun 2027 11:06:50.964   02 Jun 2027 11:06:52.083             1.119           559.500
        50   02 Jun 2027 11:07:07.675   02 Jun 2027 11:07:25.933            18.258          9129.000
        51   03 Jun 2027 03:14:06.629   03 Jun 2027 03:15:10.629            64.000         32000.000
        52   03 Jun 2027 04:49:17.074   03 Jun 2027 04:50:42.377            85.303         42651.500
        53   03 Jun 2027 04:51:15.476   03 Jun 2027 04:51:25.402             9.926          4963.000
        54   03 Jun 2027 04:54:09.994   03 Jun 2027 04:54:12.092             2.098          1049.000
        55   03 Jun 2027 04:54:34.365   03 Jun 2027 04:54:36.143             1.778           889.000
        56   03 Jun 2027 04:54:51.908   03 Jun 2027 04:55:09.600            17.692          8846.000
        57   03 Jun 2027 06:26:25.047   03 Jun 2027 06:27:27.933            62.886         31443.000
        58   03 Jun 2027 06:28:42.834   03 Jun 2027 06:28:56.067            13.233          6616.500
        59   03 Jun 2027 06:29:01.997   03 Jun 2027 06:29:13.361            11.364          5682.000
        60   03 Jun 2027 06:29:18.191   03 Jun 2027 06:29:21.217             3.026          1513.000
        61   03 Jun 2027 06:31:29.164   03 Jun 2027 06:31:39.088             9.924          4962.000
        62   03 Jun 2027 06:31:47.663   03 Jun 2027 06:31:48.244             0.581           290.500
        63   03 Jun 2027 08:03:22.717   03 Jun 2027 08:05:25.176           122.459         61229.500
        64   03 Jun 2027 08:06:04.852   03 Jun 2027 08:06:14.577             9.725          4862.500
        65   03 Jun 2027 08:07:32.511   03 Jun 2027 08:07:35.397             2.886          1443.000
        66   03 Jun 2027 08:07:51.653   03 Jun 2027 08:08:02.680            11.027          5513.500
        67   03 Jun 2027 09:41:15.803   03 Jun 2027 09:43:03.613           107.810         53905.000
        68   03 Jun 2027 09:43:55.619   03 Jun 2027 09:44:04.326             8.707          4353.500
        69   03 Jun 2027 09:44:32.377   03 Jun 2027 09:44:36.140             3.763          1881.500
        70   03 Jun 2027 11:14:42.548   03 Jun 2027 11:15:22.066            39.518         18466.375
        71   03 Jun 2027 11:16:04.485   03 Jun 2027 11:16:09.357             4.872          1190.531
        72   03 Jun 2027 11:16:27.713   03 Jun 2027 11:16:27.714             0.001             0.500
        73   03 Jun 2027 11:17:05.307   03 Jun 2027 11:17:12.274             6.967          1704.125
        74   03 Jun 2027 11:17:30.711   03 Jun 2027 11:17:30.711             0.000             0.000
        75   03 Jun 2027 11:17:56.197   03 Jun 2027 11:18:01.193             4.996          1372.594
        76   03 Jun 2027 11:18:24.700   03 Jun 2027 11:18:27.701             3.001           526.187
        77   03 Jun 2027 11:18:38.204   03 Jun 2027 11:18:38.747             0.543           187.969
        78   03 Jun 2027 11:19:13.317   03 Jun 2027 11:19:13.317             0.000             0.000
        79   03 Jun 2027 11:19:25.040   03 Jun 2027 11:19:29.765             4.725          1159.469
        80   03 Jun 2027 11:21:15.941   03 Jun 2027 11:21:28.211            12.270          3121.062
        81   04 Jun 2027 03:25:51.512   04 Jun 2027 03:26:11.407            19.895          9947.500
        82   04 Jun 2027 03:27:55.026   04 Jun 2027 03:27:58.073             3.047          1523.500
        83   04 Jun 2027 03:30:54.871   04 Jun 2027 03:30:57.581             2.710          1355.000
        84   04 Jun 2027 03:31:24.719   04 Jun 2027 03:31:26.913             2.194          1097.000
        85   04 Jun 2027 05:00:44.391   04 Jun 2027 05:02:50.863           126.472         63236.000
        86   04 Jun 2027 05:04:12.573   04 Jun 2027 05:04:18.724             6.151          3075.500
        87   04 Jun 2027 05:07:08.646   04 Jun 2027 05:07:24.757            16.111          8055.500
        88   04 Jun 2027 05:08:27.070   04 Jun 2027 05:08:27.070             0.000             0.000
        89   04 Jun 2027 05:09:16.092   04 Jun 2027 05:09:24.428             8.336          4168.000
        90   04 Jun 2027 06:39:08.545   04 Jun 2027 06:40:53.039           104.494         52247.000
        91   04 Jun 2027 06:41:04.053   04 Jun 2027 06:41:18.501            14.448          7224.000
        92   04 Jun 2027 06:41:49.730   04 Jun 2027 06:42:00.621            10.891          5445.500
        93   04 Jun 2027 06:43:23.699   04 Jun 2027 06:43:29.806             6.107          3053.500
        94   04 Jun 2027 06:45:48.213   04 Jun 2027 06:45:53.243             5.030          2515.000
        95   04 Jun 2027 08:15:14.581   04 Jun 2027 08:16:27.131            72.550         36227.562
        96   04 Jun 2027 08:17:36.387   04 Jun 2027 08:17:40.737             4.350          1560.375
        97   04 Jun 2027 08:18:05.328   04 Jun 2027 08:18:09.549             4.221           745.594
        98   04 Jun 2027 08:19:28.038   04 Jun 2027 08:19:35.847             7.809          2337.938
        99   04 Jun 2027 08:20:13.967   04 Jun 2027 08:20:15.806             1.839           919.500
       100   04 Jun 2027 08:20:35.120   04 Jun 2027 08:20:38.344             3.224           810.125
       101   04 Jun 2027 08:21:33.189   04 Jun 2027 08:21:38.191             5.002          1401.125
       102   04 Jun 2027 09:53:16.169   04 Jun 2027 09:53:35.973            19.804          9745.812
       103   04 Jun 2027 09:54:00.162   04 Jun 2027 09:54:00.162             0.000             0.000
       104   04 Jun 2027 09:54:18.868   04 Jun 2027 09:54:22.481             3.613          1340.469
       105   04 Jun 2027 09:54:57.643   04 Jun 2027 09:54:57.643             0.000             0.000
       106   04 Jun 2027 09:55:01.301   04 Jun 2027 09:55:02.876             1.575           787.500
       107   04 Jun 2027 09:55:25.516   04 Jun 2027 09:55:31.937             6.421          1041.500
       108   04 Jun 2027 09:56:15.348   04 Jun 2027 09:56:17.831             2.483          1016.000
       109   04 Jun 2027 09:56:26.157   04 Jun 2027 09:56:28.605             2.448           260.187
       110   04 Jun 2027 09:56:45.898   04 Jun 2027 09:56:49.050             3.152           540.406
       111   04 Jun 2027 09:57:22.891   04 Jun 2027 09:57:24.587             1.696           822.062
       112   04 Jun 2027 11:27:09.050   04 Jun 2027 11:27:15.288             6.238          2177.125
       113   04 Jun 2027 11:28:27.652   04 Jun 2027 11:28:32.125             4.473          2100.875
       114   04 Jun 2027 11:29:24.631   04 Jun 2027 11:29:31.182             6.551          1640.812
       115   04 Jun 2027 11:29:57.823   04 Jun 2027 11:29:59.810             1.987           832.531
       116   04 Jun 2027 11:30:37.787   04 Jun 2027 11:30:39.396             1.609           767.094
       117   04 Jun 2027 11:31:00.922   04 Jun 2027 11:31:00.922             0.000             0.000
       118   04 Jun 2027 11:31:39.601   04 Jun 2027 11:31:44.329             4.728          1569.094
       119   04 Jun 2027 11:32:43.034   04 Jun 2027 11:32:47.987             4.953          1834.531
       120   04 Jun 2027 11:33:37.759   04 Jun 2027 11:33:41.498             3.739          1460.906
       121   05 Jun 2027 03:37:27.245   05 Jun 2027 03:38:12.141            44.896         22448.000
       122   05 Jun 2027 03:38:44.445   05 Jun 2027 03:38:44.445             0.000             0.000
       123   05 Jun 2027 03:41:51.868   05 Jun 2027 03:42:01.761             9.893          4946.500
       124   05 Jun 2027 03:42:16.344   05 Jun 2027 03:42:19.640             3.296          1648.000
       125   05 Jun 2027 03:42:30.263   05 Jun 2027 03:42:36.697             6.434          3217.000
       126   05 Jun 2027 05:12:19.731   05 Jun 2027 05:14:38.917           139.186         69593.000
       127   05 Jun 2027 05:16:03.635   05 Jun 2027 05:16:11.402             7.767          3883.500
       128   05 Jun 2027 05:21:27.060   05 Jun 2027 05:21:32.173             5.113          2556.500
       129   05 Jun 2027 06:50:29.699   05 Jun 2027 06:52:25.440           115.741         57870.500
       130   05 Jun 2027 06:53:03.422   05 Jun 2027 06:53:19.078            15.656          7828.000
       131   05 Jun 2027 06:56:41.508   05 Jun 2027 06:56:43.181             1.673           836.500
       132   05 Jun 2027 08:27:24.464   05 Jun 2027 08:28:11.100            46.636         21839.313
       133   05 Jun 2027 08:28:54.281   05 Jun 2027 08:28:58.311             4.030          1349.406
       134   05 Jun 2027 08:29:40.321   05 Jun 2027 08:29:41.761             1.440           284.750
       135   05 Jun 2027 08:29:42.470   05 Jun 2027 08:29:42.775             0.305            22.156
       136   05 Jun 2027 08:31:07.229   05 Jun 2027 08:31:12.836             5.607          2441.219
       137   05 Jun 2027 08:32:00.807   05 Jun 2027 08:32:03.920             3.113          1499.094
       138   05 Jun 2027 08:32:50.892   05 Jun 2027 08:32:54.158             3.266          1467.875
       139   05 Jun 2027 08:33:26.463   05 Jun 2027 08:33:35.156             8.693          1009.531
       140   05 Jun 2027 10:04:30.944   05 Jun 2027 10:04:48.210            17.266          8254.125
       141   05 Jun 2027 10:05:15.982   05 Jun 2027 10:05:21.204             5.222           308.625
       142   05 Jun 2027 10:06:14.545   05 Jun 2027 10:06:18.131             3.586          1153.156
       143   05 Jun 2027 10:06:33.780   05 Jun 2027 10:06:35.821             2.041           290.906
       144   05 Jun 2027 10:06:59.287   05 Jun 2027 10:07:03.534             4.247           733.313
       145   05 Jun 2027 10:07:44.699   05 Jun 2027 10:07:48.345             3.646          1286.406
       146   05 Jun 2027 10:08:25.163   05 Jun 2027 10:08:26.417             1.254           627.000
       147   05 Jun 2027 10:08:51.792   05 Jun 2027 10:08:54.790             2.998          1316.531
       148   05 Jun 2027 10:09:22.514   05 Jun 2027 10:09:24.650             2.136           663.344
       149   05 Jun 2027 11:39:34.990   05 Jun 2027 11:39:42.911             7.921          1996.250
       150   05 Jun 2027 11:40:13.454   05 Jun 2027 11:40:16.608             3.154           954.344
       151   05 Jun 2027 11:41:32.555   05 Jun 2027 11:41:40.475             7.920          1712.312
       152   05 Jun 2027 11:42:48.859   05 Jun 2027 11:42:52.950             4.091          1546.219
       153   05 Jun 2027 11:43:31.662   05 Jun 2027 11:43:33.595             1.933           759.312
       154   05 Jun 2027 11:43:35.116   05 Jun 2027 11:43:37.864             2.748            47.531
       155   06 Jun 2027 03:51:54.312   06 Jun 2027 03:52:56.490            62.178         31089.000
       156   06 Jun 2027 03:54:19.759   06 Jun 2027 03:54:19.759             0.000             0.000
       157   06 Jun 2027 03:54:27.573   06 Jun 2027 03:54:34.366             6.793          3396.500
       158   06 Jun 2027 05:25:23.553   06 Jun 2027 05:27:28.482           124.929         62464.500
       159   06 Jun 2027 05:28:05.152   06 Jun 2027 05:28:39.078            33.926         16963.000
       160   06 Jun 2027 05:32:49.767   06 Jun 2027 05:33:06.882            17.115          8557.500
       161   06 Jun 2027 05:33:37.134   06 Jun 2027 05:33:46.752             9.618          4809.000
       162   06 Jun 2027 07:02:55.931   06 Jun 2027 07:04:51.012           115.081         57540.500
       163   06 Jun 2027 07:04:52.124   06 Jun 2027 07:04:55.868             3.744          1809.219
       164   06 Jun 2027 07:06:12.796   06 Jun 2027 07:06:18.562             5.766          2293.563
       165   06 Jun 2027 07:06:34.143   06 Jun 2027 07:06:34.961             0.818           393.219
       166   06 Jun 2027 07:06:55.255   06 Jun 2027 07:06:56.969             1.714           581.281
       167   06 Jun 2027 07:07:20.565   06 Jun 2027 07:07:24.738             4.173           737.375
       168   06 Jun 2027 07:07:48.146   06 Jun 2027 07:07:49.897             1.751           651.219
       169   06 Jun 2027 07:08:41.154   06 Jun 2027 07:08:42.329             1.175           587.500
       170   06 Jun 2027 08:39:51.424   06 Jun 2027 08:40:22.256            30.832         14115.875
       171   06 Jun 2027 08:40:30.385   06 Jun 2027 08:40:32.218             1.833            17.938
       172   06 Jun 2027 08:40:43.995   06 Jun 2027 08:40:45.554             1.559           345.906
       173   06 Jun 2027 08:40:47.455   06 Jun 2027 08:40:47.800             0.345            59.406
       174   06 Jun 2027 08:42:04.048   06 Jun 2027 08:42:11.764             7.716          2382.750
       175   06 Jun 2027 08:43:10.733   06 Jun 2027 08:43:14.664             3.931          1842.781
       176   06 Jun 2027 08:43:34.953   06 Jun 2027 08:43:36.181             1.228           614.000
       177   06 Jun 2027 08:44:10.780   06 Jun 2027 08:44:14.730             3.950          1101.250
       178   06 Jun 2027 08:44:23.756   06 Jun 2027 08:44:25.971             2.215           157.500
       179   06 Jun 2027 08:44:59.147   06 Jun 2027 08:45:03.280             4.133           998.812
       180   06 Jun 2027 10:16:42.715   06 Jun 2027 10:16:59.544            16.829          7756.500
       181   06 Jun 2027 10:17:38.152   06 Jun 2027 10:17:39.274             1.122           561.000
       182   06 Jun 2027 10:17:57.152   06 Jun 2027 10:17:57.868             0.716           358.000
       183   06 Jun 2027 10:18:40.134   06 Jun 2027 10:18:47.562             7.428          1963.219
       184   06 Jun 2027 10:18:57.868   06 Jun 2027 10:18:57.868             0.000             0.000
       185   06 Jun 2027 10:19:26.166   06 Jun 2027 10:19:29.695             3.529          1156.094
       186   06 Jun 2027 10:20:26.156   06 Jun 2027 10:20:29.314             3.158           988.031
       187   06 Jun 2027 10:20:50.754   06 Jun 2027 10:20:54.030             3.276           569.938
       188   06 Jun 2027 11:54:15.430   06 Jun 2027 11:54:24.070             8.640          2359.125
       189   06 Jun 2027 11:54:52.556   06 Jun 2027 11:54:52.556             0.000             0.000
       190   06 Jun 2027 11:54:59.968   06 Jun 2027 11:55:01.734             1.766           710.406
       191   06 Jun 2027 11:56:11.785   06 Jun 2027 11:56:18.022             6.237          1477.844
       192   07 Jun 2027 04:03:55.561   07 Jun 2027 04:04:41.102            45.541         22770.500
       193   07 Jun 2027 04:05:07.260   07 Jun 2027 04:05:16.498             9.238          4619.000
       194   07 Jun 2027 04:05:48.705   07 Jun 2027 04:05:59.466            10.761          5380.500
       195   07 Jun 2027 05:38:03.088   07 Jun 2027 05:40:16.398           133.310         66655.000
       196   07 Jun 2027 05:44:35.053   07 Jun 2027 05:44:50.112            15.059          7529.500
       197   07 Jun 2027 05:45:32.981   07 Jun 2027 05:45:46.448            13.467          6733.500
       198   07 Jun 2027 07:15:01.650   07 Jun 2027 07:17:02.510           120.860         60430.000
       199   07 Jun 2027 07:17:20.956   07 Jun 2027 07:17:29.101             8.145          3391.907
       200   07 Jun 2027 07:18:09.113   07 Jun 2027 07:18:11.621             2.508           841.750
       201   07 Jun 2027 07:19:20.111   07 Jun 2027 07:19:24.994             4.883          2137.125
       202   07 Jun 2027 07:20:14.180   07 Jun 2027 07:20:16.960             2.780          1318.594
       203   07 Jun 2027 07:21:08.636   07 Jun 2027 07:21:12.074             3.438          1551.562
       204   07 Jun 2027 08:52:38.495   07 Jun 2027 08:53:10.159            31.664         15654.750
       205   07 Jun 2027 08:53:45.882   07 Jun 2027 08:53:45.882             0.000             0.000
       206   07 Jun 2027 08:54:11.582   07 Jun 2027 08:54:18.995             7.413          1442.813
       207   07 Jun 2027 08:54:57.831   07 Jun 2027 08:55:00.759             2.928          1213.625
       208   07 Jun 2027 08:55:17.150   07 Jun 2027 08:55:17.155             0.005             2.500
       209   07 Jun 2027 08:55:37.861   07 Jun 2027 08:55:41.910             4.049          1156.781
       210   07 Jun 2027 08:55:58.341   07 Jun 2027 08:56:00.031             1.690           513.469
       211   07 Jun 2027 08:56:48.113   07 Jun 2027 08:56:48.113             0.000             0.000
       212   07 Jun 2027 08:57:03.782   07 Jun 2027 08:57:08.715             4.933          1992.219
       213   07 Jun 2027 10:28:46.276   07 Jun 2027 10:29:04.879            18.603          8039.719
       214   07 Jun 2027 10:30:04.513   07 Jun 2027 10:30:08.783             4.270          1273.125
       215   07 Jun 2027 10:30:59.448   07 Jun 2027 10:31:02.609             3.161           978.750
       216   07 Jun 2027 10:31:44.722   07 Jun 2027 10:31:48.673             3.951          1313.781
       217   07 Jun 2027 10:32:35.722   07 Jun 2027 10:32:37.731             2.009           600.031
       218   07 Jun 2027 10:32:57.743   07 Jun 2027 10:32:58.990             1.247           616.438
       219   07 Jun 2027 10:33:16.438   07 Jun 2027 10:33:16.438             0.000             0.000
       220   07 Jun 2027 10:33:25.766   07 Jun 2027 10:33:28.121             2.355           793.156
       221   07 Jun 2027 10:33:32.880   07 Jun 2027 10:33:34.156             1.276           110.844
       222   08 Jun 2027 04:16:05.733   08 Jun 2027 04:16:56.284            50.551         25275.500
       223   08 Jun 2027 04:17:29.609   08 Jun 2027 04:17:55.893            26.284         13142.000
       224   08 Jun 2027 04:19:04.423   08 Jun 2027 04:19:27.455            23.032         11516.000
       225   08 Jun 2027 05:51:15.867   08 Jun 2027 05:52:41.893            86.026         43013.000
       226   08 Jun 2027 05:52:47.018   08 Jun 2027 05:53:21.702            34.684         17342.000
       227   08 Jun 2027 05:57:20.200   08 Jun 2027 05:57:36.135            15.935          7967.500
       228   08 Jun 2027 05:57:43.134   08 Jun 2027 05:57:46.476             3.342          1671.000
       229   08 Jun 2027 07:27:37.799   08 Jun 2027 07:29:49.974           132.175         66028.219
       230   08 Jun 2027 07:30:23.645   08 Jun 2027 07:30:25.793             2.148          1052.219
       231   08 Jun 2027 07:31:29.380   08 Jun 2027 07:31:34.344             4.964          1883.406
       232   08 Jun 2027 09:04:56.069   08 Jun 2027 09:05:21.400            25.331         12500.813
       233   08 Jun 2027 09:06:38.572   08 Jun 2027 09:06:50.106            11.534          2376.156
       234   08 Jun 2027 09:07:29.262   08 Jun 2027 09:07:29.472             0.210           105.000
       235   08 Jun 2027 09:07:49.929   08 Jun 2027 09:07:53.984             4.055          1530.281
       236   08 Jun 2027 09:08:26.644   08 Jun 2027 09:08:31.112             4.468          1020.625
       237   08 Jun 2027 09:08:37.234   08 Jun 2027 09:08:37.807             0.573           191.312
       238   08 Jun 2027 09:08:44.560   08 Jun 2027 09:08:45.401             0.841           164.500
       239   08 Jun 2027 10:41:07.818   08 Jun 2027 10:41:25.130            17.312          7682.875
       240   08 Jun 2027 10:41:45.766   08 Jun 2027 10:41:46.457             0.691           286.031
       241   08 Jun 2027 10:42:40.803   08 Jun 2027 10:42:43.788             2.985          1492.500
       242   08 Jun 2027 10:42:47.315   08 Jun 2027 10:42:49.358             2.043           227.594
       243   08 Jun 2027 10:42:58.622   08 Jun 2027 10:42:59.186             0.564           106.844
       244   08 Jun 2027 10:43:36.781   08 Jun 2027 10:43:44.052             7.271          1174.844
       245   08 Jun 2027 10:43:54.831   08 Jun 2027 10:43:55.671             0.840           287.000
       246   08 Jun 2027 10:44:08.126   08 Jun 2027 10:44:12.493             4.367           389.219
       247   08 Jun 2027 10:44:35.031   08 Jun 2027 10:44:36.450             1.419           334.250
       248   08 Jun 2027 10:44:57.347   08 Jun 2027 10:45:00.459             3.112           449.062
       249   08 Jun 2027 10:45:19.737   08 Jun 2027 10:45:21.008             1.271           324.469
       250   09 Jun 2027 04:28:00.948   09 Jun 2027 04:29:36.548            95.600         47800.000
       251   09 Jun 2027 04:31:28.787   09 Jun 2027 04:31:37.368             8.581          4290.500
       252   09 Jun 2027 06:02:58.661   09 Jun 2027 06:04:45.670           107.009         53504.500
       253   09 Jun 2027 06:05:30.306   09 Jun 2027 06:05:38.762             8.456          4228.000
       254   09 Jun 2027 06:08:37.416   09 Jun 2027 06:08:46.732             9.316          4658.000
       255   09 Jun 2027 06:09:27.349   09 Jun 2027 06:09:37.345             9.996          4998.000
       256   09 Jun 2027 07:39:10.798   09 Jun 2027 07:41:06.514           115.716         56263.312
       257   09 Jun 2027 07:41:55.711   09 Jun 2027 07:42:05.952            10.241          1537.406
       258   09 Jun 2027 07:43:11.739   09 Jun 2027 07:43:14.296             2.557          1278.500
       259   09 Jun 2027 07:44:03.110   09 Jun 2027 07:44:07.383             4.273          1846.094
       260   09 Jun 2027 07:44:24.417   09 Jun 2027 07:44:27.510             3.093           397.063
       261   09 Jun 2027 07:45:26.728   09 Jun 2027 07:45:26.728             0.000             0.000
       262   09 Jun 2027 09:17:11.222   09 Jun 2027 09:17:37.264            26.042         10600.781
       263   09 Jun 2027 09:17:49.009   09 Jun 2027 09:17:53.856             4.847           101.938
       264   09 Jun 2027 09:18:29.570   09 Jun 2027 09:18:35.923             6.353          1096.781
       265   09 Jun 2027 09:18:40.392   09 Jun 2027 09:18:41.346             0.954            36.344
       266   09 Jun 2027 09:19:14.645   09 Jun 2027 09:19:16.908             2.263           368.969
       267   09 Jun 2027 09:19:35.178   09 Jun 2027 09:19:36.799             1.621           570.937
       268   09 Jun 2027 09:19:53.784   09 Jun 2027 09:19:59.430             5.646           444.563
       269   09 Jun 2027 09:20:21.395   09 Jun 2027 09:20:23.604             2.209           470.406
       270   09 Jun 2027 10:52:52.140   09 Jun 2027 10:53:06.697            14.557          7051.438
       271   09 Jun 2027 10:53:34.849   09 Jun 2027 10:53:37.901             3.052           877.906
       272   09 Jun 2027 10:54:07.510   09 Jun 2027 10:54:09.411             1.901           925.281
       273   09 Jun 2027 10:54:33.730   09 Jun 2027 10:54:36.268             2.538            20.719
       274   09 Jun 2027 10:55:00.179   09 Jun 2027 10:55:01.784             1.605           747.219
       275   09 Jun 2027 10:55:48.868   09 Jun 2027 10:55:52.310             3.442          1210.594
       276   09 Jun 2027 10:56:24.014   09 Jun 2027 10:56:31.344             7.330           894.125
       277   09 Jun 2027 10:57:05.196   09 Jun 2027 10:57:12.236             7.040           555.094
       278   09 Jun 2027 10:57:51.479   09 Jun 2027 10:57:56.828             5.349          1143.969
       279   09 Jun 2027 10:57:59.919   09 Jun 2027 10:58:00.820             0.901            15.469
       280   09 Jun 2027 10:58:16.642   09 Jun 2027 10:58:16.642             0.000             0.000
       281   10 Jun 2027 03:03:23.137   10 Jun 2027 03:03:35.377            12.240          6120.000
       282   10 Jun 2027 03:04:12.519   10 Jun 2027 03:04:21.433             8.914          4457.000
       283   10 Jun 2027 03:05:07.117   10 Jun 2027 03:05:15.516             8.399          4199.500
       284   10 Jun 2027 03:05:32.170   10 Jun 2027 03:05:32.170             0.000             0.000
       285   10 Jun 2027 04:38:36.983   10 Jun 2027 04:38:42.975             5.992          2996.000
       286   10 Jun 2027 04:39:46.568   10 Jun 2027 04:41:26.452            99.884         49942.000
       287   10 Jun 2027 04:41:35.104   10 Jun 2027 04:41:35.508             0.404           202.000
       288   10 Jun 2027 04:43:19.071   10 Jun 2027 04:43:22.443             3.372          1686.000
       289   10 Jun 2027 04:43:23.408   10 Jun 2027 04:43:35.672            12.264          6132.000
       290   10 Jun 2027 04:44:06.706   10 Jun 2027 04:44:09.976             3.270          1635.000
       291   10 Jun 2027 06:14:32.492   10 Jun 2027 06:15:58.667            86.175         43087.500
       292   10 Jun 2027 06:16:37.154   10 Jun 2027 06:16:39.643             2.489          1244.500
       293   10 Jun 2027 06:17:24.962   10 Jun 2027 06:17:32.915             7.953          3976.500
       294   10 Jun 2027 06:17:50.793   10 Jun 2027 06:18:03.188            12.395          6197.500
       295   10 Jun 2027 06:18:39.907   10 Jun 2027 06:19:04.697            24.790         12395.000
       296   10 Jun 2027 06:21:53.937   10 Jun 2027 06:22:05.430            11.493          5746.500
       297   10 Jun 2027 07:51:31.884   10 Jun 2027 07:53:04.624            92.740         44013.624
       298   10 Jun 2027 07:53:25.169   10 Jun 2027 07:53:26.724             1.555           542.031
       299   10 Jun 2027 07:54:18.392   10 Jun 2027 07:54:24.001             5.609          1614.625
       300   10 Jun 2027 07:54:26.601   10 Jun 2027 07:54:30.886             4.285            81.250
       301   10 Jun 2027 07:55:09.112   10 Jun 2027 07:55:12.059             2.947           990.562
       302   10 Jun 2027 07:55:27.963   10 Jun 2027 07:55:32.842             4.879           497.000
       303   10 Jun 2027 07:56:07.628   10 Jun 2027 07:56:10.147             2.519           844.375
       304   10 Jun 2027 09:29:32.909   10 Jun 2027 09:29:54.369            21.460         10730.000
       305   10 Jun 2027 09:30:12.147   10 Jun 2027 09:30:12.813             0.666           333.000
       306   10 Jun 2027 09:30:27.104   10 Jun 2027 09:30:30.207             3.103           984.843
       307   10 Jun 2027 09:31:19.199   10 Jun 2027 09:31:22.196             2.997          1347.969
       308   10 Jun 2027 09:32:24.613   10 Jun 2027 09:32:28.998             4.385          1648.875
       309   10 Jun 2027 09:32:54.051   10 Jun 2027 09:32:55.694             1.643           782.906
       310   10 Jun 2027 09:33:28.899   10 Jun 2027 09:33:29.536             0.637           318.500
       311   10 Jun 2027 11:02:48.115   10 Jun 2027 11:03:03.767            15.652          7239.094
       312   10 Jun 2027 11:04:03.285   10 Jun 2027 11:04:11.629             8.344           714.438
       313   10 Jun 2027 11:04:51.265   10 Jun 2027 11:04:54.270             3.005           807.844
       314   10 Jun 2027 11:05:23.635   10 Jun 2027 11:05:26.523             2.888           886.719
       315   10 Jun 2027 11:05:31.796   10 Jun 2027 11:05:34.558             2.762            36.969
       316   10 Jun 2027 11:06:09.174   10 Jun 2027 11:06:09.174             0.000             0.000
       317   10 Jun 2027 11:06:33.245   10 Jun 2027 11:06:36.914             3.669          1519.406
       318   10 Jun 2027 11:06:54.226   10 Jun 2027 11:06:56.735             2.509           541.000
       319   10 Jun 2027 11:07:23.309   10 Jun 2027 11:07:25.062             1.753           686.156
       320   10 Jun 2027 11:08:01.138   10 Jun 2027 11:08:01.138             0.000             0.000
       321   10 Jun 2027 11:08:12.566   10 Jun 2027 11:08:14.714             2.148           933.969
       322   10 Jun 2027 11:08:57.454   10 Jun 2027 11:09:01.325             3.871          1044.562
       323   10 Jun 2027 11:10:14.924   10 Jun 2027 11:10:20.889             5.965          1990.125
       324   10 Jun 2027 11:10:31.606   10 Jun 2027 11:10:34.978             3.372           334.906
       325   11 Jun 2027 03:14:21.149   11 Jun 2027 03:15:26.229            65.080         32540.000
       326   11 Jun 2027 04:49:29.715   11 Jun 2027 04:50:44.287            74.572         37286.000
       327   11 Jun 2027 04:52:02.711   11 Jun 2027 04:52:02.711             0.000             0.000
       328   11 Jun 2027 04:52:06.467   11 Jun 2027 04:52:13.115             6.648          3324.000
       329   11 Jun 2027 04:52:35.488   11 Jun 2027 04:52:47.426            11.938          5969.000
       330   11 Jun 2027 04:53:14.340   11 Jun 2027 04:53:36.844            22.504         11252.000
       331   11 Jun 2027 04:56:21.885   11 Jun 2027 04:56:22.609             0.724           362.000
       332   11 Jun 2027 04:57:24.763   11 Jun 2027 04:57:29.179             4.416          2208.000
       333   11 Jun 2027 06:26:40.067   11 Jun 2027 06:27:51.290            71.223         35611.500
       334   11 Jun 2027 06:27:58.083   11 Jun 2027 06:28:19.681            21.598         10799.000
       335   11 Jun 2027 06:28:46.061   11 Jun 2027 06:28:50.936             4.875          2437.500
       336   11 Jun 2027 06:29:44.253   11 Jun 2027 06:29:53.972             9.719          4859.500
       337   11 Jun 2027 06:33:07.695   11 Jun 2027 06:33:20.209            12.514          6257.000
       338   11 Jun 2027 08:03:37.414   11 Jun 2027 08:04:54.272            76.858         38385.813
       339   11 Jun 2027 08:06:19.505   11 Jun 2027 08:06:29.177             9.672          2495.156
       340   11 Jun 2027 08:07:47.169   11 Jun 2027 08:07:53.509             6.340          2437.250
       341   11 Jun 2027 08:08:32.812   11 Jun 2027 08:08:36.569             3.757          1228.219
       342   11 Jun 2027 09:41:30.450   11 Jun 2027 09:41:49.023            18.573          9286.500
       343   11 Jun 2027 09:42:38.225   11 Jun 2027 09:42:41.930             3.705          1639.469
       344   11 Jun 2027 09:43:23.925   11 Jun 2027 09:43:29.810             5.885          1205.344
       345   11 Jun 2027 09:44:27.032   11 Jun 2027 09:44:30.569             3.537          1307.813
       346   11 Jun 2027 09:45:24.438   11 Jun 2027 09:45:30.151             5.713          1159.656
       347   11 Jun 2027 11:14:57.837   11 Jun 2027 11:15:04.203             6.366          1714.531
       348   11 Jun 2027 11:15:40.307   11 Jun 2027 11:15:41.126             0.819           219.656
       349   11 Jun 2027 11:16:25.799   11 Jun 2027 11:16:28.701             2.902          1396.031
       350   11 Jun 2027 11:17:17.824   11 Jun 2027 11:17:22.266             4.442          1535.094
       351   11 Jun 2027 11:17:27.175   11 Jun 2027 11:17:39.978            12.803            96.563
       352   11 Jun 2027 11:18:03.009   11 Jun 2027 11:18:04.458             1.449           616.406
       353   11 Jun 2027 11:18:48.737   11 Jun 2027 11:18:54.252             5.515          1383.719
       354   11 Jun 2027 11:19:05.613   11 Jun 2027 11:19:08.845             3.232            91.844
       355   11 Jun 2027 11:20:24.562   11 Jun 2027 11:20:28.993             4.431          2150.031
       356   11 Jun 2027 11:22:13.679   11 Jun 2027 11:22:20.510             6.831          3271.437
       357   12 Jun 2027 03:26:06.105   12 Jun 2027 03:27:11.549            65.444         32722.000
       358   12 Jun 2027 03:30:58.555   12 Jun 2027 03:30:58.555             0.000             0.000
       359   12 Jun 2027 03:31:09.461   12 Jun 2027 03:31:17.554             8.093          4046.500
       360   12 Jun 2027 05:00:58.649   12 Jun 2027 05:03:05.869           127.220         63610.000
       361   12 Jun 2027 05:03:53.769   12 Jun 2027 05:03:53.769             0.000             0.000
       362   12 Jun 2027 05:06:54.923   12 Jun 2027 05:07:08.727            13.804          6902.000
       363   12 Jun 2027 05:09:48.013   12 Jun 2027 05:10:03.875            15.862          7931.000
       364   12 Jun 2027 06:38:41.327   12 Jun 2027 06:39:23.117            41.790         20895.000
       365   12 Jun 2027 06:39:52.714   12 Jun 2027 06:41:13.685            80.971         40485.500
       366   12 Jun 2027 06:42:44.891   12 Jun 2027 06:42:45.425             0.534           267.000
       367   12 Jun 2027 06:42:52.688   12 Jun 2027 06:42:55.811             3.123          1561.500
       368   12 Jun 2027 06:44:01.331   12 Jun 2027 06:44:11.267             9.936          4705.562
       369   12 Jun 2027 08:15:29.526   12 Jun 2027 08:16:06.778            37.252         18626.000
       370   12 Jun 2027 08:16:07.463   12 Jun 2027 08:16:09.593             2.130           478.219
       371   12 Jun 2027 08:17:02.861   12 Jun 2027 08:17:06.291             3.430          1506.000
       372   12 Jun 2027 08:17:58.163   12 Jun 2027 08:18:01.727             3.564          1298.719
       373   12 Jun 2027 08:19:17.667   12 Jun 2027 08:19:23.247             5.580          2239.219
       374   12 Jun 2027 08:20:03.414   12 Jun 2027 08:20:08.906             5.492          1206.469
       375   12 Jun 2027 08:20:25.385   12 Jun 2027 08:20:27.001             1.616           514.969
       376   12 Jun 2027 08:21:32.262   12 Jun 2027 08:21:33.888             1.626           813.000
       377   12 Jun 2027 08:21:38.320   12 Jun 2027 08:21:38.320             0.000             0.000
       378   12 Jun 2027 09:53:31.274   12 Jun 2027 09:53:50.708            19.434          9323.062
       379   12 Jun 2027 09:54:14.794   12 Jun 2027 09:54:14.794             0.000             0.000
       380   12 Jun 2027 09:54:33.611   12 Jun 2027 09:54:39.343             5.732          1340.719
       381   12 Jun 2027 09:55:12.361   12 Jun 2027 09:55:12.361             0.000             0.000
       382   12 Jun 2027 09:55:16.760   12 Jun 2027 09:55:17.527             0.767           383.500
       383   12 Jun 2027 09:55:38.981   12 Jun 2027 09:55:49.450            10.469          1393.625
       384   12 Jun 2027 09:56:24.906   12 Jun 2027 09:56:25.702             0.796           329.094
       385   12 Jun 2027 09:57:24.196   12 Jun 2027 09:57:29.382             5.186          1827.937
       386   12 Jun 2027 11:27:23.871   12 Jun 2027 11:27:26.461             2.590          1256.562
       387   12 Jun 2027 11:28:42.404   12 Jun 2027 11:28:47.224             4.820          2101.344
       388   12 Jun 2027 11:29:39.211   12 Jun 2027 11:29:44.242             5.031          1624.594
       389   12 Jun 2027 11:30:12.457   12 Jun 2027 11:30:16.076             3.619           829.906
       390   12 Jun 2027 11:30:54.044   12 Jun 2027 11:30:56.045             2.001           786.094
       391   12 Jun 2027 11:31:30.889   12 Jun 2027 11:31:33.541             2.652           836.313
       392   12 Jun 2027 11:31:50.622   12 Jun 2027 11:31:54.050             3.428           360.375
       393   12 Jun 2027 11:32:47.495   12 Jun 2027 11:32:53.354             5.859          1603.781
       394   12 Jun 2027 11:33:07.968   12 Jun 2027 11:33:13.032             5.064           392.875
       395   12 Jun 2027 11:33:51.866   12 Jun 2027 11:33:53.008             1.142            92.094
       396   13 Jun 2027 03:37:41.553   13 Jun 2027 03:38:28.477            46.924         23462.000
       397   13 Jun 2027 03:39:00.251   13 Jun 2027 03:39:00.251             0.000             0.000
       398   13 Jun 2027 03:42:45.821   13 Jun 2027 03:42:53.948             8.127          4063.500
       399   13 Jun 2027 05:13:42.073   13 Jun 2027 05:15:49.595           127.522         63761.000
       400   13 Jun 2027 05:16:18.298   13 Jun 2027 05:16:26.603             8.305          4152.500
       401   13 Jun 2027 05:18:44.305   13 Jun 2027 05:18:44.305             0.000             0.000
       402   13 Jun 2027 05:19:44.625   13 Jun 2027 05:19:48.638             4.013          2006.500
       403   13 Jun 2027 05:21:34.504   13 Jun 2027 05:21:44.478             9.974          4987.000
       404   13 Jun 2027 06:50:44.616   13 Jun 2027 06:52:52.994           128.378         64189.000
       405   13 Jun 2027 06:54:17.167   13 Jun 2027 06:54:19.491             2.324          1162.000
       406   13 Jun 2027 06:54:49.201   13 Jun 2027 06:55:02.345            13.144          6572.000
       407   13 Jun 2027 08:27:39.383   13 Jun 2027 08:28:20.545            41.162         20114.687
       408   13 Jun 2027 08:28:26.160   13 Jun 2027 08:28:31.873             5.713           174.781
       409   13 Jun 2027 08:28:39.958   13 Jun 2027 08:28:41.151             1.193           129.625
       410   13 Jun 2027 08:29:08.807   13 Jun 2027 08:29:11.010             2.203           828.531
       411   13 Jun 2027 08:29:44.036   13 Jun 2027 08:29:45.737             1.701           850.500
       412   13 Jun 2027 08:30:45.662   13 Jun 2027 08:30:48.811             3.149          1574.500
       413   13 Jun 2027 08:30:59.600   13 Jun 2027 08:31:04.307             4.707           816.875
       414   13 Jun 2027 08:31:53.283   13 Jun 2027 08:32:02.587             9.304          1528.531
       415   13 Jun 2027 08:32:16.134   13 Jun 2027 08:32:17.125             0.991           423.344
       416   13 Jun 2027 08:32:24.211   13 Jun 2027 08:32:31.964             7.753           140.938
       417   13 Jun 2027 08:33:07.023   13 Jun 2027 08:33:09.379             2.356          1060.563
       418   13 Jun 2027 08:33:22.762   13 Jun 2027 08:33:23.766             1.004           418.219
       419   13 Jun 2027 08:33:49.816   13 Jun 2027 08:33:54.163             4.347           813.875
       420   13 Jun 2027 10:04:45.630   13 Jun 2027 10:05:03.197            17.567          8254.656
       421   13 Jun 2027 10:06:39.178   13 Jun 2027 10:06:46.478             7.300          2462.781
       422   13 Jun 2027 10:07:18.177   13 Jun 2027 10:07:22.637             4.460           990.594
       423   13 Jun 2027 10:08:11.109   13 Jun 2027 10:08:17.334             6.225          1166.625
       424   13 Jun 2027 10:08:39.634   13 Jun 2027 10:08:41.383             1.749           361.125
       425   13 Jun 2027 10:09:16.241   13 Jun 2027 10:09:19.722             3.481          1089.312
       426   13 Jun 2027 11:39:44.969   13 Jun 2027 11:39:47.080             2.111          1055.500
       427   13 Jun 2027 11:39:58.213   13 Jun 2027 11:40:04.025             5.812           386.281
       428   13 Jun 2027 11:40:28.669   13 Jun 2027 11:40:29.098             0.429           135.031
       429   13 Jun 2027 11:41:27.701   13 Jun 2027 11:41:35.940             8.239           301.688
       430   13 Jun 2027 11:42:14.011   13 Jun 2027 11:42:18.030             4.019           877.156
       431   13 Jun 2027 11:42:31.640   13 Jun 2027 11:42:32.492             0.852           189.156
       432   13 Jun 2027 11:43:05.683   13 Jun 2027 11:43:06.859             1.176           421.594
       433   13 Jun 2027 11:43:48.290   13 Jun 2027 11:43:49.738             1.448           724.000
       434   13 Jun 2027 11:44:13.949   13 Jun 2027 11:44:18.489             4.540           837.344
