uniorb/output/strategy_1/Camera/Camera_KinoSat_110110.txt

KinoSat_110110
-------------------------
    Access    *     Start Time (UTCG)     *     Stop Time (UTCG)  *   Duration (s) *   Data (Mbytes)
         1   01 Jun 2027 03:18:28.183   01 Jun 2027 03:20:25.642           117.459         58729.500
         2   01 Jun 2027 03:20:31.916   01 Jun 2027 03:20:42.606            10.690          5345.000
         3   01 Jun 2027 03:21:43.014   01 Jun 2027 03:22:10.616            27.602         13801.000
         4   01 Jun 2027 03:23:25.049   01 Jun 2027 03:23:37.882            12.833          6416.500
         5   01 Jun 2027 03:24:32.517   01 Jun 2027 03:24:42.369             9.852          4926.000
         6   01 Jun 2027 04:55:22.725   01 Jun 2027 04:57:58.093           155.368         77684.000
         7   01 Jun 2027 04:59:41.370   01 Jun 2027 04:59:45.966             4.596          2298.000
         8   01 Jun 2027 04:59:50.584   01 Jun 2027 05:00:02.049            11.465          5732.500
         9   01 Jun 2027 05:00:20.519   01 Jun 2027 05:00:28.213             7.694          3847.000
        10   01 Jun 2027 05:00:53.947   01 Jun 2027 05:01:04.088            10.141          5070.500
        11   01 Jun 2027 05:01:08.715   01 Jun 2027 05:01:08.715             0.000             0.000
        12   01 Jun 2027 06:32:13.680   01 Jun 2027 06:34:32.207           138.527         69263.500
        13   01 Jun 2027 06:34:58.022   01 Jun 2027 06:35:18.984            20.962         10481.000
        14   01 Jun 2027 06:36:38.652   01 Jun 2027 06:36:45.738             7.086          3543.000
        15   01 Jun 2027 08:09:50.162   01 Jun 2027 08:11:34.621           104.459         52229.500
        16   02 Jun 2027 03:30:35.017   02 Jun 2027 03:37:16.611           401.594        200797.000
        17   02 Jun 2027 05:08:17.370   02 Jun 2027 05:10:15.823           118.453         59226.500
        18   02 Jun 2027 05:11:34.950   02 Jun 2027 05:12:44.082            69.132         34566.000
        19   02 Jun 2027 06:44:15.872   02 Jun 2027 06:46:45.936           150.064         75032.000
        20   02 Jun 2027 06:47:29.495   02 Jun 2027 06:47:34.740             5.245          2622.500
        21   02 Jun 2027 06:48:34.913   02 Jun 2027 06:48:45.102            10.189          5094.500
        22   03 Jun 2027 03:43:10.405   03 Jun 2027 03:49:21.719           371.314        185657.000
        23   03 Jun 2027 05:20:23.935   03 Jun 2027 05:24:29.323           245.388        122694.000
        24   03 Jun 2027 06:56:42.879   03 Jun 2027 06:59:28.628           165.749         82874.500
        25   03 Jun 2027 07:00:14.351   03 Jun 2027 07:00:21.157             6.806          3403.000
        26   03 Jun 2027 07:00:28.385   03 Jun 2027 07:00:48.400            20.015         10007.500
        27   04 Jun 2027 03:54:42.057   04 Jun 2027 04:01:09.182           387.125        193562.500
        28   04 Jun 2027 05:33:01.679   04 Jun 2027 05:36:52.344           230.665        115332.500
        29   04 Jun 2027 07:08:21.178   04 Jun 2027 07:10:58.986           157.808         78904.000
        30   04 Jun 2027 07:11:25.647   04 Jun 2027 07:11:28.986             3.339          1669.500
        31   04 Jun 2027 07:11:52.738   04 Jun 2027 07:12:03.661            10.923          5461.500
        32   04 Jun 2027 07:12:42.289   04 Jun 2027 07:13:00.492            18.203          9101.500
        33   05 Jun 2027 04:07:03.447   05 Jun 2027 04:13:24.708           381.261        190630.500
        34   05 Jun 2027 05:45:02.972   05 Jun 2027 05:48:46.944           223.972        111986.000
        35   05 Jun 2027 07:18:13.733   05 Jun 2027 07:20:41.395           147.662         73831.000
        36   05 Jun 2027 07:21:13.320   05 Jun 2027 07:21:22.213             8.893          4446.500
        37   05 Jun 2027 07:22:15.933   05 Jun 2027 07:22:36.473            20.540         10270.000
        38   05 Jun 2027 07:22:51.646   05 Jun 2027 07:22:56.478             4.832          2416.000
        39   05 Jun 2027 07:23:48.677   05 Jun 2027 07:24:02.496            13.819          6909.500
        40   05 Jun 2027 07:24:14.361   05 Jun 2027 07:24:26.553            12.192          6096.000
        41   05 Jun 2027 07:24:31.177   05 Jun 2027 07:24:35.982             4.805          2402.500
        42   05 Jun 2027 07:25:46.871   05 Jun 2027 07:26:01.942            15.071          7535.500
        43   06 Jun 2027 04:19:06.373   06 Jun 2027 04:25:16.747           370.374        185187.000
        44   06 Jun 2027 05:57:02.654   06 Jun 2027 06:00:43.127           220.473        110236.500
        45   06 Jun 2027 07:30:38.047   06 Jun 2027 07:32:21.772           103.725         51862.500
        46   06 Jun 2027 07:33:00.463   06 Jun 2027 07:33:01.535             1.072           536.000
        47   06 Jun 2027 07:33:16.420   06 Jun 2027 07:33:38.279            21.859         10929.500
        48   06 Jun 2027 07:35:04.517   06 Jun 2027 07:35:09.494             4.977          2488.500
        49   06 Jun 2027 07:35:27.131   06 Jun 2027 07:35:29.063             1.932           966.000
        50   06 Jun 2027 07:35:43.441   06 Jun 2027 07:35:52.427             8.986          4493.000
        51   06 Jun 2027 07:37:05.317   06 Jun 2027 07:37:18.163            12.846          6423.000
        52   06 Jun 2027 07:37:55.545   06 Jun 2027 07:38:07.688            12.143          6071.500
        53   07 Jun 2027 03:00:00.000   07 Jun 2027 03:01:38.415            98.415         49207.500
        54   07 Jun 2027 04:30:57.809   07 Jun 2027 04:35:11.104           253.295        126647.500
        55   07 Jun 2027 04:35:12.531   07 Jun 2027 04:35:25.670            13.139          6569.500
        56   07 Jun 2027 04:36:14.449   07 Jun 2027 04:36:27.485            13.036          6518.000
        57   07 Jun 2027 04:37:19.169   07 Jun 2027 04:37:42.500            23.331         11665.500
        58   07 Jun 2027 06:09:03.541   07 Jun 2027 06:11:34.830           151.289         75644.500
        59   07 Jun 2027 06:11:58.792   07 Jun 2027 06:12:09.003            10.211          5105.500
        60   07 Jun 2027 06:12:37.365   07 Jun 2027 06:12:55.527            18.162          9081.000
        61   07 Jun 2027 07:42:54.770   07 Jun 2027 07:44:50.259           115.489         57744.500
        62   07 Jun 2027 07:47:06.052   07 Jun 2027 07:47:15.944             9.892          4946.000
        63   07 Jun 2027 07:47:16.789   07 Jun 2027 07:47:21.327             4.538          2269.000
        64   07 Jun 2027 07:47:23.336   07 Jun 2027 07:47:28.622             5.286          2643.000
        65   07 Jun 2027 07:47:44.326   07 Jun 2027 07:47:46.849             2.523          1261.500
        66   07 Jun 2027 07:49:22.687   07 Jun 2027 07:49:34.428            11.741          5870.500
        67   08 Jun 2027 03:06:17.644   08 Jun 2027 03:10:39.697           262.053        131026.500
        68   08 Jun 2027 03:11:35.693   08 Jun 2027 03:11:59.827            24.134         12067.000
        69   08 Jun 2027 03:12:48.646   08 Jun 2027 03:13:02.028            13.382          6691.000
        70   08 Jun 2027 03:13:25.956   08 Jun 2027 03:13:35.682             9.726          4863.000
        71   08 Jun 2027 04:43:16.322   08 Jun 2027 04:45:54.210           157.888         78944.000
        72   08 Jun 2027 04:46:04.860   08 Jun 2027 04:46:06.653             1.793           896.500
        73   08 Jun 2027 04:46:16.726   08 Jun 2027 04:46:24.014             7.288          3644.000
        74   08 Jun 2027 04:47:18.035   08 Jun 2027 04:47:39.441            21.406         10703.000
        75   08 Jun 2027 04:48:36.638   08 Jun 2027 04:48:48.279            11.641          5820.500
        76   08 Jun 2027 06:20:17.529   08 Jun 2027 06:22:58.806           161.277         80638.500
        77   08 Jun 2027 06:23:18.702   08 Jun 2027 06:23:27.430             8.728          4364.000
        78   08 Jun 2027 06:23:50.381   08 Jun 2027 06:23:51.983             1.602           801.000
        79   08 Jun 2027 06:23:57.451   08 Jun 2027 06:23:59.678             2.227          1113.500
        80   08 Jun 2027 06:24:26.841   08 Jun 2027 06:24:33.695             6.854          3427.000
        81   08 Jun 2027 06:24:43.115   08 Jun 2027 06:24:52.767             9.652          4826.000
        82   08 Jun 2027 07:55:21.458   08 Jun 2027 07:56:02.623            41.165         20582.500
        83   08 Jun 2027 07:56:59.521   08 Jun 2027 07:57:33.072            33.551         16775.500
        84   08 Jun 2027 07:58:23.985   08 Jun 2027 07:58:36.544            12.559          6279.500
        85   08 Jun 2027 07:59:59.275   08 Jun 2027 08:00:16.400            17.125          8562.500
        86   09 Jun 2027 03:18:44.137   09 Jun 2027 03:24:41.801           357.664        178832.000
        87   09 Jun 2027 04:55:37.868   09 Jun 2027 04:58:22.015           164.147         82073.500
        88   09 Jun 2027 05:00:06.920   09 Jun 2027 05:00:29.082            22.162         11081.000
        89   09 Jun 2027 05:00:33.428   09 Jun 2027 05:00:34.477             1.049           524.500
        90   09 Jun 2027 05:01:01.382   09 Jun 2027 05:01:14.282            12.900          6450.000
        91   09 Jun 2027 06:32:29.316   09 Jun 2027 06:35:30.873           181.557         90778.500
        92   09 Jun 2027 08:09:41.078   09 Jun 2027 08:10:26.182            45.104         22552.000
        93   09 Jun 2027 08:11:12.203   09 Jun 2027 08:11:34.668            22.465         11232.500
        94   10 Jun 2027 03:30:50.299   10 Jun 2027 03:37:31.785           401.486        200743.000
        95   10 Jun 2027 05:08:33.129   10 Jun 2027 05:11:14.829           161.700         80850.000
        96   10 Jun 2027 05:12:48.953   10 Jun 2027 05:12:59.318            10.365          5182.500
        97   10 Jun 2027 06:44:37.253   10 Jun 2027 06:46:54.351           137.098         68549.000
        98   10 Jun 2027 06:47:08.603   10 Jun 2027 06:47:26.923            18.320          9160.000
        99   10 Jun 2027 06:47:49.843   10 Jun 2027 06:47:49.843             0.000             0.000
       100   10 Jun 2027 06:48:00.598   10 Jun 2027 06:48:07.028             6.430          3215.000
       101   10 Jun 2027 06:48:33.123   10 Jun 2027 06:48:37.460             4.337          2168.500
       102   11 Jun 2027 03:43:26.206   11 Jun 2027 03:49:18.129           351.923        175961.500
       103   11 Jun 2027 05:20:39.256   11 Jun 2027 05:23:43.801           184.545         92272.500
       104   11 Jun 2027 05:24:11.659   11 Jun 2027 05:24:47.567            35.908         17954.000
       105   11 Jun 2027 06:56:57.048   11 Jun 2027 06:59:16.434           139.386         69693.000
       106   11 Jun 2027 06:59:45.250   11 Jun 2027 06:59:51.556             6.306          3153.000
       107   11 Jun 2027 07:00:20.387   11 Jun 2027 07:00:36.338            15.951          7975.500
       108   11 Jun 2027 07:01:28.329   11 Jun 2027 07:01:38.764            10.435          5217.500
       109   12 Jun 2027 03:54:58.390   12 Jun 2027 04:01:18.867           380.477        190238.500
       110   12 Jun 2027 04:01:23.282   12 Jun 2027 04:01:24.313             1.031           515.500
       111   12 Jun 2027 05:33:16.380   12 Jun 2027 05:37:07.423           231.043        115521.500
       112   12 Jun 2027 07:08:36.036   12 Jun 2027 07:11:08.044           152.008         76004.000
       113   12 Jun 2027 07:12:24.075   12 Jun 2027 07:12:35.868            11.793          5896.500
       114   12 Jun 2027 07:12:54.794   12 Jun 2027 07:12:56.963             2.169          1084.500
       115   12 Jun 2027 07:13:36.734   12 Jun 2027 07:13:49.741            13.007          6503.500
       116   13 Jun 2027 04:07:18.622   13 Jun 2027 04:13:30.781           372.159        186079.500
       117   13 Jun 2027 05:45:17.974   13 Jun 2027 05:48:44.812           206.838        103419.000
       118   13 Jun 2027 05:49:12.924   13 Jun 2027 05:49:14.362             1.438           719.000
       119   13 Jun 2027 07:18:28.089   13 Jun 2027 07:20:58.702           150.613         75306.500
       120   13 Jun 2027 07:21:27.907   13 Jun 2027 07:21:36.851             8.944          4472.000
       121   13 Jun 2027 07:21:39.953   13 Jun 2027 07:21:43.106             3.153          1576.500
       122   13 Jun 2027 07:21:56.513   13 Jun 2027 07:22:00.229             3.716          1858.000
       123   13 Jun 2027 07:22:46.087   13 Jun 2027 07:23:03.830            17.743          8871.500
       124   13 Jun 2027 07:23:26.659   13 Jun 2027 07:23:32.372             5.713          2856.500
       125   13 Jun 2027 07:24:16.161   13 Jun 2027 07:24:29.147            12.986          6493.000
       126   13 Jun 2027 07:25:23.966   13 Jun 2027 07:25:30.287             6.321          3160.500
       127   13 Jun 2027 07:25:39.223   13 Jun 2027 07:25:39.365             0.142            71.000
       128   13 Jun 2027 07:25:55.357   13 Jun 2027 07:26:00.014             4.657          2328.500
