uniorb/output/strategy_1/Camera/Camera_KinoSat_111810.txt

KinoSat_111810
-------------------------
    Access    *     Start Time (UTCG)     *     Stop Time (UTCG)  *   Duration (s) *   Data (Mbytes)
         1   01 Jun 2027 03:54:15.685   01 Jun 2027 03:54:38.846            23.161         11580.500
         2   01 Jun 2027 03:54:42.305   01 Jun 2027 03:55:56.636            74.331         37165.500
         3   01 Jun 2027 03:56:16.827   01 Jun 2027 03:57:17.941            61.114         30557.000
         4   01 Jun 2027 05:32:38.365   01 Jun 2027 05:34:34.471           116.106         58053.000
         5   01 Jun 2027 05:35:00.801   01 Jun 2027 05:35:07.545             6.744          3372.000
         6   01 Jun 2027 05:35:38.367   01 Jun 2027 05:35:57.083            18.716          9358.000
         7   01 Jun 2027 05:36:08.742   01 Jun 2027 05:36:26.877            18.135          9067.500
         8   01 Jun 2027 06:56:41.256   01 Jun 2027 06:58:22.224           100.968         50484.000
         9   01 Jun 2027 08:32:38.498   01 Jun 2027 08:34:08.038            89.540         44770.000
        10   01 Jun 2027 08:34:56.043   01 Jun 2027 08:35:22.525            26.482         13241.000
        11   01 Jun 2027 10:06:28.180   01 Jun 2027 10:07:24.172            55.992         27996.000
        12   01 Jun 2027 10:07:55.267   01 Jun 2027 10:08:19.964            24.697         12348.500
        13   01 Jun 2027 10:08:56.126   01 Jun 2027 10:08:56.126             0.000             0.000
        14   01 Jun 2027 10:13:57.317   01 Jun 2027 10:14:14.178            16.861          8430.500
        15   01 Jun 2027 10:14:19.654   01 Jun 2027 10:14:42.944            23.290         11645.000
        16   01 Jun 2027 11:43:32.127   01 Jun 2027 11:44:19.651            47.524         23762.000
        17   01 Jun 2027 11:46:01.903   01 Jun 2027 11:46:01.903             0.000             0.000
        18   01 Jun 2027 11:48:56.811   01 Jun 2027 11:49:40.557            43.746         21873.000
        19   01 Jun 2027 11:50:10.816   01 Jun 2027 11:50:52.645            41.829         20914.500
        20   02 Jun 2027 04:06:53.246   02 Jun 2027 04:07:14.452            21.206         10603.000
        21   02 Jun 2027 04:08:58.011   02 Jun 2027 04:10:30.183            92.172         46086.000
        22   02 Jun 2027 04:10:47.764   02 Jun 2027 04:10:58.216            10.452          5226.000
        23   02 Jun 2027 04:11:24.161   02 Jun 2027 04:11:31.229             7.068          3534.000
        24   02 Jun 2027 05:45:13.268   02 Jun 2027 05:46:56.375           103.107         51553.500
        25   02 Jun 2027 05:47:58.852   02 Jun 2027 05:48:28.882            30.030         15015.000
        26   02 Jun 2027 07:08:35.553   02 Jun 2027 07:10:06.055            90.502         45251.000
        27   02 Jun 2027 07:10:59.125   02 Jun 2027 07:11:00.185             1.060           530.000
        28   02 Jun 2027 08:44:57.421   02 Jun 2027 08:47:08.890           131.469         65734.500
        29   02 Jun 2027 10:18:26.516   02 Jun 2027 10:19:24.982            58.466         29233.000
        30   02 Jun 2027 10:20:26.920   02 Jun 2027 10:20:46.237            19.317          9658.500
        31   02 Jun 2027 10:25:45.480   02 Jun 2027 10:26:02.670            17.190          8595.000
        32   02 Jun 2027 10:26:56.550   02 Jun 2027 10:26:57.971             1.421           710.500
        33   02 Jun 2027 11:55:58.945   02 Jun 2027 11:57:11.335            72.390         36195.000
        34   02 Jun 2027 11:58:05.812   02 Jun 2027 11:58:50.540            44.728         22364.000
        35   02 Jun 2027 11:59:06.193   02 Jun 2027 11:59:34.469            28.276         14138.000
        36   02 Jun 2027 11:59:50.703   02 Jun 2027 12:00:00.000             9.297          4648.500
        37   03 Jun 2027 04:18:46.832   03 Jun 2027 04:18:47.551             0.719           359.500
        38   03 Jun 2027 04:19:16.822   03 Jun 2027 04:20:41.201            84.379         42189.500
        39   03 Jun 2027 04:22:19.876   03 Jun 2027 04:22:25.821             5.945          2972.500
        40   03 Jun 2027 05:57:28.056   03 Jun 2027 05:59:31.600           123.544         61772.000
        41   03 Jun 2027 06:00:31.235   03 Jun 2027 06:00:58.839            27.604         13802.000
        42   03 Jun 2027 07:20:26.727   03 Jun 2027 07:22:33.786           127.059         63529.500
        43   03 Jun 2027 07:22:54.592   03 Jun 2027 07:23:03.029             8.437          4218.500
        44   03 Jun 2027 08:56:59.604   03 Jun 2027 08:57:29.712            30.108         15054.000
        45   03 Jun 2027 08:58:37.657   03 Jun 2027 08:59:27.396            49.739         24869.500
        46   03 Jun 2027 10:31:30.214   03 Jun 2027 10:32:50.752            80.538         40269.000
        47   03 Jun 2027 10:38:52.070   03 Jun 2027 10:38:52.524             0.454           227.000
        48   04 Jun 2027 03:00:00.000   04 Jun 2027 03:00:04.003             4.003          2001.500
        49   04 Jun 2027 04:30:55.698   04 Jun 2027 04:31:57.749            62.051         31025.500
        50   04 Jun 2027 04:32:04.738   04 Jun 2027 04:32:43.923            39.185         19592.500
        51   04 Jun 2027 04:33:04.151   04 Jun 2027 04:33:04.151             0.000             0.000
        52   04 Jun 2027 04:33:09.876   04 Jun 2027 04:33:09.876             0.000             0.000
        53   04 Jun 2027 04:33:45.931   04 Jun 2027 04:34:18.668            32.737         16368.500
        54   04 Jun 2027 04:37:10.385   04 Jun 2027 04:37:11.442             1.057           528.500
        55   04 Jun 2027 06:09:14.372   04 Jun 2027 06:09:45.463            31.091         15545.500
        56   04 Jun 2027 06:10:03.907   04 Jun 2027 06:11:04.868            60.961         30480.500
        57   04 Jun 2027 06:12:40.826   04 Jun 2027 06:12:49.142             8.316          4158.000
        58   04 Jun 2027 07:32:37.257   04 Jun 2027 07:34:39.200           121.943         60555.968
        59   04 Jun 2027 09:09:08.895   04 Jun 2027 09:09:24.559            15.664          7832.000
        60   04 Jun 2027 09:10:13.041   04 Jun 2027 09:10:21.800             8.759          2621.594
        61   04 Jun 2027 09:11:40.620   04 Jun 2027 09:11:48.916             8.296          2448.812
        62   04 Jun 2027 09:12:28.294   04 Jun 2027 09:12:30.513             2.219          1094.688
        63   04 Jun 2027 10:44:18.160   04 Jun 2027 10:44:27.982             9.822          4639.000
        64   04 Jun 2027 10:50:30.847   04 Jun 2027 10:50:53.008            22.161         10944.625
        65   05 Jun 2027 03:04:45.239   05 Jun 2027 03:05:00.694            15.455          7727.500
        66   05 Jun 2027 03:05:20.199   05 Jun 2027 03:05:55.117            34.918         17459.000
        67   05 Jun 2027 03:09:14.282   05 Jun 2027 03:09:33.427            19.145          9572.500
        68   05 Jun 2027 03:10:27.888   05 Jun 2027 03:10:33.714             5.826          2913.000
        69   05 Jun 2027 03:10:50.298   05 Jun 2027 03:10:58.109             7.811          3905.500
        70   05 Jun 2027 04:44:02.502   05 Jun 2027 04:45:25.798            83.296         41648.000
        71   05 Jun 2027 04:45:45.851   05 Jun 2027 04:45:54.760             8.909          4454.500
        72   05 Jun 2027 04:46:17.830   05 Jun 2027 04:46:36.183            18.353          9176.500
        73   05 Jun 2027 04:50:48.604   05 Jun 2027 04:50:55.283             6.679          3339.500
        74   05 Jun 2027 06:21:11.432   05 Jun 2027 06:21:50.274            38.842         19421.000
        75   05 Jun 2027 06:22:12.789   05 Jun 2027 06:22:54.951            42.162         21081.000
        76   05 Jun 2027 06:23:15.202   05 Jun 2027 06:23:18.843             3.641          1820.500
        77   05 Jun 2027 06:23:24.268   05 Jun 2027 06:23:55.002            30.734         15367.000
        78   05 Jun 2027 07:45:14.172   05 Jun 2027 07:46:24.032            69.860         31582.406
        79   05 Jun 2027 09:21:02.201   05 Jun 2027 09:21:14.201            12.000          6000.000
        80   05 Jun 2027 09:21:34.596   05 Jun 2027 09:21:36.796             2.200          1100.000
        81   05 Jun 2027 09:22:38.919   05 Jun 2027 09:22:39.850             0.931           465.500
        82   05 Jun 2027 10:55:59.369   05 Jun 2027 10:56:23.237            23.868         10996.281
        83   05 Jun 2027 10:59:03.110   05 Jun 2027 10:59:07.401             4.291          2145.500
        84   05 Jun 2027 11:02:37.540   05 Jun 2027 11:02:58.302            20.762          9308.094
        85   05 Jun 2027 11:02:59.558   05 Jun 2027 11:03:00.891             1.333            39.250
        86   06 Jun 2027 03:17:23.615   06 Jun 2027 03:18:57.845            94.230         47115.000
        87   06 Jun 2027 03:20:42.548   06 Jun 2027 03:20:59.866            17.318          8659.000
        88   06 Jun 2027 03:21:36.155   06 Jun 2027 03:21:40.156             4.001          2000.500
        89   06 Jun 2027 03:22:41.199   06 Jun 2027 03:22:41.199             0.000             0.000
        90   06 Jun 2027 03:22:59.988   06 Jun 2027 03:23:05.685             5.697          2848.500
        91   06 Jun 2027 04:56:06.309   06 Jun 2027 04:57:26.450            80.141         40070.500
        92   06 Jun 2027 04:58:07.082   06 Jun 2027 04:58:17.667            10.585          5292.500
        93   06 Jun 2027 05:00:54.483   06 Jun 2027 05:01:17.015            22.532         11266.000
        94   06 Jun 2027 06:22:00.891   06 Jun 2027 06:22:45.524            44.633         22316.500
        95   06 Jun 2027 06:33:07.467   06 Jun 2027 06:33:51.342            43.875         21937.500
        96   06 Jun 2027 07:56:04.801   06 Jun 2027 07:56:49.691            44.890         22445.000
        97   06 Jun 2027 07:59:55.393   06 Jun 2027 08:00:07.649            12.256          6128.000
        98   06 Jun 2027 09:31:44.672   06 Jun 2027 09:31:51.542             6.870          3435.000
        99   06 Jun 2027 09:32:46.887   06 Jun 2027 09:32:52.853             5.966          2261.156
       100   06 Jun 2027 09:33:03.468   06 Jun 2027 09:33:07.111             3.643           160.125
       101   06 Jun 2027 09:35:58.894   06 Jun 2027 09:36:09.812            10.918          5368.219
       102   06 Jun 2027 09:36:24.690   06 Jun 2027 09:36:27.774             3.084           452.375
       103   06 Jun 2027 09:37:05.097   06 Jun 2027 09:37:08.806             3.709          1146.156
       104   06 Jun 2027 11:08:10.876   06 Jun 2027 11:08:10.876             0.000             0.000
       105   06 Jun 2027 11:10:53.891   06 Jun 2027 11:11:02.134             8.243          4121.500
       106   06 Jun 2027 11:14:26.156   06 Jun 2027 11:14:51.598            25.442         12592.906
       107   06 Jun 2027 11:14:55.310   06 Jun 2027 11:15:04.332             9.022           116.000
       108   07 Jun 2027 03:29:29.995   07 Jun 2027 03:31:14.187           104.192         52096.000
       109   07 Jun 2027 03:31:16.147   07 Jun 2027 03:31:20.878             4.731          2365.500
       110   07 Jun 2027 03:32:43.482   07 Jun 2027 03:32:43.482             0.000             0.000
       111   07 Jun 2027 03:33:04.400   07 Jun 2027 03:33:11.604             7.204          3602.000
       112   07 Jun 2027 03:35:24.761   07 Jun 2027 03:35:30.267             5.506          2753.000
       113   07 Jun 2027 05:08:35.917   07 Jun 2027 05:09:22.551            46.634         23317.000
       114   07 Jun 2027 05:10:42.615   07 Jun 2027 05:11:29.112            46.497         23248.500
       115   07 Jun 2027 05:12:30.838   07 Jun 2027 05:13:07.162            36.324         18162.000
       116   07 Jun 2027 06:33:27.998   07 Jun 2027 06:34:09.203            41.205         20602.500
       117   07 Jun 2027 06:45:10.178   07 Jun 2027 06:45:48.800            38.622         19311.000
       118   07 Jun 2027 06:46:08.168   07 Jun 2027 06:46:09.107             0.939           469.500
       119   07 Jun 2027 08:07:23.704   07 Jun 2027 08:07:57.407            33.703         16118.657
       120   07 Jun 2027 08:09:55.189   07 Jun 2027 08:10:04.317             9.128          3343.781
       121   07 Jun 2027 08:11:15.780   07 Jun 2027 08:11:15.780             0.000             0.000
       122   07 Jun 2027 08:11:34.800   07 Jun 2027 08:11:41.248             6.448          2638.594
       123   07 Jun 2027 08:11:59.102   07 Jun 2027 08:12:00.488             1.386           557.938
       124   07 Jun 2027 09:42:28.617   07 Jun 2027 09:42:37.989             9.372          4652.844
       125   07 Jun 2027 09:43:12.073   07 Jun 2027 09:43:13.407             1.334           369.469
       126   07 Jun 2027 09:43:39.346   07 Jun 2027 09:43:39.346             0.000             0.000
       127   07 Jun 2027 09:44:31.362   07 Jun 2027 09:44:39.854             8.492          1921.469
       128   07 Jun 2027 09:48:56.418   07 Jun 2027 09:48:59.965             3.547          1773.500
       129   07 Jun 2027 11:19:47.568   07 Jun 2027 11:20:10.716            23.148          9740.344
       130   07 Jun 2027 11:20:50.278   07 Jun 2027 11:20:55.474             5.196          1211.844
       131   07 Jun 2027 11:21:04.336   07 Jun 2027 11:21:05.476             1.140           276.937
       132   07 Jun 2027 11:26:10.384   07 Jun 2027 11:26:31.922            21.538          9528.375
       133   07 Jun 2027 11:26:45.723   07 Jun 2027 11:26:48.980             3.257           204.188
       134   08 Jun 2027 03:41:49.408   08 Jun 2027 03:42:58.904            69.496         34748.000
       135   08 Jun 2027 03:43:00.738   08 Jun 2027 03:44:00.178            59.440         29720.000
       136   08 Jun 2027 03:44:05.640   08 Jun 2027 03:44:21.471            15.831          7915.500
       137   08 Jun 2027 03:46:18.848   08 Jun 2027 03:46:27.292             8.444          4222.000
       138   08 Jun 2027 05:20:37.113   08 Jun 2027 05:22:01.882            84.769         42384.500
       139   08 Jun 2027 05:26:27.488   08 Jun 2027 05:26:55.863            28.375         14187.500
       140   08 Jun 2027 06:44:57.409   08 Jun 2027 06:46:40.167           102.758         50867.844
       141   08 Jun 2027 06:57:12.104   08 Jun 2027 06:57:29.146            17.042          8521.000
       142   08 Jun 2027 08:19:08.618   08 Jun 2027 08:19:29.621            21.003         10501.500
       143   08 Jun 2027 08:20:03.708   08 Jun 2027 08:20:10.628             6.920          1960.469
       144   08 Jun 2027 08:21:53.393   08 Jun 2027 08:22:01.075             7.682          2742.750
       145   08 Jun 2027 08:22:16.795   08 Jun 2027 08:22:17.557             0.762             4.969
       146   08 Jun 2027 08:22:44.996   08 Jun 2027 08:22:48.308             3.312           554.312
       147   08 Jun 2027 09:54:46.046   08 Jun 2027 09:55:01.743            15.697          6698.688
       148   08 Jun 2027 09:55:47.097   08 Jun 2027 09:55:47.687             0.590           191.844
       149   08 Jun 2027 09:59:33.882   08 Jun 2027 09:59:51.190            17.308          7010.312
       150   08 Jun 2027 10:00:14.011   08 Jun 2027 10:00:17.362             3.351           122.250
       151   08 Jun 2027 11:34:25.605   08 Jun 2027 11:34:25.605             0.000             0.000
       152   08 Jun 2027 11:35:46.278   08 Jun 2027 11:36:13.323            27.045         13366.031
       153   08 Jun 2027 11:36:32.480   08 Jun 2027 11:36:35.515             3.035           293.969
       154   08 Jun 2027 11:37:08.640   08 Jun 2027 11:37:13.338             4.698           959.063
       155   08 Jun 2027 11:37:55.487   08 Jun 2027 11:38:01.671             6.184           888.219
       156   08 Jun 2027 11:38:23.232   08 Jun 2027 11:38:33.706            10.474           623.875
       157   09 Jun 2027 03:54:33.682   09 Jun 2027 03:55:57.306            83.624         41812.000
       158   09 Jun 2027 03:58:29.992   09 Jun 2027 03:59:06.572            36.580         18290.000
       159   09 Jun 2027 03:59:27.716   09 Jun 2027 03:59:39.040            11.324          5662.000
       160   09 Jun 2027 05:32:59.006   09 Jun 2027 05:34:32.850            93.844         46922.000
       161   09 Jun 2027 05:36:53.986   09 Jun 2027 05:37:17.540            23.554         11777.000
       162   09 Jun 2027 06:56:57.861   09 Jun 2027 06:58:38.218           100.357         50178.500
       163   09 Jun 2027 08:32:55.356   09 Jun 2027 08:33:23.597            28.241         11652.500
       164   09 Jun 2027 08:35:58.598   09 Jun 2027 08:36:10.121            11.523          4658.781
       165   09 Jun 2027 10:06:45.445   09 Jun 2027 10:07:02.609            17.164          6274.687
       166   09 Jun 2027 10:08:48.961   09 Jun 2027 10:08:48.961             0.000             0.000
       167   09 Jun 2027 10:09:09.883   09 Jun 2027 10:09:16.570             6.687          2740.969
       168   09 Jun 2027 10:09:37.902   09 Jun 2027 10:09:40.002             2.100           656.125
       169   09 Jun 2027 10:10:17.401   09 Jun 2027 10:10:24.318             6.917          1070.625
       170   09 Jun 2027 10:10:38.843   09 Jun 2027 10:10:41.028             2.185           254.000
       171   09 Jun 2027 10:10:57.299   09 Jun 2027 10:11:01.793             4.494           395.938
       172   09 Jun 2027 10:11:38.421   09 Jun 2027 10:11:40.247             1.826           871.656
       173   09 Jun 2027 10:12:35.576   09 Jun 2027 10:12:41.547             5.971          1729.031
       174   09 Jun 2027 10:13:08.188   09 Jun 2027 10:13:11.579             3.391           786.000
       175   09 Jun 2027 10:14:15.342   09 Jun 2027 10:14:18.443             3.101          1550.500
       176   09 Jun 2027 10:14:42.664   09 Jun 2027 10:14:44.721             2.057           790.781
       177   09 Jun 2027 10:14:57.666   09 Jun 2027 10:15:04.096             6.430           404.531
       178   09 Jun 2027 11:43:52.094   09 Jun 2027 11:44:06.572            14.478          6949.563
       179   09 Jun 2027 11:44:30.586   09 Jun 2027 11:44:35.172             4.586           316.906
       180   09 Jun 2027 11:45:04.933   09 Jun 2027 11:45:09.793             4.860           930.031
       181   09 Jun 2027 11:45:55.452   09 Jun 2027 11:45:58.360             2.908          1331.250
       182   09 Jun 2027 11:46:40.373   09 Jun 2027 11:46:42.785             2.412           947.312
       183   09 Jun 2027 11:47:29.855   09 Jun 2027 11:47:37.961             8.106          1197.937
       184   09 Jun 2027 11:47:54.349   09 Jun 2027 11:47:59.100             4.751           299.125
       185   09 Jun 2027 11:49:09.494   09 Jun 2027 11:49:14.997             5.503          2199.812
       186   09 Jun 2027 11:49:23.618   09 Jun 2027 11:49:26.432             2.814           212.781
       187   09 Jun 2027 11:50:07.354   09 Jun 2027 11:50:13.905             6.551          1026.156
       188   10 Jun 2027 04:07:20.939   10 Jun 2027 04:07:29.646             8.707          4353.500
       189   10 Jun 2027 04:07:58.165   10 Jun 2027 04:08:46.268            48.103         24051.500
       190   10 Jun 2027 04:08:48.819   10 Jun 2027 04:09:12.421            23.602         11801.000
       191   10 Jun 2027 04:11:11.907   10 Jun 2027 04:11:13.175             1.268           634.000
       192   10 Jun 2027 04:11:39.924   10 Jun 2027 04:12:00.775            20.851         10425.500
       193   10 Jun 2027 04:12:08.492   10 Jun 2027 04:12:21.501            13.009          6504.500
       194   10 Jun 2027 05:45:29.642   10 Jun 2027 05:47:24.363           114.721         57360.500
       195   10 Jun 2027 05:48:14.603   10 Jun 2027 05:48:44.003            29.400         14700.000
       196   10 Jun 2027 07:08:52.675   10 Jun 2027 07:10:22.751            90.076         45038.000
       197   10 Jun 2027 07:10:56.996   10 Jun 2027 07:11:06.609             9.613          4051.719
       198   10 Jun 2027 08:45:16.344   10 Jun 2027 08:45:39.450            23.106         10755.531
       199   10 Jun 2027 08:45:46.722   10 Jun 2027 08:45:47.962             1.240           227.250
       200   10 Jun 2027 08:47:58.981   10 Jun 2027 08:48:07.874             8.893          4094.344
       201   10 Jun 2027 10:18:44.438   10 Jun 2027 10:18:55.624            11.186          3743.219
       202   10 Jun 2027 10:19:42.934   10 Jun 2027 10:19:49.221             6.287           243.406
       203   10 Jun 2027 10:21:06.742   10 Jun 2027 10:21:09.150             2.408           718.688
       204   10 Jun 2027 10:21:27.731   10 Jun 2027 10:21:32.220             4.489           461.031
       205   10 Jun 2027 10:24:33.959   10 Jun 2027 10:24:33.959             0.000             0.000
       206   10 Jun 2027 10:25:47.930   10 Jun 2027 10:26:03.310            15.380          7688.063
       207   10 Jun 2027 10:26:23.276   10 Jun 2027 10:26:25.431             2.155           608.094
       208   10 Jun 2027 10:26:25.560   10 Jun 2027 10:26:26.754             1.194             4.031
       209   10 Jun 2027 10:26:58.496   10 Jun 2027 10:27:01.988             3.492           174.094
       210   10 Jun 2027 11:56:18.219   10 Jun 2027 11:56:35.250            17.031          8033.313
       211   10 Jun 2027 11:57:12.011   10 Jun 2027 11:57:13.396             1.385           692.500
       212   10 Jun 2027 11:58:18.863   10 Jun 2027 11:58:23.742             4.879          2439.500
       213   10 Jun 2027 11:58:31.412   10 Jun 2027 11:58:32.175             0.763           243.375
       214   10 Jun 2027 11:58:38.701   10 Jun 2027 11:58:40.975             2.274           203.937
       215   10 Jun 2027 11:59:50.438   10 Jun 2027 11:59:53.478             3.040          1423.781
       216   11 Jun 2027 04:19:04.711   11 Jun 2027 04:19:09.044             4.333          2166.500
       217   11 Jun 2027 04:19:34.002   11 Jun 2027 04:21:08.819            94.817         47408.500
       218   11 Jun 2027 04:22:30.789   11 Jun 2027 04:22:43.918            13.129          6564.500
       219   11 Jun 2027 04:24:26.561   11 Jun 2027 04:24:28.806             2.245          1122.500
       220   11 Jun 2027 05:57:45.460   11 Jun 2027 05:59:25.946           100.486         50243.000
       221   11 Jun 2027 05:59:26.963   11 Jun 2027 05:59:50.469            23.506         11753.000
       222   11 Jun 2027 06:00:03.525   11 Jun 2027 06:00:24.100            20.575         10287.500
       223   11 Jun 2027 06:01:12.463   11 Jun 2027 06:01:16.006             3.543          1771.500
       224   11 Jun 2027 07:20:40.235   11 Jun 2027 07:22:10.797            90.562         45281.000
       225   11 Jun 2027 08:57:17.998   11 Jun 2027 08:57:35.470            17.472          8608.469
       226   11 Jun 2027 08:58:03.649   11 Jun 2027 08:58:06.725             3.076           535.531
       227   11 Jun 2027 08:59:45.278   11 Jun 2027 08:59:54.133             8.855          3042.281
       228   11 Jun 2027 10:32:13.401   11 Jun 2027 10:32:24.267            10.866          5242.125
       229   11 Jun 2027 10:33:25.394   11 Jun 2027 10:33:25.394             0.000             0.000
       230   11 Jun 2027 10:36:17.905   11 Jun 2027 10:36:30.152            12.247          5958.812
       231   11 Jun 2027 10:36:46.030   11 Jun 2027 10:36:49.147             3.117           361.656
       232   11 Jun 2027 10:36:56.557   11 Jun 2027 10:37:03.188             6.631           226.844
       233   11 Jun 2027 10:37:20.592   11 Jun 2027 10:37:20.848             0.256            93.094
       234   11 Jun 2027 10:37:47.862   11 Jun 2027 10:37:55.344             7.482           736.156
       235   11 Jun 2027 10:39:03.748   11 Jun 2027 10:39:08.540             4.792          2071.500
       236   12 Jun 2027 03:00:00.000   12 Jun 2027 03:00:17.235            17.235          8617.500
       237   12 Jun 2027 04:31:13.408   12 Jun 2027 04:32:15.368            61.960         30980.000
       238   12 Jun 2027 04:32:21.833   12 Jun 2027 04:33:01.724            39.891         19945.500
       239   12 Jun 2027 04:33:18.854   12 Jun 2027 04:33:24.056             5.202          2601.000
       240   12 Jun 2027 04:33:55.009   12 Jun 2027 04:33:58.014             3.005          1502.500
       241   12 Jun 2027 04:36:04.636   12 Jun 2027 04:36:05.128             0.492           246.000
       242   12 Jun 2027 04:36:30.204   12 Jun 2027 04:36:39.278             9.074          4537.000
       243   12 Jun 2027 04:36:52.102   12 Jun 2027 04:36:54.416             2.314          1157.000
       244   12 Jun 2027 04:37:20.375   12 Jun 2027 04:37:27.588             7.213          3606.500
       245   12 Jun 2027 06:09:31.866   12 Jun 2027 06:10:04.065            32.199         16099.500
       246   12 Jun 2027 06:10:21.039   12 Jun 2027 06:11:23.766            62.727         31363.500
       247   12 Jun 2027 06:12:55.774   12 Jun 2027 06:13:03.773             7.999          3999.500
       248   12 Jun 2027 07:32:54.341   12 Jun 2027 07:34:11.739            77.398         38699.000
       249   12 Jun 2027 07:35:34.109   12 Jun 2027 07:35:34.109             0.000             0.000
       250   12 Jun 2027 07:35:53.390   12 Jun 2027 07:36:01.464             8.074          4037.000
       251   12 Jun 2027 09:09:26.235   12 Jun 2027 09:09:40.736            14.501          6368.469
       252   12 Jun 2027 09:11:58.194   12 Jun 2027 09:12:07.548             9.354          4280.594
       253   12 Jun 2027 10:44:56.848   12 Jun 2027 10:45:15.819            18.971          7746.000
       254   12 Jun 2027 10:47:54.599   12 Jun 2027 10:48:03.992             9.393          3929.875
       255   12 Jun 2027 10:48:19.120   12 Jun 2027 10:48:21.044             1.924           204.469
       256   12 Jun 2027 10:48:28.253   12 Jun 2027 10:48:29.556             1.303           198.469
       257   12 Jun 2027 10:48:42.711   12 Jun 2027 10:48:45.454             2.743           194.594
       258   12 Jun 2027 10:48:54.011   12 Jun 2027 10:48:57.326             3.315            98.375
       259   12 Jun 2027 10:49:21.158   12 Jun 2027 10:49:23.347             2.189           597.031
       260   12 Jun 2027 10:50:10.764   12 Jun 2027 10:50:12.506             1.742           871.000
       261   12 Jun 2027 10:50:51.711   12 Jun 2027 10:50:53.301             1.590           795.000
       262   12 Jun 2027 10:51:02.719   12 Jun 2027 10:51:05.192             2.473           932.625
       263   13 Jun 2027 03:05:02.930   13 Jun 2027 03:05:15.992            13.062          6531.000
       264   13 Jun 2027 03:05:35.413   13 Jun 2027 03:06:11.306            35.893         17946.500
       265   13 Jun 2027 03:07:15.418   13 Jun 2027 03:07:15.418             0.000             0.000
       266   13 Jun 2027 03:07:32.958   13 Jun 2027 03:07:53.007            20.049         10024.500
       267   13 Jun 2027 03:10:40.687   13 Jun 2027 03:10:42.693             2.006          1003.000
       268   13 Jun 2027 03:11:39.667   13 Jun 2027 03:11:41.230             1.563           781.500
       269   13 Jun 2027 04:44:20.024   13 Jun 2027 04:45:13.513            53.489         26744.500
       270   13 Jun 2027 04:45:19.931   13 Jun 2027 04:45:44.060            24.129         12064.500
       271   13 Jun 2027 04:46:01.468   13 Jun 2027 04:46:01.468             0.000             0.000
       272   13 Jun 2027 04:46:27.785   13 Jun 2027 04:46:35.754             7.969          3984.500
       273   13 Jun 2027 04:46:53.121   13 Jun 2027 04:46:54.647             1.526           763.000
       274   13 Jun 2027 04:47:57.397   13 Jun 2027 04:48:04.105             6.708          3354.000
       275   13 Jun 2027 04:48:31.354   13 Jun 2027 04:48:38.873             7.519          3759.500
       276   13 Jun 2027 04:50:50.482   13 Jun 2027 04:50:57.664             7.182          3591.000
       277   13 Jun 2027 04:51:19.524   13 Jun 2027 04:51:51.867            32.343         16171.500
       278   13 Jun 2027 06:21:28.365   13 Jun 2027 06:22:07.904            39.539         19769.500
       279   13 Jun 2027 06:22:28.247   13 Jun 2027 06:22:56.282            28.035         14017.500
       280   13 Jun 2027 06:23:32.617   13 Jun 2027 06:24:10.488            37.871         18935.500
       281   13 Jun 2027 07:45:24.730   13 Jun 2027 07:46:39.113            74.383         36671.032
       282   13 Jun 2027 09:21:19.476   13 Jun 2027 09:21:33.781            14.305          6637.875
       283   13 Jun 2027 09:23:00.069   13 Jun 2027 09:23:00.069             0.000             0.000
       284   13 Jun 2027 09:23:26.696   13 Jun 2027 09:23:48.988            22.292          3528.594
       285   13 Jun 2027 09:24:34.873   13 Jun 2027 09:24:37.968             3.095          1433.906
       286   13 Jun 2027 09:24:50.237   13 Jun 2027 09:24:53.581             3.344           263.406
       287   13 Jun 2027 09:25:06.936   13 Jun 2027 09:25:09.845             2.909           334.688
       288   13 Jun 2027 10:56:15.300   13 Jun 2027 10:56:31.516            16.216          7514.813
       289   13 Jun 2027 10:56:46.964   13 Jun 2027 10:56:54.893             7.929           447.000
       290   13 Jun 2027 10:57:43.440   13 Jun 2027 10:57:48.548             5.108           281.688
       291   13 Jun 2027 11:02:54.135   13 Jun 2027 11:03:14.018            19.883          8684.344
