uniorb/output/strategy_1/Camera/Camera_KinoSat_111108.txt

KinoSat_111108
-------------------------
    Access    *     Start Time (UTCG)     *     Stop Time (UTCG)  *   Duration (s) *   Data (Mbytes)
         1   01 Jun 2027 03:06:36.658   01 Jun 2027 03:07:51.998            75.340         37670.000
         2   01 Jun 2027 03:07:58.939   01 Jun 2027 03:08:08.183             9.244          4622.000
         3   01 Jun 2027 03:09:45.218   01 Jun 2027 03:10:07.893            22.675         11337.500
         4   01 Jun 2027 04:30:16.339   01 Jun 2027 04:31:16.190            59.851         29925.500
         5   01 Jun 2027 04:31:38.672   01 Jun 2027 04:31:42.230             3.558          1779.000
         6   01 Jun 2027 06:06:41.926   01 Jun 2027 06:08:31.229           109.303         54651.500
         7   01 Jun 2027 06:09:11.582   01 Jun 2027 06:09:20.041             8.459          4229.500
         8   01 Jun 2027 06:09:45.450   01 Jun 2027 06:09:52.683             7.233          3616.500
         9   01 Jun 2027 07:41:50.108   01 Jun 2027 07:43:56.831           126.723         63361.500
        10   01 Jun 2027 07:44:25.118   01 Jun 2027 07:44:51.484            26.366         13183.000
        11   01 Jun 2027 07:47:14.586   01 Jun 2027 07:47:16.953             2.367          1183.500
        12   01 Jun 2027 07:48:21.129   01 Jun 2027 07:48:23.584             2.455          1227.500
        13   01 Jun 2027 09:18:10.866   01 Jun 2027 09:20:13.112           122.246         61123.000
        14   01 Jun 2027 09:22:44.779   01 Jun 2027 09:22:46.516             1.737           868.500
        15   01 Jun 2027 09:23:36.582   01 Jun 2027 09:23:50.296            13.714          6857.000
        16   01 Jun 2027 09:24:27.785   01 Jun 2027 09:24:29.892             2.107          1053.500
        17   01 Jun 2027 10:55:44.720   01 Jun 2027 10:57:56.581           131.861         65930.500
        18   01 Jun 2027 10:58:29.364   01 Jun 2027 10:58:29.433             0.069            34.500
        19   01 Jun 2027 10:58:55.135   01 Jun 2027 10:58:57.455             2.320          1160.000
        20   01 Jun 2027 10:59:03.157   01 Jun 2027 10:59:05.807             2.650          1325.000
        21   02 Jun 2027 03:18:55.924   02 Jun 2027 03:19:30.667            34.743         17371.500
        22   02 Jun 2027 03:19:44.512   02 Jun 2027 03:20:59.442            74.930         37465.000
        23   02 Jun 2027 04:42:15.434   02 Jun 2027 04:43:04.181            48.747         24373.500
        24   02 Jun 2027 06:18:52.087   02 Jun 2027 06:20:32.616           100.529         50264.500
        25   02 Jun 2027 06:20:45.299   02 Jun 2027 06:20:52.843             7.544          3772.000
        26   02 Jun 2027 06:21:32.755   02 Jun 2027 06:21:46.724            13.969          6984.500
        27   02 Jun 2027 07:54:02.228   02 Jun 2027 07:55:48.874           106.646         53323.000
        28   02 Jun 2027 07:56:37.072   02 Jun 2027 07:56:52.023            14.951          7475.500
        29   02 Jun 2027 08:00:15.857   02 Jun 2027 08:00:15.857             0.000             0.000
        30   02 Jun 2027 08:00:24.130   02 Jun 2027 08:00:35.337            11.207          5603.500
        31   02 Jun 2027 09:30:19.468   02 Jun 2027 09:32:32.994           133.526         66763.000
        32   02 Jun 2027 11:07:49.580   02 Jun 2027 11:09:50.699           121.119         60559.500
        33   02 Jun 2027 11:10:43.651   02 Jun 2027 11:10:46.868             3.217          1608.500
        34   02 Jun 2027 11:10:53.503   02 Jun 2027 11:11:01.640             8.137          4068.500
        35   02 Jun 2027 11:11:19.027   02 Jun 2027 11:11:54.330            35.303         17651.500
        36   03 Jun 2027 03:20:06.494   03 Jun 2027 03:20:14.065             7.571          3785.500
        37   03 Jun 2027 03:30:52.595   03 Jun 2027 03:31:33.259            40.664         20332.000
        38   03 Jun 2027 03:31:42.926   03 Jun 2027 03:32:18.959            36.033         18016.500
        39   03 Jun 2027 03:32:32.902   03 Jun 2027 03:32:35.971             3.069          1534.500
        40   03 Jun 2027 03:32:53.487   03 Jun 2027 03:33:07.724            14.237          7118.500
        41   03 Jun 2027 04:54:51.544   03 Jun 2027 04:55:41.020            49.476         24738.000
        42   03 Jun 2027 04:56:37.551   03 Jun 2027 04:56:44.409             6.858          3429.000
        43   03 Jun 2027 04:57:22.124   03 Jun 2027 04:57:27.967             5.843          2921.500
        44   03 Jun 2027 06:30:36.270   03 Jun 2027 06:31:50.467            74.197         37098.500
        45   03 Jun 2027 06:34:32.368   03 Jun 2027 06:34:45.971            13.603          6801.500
        46   03 Jun 2027 08:05:30.921   03 Jun 2027 08:07:25.121           114.200         57100.000
        47   03 Jun 2027 08:08:08.239   03 Jun 2027 08:08:21.266            13.027          6513.500
        48   03 Jun 2027 08:09:43.070   03 Jun 2027 08:09:47.120             4.050          2025.000
        49   03 Jun 2027 08:10:34.117   03 Jun 2027 08:10:50.742            16.625          8312.500
        50   03 Jun 2027 08:12:43.588   03 Jun 2027 08:12:46.627             3.039          1519.500
        51   03 Jun 2027 09:42:02.074   03 Jun 2027 09:43:55.619           113.545         56772.500
        52   03 Jun 2027 09:45:01.862   03 Jun 2027 09:45:15.145            13.283          6641.500
        53   03 Jun 2027 09:46:20.690   03 Jun 2027 09:46:20.690             0.000             0.000
        54   03 Jun 2027 11:20:20.128   03 Jun 2027 11:20:54.111            33.983         16991.500
        55   03 Jun 2027 11:21:58.263   03 Jun 2027 11:22:04.441             6.178          2852.092
        56   03 Jun 2027 11:22:26.652   03 Jun 2027 11:22:28.280             1.628           694.094
        57   03 Jun 2027 11:23:21.757   03 Jun 2027 11:23:32.344            10.587          1671.156
        58   03 Jun 2027 11:23:42.517   03 Jun 2027 11:23:43.971             1.454           317.906
        59   04 Jun 2027 03:31:24.435   04 Jun 2027 03:31:51.967            27.532         13766.000
        60   04 Jun 2027 03:42:49.255   04 Jun 2027 03:43:59.918            70.663         35331.500
        61   04 Jun 2027 05:05:26.155   04 Jun 2027 05:06:14.741            48.586         24293.000
        62   04 Jun 2027 05:07:13.035   04 Jun 2027 05:07:24.757            11.722          5861.000
        63   04 Jun 2027 05:08:27.070   04 Jun 2027 05:08:48.442            21.372         10686.000
        64   04 Jun 2027 05:09:48.074   04 Jun 2027 05:09:50.900             2.826          1413.000
        65   04 Jun 2027 06:40:51.504   04 Jun 2027 06:41:46.317            54.813         27406.500
        66   04 Jun 2027 06:42:22.115   04 Jun 2027 06:43:08.843            46.728         23364.000
        67   04 Jun 2027 06:43:41.037   04 Jun 2027 06:43:46.614             5.577          2788.500
        68   04 Jun 2027 06:44:12.648   04 Jun 2027 06:44:14.987             2.339          1169.500
        69   04 Jun 2027 06:46:02.331   04 Jun 2027 06:46:14.727            12.396          6198.000
        70   04 Jun 2027 06:46:59.106   04 Jun 2027 06:46:59.106             0.000             0.000
        71   04 Jun 2027 06:47:01.294   04 Jun 2027 06:47:04.636             3.342          1671.000
        72   04 Jun 2027 08:17:16.434   04 Jun 2027 08:18:09.549            53.115         24596.594
        73   04 Jun 2027 08:19:27.516   04 Jun 2027 08:19:29.900             2.384          1192.000
        74   04 Jun 2027 08:20:21.580   04 Jun 2027 08:20:27.158             5.578          2674.750
        75   04 Jun 2027 08:22:07.940   04 Jun 2027 08:22:16.771             8.831          2989.250
        76   04 Jun 2027 08:22:23.147   04 Jun 2027 08:22:24.063             0.916           129.812
        77   04 Jun 2027 08:22:29.004   04 Jun 2027 08:22:29.334             0.330            14.438
        78   04 Jun 2027 08:23:41.056   04 Jun 2027 08:23:48.606             7.550          1984.156
        79   04 Jun 2027 08:24:09.462   04 Jun 2027 08:24:10.555             1.093           527.812
        80   04 Jun 2027 08:24:31.363   04 Jun 2027 08:24:31.363             0.000             0.000
        81   04 Jun 2027 09:54:22.481   04 Jun 2027 09:54:43.661            21.180          9437.562
        82   04 Jun 2027 09:55:42.836   04 Jun 2027 09:55:48.158             5.322          1277.125
        83   04 Jun 2027 09:56:53.652   04 Jun 2027 09:56:58.877             5.225          1864.344
        84   04 Jun 2027 09:57:06.029   04 Jun 2027 09:57:08.519             2.490           206.906
        85   04 Jun 2027 09:57:48.370   04 Jun 2027 09:57:49.756             1.386           623.281
        86   04 Jun 2027 09:58:22.184   04 Jun 2027 09:58:25.645             3.461          1002.469
        87   04 Jun 2027 09:58:57.213   04 Jun 2027 09:58:59.534             2.321           986.500
        88   04 Jun 2027 10:00:10.363   04 Jun 2027 10:00:15.000             4.637          2213.406
        89   04 Jun 2027 10:00:20.412   04 Jun 2027 10:00:21.417             1.005           169.125
        90   04 Jun 2027 11:32:17.801   04 Jun 2027 11:32:32.335            14.534          7267.000
        91   04 Jun 2027 11:33:57.436   04 Jun 2027 11:34:04.367             6.931          2683.844
        92   04 Jun 2027 11:35:30.506   04 Jun 2027 11:35:39.602             9.096          2606.156
        93   04 Jun 2027 11:35:46.264   04 Jun 2027 11:35:49.800             3.536           208.187
        94   04 Jun 2027 11:36:00.120   04 Jun 2027 11:36:04.650             4.530           322.500
        95   04 Jun 2027 11:36:13.805   04 Jun 2027 11:36:13.805             0.000             0.000
        96   05 Jun 2027 03:43:03.985   05 Jun 2027 03:43:53.342            49.357         24678.500
        97   05 Jun 2027 03:54:50.233   05 Jun 2027 03:55:50.771            60.538         30269.000
        98   05 Jun 2027 05:17:06.178   05 Jun 2027 05:18:12.406            66.228         33114.000
        99   05 Jun 2027 05:19:00.146   05 Jun 2027 05:19:05.099             4.953          2476.500
       100   05 Jun 2027 05:21:16.629   05 Jun 2027 05:21:27.060            10.431          5215.500
       101   05 Jun 2027 05:21:32.173   05 Jun 2027 05:21:38.889             6.716          3358.000
       102   05 Jun 2027 06:52:00.914   05 Jun 2027 06:53:39.734            98.820         49410.000
       103   05 Jun 2027 06:54:08.168   05 Jun 2027 06:54:11.461             3.293          1646.500
       104   05 Jun 2027 06:54:47.503   05 Jun 2027 06:55:11.518            24.015         12007.500
       105   05 Jun 2027 06:57:56.578   05 Jun 2027 06:57:59.533             2.955          1477.500
       106   05 Jun 2027 07:00:02.322   05 Jun 2027 07:00:07.613             5.291          2645.500
       107   05 Jun 2027 08:29:32.390   05 Jun 2027 08:29:54.325            21.935         10967.500
       108   05 Jun 2027 08:29:59.510   05 Jun 2027 08:30:05.097             5.587          1862.688
       109   05 Jun 2027 08:30:42.430   05 Jun 2027 08:30:45.692             3.262          1166.656
       110   05 Jun 2027 08:31:13.078   05 Jun 2027 08:31:20.049             6.971           855.812
       111   05 Jun 2027 08:31:40.094   05 Jun 2027 08:31:45.905             5.811           588.344
       112   05 Jun 2027 08:31:59.290   05 Jun 2027 08:32:00.807             1.517            88.656
       113   05 Jun 2027 08:32:07.224   05 Jun 2027 08:32:07.511             0.287            77.687
       114   05 Jun 2027 08:32:32.722   05 Jun 2027 08:32:37.052             4.330           230.313
       115   05 Jun 2027 08:32:57.040   05 Jun 2027 08:32:57.516             0.476           161.656
       116   05 Jun 2027 08:33:06.291   05 Jun 2027 08:33:06.985             0.694           212.375
       117   05 Jun 2027 08:33:35.156   05 Jun 2027 08:33:36.899             1.743           871.500
       118   05 Jun 2027 08:35:04.103   05 Jun 2027 08:35:09.937             5.834          2728.781
       119   05 Jun 2027 08:35:52.454   05 Jun 2027 08:35:55.339             2.885          1300.062
       120   05 Jun 2027 08:36:11.645   05 Jun 2027 08:36:14.105             2.460            38.906
       121   05 Jun 2027 08:36:34.942   05 Jun 2027 08:36:37.725             2.783           585.281
       122   05 Jun 2027 10:06:18.131   05 Jun 2027 10:06:35.821            17.690          8607.063
       123   05 Jun 2027 10:07:13.695   05 Jun 2027 10:07:16.681             2.986          1049.781
       124   05 Jun 2027 10:07:46.735   05 Jun 2027 10:07:48.345             1.610           499.656
       125   05 Jun 2027 10:09:38.213   05 Jun 2027 10:09:48.662            10.449          2282.813
       126   05 Jun 2027 10:10:17.063   05 Jun 2027 10:10:18.140             1.077           520.500
       127   05 Jun 2027 10:10:21.202   05 Jun 2027 10:10:21.400             0.198            26.125
       128   05 Jun 2027 10:10:29.229   05 Jun 2027 10:10:30.884             1.655           244.656
       129   05 Jun 2027 10:11:01.230   05 Jun 2027 10:11:04.879             3.649           948.313
       130   05 Jun 2027 10:12:08.363   05 Jun 2027 10:12:15.635             7.272          1981.031
       131   05 Jun 2027 10:12:42.153   05 Jun 2027 10:12:47.775             5.622           791.000
       132   05 Jun 2027 11:44:17.468   05 Jun 2027 11:44:31.974            14.506          6577.750
       133   05 Jun 2027 11:44:45.565   05 Jun 2027 11:44:47.638             2.073           178.094
       134   05 Jun 2027 11:45:35.397   05 Jun 2027 11:45:35.997             0.600           300.000
       135   05 Jun 2027 11:45:40.088   05 Jun 2027 11:45:45.449             5.361          1144.594
       136   05 Jun 2027 11:46:30.798   05 Jun 2027 11:46:30.798             0.000             0.000
       137   05 Jun 2027 11:46:41.296   05 Jun 2027 11:46:45.670             4.374          1583.313
       138   05 Jun 2027 11:47:09.643   05 Jun 2027 11:47:10.727             1.084           357.312
       139   05 Jun 2027 11:47:40.812   05 Jun 2027 11:47:45.320             4.508           799.000
       140   06 Jun 2027 03:54:41.987   06 Jun 2027 03:55:54.614            72.627         36313.500
       141   06 Jun 2027 04:06:57.579   06 Jun 2027 04:07:25.187            27.608         13804.000
       142   06 Jun 2027 05:28:37.974   06 Jun 2027 05:29:58.050            80.076         40038.000
       143   06 Jun 2027 05:30:46.294   06 Jun 2027 05:31:24.791            38.497         19248.500
       144   06 Jun 2027 05:33:29.938   06 Jun 2027 05:33:37.414             7.476          3738.000
       145   06 Jun 2027 07:03:31.513   06 Jun 2027 07:05:18.595           107.082         53311.406
       146   06 Jun 2027 07:06:21.560   06 Jun 2027 07:06:21.560             0.000             0.000
       147   06 Jun 2027 07:07:36.701   06 Jun 2027 07:07:48.146            11.445          3925.250
       148   06 Jun 2027 07:08:38.875   06 Jun 2027 07:08:41.154             2.279          1139.500
       149   06 Jun 2027 07:11:20.111   06 Jun 2027 07:11:27.616             7.505          3752.500
       150   06 Jun 2027 08:41:27.244   06 Jun 2027 08:41:49.138            21.894          9747.343
       151   06 Jun 2027 08:42:25.067   06 Jun 2027 08:42:28.458             3.391           656.844
       152   06 Jun 2027 08:43:56.733   06 Jun 2027 08:43:59.286             2.553          1276.500
       153   06 Jun 2027 08:44:18.207   06 Jun 2027 08:44:19.530             1.323           610.781
       154   06 Jun 2027 08:45:30.611   06 Jun 2027 08:45:36.995             6.384          2161.687
       155   06 Jun 2027 08:46:28.545   06 Jun 2027 08:46:28.545             0.000             0.000
       156   06 Jun 2027 08:47:00.827   06 Jun 2027 08:47:06.401             5.574          2585.063
       157   06 Jun 2027 08:47:52.160   06 Jun 2027 08:47:55.543             3.383          1320.000
       158   06 Jun 2027 08:48:11.553   06 Jun 2027 08:48:14.079             2.526           347.563
       159   06 Jun 2027 08:48:31.877   06 Jun 2027 08:48:32.764             0.887           212.719
       160   06 Jun 2027 10:18:14.689   06 Jun 2027 10:18:30.355            15.666          7833.000
       161   06 Jun 2027 10:19:10.786   06 Jun 2027 10:19:17.571             6.785          1425.219
       162   06 Jun 2027 10:19:46.086   06 Jun 2027 10:19:48.115             2.029           891.094
       163   06 Jun 2027 10:20:35.292   06 Jun 2027 10:20:36.793             1.501           683.094
       164   06 Jun 2027 10:20:58.161   06 Jun 2027 10:20:59.136             0.975           487.500
       165   06 Jun 2027 10:21:04.793   06 Jun 2027 10:21:06.562             1.769           356.969
       166   06 Jun 2027 10:21:39.641   06 Jun 2027 10:21:43.502             3.861           951.031
       167   06 Jun 2027 10:22:12.155   06 Jun 2027 10:22:18.310             6.155           650.313
       168   06 Jun 2027 10:22:43.545   06 Jun 2027 10:22:45.114             1.569           784.500
       169   06 Jun 2027 10:24:10.360   06 Jun 2027 10:24:16.641             6.281          2668.031
       170   06 Jun 2027 10:24:40.989   06 Jun 2027 10:24:49.035             8.046           730.500
       171   06 Jun 2027 11:56:05.082   06 Jun 2027 11:56:18.022            12.940          6016.687
       172   06 Jun 2027 11:56:48.262   06 Jun 2027 11:56:50.313             2.051           945.000
       173   06 Jun 2027 11:58:10.829   06 Jun 2027 11:58:18.799             7.970          2104.531
       174   06 Jun 2027 11:58:47.237   06 Jun 2027 11:58:52.787             5.550           878.750
       175   06 Jun 2027 11:59:11.293   06 Jun 2027 11:59:14.856             3.563           578.313
       176   06 Jun 2027 11:59:29.705   06 Jun 2027 11:59:33.463             3.758           230.281
       177   06 Jun 2027 11:59:58.930   06 Jun 2027 12:00:00.000             1.070           514.844
       178   07 Jun 2027 04:06:37.700   07 Jun 2027 04:07:28.430            50.730         25365.000
       179   07 Jun 2027 04:07:50.493   07 Jun 2027 04:07:55.754             5.261          2630.500
       180   07 Jun 2027 04:08:29.978   07 Jun 2027 04:08:37.799             7.821          3910.500
       181   07 Jun 2027 05:42:37.289   07 Jun 2027 05:44:35.053           117.764         58882.000
       182   07 Jun 2027 05:44:50.903   07 Jun 2027 05:45:23.446            32.543         16271.500
       183   07 Jun 2027 07:16:24.996   07 Jun 2027 07:18:16.386           111.390         55695.000
       184   07 Jun 2027 07:18:35.642   07 Jun 2027 07:18:35.642             0.000             0.000
       185   07 Jun 2027 07:18:54.160   07 Jun 2027 07:19:03.442             9.282          4481.906
       186   07 Jun 2027 07:19:38.781   07 Jun 2027 07:19:38.781             0.000             0.000
       187   07 Jun 2027 07:20:05.345   07 Jun 2027 07:20:11.556             6.211          1914.406
       188   07 Jun 2027 07:21:02.526   07 Jun 2027 07:21:06.527             4.001          1510.812
       189   07 Jun 2027 07:23:40.485   07 Jun 2027 07:23:46.038             5.553          2776.500
       190   07 Jun 2027 07:23:47.834   07 Jun 2027 07:23:48.913             1.079           539.500
       191   07 Jun 2027 07:24:49.111   07 Jun 2027 07:24:49.111             0.000             0.000
       192   07 Jun 2027 08:53:39.105   07 Jun 2027 08:54:01.131            22.026         10716.312
       193   07 Jun 2027 08:55:17.155   07 Jun 2027 08:55:20.709             3.554           796.281
       194   07 Jun 2027 08:56:05.994   07 Jun 2027 08:56:05.994             0.000             0.000
       195   07 Jun 2027 08:56:18.422   07 Jun 2027 08:56:24.901             6.479          1692.938
       196   07 Jun 2027 08:56:58.061   07 Jun 2027 08:57:00.236             2.175           515.094
       197   07 Jun 2027 08:57:01.174   07 Jun 2027 08:57:03.351             2.177            29.312
       198   07 Jun 2027 08:57:04.376   07 Jun 2027 08:57:05.492             1.116            32.031
       199   07 Jun 2027 08:57:11.145   07 Jun 2027 08:57:12.642             1.497           176.656
       200   07 Jun 2027 08:58:28.268   07 Jun 2027 08:58:37.116             8.848          1543.281
       201   07 Jun 2027 08:58:42.225   07 Jun 2027 08:58:42.867             0.642            60.656
       202   07 Jun 2027 08:58:55.414   07 Jun 2027 08:58:56.241             0.827           392.094
       203   07 Jun 2027 08:59:23.286   07 Jun 2027 08:59:24.175             0.889           444.500
       204   07 Jun 2027 09:00:12.717   07 Jun 2027 09:00:20.296             7.579          1855.625
       205   07 Jun 2027 09:00:46.250   07 Jun 2027 09:00:48.319             2.069           757.969
       206   07 Jun 2027 10:30:51.519   07 Jun 2027 10:30:57.669             6.150          3075.000
       207   07 Jun 2027 10:31:05.858   07 Jun 2027 10:31:19.587            13.729          6008.437
       208   07 Jun 2027 10:31:48.673   07 Jun 2027 10:31:52.853             4.180           874.906
       209   07 Jun 2027 10:32:46.346   07 Jun 2027 10:32:50.756             4.410           665.781
       210   07 Jun 2027 10:33:08.204   07 Jun 2027 10:33:11.354             3.150           545.250
       211   07 Jun 2027 10:34:08.830   07 Jun 2027 10:34:12.618             3.788          1665.531
       212   07 Jun 2027 10:34:27.775   07 Jun 2027 10:34:28.279             0.504           195.406
       213   07 Jun 2027 10:34:53.025   07 Jun 2027 10:34:56.115             3.090           566.250
       214   07 Jun 2027 10:35:11.790   07 Jun 2027 10:35:13.099             1.309           197.594
       215   07 Jun 2027 10:35:32.738   07 Jun 2027 10:35:36.867             4.129           613.719
       216   07 Jun 2027 10:35:45.468   07 Jun 2027 10:35:49.533             4.065           193.906
       217   07 Jun 2027 10:36:21.961   07 Jun 2027 10:36:22.813             0.852           426.000
       218   07 Jun 2027 10:36:25.002   07 Jun 2027 10:36:27.076             2.074           646.625
       219   07 Jun 2027 10:36:32.902   07 Jun 2027 10:36:41.139             8.237            81.219
       220   08 Jun 2027 04:18:29.540   08 Jun 2027 04:19:56.711            87.171         43585.500
       221   08 Jun 2027 05:54:51.191   08 Jun 2027 05:56:44.973           113.782         56891.000
       222   08 Jun 2027 05:57:16.887   08 Jun 2027 05:57:20.200             3.313          1656.500
       223   08 Jun 2027 05:57:51.097   08 Jun 2027 05:57:57.021             5.924          2962.000
       224   08 Jun 2027 07:27:10.979   08 Jun 2027 07:27:44.221            33.242         16621.000
       225   08 Jun 2027 07:28:56.350   08 Jun 2027 07:30:18.394            82.044         41022.000
       226   08 Jun 2027 07:31:08.842   08 Jun 2027 07:31:10.371             1.529           764.500
       227   08 Jun 2027 07:33:52.989   08 Jun 2027 07:33:59.228             6.239          3119.500
       228   08 Jun 2027 07:35:16.326   08 Jun 2027 07:35:24.113             7.787          3893.500
       229   08 Jun 2027 07:36:17.421   08 Jun 2027 07:36:17.421             0.000             0.000
       230   08 Jun 2027 07:36:49.073   08 Jun 2027 07:36:54.145             5.072          2536.000
       231   08 Jun 2027 09:06:00.584   08 Jun 2027 09:06:21.655            21.071          9878.125
       232   08 Jun 2027 09:07:53.984   08 Jun 2027 09:07:56.650             2.666          1109.375
       233   08 Jun 2027 09:08:31.112   08 Jun 2027 09:08:31.972             0.860           269.969
       234   08 Jun 2027 09:08:49.535   08 Jun 2027 09:08:50.785             1.250           384.406
       235   08 Jun 2027 09:09:40.604   08 Jun 2027 09:09:44.665             4.061          1519.187
       236   08 Jun 2027 09:10:22.333   08 Jun 2027 09:10:29.924             7.591           748.844
       237   08 Jun 2027 09:11:14.932   08 Jun 2027 09:11:19.248             4.316          1406.500
       238   08 Jun 2027 09:12:14.416   08 Jun 2027 09:12:18.063             3.647          1724.000
       239   08 Jun 2027 09:12:34.522   08 Jun 2027 09:12:36.747             2.225           241.312
       240   08 Jun 2027 09:12:37.129   08 Jun 2027 09:12:37.793             0.664            11.938
       241   08 Jun 2027 10:42:58.300   08 Jun 2027 10:43:13.445            15.145          6879.875
       242   08 Jun 2027 10:43:24.683   08 Jun 2027 10:43:32.791             8.108            53.063
       243   08 Jun 2027 10:44:42.977   08 Jun 2027 10:44:48.737             5.760          1747.375
       244   08 Jun 2027 10:45:59.038   08 Jun 2027 10:46:02.450             3.412          1188.438
       245   08 Jun 2027 10:46:55.866   08 Jun 2027 10:47:00.373             4.507          1669.250
       246   08 Jun 2027 10:47:18.415   08 Jun 2027 10:47:19.862             1.447           563.813
       247   08 Jun 2027 10:47:35.044   08 Jun 2027 10:47:40.095             5.051           264.563
       248   09 Jun 2027 03:07:28.373   09 Jun 2027 03:08:40.819            72.446         36223.000
       249   09 Jun 2027 03:08:58.737   09 Jun 2027 03:09:04.474             5.737          2868.500
       250   09 Jun 2027 03:09:42.187   09 Jun 2027 03:09:59.828            17.641          8820.500
       251   09 Jun 2027 04:30:32.783   09 Jun 2027 04:30:57.385            24.602         12301.000
       252   09 Jun 2027 04:32:22.787   09 Jun 2027 04:32:33.287            10.500          5250.000
       253   09 Jun 2027 06:06:58.101   09 Jun 2027 06:08:22.429            84.328         42164.000
       254   09 Jun 2027 06:08:33.894   09 Jun 2027 06:08:37.416             3.522          1761.000
       255   09 Jun 2027 06:08:46.732   09 Jun 2027 06:08:56.546             9.814          4907.000
       256   09 Jun 2027 06:09:38.971   09 Jun 2027 06:09:38.971             0.000             0.000
       257   09 Jun 2027 07:42:05.952   09 Jun 2027 07:43:42.082            96.130         48065.000
       258   09 Jun 2027 07:44:19.756   09 Jun 2027 07:44:22.870             3.114          1557.000
       259   09 Jun 2027 07:44:33.041   09 Jun 2027 07:44:33.950             0.909           451.500
       260   09 Jun 2027 07:45:01.785   09 Jun 2027 07:45:03.855             2.070           869.844
       261   09 Jun 2027 07:45:22.783   09 Jun 2027 07:45:26.728             3.945           519.969
       262   09 Jun 2027 07:47:19.331   09 Jun 2027 07:47:24.595             5.264          2632.000
       263   09 Jun 2027 07:47:37.565   09 Jun 2027 07:47:41.767             4.202          1090.500
       264   09 Jun 2027 07:48:22.699   09 Jun 2027 07:48:22.699             0.000             0.000
       265   09 Jun 2027 07:48:31.817   09 Jun 2027 07:48:32.763             0.946           473.000
       266   09 Jun 2027 07:48:46.603   09 Jun 2027 07:48:53.351             6.748          1085.969
       267   09 Jun 2027 09:18:27.025   09 Jun 2027 09:18:46.555            19.530          7791.187
       268   09 Jun 2027 09:19:13.954   09 Jun 2027 09:19:14.645             0.691           212.875
       269   09 Jun 2027 09:20:44.101   09 Jun 2027 09:20:48.741             4.640          1165.812
       270   09 Jun 2027 09:21:22.449   09 Jun 2027 09:21:25.554             3.105           839.000
       271   09 Jun 2027 09:22:08.338   09 Jun 2027 09:22:09.938             1.600           800.000
       272   09 Jun 2027 09:22:27.905   09 Jun 2027 09:22:29.945             2.040           881.250
       273   09 Jun 2027 09:22:36.622   09 Jun 2027 09:22:39.806             3.184           208.656
       274   09 Jun 2027 09:22:55.950   09 Jun 2027 09:22:59.647             3.697           422.125
       275   09 Jun 2027 09:23:03.103   09 Jun 2027 09:23:06.439             3.336           108.000
       276   09 Jun 2027 09:23:25.874   09 Jun 2027 09:23:25.874             0.000             0.000
       277   09 Jun 2027 09:24:05.257   09 Jun 2027 09:24:08.902             3.645          1810.063
       278   09 Jun 2027 09:24:30.640   09 Jun 2027 09:24:33.537             2.897           632.750
       279   09 Jun 2027 09:24:42.754   09 Jun 2027 09:24:46.179             3.425           288.031
       280   09 Jun 2027 10:55:59.956   09 Jun 2027 10:56:14.273            14.317          6538.625
       281   09 Jun 2027 10:56:47.433   09 Jun 2027 10:56:51.114             3.681          1036.250
       282   09 Jun 2027 10:57:41.317   09 Jun 2027 10:57:46.735             5.418          1128.781
       283   09 Jun 2027 10:57:56.828   09 Jun 2027 10:57:59.190             2.362           315.406
       284   09 Jun 2027 10:59:04.386   09 Jun 2027 10:59:09.280             4.894          2037.375
       285   09 Jun 2027 10:59:17.815   09 Jun 2027 10:59:18.943             1.128           116.656
       286   09 Jun 2027 11:00:16.155   09 Jun 2027 11:00:21.401             5.246          1760.688
       287   10 Jun 2027 03:19:11.261   10 Jun 2027 03:19:46.271            35.010         17505.000
       288   10 Jun 2027 03:19:59.804   10 Jun 2027 03:21:16.724            76.920         38460.000
       289   10 Jun 2027 03:22:28.697   10 Jun 2027 03:22:32.152             3.455          1727.500
       290   10 Jun 2027 04:42:30.324   10 Jun 2027 04:43:19.071            48.747         24373.500
       291   10 Jun 2027 04:45:26.368   10 Jun 2027 04:45:26.368             0.000             0.000
       292   10 Jun 2027 06:19:07.510   10 Jun 2027 06:20:21.954            74.444         37222.000
       293   10 Jun 2027 06:21:37.672   10 Jun 2027 06:21:42.601             4.929          2464.500
       294   10 Jun 2027 07:54:17.472   10 Jun 2027 07:55:43.196            85.724         42849.187
       295   10 Jun 2027 07:56:16.347   10 Jun 2027 07:56:24.004             7.657          1035.969
       296   10 Jun 2027 07:56:30.136   10 Jun 2027 07:56:30.503             0.367            73.063
       297   10 Jun 2027 07:57:09.395   10 Jun 2027 07:57:12.227             2.832          1196.125
       298   10 Jun 2027 07:57:38.783   10 Jun 2027 07:57:42.882             4.099           675.250
       299   10 Jun 2027 07:57:47.198   10 Jun 2027 07:57:47.562             0.364            94.750
       300   10 Jun 2027 07:58:58.544   10 Jun 2027 07:59:03.734             5.190          2218.187
       301   10 Jun 2027 07:59:43.003   10 Jun 2027 07:59:44.689             1.686           751.562
       302   10 Jun 2027 08:00:30.442   10 Jun 2027 08:00:32.729             2.287          1143.500
       303   10 Jun 2027 08:00:39.267   10 Jun 2027 08:00:41.702             2.435           261.469
       304   10 Jun 2027 09:30:34.789   10 Jun 2027 09:30:50.664            15.875          7337.844
       305   10 Jun 2027 09:31:11.551   10 Jun 2027 09:31:13.061             1.510           652.719
       306   10 Jun 2027 09:31:53.834   10 Jun 2027 09:31:55.868             2.034           608.844
       307   10 Jun 2027 09:32:51.094   10 Jun 2027 09:32:51.595             0.501           250.500
       308   10 Jun 2027 09:32:56.390   10 Jun 2027 09:33:00.253             3.863           774.531
       309   10 Jun 2027 09:33:43.103   10 Jun 2027 09:33:46.525             3.422          1321.563
       310   10 Jun 2027 09:34:52.936   10 Jun 2027 09:34:57.051             4.115          1904.437
       311   10 Jun 2027 09:35:25.861   10 Jun 2027 09:35:27.851             1.990           792.781
       312   10 Jun 2027 09:36:01.893   10 Jun 2027 09:36:04.280             2.387           693.656
       313   10 Jun 2027 11:08:06.865   10 Jun 2027 11:08:22.291            15.426          7285.719
       314   10 Jun 2027 11:08:57.454   10 Jun 2027 11:09:01.325             3.871          1044.562
       315   10 Jun 2027 11:09:19.252   10 Jun 2027 11:09:25.738             6.486           560.219
       316   10 Jun 2027 11:09:53.376   10 Jun 2027 11:09:57.301             3.925           743.500
       317   10 Jun 2027 11:11:03.002   10 Jun 2027 11:11:10.691             7.689          1996.875
       318   10 Jun 2027 11:12:17.919   10 Jun 2027 11:12:23.069             5.150          1933.281
       319   11 Jun 2027 03:20:20.678   11 Jun 2027 03:20:31.524            10.846          5423.000
       320   11 Jun 2027 03:31:07.753   11 Jun 2027 03:32:44.369            96.616         48308.000
       321   11 Jun 2027 03:34:33.821   11 Jun 2027 03:34:33.821             0.000             0.000
       322   11 Jun 2027 04:55:06.439   11 Jun 2027 04:55:25.849            19.410          9705.000
       323   11 Jun 2027 04:55:38.898   11 Jun 2027 04:55:57.942            19.044          9522.000
       324   11 Jun 2027 06:30:51.361   11 Jun 2027 06:32:49.665           118.304         59152.000
       325   11 Jun 2027 06:34:49.827   11 Jun 2027 06:34:49.827             0.000             0.000
       326   11 Jun 2027 08:05:44.326   11 Jun 2027 08:06:46.417            62.091         30779.281
       327   11 Jun 2027 08:07:39.677   11 Jun 2027 08:07:42.409             2.732           571.000
       328   11 Jun 2027 08:07:44.857   11 Jun 2027 08:07:44.857             0.000             0.000
       329   11 Jun 2027 08:08:05.848   11 Jun 2027 08:08:09.486             3.638           686.312
       330   11 Jun 2027 08:08:36.653   11 Jun 2027 08:08:39.937             3.284           429.656
       331   11 Jun 2027 08:09:50.727   11 Jun 2027 08:09:59.231             8.504          2039.969
       332   11 Jun 2027 08:10:38.480   11 Jun 2027 08:10:40.659             2.179          1089.500
       333   11 Jun 2027 08:10:50.877   11 Jun 2027 08:10:52.830             1.953           456.344
       334   11 Jun 2027 08:11:37.044   11 Jun 2027 08:11:42.659             5.615          1381.688
       335   11 Jun 2027 09:42:18.139   11 Jun 2027 09:42:38.225            20.086          9781.219
       336   11 Jun 2027 09:42:44.217   11 Jun 2027 09:42:45.354             1.137           148.063
       337   11 Jun 2027 09:43:20.544   11 Jun 2027 09:43:21.906             1.362           538.344
       338   11 Jun 2027 09:44:26.758   11 Jun 2027 09:44:30.569             3.811           499.688
       339   11 Jun 2027 09:45:02.058   11 Jun 2027 09:45:05.912             3.854           823.875
       340   11 Jun 2027 09:45:36.105   11 Jun 2027 09:45:38.095             1.990           908.875
       341   11 Jun 2027 09:46:22.912   11 Jun 2027 09:46:33.407            10.495          1208.187
       342   11 Jun 2027 09:46:45.207   11 Jun 2027 09:46:45.207             0.000             0.000
       343   11 Jun 2027 09:46:54.397   11 Jun 2027 09:47:01.608             7.211           589.031
       344   11 Jun 2027 09:48:19.621   11 Jun 2027 09:48:25.119             5.498          2228.969
       345   11 Jun 2027 11:20:35.532   11 Jun 2027 11:20:52.281            16.749          6828.969
       346   11 Jun 2027 11:21:30.754   11 Jun 2027 11:21:35.692             4.938          1202.281
       347   11 Jun 2027 11:22:12.090   11 Jun 2027 11:22:13.679             1.589           635.375
       348   11 Jun 2027 11:22:25.022   11 Jun 2027 11:22:25.022             0.000             0.000
       349   11 Jun 2027 11:22:43.202   11 Jun 2027 11:22:48.042             4.840           922.594
       350   11 Jun 2027 11:23:48.329   11 Jun 2027 11:23:58.350            10.021          1826.594
       351   11 Jun 2027 11:24:14.561   11 Jun 2027 11:24:16.911             2.350           506.594
       352   12 Jun 2027 03:31:38.244   12 Jun 2027 03:32:20.765            42.521         21260.500
       353   12 Jun 2027 03:32:37.160   12 Jun 2027 03:32:39.058             1.898           949.000
       354   12 Jun 2027 03:43:04.760   12 Jun 2027 03:44:10.645            65.885         32942.500
       355   12 Jun 2027 03:44:13.225   12 Jun 2027 03:44:35.806            22.581         11290.500
       356   12 Jun 2027 05:05:43.362   12 Jun 2027 05:06:43.167            59.805         29902.500
       357   12 Jun 2027 05:07:08.727   12 Jun 2027 05:07:08.727             0.000             0.000
       358   12 Jun 2027 05:07:29.544   12 Jun 2027 05:07:41.552            12.008          6004.000
       359   12 Jun 2027 05:10:06.124   12 Jun 2027 05:10:14.997             8.873          4436.500
       360   12 Jun 2027 06:41:05.612   12 Jun 2027 06:42:01.876            56.264         28132.000
       361   12 Jun 2027 06:42:36.807   12 Jun 2027 06:43:30.823            54.016         27008.000
       362   12 Jun 2027 06:45:30.922   12 Jun 2027 06:45:45.959            15.037          7518.500
       363   12 Jun 2027 08:17:32.603   12 Jun 2027 08:17:51.192            18.589          8704.469
       364   12 Jun 2027 08:18:03.747   12 Jun 2027 08:18:06.012             2.265           318.875
       365   12 Jun 2027 08:19:48.122   12 Jun 2027 08:19:51.073             2.951           126.375
       366   12 Jun 2027 08:20:54.533   12 Jun 2027 08:20:56.503             1.970           985.000
       367   12 Jun 2027 08:21:02.920   12 Jun 2027 08:21:02.920             0.000             0.000
       368   12 Jun 2027 08:21:52.609   12 Jun 2027 08:22:01.784             9.175          1823.281
       369   12 Jun 2027 08:22:40.201   12 Jun 2027 08:22:42.902             2.701           896.250
       370   12 Jun 2027 08:22:44.583   12 Jun 2027 08:22:52.143             7.560            44.500
       371   12 Jun 2027 08:23:28.292   12 Jun 2027 08:23:30.942             2.650          1120.781
       372   12 Jun 2027 08:24:07.769   12 Jun 2027 08:24:11.230             3.461          1095.969
       373   12 Jun 2027 08:24:25.721   12 Jun 2027 08:24:33.938             8.217           452.844
       374   12 Jun 2027 08:25:03.721   12 Jun 2027 08:25:03.837             0.116            58.000
       375   12 Jun 2027 09:54:39.343   12 Jun 2027 09:54:57.581            18.238          8577.937
       376   12 Jun 2027 09:55:25.937   12 Jun 2027 09:55:28.325             2.388           735.375
       377   12 Jun 2027 09:56:36.367   12 Jun 2027 09:56:37.905             1.538           316.906
       378   12 Jun 2027 09:56:55.736   12 Jun 2027 09:56:58.907             3.171           482.250
       379   12 Jun 2027 09:57:12.509   12 Jun 2027 09:57:13.456             0.947            31.344
       380   12 Jun 2027 09:57:21.039   12 Jun 2027 09:57:24.196             3.157           193.719
       381   12 Jun 2027 09:57:43.603   12 Jun 2027 09:57:44.951             1.348            60.125
       382   12 Jun 2027 09:58:37.040   12 Jun 2027 09:58:41.501             4.461          1008.437
       383   12 Jun 2027 09:59:03.676   12 Jun 2027 09:59:05.175             1.499           692.969
       384   12 Jun 2027 09:59:12.757   12 Jun 2027 09:59:13.266             0.509            29.000
       385   12 Jun 2027 10:00:24.370   12 Jun 2027 10:00:28.280             3.910          1955.000
       386   12 Jun 2027 10:00:29.568   12 Jun 2027 10:00:29.862             0.294           147.000
       387   12 Jun 2027 10:00:33.843   12 Jun 2027 10:00:35.274             1.431           159.531
       388   12 Jun 2027 10:00:52.320   12 Jun 2027 10:00:54.532             2.212           349.906
       389   12 Jun 2027 11:32:33.325   12 Jun 2027 11:32:47.495            14.170          7085.000
       390   12 Jun 2027 11:32:55.396   12 Jun 2027 11:32:55.544             0.148            74.000
       391   12 Jun 2027 11:33:35.027   12 Jun 2027 11:33:41.133             6.106          1463.469
       392   12 Jun 2027 11:33:53.665   12 Jun 2027 11:33:54.922             1.257            56.219
       393   12 Jun 2027 11:34:22.640   12 Jun 2027 11:34:28.276             5.636           866.187
       394   12 Jun 2027 11:35:02.017   12 Jun 2027 11:35:06.201             4.184           726.625
       395   12 Jun 2027 11:35:40.940   12 Jun 2027 11:35:45.241             4.301           899.156
       396   12 Jun 2027 11:36:04.368   12 Jun 2027 11:36:07.177             2.809           597.719
       397   13 Jun 2027 03:42:52.597   13 Jun 2027 03:43:42.534            49.937         24968.500
       398   13 Jun 2027 03:55:04.699   13 Jun 2027 03:56:05.724            61.025         30512.500
       399   13 Jun 2027 05:17:20.924   13 Jun 2027 05:18:27.442            66.518         33259.000
       400   13 Jun 2027 05:19:15.867   13 Jun 2027 05:19:21.726             5.859          2929.500
       401   13 Jun 2027 05:21:31.005   13 Jun 2027 05:21:31.005             0.000             0.000
       402   13 Jun 2027 05:21:54.604   13 Jun 2027 05:22:06.302            11.698          5849.000
       403   13 Jun 2027 06:52:14.969   13 Jun 2027 06:54:16.702           121.733         60866.500
       404   13 Jun 2027 06:54:55.870   13 Jun 2027 06:55:05.257             9.387          4693.500
       405   13 Jun 2027 06:59:11.599   13 Jun 2027 06:59:16.882             5.283          2641.500
       406   13 Jun 2027 07:00:27.842   13 Jun 2027 07:00:40.210            12.368          6184.000
       407   13 Jun 2027 08:29:47.598   13 Jun 2027 08:30:13.161            25.563         11809.532
       408   13 Jun 2027 08:31:46.817   13 Jun 2027 08:31:51.290             4.473          2030.875
       409   13 Jun 2027 08:32:42.534   13 Jun 2027 08:32:46.135             3.601          1601.375
       410   13 Jun 2027 08:33:16.800   13 Jun 2027 08:33:18.652             1.852           899.750
       411   13 Jun 2027 08:33:54.163   13 Jun 2027 08:33:59.594             5.431           949.906
       412   13 Jun 2027 08:34:14.080   13 Jun 2027 08:34:16.681             2.601           345.594
       413   13 Jun 2027 08:34:32.772   13 Jun 2027 08:34:34.402             1.630           470.531
       414   13 Jun 2027 08:35:49.412   13 Jun 2027 08:35:54.850             5.438          2344.063
       415   13 Jun 2027 08:36:54.912   13 Jun 2027 08:36:59.073             4.161          1876.938
       416   13 Jun 2027 08:37:05.791   13 Jun 2027 08:37:07.301             1.510           151.344
       417   13 Jun 2027 10:06:30.573   13 Jun 2027 10:06:48.120            17.547          7991.156
       418   13 Jun 2027 10:07:46.291   13 Jun 2027 10:07:47.146             0.855           427.500
       419   13 Jun 2027 10:08:03.363   13 Jun 2027 10:08:07.004             3.641           571.781
       420   13 Jun 2027 10:08:39.689   13 Jun 2027 10:08:41.383             1.694             1.719
       421   13 Jun 2027 10:08:56.953   13 Jun 2027 10:08:58.246             1.293           461.438
       422   13 Jun 2027 10:09:53.460   13 Jun 2027 10:09:55.714             2.254          1127.000
       423   13 Jun 2027 10:10:38.389   13 Jun 2027 10:10:44.369             5.980          1818.938
       424   13 Jun 2027 10:11:27.514   13 Jun 2027 10:11:30.236             2.722          1348.281
       425   13 Jun 2027 10:12:42.400   13 Jun 2027 10:12:44.975             2.575          1287.500
       426   13 Jun 2027 10:12:48.926   13 Jun 2027 10:12:50.632             1.706           401.250
       427   13 Jun 2027 11:44:33.402   13 Jun 2027 11:44:47.627            14.225          6693.281
       428   13 Jun 2027 11:45:00.443   13 Jun 2027 11:45:02.591             2.148            63.062
       429   13 Jun 2027 11:45:28.998   13 Jun 2027 11:45:31.496             2.498           825.219
       430   13 Jun 2027 11:45:54.869   13 Jun 2027 11:45:59.685             4.816           147.063
       431   13 Jun 2027 11:46:45.447   13 Jun 2027 11:46:48.293             2.846          1229.969
       432   13 Jun 2027 11:47:24.302   13 Jun 2027 11:47:28.816             4.514           873.250
       433   13 Jun 2027 11:48:22.073   13 Jun 2027 11:48:28.904             6.831          1591.375
       434   13 Jun 2027 11:48:39.853   13 Jun 2027 11:48:42.334             2.481           342.156
