uniorb/output/strategy_1/Camera/Camera_KinoSat_110805.txt

KinoSat_110805
-------------------------
    Access    *     Start Time (UTCG)     *     Stop Time (UTCG)  *   Duration (s) *   Data (Mbytes)
         1   01 Jun 2027 03:34:35.397   01 Jun 2027 03:35:49.668            74.271         37135.500
         2   01 Jun 2027 03:36:31.453   01 Jun 2027 03:36:31.453             0.000             0.000
         3   01 Jun 2027 03:36:34.744   01 Jun 2027 03:36:44.515             9.771          4885.500
         4   01 Jun 2027 03:38:03.974   01 Jun 2027 03:38:03.974             0.000             0.000
         5   01 Jun 2027 05:10:07.597   01 Jun 2027 05:10:13.986             6.389          3194.500
         6   01 Jun 2027 05:11:17.298   01 Jun 2027 05:13:20.536           123.238         61619.000
         7   01 Jun 2027 05:14:31.723   01 Jun 2027 05:14:52.724            21.001         10500.500
         8   01 Jun 2027 06:46:02.851   01 Jun 2027 06:47:32.137            89.286         44643.000
         9   01 Jun 2027 06:48:12.711   01 Jun 2027 06:48:14.768             2.057          1028.500
        10   01 Jun 2027 06:48:23.818   01 Jun 2027 06:48:26.148             2.330          1165.000
        11   01 Jun 2027 06:48:35.213   01 Jun 2027 06:48:35.213             0.000             0.000
        12   01 Jun 2027 06:48:58.403   01 Jun 2027 06:49:12.117            13.714          6857.000
        13   01 Jun 2027 06:49:36.121   01 Jun 2027 06:49:38.368             2.247          1123.500
        14   01 Jun 2027 06:51:38.676   01 Jun 2027 06:51:38.676             0.000             0.000
        15   01 Jun 2027 06:52:19.681   01 Jun 2027 06:52:31.023            11.342          5671.000
        16   01 Jun 2027 06:53:32.272   01 Jun 2027 06:53:36.194             3.922          1961.000
        17   01 Jun 2027 08:23:02.729   01 Jun 2027 08:25:26.834           144.105         72052.500
        18   01 Jun 2027 08:26:51.315   01 Jun 2027 08:26:54.683             3.368          1684.000
        19   01 Jun 2027 10:01:03.813   01 Jun 2027 10:02:56.612           112.799         56399.500
        20   01 Jun 2027 10:03:26.665   01 Jun 2027 10:03:40.515            13.850          6925.000
        21   01 Jun 2027 10:04:46.920   01 Jun 2027 10:04:49.256             2.336          1168.000
        22   01 Jun 2027 11:34:18.514   01 Jun 2027 11:36:25.971           127.457         63728.500
        23   01 Jun 2027 11:36:37.116   01 Jun 2027 11:36:40.669             3.553          1776.500
        24   01 Jun 2027 11:37:54.748   01 Jun 2027 11:38:07.188            12.440          6220.000
        25   01 Jun 2027 11:41:25.167   01 Jun 2027 11:41:52.061            26.894         13447.000
        26   02 Jun 2027 03:45:51.681   02 Jun 2027 03:46:23.140            31.459         15729.500
        27   02 Jun 2027 03:49:38.376   02 Jun 2027 03:49:48.844            10.468          5234.000
        28   02 Jun 2027 03:49:57.862   02 Jun 2027 03:50:04.952             7.090          3545.000
        29   02 Jun 2027 03:50:21.382   02 Jun 2027 03:50:21.382             0.000             0.000
        30   02 Jun 2027 05:20:59.735   02 Jun 2027 05:22:32.238            92.503         46251.500
        31   02 Jun 2027 05:23:00.696   02 Jun 2027 05:23:44.647            43.951         21975.500
        32   02 Jun 2027 05:24:15.374   02 Jun 2027 05:24:39.574            24.200         12100.000
        33   02 Jun 2027 05:26:13.252   02 Jun 2027 05:26:18.295             5.043          2521.500
        34   02 Jun 2027 06:58:10.903   02 Jun 2027 06:59:46.744            95.841         47920.500
        35   02 Jun 2027 07:00:22.116   02 Jun 2027 07:00:32.835            10.719          5359.500
        36   02 Jun 2027 07:01:03.650   02 Jun 2027 07:01:11.508             7.858          3929.000
        37   02 Jun 2027 07:04:14.914   02 Jun 2027 07:04:30.717            15.803          7901.500
        38   02 Jun 2027 07:05:36.320   02 Jun 2027 07:05:36.877             0.557           278.500
        39   02 Jun 2027 08:35:08.216   02 Jun 2027 08:37:28.755           140.539         70269.500
        40   02 Jun 2027 08:40:37.273   02 Jun 2027 08:40:57.474            20.201         10100.500
        41   02 Jun 2027 08:41:10.224   02 Jun 2027 08:41:10.834             0.610           305.000
        42   02 Jun 2027 10:13:01.234   02 Jun 2027 10:15:08.935           127.701         63850.500
        43   02 Jun 2027 10:16:27.122   02 Jun 2027 10:16:28.268             1.146           573.000
        44   02 Jun 2027 11:46:29.029   02 Jun 2027 11:47:59.121            90.092         45046.000
        45   02 Jun 2027 11:49:35.929   02 Jun 2027 11:49:43.262             7.333          3666.500
        46   02 Jun 2027 11:52:30.386   02 Jun 2027 11:52:31.976             1.590           795.000
        47   02 Jun 2027 11:52:55.979   02 Jun 2027 11:53:00.087             4.108          2054.000
        48   03 Jun 2027 03:57:36.639   03 Jun 2027 03:58:12.762            36.123         18061.500
        49   03 Jun 2027 04:00:16.661   03 Jun 2027 04:00:32.644            15.983          7991.500
        50   03 Jun 2027 05:32:29.154   03 Jun 2027 05:34:43.999           134.845         67422.500
        51   03 Jun 2027 05:36:11.643   03 Jun 2027 05:36:22.116            10.473          5236.500
        52   03 Jun 2027 05:37:54.421   03 Jun 2027 05:38:02.138             7.717          3858.500
        53   03 Jun 2027 05:41:18.826   03 Jun 2027 05:41:25.704             6.878          3439.000
        54   03 Jun 2027 07:10:12.211   03 Jun 2027 07:12:28.414           136.203         68101.500
        55   03 Jun 2027 07:13:02.567   03 Jun 2027 07:13:10.214             7.647          3823.500
        56   03 Jun 2027 07:13:39.103   03 Jun 2027 07:13:39.617             0.514           257.000
        57   03 Jun 2027 07:16:16.291   03 Jun 2027 07:16:42.742            26.451         13225.500
        58   03 Jun 2027 08:47:00.408   03 Jun 2027 08:49:27.620           147.212         73606.000
        59   03 Jun 2027 08:50:42.470   03 Jun 2027 08:50:50.785             8.315          4157.500
        60   03 Jun 2027 08:53:18.576   03 Jun 2027 08:53:20.529             1.953           976.500
        61   03 Jun 2027 10:25:02.469   03 Jun 2027 10:26:06.828            64.359         32179.500
        62   03 Jun 2027 10:27:01.418   03 Jun 2027 10:27:05.466             4.048          2024.000
        63   03 Jun 2027 10:27:39.375   03 Jun 2027 10:27:44.877             5.502          1180.906
        64   03 Jun 2027 10:28:08.412   03 Jun 2027 10:28:10.104             1.692           735.469
        65   03 Jun 2027 11:58:54.747   03 Jun 2027 11:59:02.860             8.113          2214.406
        66   03 Jun 2027 11:59:25.159   03 Jun 2027 11:59:28.276             3.117           599.906
        67   04 Jun 2027 04:11:23.407   04 Jun 2027 04:11:58.706            35.299         17649.500
        68   04 Jun 2027 04:12:38.244   04 Jun 2027 04:12:39.154             0.910           455.000
        69   04 Jun 2027 04:13:32.484   04 Jun 2027 04:13:53.596            21.112         10556.000
        70   04 Jun 2027 05:45:12.839   04 Jun 2027 05:47:14.913           122.074         61037.000
        71   04 Jun 2027 05:49:39.966   04 Jun 2027 05:49:47.136             7.170          3585.000
        72   04 Jun 2027 05:51:15.143   04 Jun 2027 05:51:32.976            17.833          8916.500
        73   04 Jun 2027 07:22:15.548   04 Jun 2027 07:24:15.387           119.839         59919.500
        74   04 Jun 2027 07:24:57.434   04 Jun 2027 07:25:30.781            33.347         16462.000
        75   04 Jun 2027 08:59:10.380   04 Jun 2027 08:59:43.322            32.942         15610.687
        76   04 Jun 2027 09:00:23.621   04 Jun 2027 09:00:31.146             7.525           853.156
        77   04 Jun 2027 09:01:12.370   04 Jun 2027 09:01:13.526             1.156           346.031
        78   04 Jun 2027 09:01:39.483   04 Jun 2027 09:01:44.262             4.779           720.906
        79   04 Jun 2027 09:02:15.847   04 Jun 2027 09:02:21.186             5.339           967.000
        80   04 Jun 2027 09:02:44.506   04 Jun 2027 09:02:45.569             1.063           512.906
        81   04 Jun 2027 09:03:45.275   04 Jun 2027 09:03:47.221             1.946           973.000
        82   04 Jun 2027 09:04:04.954   04 Jun 2027 09:04:10.082             5.128           990.031
        83   04 Jun 2027 09:04:48.730   04 Jun 2027 09:04:51.999             3.269          1207.750
        84   04 Jun 2027 09:05:14.030   04 Jun 2027 09:05:17.245             3.215           661.688
        85   04 Jun 2027 09:05:25.476   04 Jun 2027 09:05:27.013             1.537           257.219
        86   04 Jun 2027 10:36:16.422   04 Jun 2027 10:36:29.673            13.251          6338.906
        87   04 Jun 2027 10:37:41.951   04 Jun 2027 10:37:46.675             4.724          2101.250
        88   04 Jun 2027 10:38:18.340   04 Jun 2027 10:38:20.210             1.870           758.125
        89   04 Jun 2027 10:38:59.500   04 Jun 2027 10:39:00.910             1.410           546.563
        90   04 Jun 2027 10:39:54.440   04 Jun 2027 10:40:02.616             8.176          1573.156
        91   04 Jun 2027 10:40:18.891   04 Jun 2027 10:40:21.357             2.466           266.781
        92   04 Jun 2027 10:40:33.915   04 Jun 2027 10:40:35.028             1.113           357.781
        93   04 Jun 2027 10:40:48.447   04 Jun 2027 10:40:52.133             3.686           401.625
        94   05 Jun 2027 04:23:40.192   05 Jun 2027 04:24:35.774            55.582         27791.000
        95   05 Jun 2027 04:25:02.811   05 Jun 2027 04:25:35.552            32.741         16370.500
        96   05 Jun 2027 05:57:09.674   05 Jun 2027 05:58:45.911            96.237         48118.500
        97   05 Jun 2027 05:59:28.840   05 Jun 2027 05:59:43.597            14.757          7378.500
        98   05 Jun 2027 05:59:48.167   05 Jun 2027 05:59:53.800             5.633          2816.500
        99   05 Jun 2027 06:02:14.709   05 Jun 2027 06:02:14.709             0.000             0.000
       100   05 Jun 2027 06:02:24.786   05 Jun 2027 06:02:32.406             7.620          3810.000
       101   05 Jun 2027 06:03:44.239   05 Jun 2027 06:03:56.985            12.746          6373.000
       102   05 Jun 2027 06:04:38.326   05 Jun 2027 06:04:55.080            16.754          8377.000
       103   05 Jun 2027 06:05:19.028   05 Jun 2027 06:05:23.622             4.594          2297.000
       104   05 Jun 2027 07:34:41.354   05 Jun 2027 07:36:38.719           117.365         57860.000
       105   05 Jun 2027 07:38:42.745   05 Jun 2027 07:38:49.445             6.700          3265.625
       106   05 Jun 2027 07:40:00.353   05 Jun 2027 07:40:02.388             2.035          1017.500
       107   05 Jun 2027 07:40:42.998   05 Jun 2027 07:40:45.779             2.781          1390.500
       108   05 Jun 2027 09:11:37.848   05 Jun 2027 09:12:01.369            23.521         11239.718
       109   05 Jun 2027 09:12:41.116   05 Jun 2027 09:12:44.144             3.028           830.313
       110   05 Jun 2027 09:13:49.443   05 Jun 2027 09:13:55.601             6.158          1802.906
       111   05 Jun 2027 09:14:25.709   05 Jun 2027 09:14:32.175             6.466           513.844
       112   05 Jun 2027 09:14:47.863   05 Jun 2027 09:14:51.680             3.817           475.781
       113   05 Jun 2027 09:15:06.385   05 Jun 2027 09:15:07.126             0.741           354.750
       114   05 Jun 2027 09:15:13.916   05 Jun 2027 09:15:15.117             1.201           212.187
       115   05 Jun 2027 09:15:58.636   05 Jun 2027 09:16:01.439             2.803          1311.875
       116   05 Jun 2027 09:16:13.645   05 Jun 2027 09:16:14.682             1.037           160.313
       117   05 Jun 2027 09:16:56.404   05 Jun 2027 09:16:56.404             0.000             0.000
       118   05 Jun 2027 10:48:28.450   05 Jun 2027 10:48:44.305            15.855          7587.469
       119   05 Jun 2027 10:48:57.139   05 Jun 2027 10:49:00.530             3.391           401.062
       120   05 Jun 2027 10:50:29.194   05 Jun 2027 10:50:33.481             4.287          2125.937
       121   05 Jun 2027 10:51:20.731   05 Jun 2027 10:51:28.589             7.858          1476.563
       122   05 Jun 2027 10:52:43.971   05 Jun 2027 10:52:53.223             9.252          2294.969
       123   06 Jun 2027 03:00:00.000   06 Jun 2027 03:00:12.515            12.515          6257.500
       124   06 Jun 2027 03:00:56.562   06 Jun 2027 03:00:57.035             0.473           236.500
       125   06 Jun 2027 04:35:42.266   06 Jun 2027 04:36:34.079            51.813         25906.500
       126   06 Jun 2027 04:37:13.717   06 Jun 2027 04:37:57.026            43.309         21654.500
       127   06 Jun 2027 04:38:02.114   06 Jun 2027 04:38:10.553             8.439          4219.500
       128   06 Jun 2027 06:09:49.164   06 Jun 2027 06:11:45.378           116.214         58107.000
       129   06 Jun 2027 06:12:26.875   06 Jun 2027 06:12:38.708            11.833          5916.500
       130   06 Jun 2027 06:14:30.598   06 Jun 2027 06:14:35.402             4.804          2402.000
       131   06 Jun 2027 06:15:09.562   06 Jun 2027 06:15:14.358             4.796          2398.000
       132   06 Jun 2027 06:15:31.693   06 Jun 2027 06:15:35.165             3.472          1736.000
       133   06 Jun 2027 06:17:03.212   06 Jun 2027 06:17:17.564            14.352          7176.000
       134   06 Jun 2027 07:46:47.552   06 Jun 2027 07:48:08.015            80.463         40148.937
       135   06 Jun 2027 07:48:16.446   06 Jun 2027 07:48:20.785             4.339            12.719
       136   06 Jun 2027 07:49:50.437   06 Jun 2027 07:49:55.013             4.576          1626.719
       137   06 Jun 2027 07:51:06.484   06 Jun 2027 07:51:10.424             3.940          1970.000
       138   06 Jun 2027 07:52:06.951   06 Jun 2027 07:52:10.687             3.736          1868.000
       139   06 Jun 2027 07:53:10.946   06 Jun 2027 07:53:17.800             6.854          1962.000
       140   06 Jun 2027 09:24:27.581   06 Jun 2027 09:24:50.683            23.102         10926.219
       141   06 Jun 2027 09:25:06.648   06 Jun 2027 09:25:09.566             2.918            47.219
       142   06 Jun 2027 09:25:21.550   06 Jun 2027 09:25:23.815             2.265           116.625
       143   06 Jun 2027 09:26:29.327   06 Jun 2027 09:26:29.743             0.416           208.000
       144   06 Jun 2027 09:26:46.455   06 Jun 2027 09:26:50.659             4.204          1808.719
       145   06 Jun 2027 09:27:24.364   06 Jun 2027 09:27:27.197             2.833          1039.750
       146   06 Jun 2027 09:27:31.078   06 Jun 2027 09:27:32.894             1.816           121.281
       147   06 Jun 2027 09:27:49.416   06 Jun 2027 09:27:52.686             3.270           495.281
       148   06 Jun 2027 11:00:31.245   06 Jun 2027 11:00:43.987            12.742          6350.562
       149   06 Jun 2027 11:00:58.730   06 Jun 2027 11:01:00.115             1.385           447.969
       150   06 Jun 2027 11:01:25.830   06 Jun 2027 11:01:28.962             3.132           497.781
       151   06 Jun 2027 11:01:36.254   06 Jun 2027 11:01:36.254             0.000             0.000
       152   06 Jun 2027 11:01:41.580   06 Jun 2027 11:01:45.880             4.300           394.313
       153   06 Jun 2027 11:02:43.951   06 Jun 2027 11:02:47.608             3.657          1387.937
       154   06 Jun 2027 11:03:23.485   06 Jun 2027 11:03:27.488             4.003          1121.156
       155   06 Jun 2027 11:04:23.045   06 Jun 2027 11:04:30.363             7.318          1680.594
       156   06 Jun 2027 11:04:47.846   06 Jun 2027 11:04:49.933             2.087           546.344
       157   07 Jun 2027 03:11:20.831   07 Jun 2027 03:11:38.370            17.539          8769.500
       158   07 Jun 2027 03:12:02.888   07 Jun 2027 03:12:02.888             0.000             0.000
       159   07 Jun 2027 03:12:08.202   07 Jun 2027 03:12:12.377             4.175          2087.500
       160   07 Jun 2027 03:12:26.032   07 Jun 2027 03:12:26.032             0.000             0.000
       161   07 Jun 2027 03:12:56.403   07 Jun 2027 03:12:59.590             3.187          1593.500
       162   07 Jun 2027 03:14:19.132   07 Jun 2027 03:14:21.790             2.658          1329.000
       163   07 Jun 2027 04:47:51.535   07 Jun 2027 04:48:59.694            68.159         34079.500
       164   07 Jun 2027 04:49:00.066   07 Jun 2027 04:49:04.240             4.174          2087.000
       165   07 Jun 2027 06:23:01.517   07 Jun 2027 06:25:12.370           130.853         65426.500
       166   07 Jun 2027 06:25:40.532   07 Jun 2027 06:25:48.028             7.496          3748.000
       167   07 Jun 2027 06:26:17.154   07 Jun 2027 06:26:26.347             9.193          4596.500
       168   07 Jun 2027 06:27:35.654   07 Jun 2027 06:27:35.654             0.000             0.000
       169   07 Jun 2027 06:27:49.801   07 Jun 2027 06:27:50.792             0.991           495.500
       170   07 Jun 2027 06:28:43.603   07 Jun 2027 06:28:56.321            12.718          6359.000
       171   07 Jun 2027 06:29:27.750   07 Jun 2027 06:29:38.280            10.530          5265.000
       172   07 Jun 2027 07:59:23.626   07 Jun 2027 08:00:33.859            70.233         35116.500
       173   07 Jun 2027 08:01:41.483   07 Jun 2027 08:01:53.253            11.770          2905.689
       174   07 Jun 2027 08:02:53.937   07 Jun 2027 08:03:00.674             6.737          1896.375
       175   07 Jun 2027 08:04:19.604   07 Jun 2027 08:04:26.570             6.966          2466.562
       176   07 Jun 2027 08:04:45.220   07 Jun 2027 08:04:46.710             1.490           582.813
       177   07 Jun 2027 08:05:15.156   07 Jun 2027 08:05:16.865             1.709           709.406
       178   07 Jun 2027 09:36:40.747   07 Jun 2027 09:37:00.214            19.467          9236.844
       179   07 Jun 2027 09:37:27.800   07 Jun 2027 09:37:30.886             3.086           648.344
       180   07 Jun 2027 09:37:46.853   07 Jun 2027 09:37:47.731             0.878           402.344
       181   07 Jun 2027 09:38:14.547   07 Jun 2027 09:38:16.117             1.570           589.656
       182   07 Jun 2027 09:39:01.710   07 Jun 2027 09:39:06.680             4.970           950.438
       183   07 Jun 2027 09:40:12.526   07 Jun 2027 09:40:19.482             6.956          1947.156
       184   07 Jun 2027 09:40:54.101   07 Jun 2027 09:40:56.565             2.464          1081.844
       185   07 Jun 2027 11:12:53.672   07 Jun 2027 11:13:13.647            19.975          8973.406
       186   07 Jun 2027 11:13:27.772   07 Jun 2027 11:13:29.881             2.109           441.406
       187   07 Jun 2027 11:13:37.816   07 Jun 2027 11:13:42.614             4.798           151.219
       188   07 Jun 2027 11:13:50.796   07 Jun 2027 11:13:51.101             0.305           107.312
       189   07 Jun 2027 11:14:44.756   07 Jun 2027 11:14:49.289             4.533          1672.250
       190   07 Jun 2027 11:16:18.278   07 Jun 2027 11:16:23.033             4.755          2251.563
       191   07 Jun 2027 11:16:46.610   07 Jun 2027 11:16:49.034             2.424           671.156
       192   08 Jun 2027 03:24:00.653   08 Jun 2027 03:24:25.328            24.675         12337.500
       193   08 Jun 2027 03:24:34.573   08 Jun 2027 03:24:44.178             9.605          4802.500
       194   08 Jun 2027 03:25:34.850   08 Jun 2027 03:25:34.850             0.000             0.000
       195   08 Jun 2027 03:25:41.508   08 Jun 2027 03:25:58.018            16.510          8255.000
       196   08 Jun 2027 04:59:46.239   08 Jun 2027 05:01:15.804            89.565         44782.500
       197   08 Jun 2027 05:03:07.701   08 Jun 2027 05:03:26.064            18.363          9181.500
       198   08 Jun 2027 06:34:43.595   08 Jun 2027 06:36:40.591           116.996         58498.000
       199   08 Jun 2027 06:37:08.496   08 Jun 2027 06:37:08.815             0.319           159.500
       200   08 Jun 2027 06:37:23.157   08 Jun 2027 06:37:26.481             3.324          1662.000
       201   08 Jun 2027 06:40:42.087   08 Jun 2027 06:40:55.872            13.785          6892.500
       202   08 Jun 2027 06:41:10.841   08 Jun 2027 06:41:25.865            15.024          7512.000
       203   08 Jun 2027 08:10:56.139   08 Jun 2027 08:11:39.883            43.744         21872.000
       204   08 Jun 2027 08:12:18.877   08 Jun 2027 08:12:26.345             7.468          2438.343
       205   08 Jun 2027 08:12:47.898   08 Jun 2027 08:12:49.055             1.157           293.313
       206   08 Jun 2027 08:12:56.271   08 Jun 2027 08:12:57.940             1.669            32.375
       207   08 Jun 2027 08:13:22.936   08 Jun 2027 08:13:26.126             3.190           428.219
       208   08 Jun 2027 08:14:42.473   08 Jun 2027 08:14:49.673             7.200          2347.750
       209   08 Jun 2027 08:15:05.476   08 Jun 2027 08:15:06.557             1.081           218.719
       210   08 Jun 2027 08:15:43.486   08 Jun 2027 08:15:43.486             0.000             0.000
       211   08 Jun 2027 08:16:33.801   08 Jun 2027 08:16:38.904             5.103          2551.500
       212   08 Jun 2027 08:16:57.805   08 Jun 2027 08:17:06.554             8.749           744.094
       213   08 Jun 2027 09:48:57.275   08 Jun 2027 09:49:13.693            16.418          8082.969
       214   08 Jun 2027 09:49:52.175   08 Jun 2027 09:49:54.331             2.156           934.719
       215   08 Jun 2027 09:51:10.837   08 Jun 2027 09:51:14.827             3.990          1364.781
       216   08 Jun 2027 09:51:17.731   08 Jun 2027 09:51:19.530             1.799            90.750
       217   08 Jun 2027 09:51:43.519   08 Jun 2027 09:51:47.103             3.584           749.656
       218   08 Jun 2027 09:52:22.984   08 Jun 2027 09:52:25.735             2.751          1113.219
       219   08 Jun 2027 09:52:41.710   08 Jun 2027 09:52:44.158             2.448           499.219
       220   08 Jun 2027 11:24:37.069   08 Jun 2027 11:24:53.239            16.170          7068.594
       221   08 Jun 2027 11:25:57.292   08 Jun 2027 11:26:09.388            12.096          1875.844
       222   08 Jun 2027 11:26:22.805   08 Jun 2027 11:26:23.827             1.022           419.281
       223   08 Jun 2027 11:26:29.519   08 Jun 2027 11:26:32.692             3.173           177.875
       224   08 Jun 2027 11:26:58.410   08 Jun 2027 11:27:01.910             3.500           564.344
       225   08 Jun 2027 11:27:27.792   08 Jun 2027 11:27:29.957             2.165           545.906
       226   08 Jun 2027 11:28:40.052   08 Jun 2027 11:28:43.140             3.088          1544.000
       227   08 Jun 2027 11:29:07.473   08 Jun 2027 11:29:10.178             2.705          1352.500
       228   08 Jun 2027 11:29:12.866   08 Jun 2027 11:29:16.096             3.230            84.312
       229   08 Jun 2027 11:29:42.586   08 Jun 2027 11:29:45.299             2.713           333.250
       230   08 Jun 2027 11:30:03.769   08 Jun 2027 11:30:04.148             0.379           189.500
       231   09 Jun 2027 03:34:49.723   09 Jun 2027 03:35:32.237            42.514         21257.000
       232   09 Jun 2027 03:36:43.793   09 Jun 2027 03:36:46.025             2.232          1116.000
       233   09 Jun 2027 03:37:46.816   09 Jun 2027 03:37:46.816             0.000             0.000
       234   09 Jun 2027 03:38:01.338   09 Jun 2027 03:38:19.111            17.773          8886.500
       235   09 Jun 2027 05:10:22.275   09 Jun 2027 05:10:29.526             7.251          3625.500
       236   09 Jun 2027 05:11:32.093   09 Jun 2027 05:13:47.477           135.384         67692.000
       237   09 Jun 2027 05:13:57.435   09 Jun 2027 05:14:01.664             4.229          2114.500
       238   09 Jun 2027 05:15:07.606   09 Jun 2027 05:15:07.606             0.000             0.000
       239   09 Jun 2027 05:15:42.922   09 Jun 2027 05:15:48.124             5.202          2601.000
       240   09 Jun 2027 06:46:17.276   09 Jun 2027 06:47:48.751            91.475         45737.500
       241   09 Jun 2027 06:48:51.126   09 Jun 2027 06:49:14.162            23.036         11518.000
       242   09 Jun 2027 06:50:11.356   09 Jun 2027 06:50:17.875             6.519          3191.906
       243   09 Jun 2027 06:53:47.195   09 Jun 2027 06:53:50.981             3.786          1893.000
       244   09 Jun 2027 08:23:17.741   09 Jun 2027 08:23:57.943            40.202         18716.469
       245   09 Jun 2027 08:24:56.447   09 Jun 2027 08:24:59.633             3.186          1562.406
       246   09 Jun 2027 08:25:44.695   09 Jun 2027 08:25:48.030             3.335          1058.812
       247   09 Jun 2027 08:27:06.076   09 Jun 2027 08:27:09.782             3.706          1853.000
       248   09 Jun 2027 08:27:55.832   09 Jun 2027 08:28:00.628             4.796          1734.094
       249   09 Jun 2027 08:29:02.837   09 Jun 2027 08:29:13.571            10.734          1838.188
       250   09 Jun 2027 10:01:18.761   09 Jun 2027 10:01:35.934            17.173          7773.125
       251   09 Jun 2027 10:02:48.711   09 Jun 2027 10:02:56.652             7.941          1991.031
       252   09 Jun 2027 10:03:07.515   09 Jun 2027 10:03:10.747             3.232           266.094
       253   09 Jun 2027 10:04:25.275   09 Jun 2027 10:04:30.024             4.749          2329.000
       254   09 Jun 2027 10:04:42.518   09 Jun 2027 10:04:46.361             3.843           258.719
       255   09 Jun 2027 11:34:32.761   09 Jun 2027 11:34:46.129            13.368          6397.250
       256   09 Jun 2027 11:35:16.513   09 Jun 2027 11:35:22.301             5.788           949.500
       257   09 Jun 2027 11:36:30.581   09 Jun 2027 11:36:36.385             5.804          2017.750
       258   09 Jun 2027 11:37:02.793   09 Jun 2027 11:37:02.793             0.000             0.000
       259   09 Jun 2027 11:37:18.779   09 Jun 2027 11:37:24.660             5.881          1187.719
       260   09 Jun 2027 11:37:41.105   09 Jun 2027 11:37:41.105             0.000             0.000
       261   09 Jun 2027 11:37:53.757   09 Jun 2027 11:37:55.680             1.923           524.594
       262   09 Jun 2027 11:38:05.918   09 Jun 2027 11:38:09.392             3.474           154.313
       263   09 Jun 2027 11:38:39.102   09 Jun 2027 11:38:40.004             0.902           451.000
       264   09 Jun 2027 11:39:31.422   09 Jun 2027 11:39:35.648             4.226          2016.406
       265   09 Jun 2027 11:39:50.565   09 Jun 2027 11:39:50.565             0.000             0.000
       266   09 Jun 2027 11:40:21.062   09 Jun 2027 11:40:23.928             2.866          1292.906
       267   09 Jun 2027 11:41:39.938   09 Jun 2027 11:41:47.351             7.413          1760.563
       268   09 Jun 2027 11:42:19.638   09 Jun 2027 11:42:24.021             4.383           404.438
       269   10 Jun 2027 03:46:05.981   10 Jun 2027 03:46:58.751            52.770         26385.000
       270   10 Jun 2027 03:49:27.301   10 Jun 2027 03:49:44.557            17.256          8628.000
       271   10 Jun 2027 03:50:43.375   10 Jun 2027 03:50:43.375             0.000             0.000
       272   10 Jun 2027 03:50:43.911   10 Jun 2027 03:50:53.143             9.232          4616.000
       273   10 Jun 2027 05:21:13.871   10 Jun 2027 05:22:53.452            99.581         49790.500
       274   10 Jun 2027 05:23:15.329   10 Jun 2027 05:23:36.890            21.561         10780.500
       275   10 Jun 2027 05:24:03.258   10 Jun 2027 05:24:12.465             9.207          4603.500
       276   10 Jun 2027 05:24:37.795   10 Jun 2027 05:24:43.744             5.949          2974.500
       277   10 Jun 2027 05:24:52.232   10 Jun 2027 05:24:55.176             2.944          1472.000
       278   10 Jun 2027 05:27:35.386   10 Jun 2027 05:27:40.900             5.514          2757.000
       279   10 Jun 2027 06:58:25.794   10 Jun 2027 07:00:01.181            95.387         47693.500
       280   10 Jun 2027 07:00:36.797   10 Jun 2027 07:00:56.482            19.685          9406.907
       281   10 Jun 2027 07:01:49.154   10 Jun 2027 07:01:54.385             5.231          1646.000
       282   10 Jun 2027 07:03:58.555   10 Jun 2027 07:03:58.593             0.038            19.000
       283   10 Jun 2027 07:04:33.050   10 Jun 2027 07:04:36.354             3.304          1652.000
       284   10 Jun 2027 07:05:07.188   10 Jun 2027 07:05:15.773             8.585          4249.656
       285   10 Jun 2027 08:35:23.182   10 Jun 2027 08:35:57.613            34.431         15325.781
       286   10 Jun 2027 08:36:26.754   10 Jun 2027 08:36:27.886             1.132           223.469
       287   10 Jun 2027 08:37:00.952   10 Jun 2027 08:37:01.844             0.892           173.219
       288   10 Jun 2027 08:37:43.738   10 Jun 2027 08:37:48.186             4.448          1065.062
       289   10 Jun 2027 08:38:55.595   10 Jun 2027 08:39:01.869             6.274          1851.281
       290   10 Jun 2027 08:39:11.671   10 Jun 2027 08:39:13.609             1.938             4.062
       291   10 Jun 2027 08:39:20.631   10 Jun 2027 08:39:21.255             0.624           217.125
       292   10 Jun 2027 08:39:29.455   10 Jun 2027 08:39:31.657             2.202           110.094
       293   10 Jun 2027 08:40:19.933   10 Jun 2027 08:40:29.871             9.938          1480.563
       294   10 Jun 2027 08:40:38.238   10 Jun 2027 08:40:39.506             1.268           125.406
       295   10 Jun 2027 10:13:16.121   10 Jun 2027 10:13:36.623            20.502          8828.656
       296   10 Jun 2027 10:13:45.239   10 Jun 2027 10:13:45.833             0.594           269.250
       297   10 Jun 2027 10:14:36.137   10 Jun 2027 10:14:41.067             4.930          1572.000
       298   10 Jun 2027 10:14:50.948   10 Jun 2027 10:14:52.930             1.982           282.469
       299   10 Jun 2027 10:15:09.860   10 Jun 2027 10:15:11.397             1.537           448.438
       300   10 Jun 2027 10:15:28.389   10 Jun 2027 10:15:34.388             5.999           401.750
       301   10 Jun 2027 10:16:01.982   10 Jun 2027 10:16:10.511             8.529           650.312
       302   10 Jun 2027 10:16:42.836   10 Jun 2027 10:16:47.458             4.622           979.156
       303   10 Jun 2027 10:16:51.304   10 Jun 2027 10:16:51.458             0.154            39.219
       304   10 Jun 2027 11:46:44.553   10 Jun 2027 11:46:48.145             3.592          1359.750
       305   10 Jun 2027 11:47:28.276   10 Jun 2027 11:47:29.840             1.564           234.125
       306   10 Jun 2027 11:48:21.662   10 Jun 2027 11:48:25.019             3.357          1595.250
       307   10 Jun 2027 11:49:03.760   10 Jun 2027 11:49:08.697             4.937          1047.813
       308   10 Jun 2027 11:49:30.977   10 Jun 2027 11:49:34.411             3.434           551.156
       309   10 Jun 2027 11:50:33.324   10 Jun 2027 11:50:37.924             4.600          1579.781
       310   10 Jun 2027 11:50:48.321   10 Jun 2027 11:50:48.321             0.000             0.000
       311   10 Jun 2027 11:51:40.900   10 Jun 2027 11:51:45.051             4.151          1968.000
       312   10 Jun 2027 11:52:21.502   10 Jun 2027 11:52:28.831             7.329          1139.094
       313   10 Jun 2027 11:53:37.325   10 Jun 2027 11:53:40.531             3.206          1603.000
       314   11 Jun 2027 03:57:51.096   11 Jun 2027 03:58:35.430            44.334         22167.000
       315   11 Jun 2027 03:59:09.261   11 Jun 2027 03:59:11.570             2.309          1154.500
       316   11 Jun 2027 03:59:54.359   11 Jun 2027 04:00:01.277             6.918          3459.000
       317   11 Jun 2027 04:02:02.100   11 Jun 2027 04:02:17.476            15.376          7688.000
       318   11 Jun 2027 04:02:52.426   11 Jun 2027 04:02:55.908             3.482          1741.000
       319   11 Jun 2027 05:32:43.527   11 Jun 2027 05:34:44.380           120.853         60426.500
       320   11 Jun 2027 05:36:09.106   11 Jun 2027 05:36:13.005             3.899          1949.500
       321   11 Jun 2027 05:37:58.058   11 Jun 2027 05:38:02.472             4.414          2207.000
       322   11 Jun 2027 05:38:56.950   11 Jun 2027 05:39:06.698             9.748          4874.000
       323   11 Jun 2027 05:41:33.378   11 Jun 2027 05:41:49.611            16.233          8116.500
       324   11 Jun 2027 07:10:27.386   11 Jun 2027 07:12:34.040           126.654         63327.000
       325   11 Jun 2027 07:13:53.893   11 Jun 2027 07:14:03.097             9.204          4602.000
       326   11 Jun 2027 07:16:30.614   11 Jun 2027 07:16:33.423             2.809          1404.500
       327   11 Jun 2027 07:16:50.353   11 Jun 2027 07:16:57.206             6.853          3426.500
       328   11 Jun 2027 08:47:15.431   11 Jun 2027 08:47:23.584             8.153          4076.500
       329   11 Jun 2027 08:47:37.540   11 Jun 2027 08:48:01.160            23.620         10694.219
       330   11 Jun 2027 08:48:44.348   11 Jun 2027 08:48:47.866             3.518           713.156
       331   11 Jun 2027 08:50:13.248   11 Jun 2027 08:50:16.387             3.139           958.469
       332   11 Jun 2027 08:51:10.177   11 Jun 2027 08:51:16.957             6.780           788.406
       333   11 Jun 2027 08:52:02.241   11 Jun 2027 08:52:06.370             4.129          1187.250
       334   11 Jun 2027 08:52:37.542   11 Jun 2027 08:52:38.817             1.275           637.500
       335   11 Jun 2027 08:53:17.401   11 Jun 2027 08:53:20.736             3.335          1451.406
       336   11 Jun 2027 10:25:18.058   11 Jun 2027 10:25:35.212            17.154          7608.437
       337   11 Jun 2027 10:27:00.550   11 Jun 2027 10:27:07.312             6.762          2544.719
       338   11 Jun 2027 10:28:00.402   11 Jun 2027 10:28:09.521             9.119          1635.750
       339   11 Jun 2027 10:28:12.540   11 Jun 2027 10:28:15.000             2.460            19.813
       340   11 Jun 2027 10:28:30.980   11 Jun 2027 10:28:32.729             1.749           496.344
       341   11 Jun 2027 10:28:38.342   11 Jun 2027 10:28:38.693             0.351           173.625
       342   11 Jun 2027 10:29:16.364   11 Jun 2027 10:29:19.657             3.293          1104.188
       343   11 Jun 2027 11:59:09.729   11 Jun 2027 11:59:18.423             8.694          2530.594
       344   11 Jun 2027 11:59:42.941   11 Jun 2027 11:59:45.940             2.999           691.094
       345   12 Jun 2027 04:11:37.912   12 Jun 2027 04:12:49.555            71.643         35821.500
       346   12 Jun 2027 05:45:27.621   12 Jun 2027 05:47:20.554           112.933         56466.500
       347   12 Jun 2027 05:48:41.137   12 Jun 2027 05:48:41.137             0.000             0.000
       348   12 Jun 2027 05:49:06.347   12 Jun 2027 05:49:21.688            15.341          7670.500
       349   12 Jun 2027 05:50:23.816   12 Jun 2027 05:50:34.127            10.311          5155.500
       350   12 Jun 2027 05:52:57.106   12 Jun 2027 05:53:30.897            33.791         16895.500
       351   12 Jun 2027 05:53:39.083   12 Jun 2027 05:53:39.083             0.000             0.000
       352   12 Jun 2027 07:22:30.576   12 Jun 2027 07:22:40.593            10.017          5008.500
       353   12 Jun 2027 07:23:25.974   12 Jun 2027 07:25:12.064           106.090         53045.000
       354   12 Jun 2027 07:25:58.140   12 Jun 2027 07:26:06.446             8.306          4153.000
       355   12 Jun 2027 07:27:55.420   12 Jun 2027 07:27:59.094             3.674          1837.000
       356   12 Jun 2027 07:28:03.935   12 Jun 2027 07:28:15.749            11.814          4641.188
       357   12 Jun 2027 07:29:00.936   12 Jun 2027 07:29:04.050             3.114          1412.094
       358   12 Jun 2027 08:59:25.278   12 Jun 2027 08:59:55.466            30.188         14677.906
       359   12 Jun 2027 09:00:11.194   12 Jun 2027 09:00:11.896             0.702           351.000
       360   12 Jun 2027 09:00:54.537   12 Jun 2027 09:00:58.158             3.621          1454.156
       361   12 Jun 2027 09:01:27.909   12 Jun 2027 09:01:28.707             0.798           367.094
       362   12 Jun 2027 09:02:28.634   12 Jun 2027 09:02:35.863             7.229          1511.563
       363   12 Jun 2027 09:02:48.337   12 Jun 2027 09:02:51.349             3.012            62.688
       364   12 Jun 2027 09:03:19.815   12 Jun 2027 09:03:21.446             1.631           815.500
       365   12 Jun 2027 09:04:02.117   12 Jun 2027 09:04:04.935             2.818          1345.031
       366   12 Jun 2027 09:04:51.569   12 Jun 2027 09:04:55.080             3.511          1019.750
       367   12 Jun 2027 10:36:31.370   12 Jun 2027 10:36:45.097            13.727          6841.062
       368   12 Jun 2027 10:37:07.518   12 Jun 2027 10:37:08.829             1.311           570.688
       369   12 Jun 2027 10:37:48.089   12 Jun 2027 10:37:50.770             2.681          1185.500
       370   12 Jun 2027 10:38:12.129   12 Jun 2027 10:38:16.270             4.141           512.500
       371   12 Jun 2027 10:38:56.693   12 Jun 2027 10:38:57.936             1.243           621.500
       372   12 Jun 2027 10:39:15.249   12 Jun 2027 10:39:17.953             2.704          1182.750
       373   12 Jun 2027 10:40:39.167   12 Jun 2027 10:40:45.998             6.831          2086.562
       374   13 Jun 2027 04:23:55.299   13 Jun 2027 04:25:08.368            73.069         36534.500
       375   13 Jun 2027 04:26:20.307   13 Jun 2027 04:26:25.339             5.032          2516.000
       376   13 Jun 2027 05:57:25.180   13 Jun 2027 05:59:19.095           113.915         56957.500
       377   13 Jun 2027 05:59:59.371   13 Jun 2027 06:00:03.414             4.043          2021.500
       378   13 Jun 2027 06:00:11.236   13 Jun 2027 06:00:25.175            13.939          6969.500
       379   13 Jun 2027 06:01:13.342   13 Jun 2027 06:01:21.994             8.652          4326.000
       380   13 Jun 2027 06:05:04.468   13 Jun 2027 06:05:09.412             4.944          2472.000
       381   13 Jun 2027 06:05:33.843   13 Jun 2027 06:05:40.603             6.760          3380.000
       382   13 Jun 2027 06:05:53.628   13 Jun 2027 06:05:56.479             2.851          1425.500
       383   13 Jun 2027 07:34:56.280   13 Jun 2027 07:36:31.935            95.655         47827.500
       384   13 Jun 2027 07:37:44.722   13 Jun 2027 07:38:16.674            31.952         15976.000
       385   13 Jun 2027 07:38:23.748   13 Jun 2027 07:38:28.952             5.204          1895.156
       386   13 Jun 2027 07:39:15.527   13 Jun 2027 07:39:22.578             7.051          1286.719
       387   13 Jun 2027 07:40:20.110   13 Jun 2027 07:40:22.002             1.892           946.000
       388   13 Jun 2027 07:41:13.781   13 Jun 2027 07:41:18.375             4.594          2297.000
       389   13 Jun 2027 09:11:52.702   13 Jun 2027 09:12:21.799            29.097         13765.375
       390   13 Jun 2027 09:14:04.318   13 Jun 2027 09:14:13.446             9.128          1826.687
       391   13 Jun 2027 09:14:40.379   13 Jun 2027 09:14:46.196             5.817           512.125
       392   13 Jun 2027 09:15:13.905   13 Jun 2027 09:15:15.526             1.621           321.750
       393   13 Jun 2027 09:15:37.308   13 Jun 2027 09:15:37.308             0.000             0.000
       394   13 Jun 2027 09:15:51.950   13 Jun 2027 09:15:55.003             3.053           961.500
       395   13 Jun 2027 09:15:59.858   13 Jun 2027 09:16:04.422             4.564           151.719
       396   13 Jun 2027 09:16:56.191   13 Jun 2027 09:17:00.802             4.611          1418.281
       397   13 Jun 2027 09:17:20.540   13 Jun 2027 09:17:22.021             1.481           395.156
       398   13 Jun 2027 10:48:43.248   13 Jun 2027 10:48:59.146            15.898          6174.563
       399   13 Jun 2027 10:49:37.922   13 Jun 2027 10:49:45.478             7.556          1211.750
       400   13 Jun 2027 10:50:27.942   13 Jun 2027 10:50:31.057             3.115          1247.906
       401   13 Jun 2027 10:51:22.952   13 Jun 2027 10:51:28.862             5.910          1223.219
       402   13 Jun 2027 10:52:37.790   13 Jun 2027 10:52:42.035             4.245          1951.781
       403   13 Jun 2027 10:53:07.173   13 Jun 2027 10:53:09.719             2.546           785.562
