uniorb/output/strategy_1/Camera/Camera_KinoSat_110410.txt

KinoSat_110410
-------------------------
    Access    *     Start Time (UTCG)     *     Stop Time (UTCG)  *   Duration (s) *   Data (Mbytes)
         1   01 Jun 2027 03:02:42.110   01 Jun 2027 03:03:11.353            29.243         14621.500
         2   01 Jun 2027 03:03:28.455   01 Jun 2027 03:03:34.709             6.254          3127.000
         3   01 Jun 2027 03:04:32.880   01 Jun 2027 03:05:05.109            32.229         16114.500
         4   01 Jun 2027 03:05:37.230   01 Jun 2027 03:05:39.257             2.027          1013.500
         5   01 Jun 2027 03:06:20.668   01 Jun 2027 03:06:38.440            17.772          8886.000
         6   01 Jun 2027 03:06:51.088   01 Jun 2027 03:06:54.669             3.581          1790.500
         7   01 Jun 2027 03:08:01.172   01 Jun 2027 03:08:35.747            34.575         17287.500
         8   01 Jun 2027 03:08:56.296   01 Jun 2027 03:08:56.296             0.000             0.000
         9   01 Jun 2027 04:39:41.056   01 Jun 2027 04:41:43.666           122.610         61305.000
        10   01 Jun 2027 04:42:19.229   01 Jun 2027 04:42:21.221             1.992           996.000
        11   01 Jun 2027 04:42:42.089   01 Jun 2027 04:43:00.239            18.150          9075.000
        12   01 Jun 2027 04:46:45.440   01 Jun 2027 04:47:05.640            20.200         10100.000
        13   01 Jun 2027 06:16:39.082   01 Jun 2027 06:19:43.926           184.844         92422.000
        14   01 Jun 2027 06:20:09.030   01 Jun 2027 06:20:28.780            19.750          9875.000
        15   01 Jun 2027 06:21:51.031   01 Jun 2027 06:22:17.962            26.931         13465.500
        16   01 Jun 2027 07:54:35.063   01 Jun 2027 07:57:02.779           147.716         73858.000
        17   01 Jun 2027 07:57:14.540   01 Jun 2027 07:57:17.928             3.388          1694.000
        18   01 Jun 2027 07:57:25.726   01 Jun 2027 07:57:29.743             4.017          2008.500
        19   01 Jun 2027 07:57:34.354   01 Jun 2027 07:57:38.438             4.084          2042.000
        20   01 Jun 2027 07:58:09.942   01 Jun 2027 07:58:28.765            18.823          9411.500
        21   01 Jun 2027 09:27:54.903   01 Jun 2027 09:29:58.508           123.605         61802.500
        22   01 Jun 2027 09:30:48.117   01 Jun 2027 09:30:54.557             6.440          3220.000
        23   01 Jun 2027 09:31:58.992   01 Jun 2027 09:32:21.030            22.038         11019.000
        24   01 Jun 2027 09:32:45.727   01 Jun 2027 09:33:01.173            15.446          7723.000
        25   01 Jun 2027 09:33:13.341   01 Jun 2027 09:33:15.706             2.365          1182.500
        26   01 Jun 2027 09:34:28.424   01 Jun 2027 09:34:37.688             9.264          4632.000
        27   01 Jun 2027 09:34:57.356   01 Jun 2027 09:35:24.728            27.372         13686.000
        28   02 Jun 2027 03:14:05.620   02 Jun 2027 03:19:31.291           325.671        162835.500
        29   02 Jun 2027 03:21:19.933   02 Jun 2027 03:21:46.776            26.843         13421.500
        30   02 Jun 2027 04:51:42.903   02 Jun 2027 04:53:36.753           113.850         56925.000
        31   02 Jun 2027 04:53:42.065   02 Jun 2027 04:54:11.401            29.336         14668.000
        32   02 Jun 2027 04:54:47.218   02 Jun 2027 04:54:55.971             8.753          4376.500
        33   02 Jun 2027 04:55:47.774   02 Jun 2027 04:55:47.995             0.221           110.500
        34   02 Jun 2027 04:56:18.678   02 Jun 2027 04:56:43.684            25.006         12503.000
        35   02 Jun 2027 04:57:50.572   02 Jun 2027 04:58:33.513            42.941         21470.500
        36   02 Jun 2027 06:28:28.931   02 Jun 2027 06:30:52.432           143.501         71750.500
        37   02 Jun 2027 06:31:06.769   02 Jun 2027 06:31:12.553             5.784          2892.000
        38   02 Jun 2027 06:31:41.139   02 Jun 2027 06:32:03.609            22.470         11235.000
        39   02 Jun 2027 06:32:37.172   02 Jun 2027 06:32:44.289             7.117          3558.500
        40   02 Jun 2027 06:32:51.006   02 Jun 2027 06:33:07.983            16.977          8488.500
        41   02 Jun 2027 06:34:01.460   02 Jun 2027 06:34:05.881             4.421          2210.500
        42   02 Jun 2027 06:34:40.902   02 Jun 2027 06:34:47.408             6.506          3253.000
        43   02 Jun 2027 08:06:34.011   02 Jun 2027 08:08:57.804           143.793         71896.500
        44   02 Jun 2027 08:09:24.940   02 Jun 2027 08:09:34.322             9.382          4691.000
        45   02 Jun 2027 08:09:35.680   02 Jun 2027 08:09:40.515             4.835          2417.500
        46   02 Jun 2027 09:40:21.880   02 Jun 2027 09:42:38.344           136.464         68232.000
        47   02 Jun 2027 09:43:39.030   02 Jun 2027 09:43:54.895            15.865          7932.500
        48   02 Jun 2027 09:44:04.782   02 Jun 2027 09:44:14.763             9.981          4990.500
        49   02 Jun 2027 09:45:37.814   02 Jun 2027 09:46:02.331            24.517         12258.500
        50   02 Jun 2027 09:46:48.089   02 Jun 2027 09:46:52.556             4.467          2233.500
        51   03 Jun 2027 03:25:37.949   03 Jun 2027 03:31:28.047           350.098        175049.000
        52   03 Jun 2027 03:31:46.993   03 Jun 2027 03:31:48.466             1.473           736.500
        53   03 Jun 2027 03:31:52.571   03 Jun 2027 03:32:01.143             8.572          4286.000
        54   03 Jun 2027 03:33:20.548   03 Jun 2027 03:33:54.149            33.601         16800.500
        55   03 Jun 2027 03:34:13.250   03 Jun 2027 03:34:37.067            23.817         11908.500
        56   03 Jun 2027 05:03:43.602   03 Jun 2027 05:06:04.224           140.622         70311.000
        57   03 Jun 2027 05:06:49.971   03 Jun 2027 05:06:50.795             0.824           412.000
        58   03 Jun 2027 05:08:24.259   03 Jun 2027 05:08:54.756            30.497         15248.500
        59   03 Jun 2027 05:09:02.787   03 Jun 2027 05:09:10.826             8.039          4019.500
        60   03 Jun 2027 05:09:47.921   03 Jun 2027 05:10:07.685            19.764          9882.000
        61   03 Jun 2027 05:10:54.885   03 Jun 2027 05:10:59.378             4.493          2246.500
        62   03 Jun 2027 06:40:37.939   03 Jun 2027 06:42:48.587           130.648         65324.000
        63   03 Jun 2027 06:43:33.141   03 Jun 2027 06:43:50.118            16.977          8488.500
        64   03 Jun 2027 06:44:38.345   03 Jun 2027 06:44:45.862             7.517          3758.500
        65   03 Jun 2027 06:44:59.019   03 Jun 2027 06:45:17.851            18.832          9416.000
        66   03 Jun 2027 06:47:04.187   03 Jun 2027 06:47:04.213             0.026            13.000
        67   03 Jun 2027 08:17:46.840   03 Jun 2027 08:20:08.341           141.501         70750.500
        68   03 Jun 2027 08:20:56.563   03 Jun 2027 08:21:14.000            17.437          8718.500
        69   03 Jun 2027 08:21:18.829   03 Jun 2027 08:21:19.624             0.795           397.500
        70   03 Jun 2027 08:21:41.084   03 Jun 2027 08:22:04.338            23.254         11627.000
        71   03 Jun 2027 09:52:36.915   03 Jun 2027 09:53:33.854            56.939         28469.500
        72   03 Jun 2027 09:54:28.791   03 Jun 2027 09:55:18.608            49.817         24908.500
        73   03 Jun 2027 09:55:56.410   03 Jun 2027 09:55:56.410             0.000             0.000
        74   03 Jun 2027 09:56:06.306   03 Jun 2027 09:56:15.138             8.832          4416.000
        75   03 Jun 2027 09:57:10.444   03 Jun 2027 09:57:20.843            10.399          5199.500
        76   03 Jun 2027 09:57:39.759   03 Jun 2027 09:57:47.384             7.625          3812.500
        77   04 Jun 2027 03:38:38.333   04 Jun 2027 03:43:48.061           309.728        154864.000
        78   04 Jun 2027 03:43:51.004   04 Jun 2027 03:44:00.438             9.434          4717.000
        79   04 Jun 2027 03:44:10.587   04 Jun 2027 03:44:10.587             0.000             0.000
        80   04 Jun 2027 03:45:21.436   04 Jun 2027 03:45:44.070            22.634         11317.000
        81   04 Jun 2027 03:46:10.098   04 Jun 2027 03:46:23.230            13.132          6566.000
        82   04 Jun 2027 03:47:10.494   04 Jun 2027 03:47:11.870             1.376           688.000
        83   04 Jun 2027 05:16:09.379   04 Jun 2027 05:18:35.241           145.862         72931.000
        84   04 Jun 2027 05:19:01.142   04 Jun 2027 05:19:22.129            20.987         10493.500
        85   04 Jun 2027 05:19:45.913   04 Jun 2027 05:19:55.693             9.780          4890.000
        86   04 Jun 2027 05:22:40.322   04 Jun 2027 05:22:55.744            15.422          7711.000
        87   04 Jun 2027 06:53:05.620   04 Jun 2027 06:53:20.916            15.296          7648.000
        88   04 Jun 2027 06:53:26.733   04 Jun 2027 06:55:53.429           146.696         73348.000
        89   04 Jun 2027 06:56:18.904   04 Jun 2027 06:56:25.971             7.067          3533.500
        90   04 Jun 2027 06:56:37.055   04 Jun 2027 06:56:38.798             1.743           871.500
        91   04 Jun 2027 06:57:40.489   04 Jun 2027 06:57:57.944            17.455          8727.500
        92   04 Jun 2027 06:58:16.541   04 Jun 2027 06:58:20.497             3.956          1978.000
        93   04 Jun 2027 06:58:34.479   04 Jun 2027 06:58:46.792            12.313          6156.500
        94   04 Jun 2027 06:58:54.002   04 Jun 2027 06:58:57.021             3.019          1509.500
        95   04 Jun 2027 08:29:59.620   04 Jun 2027 08:31:05.762            66.142         33071.000
        96   04 Jun 2027 08:31:09.315   04 Jun 2027 08:31:29.520            20.205         10102.500
        97   04 Jun 2027 08:32:30.926   04 Jun 2027 08:32:32.924             1.998           999.000
        98   04 Jun 2027 08:33:03.285   04 Jun 2027 08:33:04.532             1.247           623.500
        99   04 Jun 2027 08:33:18.713   04 Jun 2027 08:33:22.513             3.800          1900.000
       100   04 Jun 2027 08:33:42.183   04 Jun 2027 08:33:52.691            10.508          5254.000
       101   04 Jun 2027 08:34:33.465   04 Jun 2027 08:34:35.223             1.758           879.000
       102   04 Jun 2027 10:07:09.791   04 Jun 2027 10:07:17.308             7.517          3758.500
       103   04 Jun 2027 10:07:57.794   04 Jun 2027 10:08:07.906            10.112          5056.000
       104   04 Jun 2027 10:08:47.213   04 Jun 2027 10:09:08.348            21.135         10567.500
       105   05 Jun 2027 03:49:18.858   05 Jun 2027 03:49:29.405            10.547          5273.500
       106   05 Jun 2027 03:51:17.109   05 Jun 2027 03:55:50.028           272.919        136459.500
       107   05 Jun 2027 03:55:59.129   05 Jun 2027 03:56:43.783            44.654         22327.000
       108   05 Jun 2027 03:59:05.889   05 Jun 2027 03:59:06.157             0.268           134.000
       109   05 Jun 2027 05:28:16.007   05 Jun 2027 05:31:10.023           174.016         87008.000
       110   05 Jun 2027 05:31:57.359   05 Jun 2027 05:32:07.242             9.883          4941.500
       111   05 Jun 2027 05:33:17.659   05 Jun 2027 05:33:18.781             1.122           561.000
       112   05 Jun 2027 05:34:26.876   05 Jun 2027 05:35:00.303            33.427         16713.500
       113   05 Jun 2027 07:05:38.692   05 Jun 2027 07:08:13.975           155.283         77641.500
       114   05 Jun 2027 07:08:34.323   05 Jun 2027 07:08:42.482             8.159          4079.500
       115   05 Jun 2027 07:09:30.452   05 Jun 2027 07:09:36.745             6.293          3146.500
       116   05 Jun 2027 07:09:46.816   05 Jun 2027 07:09:49.109             2.293          1146.500
       117   05 Jun 2027 07:10:17.718   05 Jun 2027 07:10:22.643             4.925          2462.500
       118   05 Jun 2027 08:42:01.582   05 Jun 2027 08:42:45.369            43.787         21893.500
       119   05 Jun 2027 08:43:42.539   05 Jun 2027 08:43:55.808            13.269          6634.500
       120   05 Jun 2027 08:44:15.167   05 Jun 2027 08:44:21.645             6.478          3239.000
       121   05 Jun 2027 08:44:55.036   05 Jun 2027 08:45:00.659             5.623          2811.500
       122   05 Jun 2027 08:45:11.244   05 Jun 2027 08:45:30.401            19.157          9578.500
       123   05 Jun 2027 08:45:47.596   05 Jun 2027 08:46:02.884            15.288          7644.000
       124   05 Jun 2027 10:20:18.178   05 Jun 2027 10:20:48.175            29.997         14998.500
       125   06 Jun 2027 04:04:31.029   06 Jun 2027 04:09:42.999           311.970        155985.000
       126   06 Jun 2027 04:10:59.719   06 Jun 2027 04:11:08.315             8.596          4298.000
       127   06 Jun 2027 05:40:49.583   06 Jun 2027 05:43:44.109           174.526         87263.000
       128   06 Jun 2027 05:43:51.096   06 Jun 2027 05:44:00.746             9.650          4825.000
       129   06 Jun 2027 05:45:22.538   06 Jun 2027 05:45:37.361            14.823          7411.500
       130   06 Jun 2027 05:45:59.547   06 Jun 2027 05:46:02.959             3.412          1706.000
       131   06 Jun 2027 05:47:05.639   06 Jun 2027 05:47:06.220             0.581           290.500
       132   06 Jun 2027 07:18:12.465   06 Jun 2027 07:20:27.440           134.975         67487.500
       133   06 Jun 2027 07:21:09.427   06 Jun 2027 07:21:20.258            10.831          5415.500
       134   06 Jun 2027 07:21:41.998   06 Jun 2027 07:21:44.321             2.323          1161.500
       135   06 Jun 2027 07:22:07.687   06 Jun 2027 07:22:12.352             4.665          2332.500
       136   06 Jun 2027 07:22:25.786   06 Jun 2027 07:22:28.863             3.077          1538.500
       137   06 Jun 2027 07:22:44.681   06 Jun 2027 07:22:45.248             0.567           283.500
       138   06 Jun 2027 08:54:22.910   06 Jun 2027 08:54:55.016            32.106         16053.000
       139   06 Jun 2027 08:55:19.520   06 Jun 2027 08:55:36.184            16.664          8332.000
       140   06 Jun 2027 08:56:19.015   06 Jun 2027 08:56:27.807             8.792          4396.000
       141   06 Jun 2027 08:57:07.695   06 Jun 2027 08:57:12.374             4.679          2339.500
       142   06 Jun 2027 08:57:23.556   06 Jun 2027 08:57:35.641            12.085          6042.500
       143   06 Jun 2027 08:57:42.675   06 Jun 2027 08:57:44.624             1.949           974.500
       144   06 Jun 2027 08:58:25.705   06 Jun 2027 08:58:27.434             1.729           864.500
       145   07 Jun 2027 04:16:32.240   07 Jun 2027 04:18:50.833           138.593         69296.500
       146   07 Jun 2027 04:18:58.132   07 Jun 2027 04:22:25.367           207.235        103617.500
       147   07 Jun 2027 04:23:11.533   07 Jun 2027 04:23:14.371             2.838          1419.000
       148   07 Jun 2027 05:52:28.082   07 Jun 2027 05:55:40.843           192.761         96380.500
       149   07 Jun 2027 05:57:30.500   07 Jun 2027 05:57:39.202             8.702          4351.000
       150   07 Jun 2027 07:30:26.422   07 Jun 2027 07:32:42.550           136.128         68064.000
       151   07 Jun 2027 07:33:18.653   07 Jun 2027 07:33:22.360             3.707          1853.500
       152   07 Jun 2027 07:33:53.194   07 Jun 2027 07:34:04.835            11.641          5820.500
       153   07 Jun 2027 07:34:31.952   07 Jun 2027 07:34:41.788             9.836          4918.000
       154   07 Jun 2027 09:06:18.006   07 Jun 2027 09:06:58.335            40.329         20164.500
       155   07 Jun 2027 09:07:34.831   07 Jun 2027 09:07:38.073             3.242          1621.000
       156   07 Jun 2027 09:08:24.199   07 Jun 2027 09:08:38.066            13.867          6933.500
       157   07 Jun 2027 09:09:08.055   07 Jun 2027 09:09:25.192            17.137          8568.500
       158   07 Jun 2027 09:10:44.060   07 Jun 2027 09:10:50.737             6.677          3338.500
       159   07 Jun 2027 09:11:16.526   07 Jun 2027 09:11:19.221             2.695          1347.500
       160   08 Jun 2027 04:27:47.854   08 Jun 2027 04:32:00.925           253.071        126535.500
       161   08 Jun 2027 04:32:34.703   08 Jun 2027 04:33:15.014            40.311         20155.500
       162   08 Jun 2027 04:34:23.906   08 Jun 2027 04:35:15.358            51.452         25726.000
       163   08 Jun 2027 06:04:37.614   08 Jun 2027 06:07:09.549           151.935         75967.500
       164   08 Jun 2027 06:07:36.225   08 Jun 2027 06:08:03.886            27.661         13830.500
       165   08 Jun 2027 06:08:25.227   08 Jun 2027 06:08:28.006             2.779          1389.500
       166   08 Jun 2027 06:09:44.430   08 Jun 2027 06:09:50.875             6.445          3222.500
       167   08 Jun 2027 07:42:48.984   08 Jun 2027 07:45:08.183           139.199         69599.500
       168   08 Jun 2027 07:45:31.762   08 Jun 2027 07:45:36.391             4.629          2314.500
       169   08 Jun 2027 07:45:58.391   08 Jun 2027 07:46:02.349             3.958          1979.000
       170   08 Jun 2027 07:46:19.465   08 Jun 2027 07:46:39.754            20.289         10144.500
       171   08 Jun 2027 09:16:06.849   08 Jun 2027 09:16:54.348            47.499         23749.500
       172   08 Jun 2027 09:17:38.692   08 Jun 2027 09:17:40.783             2.091          1045.500
       173   08 Jun 2027 09:18:08.337   08 Jun 2027 09:18:22.529            14.192          7096.000
       174   08 Jun 2027 09:19:07.202   08 Jun 2027 09:19:14.994             7.792          3896.000
       175   08 Jun 2027 09:19:43.284   08 Jun 2027 09:19:50.487             7.203          3601.500
       176   08 Jun 2027 09:20:01.242   08 Jun 2027 09:20:05.917             4.675          2337.500
       177   08 Jun 2027 09:20:47.927   08 Jun 2027 09:20:58.761            10.834          5417.000
       178   08 Jun 2027 09:21:28.248   08 Jun 2027 09:21:34.785             6.537          3268.500
       179   08 Jun 2027 09:22:13.988   08 Jun 2027 09:22:21.195             7.207          3603.500
       180   08 Jun 2027 09:22:46.949   08 Jun 2027 09:22:53.031             6.082          3041.000
       181   08 Jun 2027 09:23:09.303   08 Jun 2027 09:23:10.642             1.339           669.500
       182   08 Jun 2027 09:23:23.756   08 Jun 2027 09:23:39.798            16.042          8021.000
       183   09 Jun 2027 03:02:55.966   09 Jun 2027 03:04:15.881            79.915         39957.500
       184   09 Jun 2027 03:04:47.308   09 Jun 2027 03:07:29.864           162.556         81278.000
       185   09 Jun 2027 03:07:34.560   09 Jun 2027 03:07:36.092             1.532           766.000
       186   09 Jun 2027 03:07:57.661   09 Jun 2027 03:08:14.062            16.401          8200.500
       187   09 Jun 2027 03:08:21.676   09 Jun 2027 03:08:32.141            10.465          5232.500
       188   09 Jun 2027 03:09:01.900   09 Jun 2027 03:09:11.373             9.473          4736.500
       189   09 Jun 2027 03:09:37.082   09 Jun 2027 03:09:37.082             0.000             0.000
       190   09 Jun 2027 04:39:55.595   09 Jun 2027 04:41:56.784           121.189         60594.500
       191   09 Jun 2027 04:42:35.553   09 Jun 2027 04:42:40.225             4.672          2336.000
       192   09 Jun 2027 04:42:48.452   09 Jun 2027 04:43:00.214            11.762          5881.000
       193   09 Jun 2027 04:43:11.585   09 Jun 2027 04:43:27.671            16.086          8043.000
       194   09 Jun 2027 04:45:15.155   09 Jun 2027 04:45:34.932            19.777          9888.500
       195   09 Jun 2027 04:45:53.660   09 Jun 2027 04:45:53.860             0.200           100.000
       196   09 Jun 2027 04:46:25.779   09 Jun 2027 04:46:45.376            19.597          9798.500
       197   09 Jun 2027 06:16:53.586   09 Jun 2027 06:19:28.500           154.914         77457.000
       198   09 Jun 2027 06:19:47.757   09 Jun 2027 06:19:47.757             0.000             0.000
       199   09 Jun 2027 06:20:00.253   09 Jun 2027 06:20:13.320            13.067          6533.500
       200   09 Jun 2027 06:20:23.803   09 Jun 2027 06:20:26.346             2.543          1271.500
       201   09 Jun 2027 06:20:36.258   09 Jun 2027 06:20:40.064             3.806          1903.000
       202   09 Jun 2027 06:21:12.114   09 Jun 2027 06:21:18.652             6.538          3269.000
       203   09 Jun 2027 06:21:22.132   09 Jun 2027 06:21:25.571             3.439          1719.500
       204   09 Jun 2027 07:54:49.910   09 Jun 2027 07:56:23.721            93.811         46905.500
       205   09 Jun 2027 07:56:55.663   09 Jun 2027 07:57:06.786            11.123          5561.500
       206   09 Jun 2027 07:57:51.819   09 Jun 2027 07:57:53.082             1.263           631.500
       207   09 Jun 2027 07:58:07.314   09 Jun 2027 07:58:10.368             3.054          1527.000
       208   09 Jun 2027 09:28:09.919   09 Jun 2027 09:28:28.909            18.990          9495.000
       209   09 Jun 2027 09:28:48.510   09 Jun 2027 09:28:56.476             7.966          3983.000
       210   09 Jun 2027 09:29:07.985   09 Jun 2027 09:29:13.932             5.947          2973.500
       211   09 Jun 2027 09:29:51.056   09 Jun 2027 09:30:00.436             9.380          4690.000
       212   09 Jun 2027 09:30:25.697   09 Jun 2027 09:30:25.697             0.000             0.000
       213   09 Jun 2027 09:31:10.998   09 Jun 2027 09:31:41.543            30.545         15272.500
       214   09 Jun 2027 09:33:44.820   09 Jun 2027 09:34:05.719            20.899         10449.500
       215   09 Jun 2027 09:34:53.740   09 Jun 2027 09:35:01.482             7.742          3871.000
       216   09 Jun 2027 09:35:41.276   09 Jun 2027 09:35:47.921             6.645          3322.500
       217   10 Jun 2027 03:14:19.463   10 Jun 2027 03:17:39.970           200.507        100253.500
       218   10 Jun 2027 03:17:49.735   10 Jun 2027 03:17:55.219             5.484          2742.000
       219   10 Jun 2027 03:18:22.295   10 Jun 2027 03:18:56.493            34.198         17099.000
       220   10 Jun 2027 03:19:52.865   10 Jun 2027 03:20:06.030            13.165          6582.500
       221   10 Jun 2027 03:20:16.066   10 Jun 2027 03:20:58.123            42.057         21028.500
       222   10 Jun 2027 04:51:57.465   10 Jun 2027 04:53:43.789           106.324         53162.000
       223   10 Jun 2027 04:58:33.541   10 Jun 2027 04:59:23.697            50.156         25078.000
       224   10 Jun 2027 06:28:43.696   10 Jun 2027 06:31:15.679           151.983         75991.500
       225   10 Jun 2027 06:31:55.380   10 Jun 2027 06:31:59.222             3.842          1921.000
       226   10 Jun 2027 06:32:22.871   10 Jun 2027 06:32:25.607             2.736          1368.000
       227   10 Jun 2027 06:32:35.439   10 Jun 2027 06:32:36.485             1.046           523.000
       228   10 Jun 2027 06:33:29.580   10 Jun 2027 06:34:00.474            30.894         15447.000
       229   10 Jun 2027 06:35:05.906   10 Jun 2027 06:35:18.087            12.181          6090.500
       230   10 Jun 2027 08:06:48.747   10 Jun 2027 08:07:59.990            71.243         35621.500
       231   10 Jun 2027 08:08:11.725   10 Jun 2027 08:08:11.725             0.000             0.000
       232   10 Jun 2027 08:08:49.581   10 Jun 2027 08:09:05.090            15.509          7754.500
       233   10 Jun 2027 08:10:04.439   10 Jun 2027 08:10:16.273            11.834          5917.000
       234   10 Jun 2027 09:40:37.155   10 Jun 2027 09:40:58.448            21.293         10646.500
       235   10 Jun 2027 09:41:32.154   10 Jun 2027 09:41:54.495            22.341         11170.500
       236   10 Jun 2027 09:43:07.226   10 Jun 2027 09:43:28.762            21.536         10768.000
       237   10 Jun 2027 09:45:00.608   10 Jun 2027 09:45:13.216            12.608          6304.000
       238   10 Jun 2027 09:46:27.640   10 Jun 2027 09:46:39.496            11.856          5928.000
       239   10 Jun 2027 09:46:56.927   10 Jun 2027 09:46:59.351             2.424          1212.000
       240   11 Jun 2027 03:25:52.461   11 Jun 2027 03:30:07.743           255.282        127641.000
       241   11 Jun 2027 03:30:52.586   11 Jun 2027 03:30:58.986             6.400          3200.000
       242   11 Jun 2027 03:31:44.568   11 Jun 2027 03:32:01.739            17.171          8585.500
       243   11 Jun 2027 03:32:59.104   11 Jun 2027 03:33:01.438             2.334          1167.000
       244   11 Jun 2027 03:33:16.807   11 Jun 2027 03:33:36.883            20.076         10038.000
       245   11 Jun 2027 03:34:26.304   11 Jun 2027 03:34:26.507             0.203           101.500
       246   11 Jun 2027 03:34:33.041   11 Jun 2027 03:34:52.621            19.580          9790.000
       247   11 Jun 2027 05:03:58.239   11 Jun 2027 05:06:18.703           140.464         70232.000
       248   11 Jun 2027 05:07:05.787   11 Jun 2027 05:07:19.654            13.867          6933.500
       249   11 Jun 2027 05:08:43.786   11 Jun 2027 05:09:17.807            34.021         17010.500
       250   11 Jun 2027 05:09:32.771   11 Jun 2027 05:09:46.760            13.989          6994.500
       251   11 Jun 2027 05:11:14.137   11 Jun 2027 05:11:24.859            10.722          5361.000
       252   11 Jun 2027 06:40:52.872   11 Jun 2027 06:42:45.957           113.085         56542.500
       253   11 Jun 2027 06:43:11.449   11 Jun 2027 06:43:49.331            37.882         18941.000
       254   11 Jun 2027 06:44:08.845   11 Jun 2027 06:44:08.845             0.000             0.000
       255   11 Jun 2027 06:44:21.714   11 Jun 2027 06:44:32.100            10.386          5193.000
       256   11 Jun 2027 06:44:53.093   11 Jun 2027 06:44:56.345             3.252          1626.000
       257   11 Jun 2027 06:45:05.820   11 Jun 2027 06:45:15.242             9.422          4711.000
       258   11 Jun 2027 06:46:57.684   11 Jun 2027 06:47:18.646            20.962         10481.000
       259   11 Jun 2027 08:18:01.476   11 Jun 2027 08:19:01.655            60.179         30089.500
       260   11 Jun 2027 08:20:26.276   11 Jun 2027 08:20:50.260            23.984         11992.000
       261   11 Jun 2027 08:21:58.462   11 Jun 2027 08:22:19.082            20.620         10310.000
       262   11 Jun 2027 09:52:52.125   11 Jun 2027 09:53:01.964             9.839          4919.500
       263   11 Jun 2027 09:53:47.354   11 Jun 2027 09:53:59.786            12.432          6216.000
       264   11 Jun 2027 09:54:50.015   11 Jun 2027 09:55:16.040            26.025         13012.500
       265   11 Jun 2027 09:57:01.117   11 Jun 2027 09:57:25.133            24.016         12008.000
       266   11 Jun 2027 09:57:54.403   11 Jun 2027 09:57:55.718             1.315           657.500
       267   12 Jun 2027 03:38:53.002   12 Jun 2027 03:43:33.808           280.806        140403.000
       268   12 Jun 2027 03:44:08.103   12 Jun 2027 03:44:08.103             0.000             0.000
       269   12 Jun 2027 03:45:37.782   12 Jun 2027 03:45:59.915            22.133         11066.500
       270   12 Jun 2027 03:46:24.330   12 Jun 2027 03:46:38.900            14.570          7285.000
       271   12 Jun 2027 03:47:25.084   12 Jun 2027 03:47:26.494             1.410           705.000
       272   12 Jun 2027 05:16:24.531   12 Jun 2027 05:19:16.012           171.481         85740.500
       273   12 Jun 2027 05:19:20.577   12 Jun 2027 05:19:47.623            27.046         13523.000
       274   12 Jun 2027 05:20:25.367   12 Jun 2027 05:20:37.405            12.038          6019.000
       275   12 Jun 2027 05:21:44.702   12 Jun 2027 05:21:51.000             6.298          3149.000
       276   12 Jun 2027 05:22:34.389   12 Jun 2027 05:22:50.856            16.467          8233.500
       277   12 Jun 2027 05:23:03.170   12 Jun 2027 05:23:06.125             2.955          1477.500
       278   12 Jun 2027 06:53:20.652   12 Jun 2027 06:55:54.006           153.354         76677.000
       279   12 Jun 2027 06:56:16.528   12 Jun 2027 06:56:25.605             9.077          4538.500
       280   12 Jun 2027 06:56:49.963   12 Jun 2027 06:56:50.951             0.988           494.000
       281   12 Jun 2027 06:58:48.993   12 Jun 2027 06:59:11.622            22.629         11314.500
       282   12 Jun 2027 08:30:14.499   12 Jun 2027 08:31:06.942            52.443         26221.500
       283   12 Jun 2027 08:31:49.908   12 Jun 2027 08:32:05.218            15.310          7655.000
       284   12 Jun 2027 08:32:50.617   12 Jun 2027 08:32:57.247             6.630          3315.000
       285   12 Jun 2027 08:33:28.628   12 Jun 2027 08:33:32.263             3.635          1817.500
       286   12 Jun 2027 08:33:35.207   12 Jun 2027 08:33:39.285             4.078          2039.000
       287   12 Jun 2027 10:07:24.600   12 Jun 2027 10:08:10.765            46.165         23082.500
       288   13 Jun 2027 03:49:33.097   13 Jun 2027 03:49:43.998            10.901          5450.500
       289   13 Jun 2027 03:51:31.654   13 Jun 2027 03:56:00.300           268.646        134323.000
       290   13 Jun 2027 03:56:57.543   13 Jun 2027 03:57:13.087            15.544          7772.000
       291   13 Jun 2027 03:57:33.027   13 Jun 2027 03:57:44.809            11.782          5891.000
       292   13 Jun 2027 03:59:20.461   13 Jun 2027 03:59:20.791             0.330           165.000
       293   13 Jun 2027 05:28:30.425   13 Jun 2027 05:30:55.422           144.997         72498.500
       294   13 Jun 2027 05:31:24.872   13 Jun 2027 05:31:46.470            21.598         10799.000
       295   13 Jun 2027 05:33:34.119   13 Jun 2027 05:34:01.377            27.258         13629.000
       296   13 Jun 2027 05:34:40.340   13 Jun 2027 05:34:40.852             0.512           256.000
       297   13 Jun 2027 07:05:54.855   13 Jun 2027 07:08:39.866           165.011         82505.500
       298   13 Jun 2027 07:08:47.703   13 Jun 2027 07:08:48.932             1.229           614.500
       299   13 Jun 2027 07:09:00.333   13 Jun 2027 07:09:08.496             8.163          4081.500
       300   13 Jun 2027 07:09:46.072   13 Jun 2027 07:09:51.711             5.639          2819.500
       301   13 Jun 2027 07:10:11.407   13 Jun 2027 07:10:29.281            17.874          8937.000
       302   13 Jun 2027 07:10:37.459   13 Jun 2027 07:10:37.463             0.004             2.000
       303   13 Jun 2027 08:42:16.767   13 Jun 2027 08:43:00.251            43.484         21742.000
       304   13 Jun 2027 08:43:59.907   13 Jun 2027 08:44:16.254            16.347          8173.500
       305   13 Jun 2027 08:44:47.137   13 Jun 2027 08:44:50.609             3.472          1736.000
       306   13 Jun 2027 08:44:59.001   13 Jun 2027 08:45:10.541            11.540          5770.000
       307   13 Jun 2027 08:45:36.121   13 Jun 2027 08:45:45.088             8.967          4483.500
       308   13 Jun 2027 08:46:02.502   13 Jun 2027 08:46:17.765            15.263          7631.500
       309   13 Jun 2027 10:20:34.525   13 Jun 2027 10:21:02.831            28.306         14153.000
