uniorb/output/strategy_1/Camera/Camera_KinoSat_111301.txt

KinoSat_111301
-------------------------
    Access    *     Start Time (UTCG)     *     Stop Time (UTCG)  *   Duration (s) *   Data (Mbytes)
         1   01 Jun 2027 04:06:26.890   01 Jun 2027 04:06:57.256            30.366         15183.000
         2   01 Jun 2027 04:07:15.819   01 Jun 2027 04:09:05.450           109.631         54815.500
         3   01 Jun 2027 04:10:05.757   01 Jun 2027 04:10:09.469             3.712          1856.000
         4   01 Jun 2027 05:29:49.379   01 Jun 2027 05:31:29.999           100.620         50310.000
         5   01 Jun 2027 07:06:21.317   01 Jun 2027 07:08:30.301           128.984         64492.000
         6   01 Jun 2027 08:41:31.077   01 Jun 2027 08:42:50.857            79.780         39890.000
         7   01 Jun 2027 08:43:51.324   01 Jun 2027 08:44:27.937            36.613         18306.500
         8   01 Jun 2027 08:44:58.796   01 Jun 2027 08:45:02.706             3.910          1955.000
         9   01 Jun 2027 08:46:19.194   01 Jun 2027 08:46:21.097             1.903           951.500
        10   01 Jun 2027 08:46:59.250   01 Jun 2027 08:47:24.419            25.169         12584.500
        11   01 Jun 2027 10:17:56.216   01 Jun 2027 10:19:35.321            99.105         49552.500
        12   01 Jun 2027 10:19:58.250   01 Jun 2027 10:20:04.779             6.529          3264.500
        13   01 Jun 2027 10:20:26.584   01 Jun 2027 10:20:32.226             5.642          2821.000
        14   01 Jun 2027 10:22:02.958   01 Jun 2027 10:22:04.590             1.632           816.000
        15   01 Jun 2027 10:22:50.172   01 Jun 2027 10:22:57.945             7.773          3886.500
        16   01 Jun 2027 10:23:28.284   01 Jun 2027 10:23:35.729             7.445          3722.500
        17   01 Jun 2027 11:55:09.708   01 Jun 2027 11:56:31.594            81.886         40943.000
        18   01 Jun 2027 11:56:53.616   01 Jun 2027 11:56:56.990             3.374          1687.000
        19   01 Jun 2027 11:57:52.107   01 Jun 2027 11:58:24.257            32.150         16075.000
        20   02 Jun 2027 04:18:23.636   02 Jun 2027 04:19:02.456            38.820         19410.000
        21   02 Jun 2027 04:19:27.565   02 Jun 2027 04:20:44.819            77.254         38627.000
        22   02 Jun 2027 04:21:59.241   02 Jun 2027 04:22:00.037             0.796           398.000
        23   02 Jun 2027 05:42:25.021   02 Jun 2027 05:43:31.677            66.656         33328.000
        24   02 Jun 2027 05:44:48.608   02 Jun 2027 05:44:56.346             7.738          3869.000
        25   02 Jun 2027 07:18:14.267   02 Jun 2027 07:20:39.119           144.852         72426.000
        26   02 Jun 2027 07:21:12.972   02 Jun 2027 07:21:13.321             0.349           174.500
        27   02 Jun 2027 08:53:10.914   02 Jun 2027 08:53:36.506            25.592         12796.000
        28   02 Jun 2027 08:53:44.162   02 Jun 2027 08:55:04.439            80.277         40138.500
        29   02 Jun 2027 08:55:18.243   02 Jun 2027 08:55:37.409            19.166          9583.000
        30   02 Jun 2027 08:55:47.416   02 Jun 2027 08:55:50.865             3.449          1724.500
        31   02 Jun 2027 08:59:48.334   02 Jun 2027 09:00:15.090            26.756         13378.000
        32   02 Jun 2027 10:29:28.919   02 Jun 2027 10:31:36.704           127.785         63892.500
        33   03 Jun 2027 03:00:00.000   03 Jun 2027 03:00:14.780            14.780          7390.000
        34   03 Jun 2027 03:00:18.443   03 Jun 2027 03:00:57.491            39.048         19524.000
        35   03 Jun 2027 04:19:09.919   03 Jun 2027 04:19:26.131            16.212          8106.000
        36   03 Jun 2027 04:19:40.978   03 Jun 2027 04:19:44.643             3.665          1832.500
        37   03 Jun 2027 04:30:20.015   03 Jun 2027 04:30:58.978            38.963         19481.500
        38   03 Jun 2027 04:32:01.058   03 Jun 2027 04:32:01.231             0.173            86.500
        39   03 Jun 2027 04:32:25.378   03 Jun 2027 04:32:46.981            21.603         10801.500
        40   03 Jun 2027 05:53:03.415   03 Jun 2027 05:54:12.697            69.282         34641.000
        41   03 Jun 2027 05:54:41.073   03 Jun 2027 05:54:44.548             3.475          1737.500
        42   03 Jun 2027 05:57:12.954   03 Jun 2027 05:57:29.590            16.636          8318.000
        43   03 Jun 2027 07:28:33.145   03 Jun 2027 07:29:06.384            33.239         16619.500
        44   03 Jun 2027 07:29:58.345   03 Jun 2027 07:31:41.715           103.370         51685.000
        45   03 Jun 2027 07:33:40.768   03 Jun 2027 07:33:40.768             0.000             0.000
        46   03 Jun 2027 07:34:14.776   03 Jun 2027 07:34:31.083            16.307          8153.500
        47   03 Jun 2027 09:04:44.105   03 Jun 2027 09:05:16.251            32.146         16073.000
        48   03 Jun 2027 09:07:04.842   03 Jun 2027 09:07:50.058            45.216         22608.000
        49   03 Jun 2027 09:08:17.873   03 Jun 2027 09:08:22.397             4.524          2262.000
        50   03 Jun 2027 09:08:54.009   03 Jun 2027 09:09:40.305            46.296         23148.000
        51   03 Jun 2027 09:11:29.412   03 Jun 2027 09:11:29.412             0.000             0.000
        52   03 Jun 2027 09:11:36.533   03 Jun 2027 09:11:51.404            14.871          7435.500
        53   03 Jun 2027 10:41:48.400   03 Jun 2027 10:42:58.022            69.622         34155.407
        54   03 Jun 2027 10:43:11.148   03 Jun 2027 10:43:13.250             2.102           123.125
        55   03 Jun 2027 10:43:50.896   03 Jun 2027 10:43:53.175             2.279           963.906
        56   03 Jun 2027 10:43:56.172   03 Jun 2027 10:43:57.972             1.800            82.625
        57   03 Jun 2027 10:44:38.501   03 Jun 2027 10:44:41.128             2.627          1105.500
        58   03 Jun 2027 10:45:21.145   03 Jun 2027 10:45:21.145             0.000             0.000
        59   03 Jun 2027 10:45:54.678   03 Jun 2027 10:45:56.981             2.303          1151.500
        60   03 Jun 2027 10:45:59.770   03 Jun 2027 10:46:02.717             2.947          1166.469
        61   03 Jun 2027 10:46:37.056   03 Jun 2027 10:46:37.056             0.000             0.000
        62   03 Jun 2027 10:47:32.068   03 Jun 2027 10:47:38.725             6.657          2717.125
        63   04 Jun 2027 03:05:48.208   04 Jun 2027 03:06:49.701            61.493         30746.500
        64   04 Jun 2027 03:07:51.113   04 Jun 2027 03:07:51.113             0.000             0.000
        65   04 Jun 2027 03:10:19.452   04 Jun 2027 03:10:40.915            21.463         10731.500
        66   04 Jun 2027 03:11:25.806   04 Jun 2027 03:11:38.780            12.974          6487.000
        67   04 Jun 2027 03:12:33.419   04 Jun 2027 03:12:54.835            21.416         10708.000
        68   04 Jun 2027 04:30:39.839   04 Jun 2027 04:31:01.829            21.990         10995.000
        69   04 Jun 2027 04:31:52.736   04 Jun 2027 04:31:58.173             5.437          2718.500
        70   04 Jun 2027 04:42:22.945   04 Jun 2027 04:43:20.685            57.740         28870.000
        71   04 Jun 2027 06:04:35.651   04 Jun 2027 06:05:18.942            43.291         21645.500
        72   04 Jun 2027 06:05:30.370   04 Jun 2027 06:05:46.663            16.293          8146.500
        73   04 Jun 2027 07:39:39.977   04 Jun 2027 07:41:23.246           103.269         51634.500
        74   04 Jun 2027 07:41:43.074   04 Jun 2027 07:42:00.966            17.892          8946.000
        75   04 Jun 2027 07:43:29.355   04 Jun 2027 07:43:39.932            10.577          5288.500
        76   04 Jun 2027 07:45:27.112   04 Jun 2027 07:45:27.733             0.621           310.500
        77   04 Jun 2027 07:46:25.150   04 Jun 2027 07:46:41.388            16.238          7795.751
        78   04 Jun 2027 07:47:47.600   04 Jun 2027 07:47:47.600             0.000             0.000
        79   04 Jun 2027 09:17:01.369   04 Jun 2027 09:17:14.986            13.617          6620.375
        80   04 Jun 2027 09:17:22.669   04 Jun 2027 09:17:24.677             2.008           240.094
        81   04 Jun 2027 09:17:47.835   04 Jun 2027 09:17:54.604             6.769           584.906
        82   04 Jun 2027 09:18:14.937   04 Jun 2027 09:18:20.166             5.229           583.281
        83   04 Jun 2027 09:18:24.393   04 Jun 2027 09:18:24.820             0.427            68.094
        84   04 Jun 2027 09:20:00.783   04 Jun 2027 09:20:06.176             5.393          2664.469
        85   04 Jun 2027 09:20:42.844   04 Jun 2027 09:20:47.914             5.070          1025.000
        86   04 Jun 2027 09:21:34.672   04 Jun 2027 09:21:37.872             3.200          1351.656
        87   04 Jun 2027 09:22:10.962   04 Jun 2027 09:22:13.793             2.831           952.750
        88   04 Jun 2027 09:22:37.418   04 Jun 2027 09:22:39.578             2.160           661.906
        89   04 Jun 2027 09:22:58.414   04 Jun 2027 09:22:59.751             1.337           532.312
        90   04 Jun 2027 09:23:10.621   04 Jun 2027 09:23:12.076             1.455           311.313
        91   04 Jun 2027 09:23:41.306   04 Jun 2027 09:23:44.124             2.818           818.969
        92   04 Jun 2027 09:24:05.029   04 Jun 2027 09:24:10.092             5.063           653.281
        93   04 Jun 2027 10:53:50.299   04 Jun 2027 10:54:06.766            16.467          7421.156
        94   04 Jun 2027 10:54:50.302   04 Jun 2027 10:54:54.973             4.671          1336.313
        95   04 Jun 2027 10:55:42.358   04 Jun 2027 10:55:43.730             1.372           285.375
        96   04 Jun 2027 10:56:46.192   04 Jun 2027 10:56:54.145             7.953           981.781
        97   04 Jun 2027 10:57:11.803   04 Jun 2027 10:57:15.024             3.221           547.438
        98   04 Jun 2027 10:57:44.354   04 Jun 2027 10:57:45.843             1.489           513.062
        99   04 Jun 2027 10:58:08.846   04 Jun 2027 10:58:11.047             2.201           680.000
       100   04 Jun 2027 10:58:45.710   04 Jun 2027 10:58:50.894             5.184          1083.219
       101   04 Jun 2027 10:59:30.943   04 Jun 2027 10:59:32.473             1.530           765.000
       102   04 Jun 2027 10:59:37.223   04 Jun 2027 10:59:42.513             5.290           462.312
       103   04 Jun 2027 10:59:52.743   04 Jun 2027 10:59:53.899             1.156           319.688
       104   05 Jun 2027 03:17:56.785   05 Jun 2027 03:19:17.752            80.967         40483.500
       105   05 Jun 2027 03:19:59.727   05 Jun 2027 03:20:03.334             3.607          1803.500
       106   05 Jun 2027 03:20:57.890   05 Jun 2027 03:21:23.264            25.374         12687.000
       107   05 Jun 2027 03:24:46.441   05 Jun 2027 03:24:55.434             8.993          4496.500
       108   05 Jun 2027 04:42:10.095   05 Jun 2027 04:42:52.301            42.206         21103.000
       109   05 Jun 2027 04:54:23.690   05 Jun 2027 04:54:55.503            31.813         15906.500
       110   05 Jun 2027 06:16:19.958   05 Jun 2027 06:17:31.738            71.780         35890.000
       111   05 Jun 2027 06:18:29.337   05 Jun 2027 06:18:33.276             3.939          1969.500
       112   05 Jun 2027 06:20:14.455   05 Jun 2027 06:20:28.845            14.390          7195.000
       113   05 Jun 2027 06:20:31.979   05 Jun 2027 06:20:52.006            20.027         10013.500
       114   05 Jun 2027 07:51:08.198   05 Jun 2027 07:52:15.239            67.041         32294.032
       115   05 Jun 2027 07:53:40.690   05 Jun 2027 07:53:46.311             5.621          2104.188
       116   05 Jun 2027 07:54:00.056   05 Jun 2027 07:54:01.101             1.045           227.156
       117   05 Jun 2027 07:55:23.851   05 Jun 2027 07:55:28.926             5.075          2160.187
       118   05 Jun 2027 07:57:29.317   05 Jun 2027 07:57:37.118             7.801          3738.062
       119   05 Jun 2027 07:57:50.392   05 Jun 2027 07:57:51.151             0.759           217.156
       120   05 Jun 2027 07:58:39.022   05 Jun 2027 07:58:42.780             3.758          1495.969
       121   05 Jun 2027 09:28:57.042   05 Jun 2027 09:29:11.151            14.109          6687.906
       122   05 Jun 2027 09:33:06.504   05 Jun 2027 09:33:24.125            17.621          7354.781
       123   05 Jun 2027 09:33:44.327   05 Jun 2027 09:33:50.492             6.165           631.313
       124   05 Jun 2027 09:34:23.916   05 Jun 2027 09:34:25.749             1.833           774.969
       125   05 Jun 2027 09:35:39.782   05 Jun 2027 09:35:40.561             0.779           389.500
       126   05 Jun 2027 09:35:50.754   05 Jun 2027 09:35:55.900             5.146          2242.562
       127   05 Jun 2027 09:36:18.206   05 Jun 2027 09:36:20.403             2.197           697.063
       128   05 Jun 2027 11:05:41.456   05 Jun 2027 11:06:04.064            22.608          9065.531
       129   05 Jun 2027 11:06:11.060   05 Jun 2027 11:06:17.451             6.391           127.062
       130   05 Jun 2027 11:07:01.638   05 Jun 2027 11:07:04.248             2.610           470.750
       131   05 Jun 2027 11:08:05.737   05 Jun 2027 11:08:11.102             5.365          1921.531
       132   05 Jun 2027 11:08:30.300   05 Jun 2027 11:08:32.443             2.143           599.938
       133   05 Jun 2027 11:09:10.512   05 Jun 2027 11:09:25.233            14.721          1096.687
       134   05 Jun 2027 11:10:34.043   05 Jun 2027 11:10:42.358             8.315          2150.313
       135   05 Jun 2027 11:11:17.999   05 Jun 2027 11:11:21.718             3.719          1113.781
       136   05 Jun 2027 11:12:02.198   05 Jun 2027 11:12:11.279             9.081          1035.281
       137   06 Jun 2027 03:30:07.456   06 Jun 2027 03:31:47.737           100.281         50140.500
       138   06 Jun 2027 03:32:21.991   06 Jun 2027 03:32:27.603             5.612          2806.000
       139   06 Jun 2027 03:32:31.033   06 Jun 2027 03:32:37.886             6.853          3426.500
       140   06 Jun 2027 03:34:08.074   06 Jun 2027 03:34:22.332            14.258          7129.000
       141   06 Jun 2027 04:54:09.176   06 Jun 2027 04:55:04.667            55.491         27745.500
       142   06 Jun 2027 06:30:06.000   06 Jun 2027 06:31:42.421            96.421         48210.500
       143   06 Jun 2027 06:32:40.667   06 Jun 2027 06:32:42.640             1.973           986.500
       144   06 Jun 2027 06:32:48.778   06 Jun 2027 06:32:52.772             3.994          1997.000
       145   06 Jun 2027 06:32:58.179   06 Jun 2027 06:32:58.179             0.000             0.000
       146   06 Jun 2027 08:03:56.830   06 Jun 2027 08:04:51.610            54.780         26815.625
       147   06 Jun 2027 08:05:25.750   06 Jun 2027 08:05:27.158             1.408           515.688
       148   06 Jun 2027 08:05:33.656   06 Jun 2027 08:05:35.877             2.221             1.563
       149   06 Jun 2027 08:06:26.246   06 Jun 2027 08:06:30.622             4.376           900.281
       150   06 Jun 2027 08:07:43.712   06 Jun 2027 08:07:43.712             0.000             0.000
       151   06 Jun 2027 08:08:50.344   06 Jun 2027 08:09:01.653            11.309          4366.312
       152   06 Jun 2027 08:09:18.654   06 Jun 2027 08:09:20.142             1.488           465.781
       153   06 Jun 2027 08:10:18.780   06 Jun 2027 08:10:24.828             6.048          1502.250
       154   06 Jun 2027 08:11:13.616   06 Jun 2027 08:11:16.783             3.167          1524.625
       155   06 Jun 2027 09:41:03.616   06 Jun 2027 09:41:17.437            13.821          6711.156
       156   06 Jun 2027 09:42:06.564   06 Jun 2027 09:42:07.961             1.397           491.031
       157   06 Jun 2027 09:43:45.106   06 Jun 2027 09:43:45.106             0.000             0.000
       158   06 Jun 2027 09:45:07.528   06 Jun 2027 09:45:18.942            11.414          3916.844
       159   06 Jun 2027 09:46:01.628   06 Jun 2027 09:46:06.874             5.246           831.281
       160   06 Jun 2027 09:46:33.228   06 Jun 2027 09:46:35.849             2.621           733.938
       161   06 Jun 2027 09:46:51.730   06 Jun 2027 09:46:54.564             2.834           260.688
       162   06 Jun 2027 09:47:21.866   06 Jun 2027 09:47:23.655             1.789           811.688
       163   06 Jun 2027 09:48:00.486   06 Jun 2027 09:48:06.740             6.254          1150.969
       164   06 Jun 2027 11:18:06.160   06 Jun 2027 11:18:19.880            13.720          6853.187
       165   06 Jun 2027 11:18:42.436   06 Jun 2027 11:18:47.338             4.902           655.312
       166   06 Jun 2027 11:20:06.055   06 Jun 2027 11:20:10.140             4.085          2042.500
       167   06 Jun 2027 11:20:13.215   06 Jun 2027 11:20:14.111             0.896           226.719
       168   06 Jun 2027 11:21:11.441   06 Jun 2027 11:21:17.318             5.877          1790.563
       169   06 Jun 2027 11:21:36.230   06 Jun 2027 11:21:43.764             7.534           591.000
       170   06 Jun 2027 11:21:46.850   06 Jun 2027 11:21:48.331             1.481            96.437
       171   06 Jun 2027 11:22:22.042   06 Jun 2027 11:22:25.754             3.712           917.250
       172   06 Jun 2027 11:23:50.010   06 Jun 2027 11:23:55.225             5.215          2272.031
       173   07 Jun 2027 03:42:42.201   07 Jun 2027 03:44:39.673           117.472         58736.000
       174   07 Jun 2027 03:45:27.423   07 Jun 2027 03:45:28.608             1.185           592.500
       175   07 Jun 2027 03:45:56.466   07 Jun 2027 03:45:56.466             0.000             0.000
       176   07 Jun 2027 03:47:06.338   07 Jun 2027 03:47:06.338             0.000             0.000
       177   07 Jun 2027 05:06:03.546   07 Jun 2027 05:06:57.880            54.334         27167.000
       178   07 Jun 2027 06:42:27.865   07 Jun 2027 06:44:22.894           115.029         57514.500
       179   07 Jun 2027 06:45:15.282   07 Jun 2027 06:45:36.362            21.080         10540.000
       180   07 Jun 2027 08:16:08.350   07 Jun 2027 08:16:36.558            28.208         13659.187
       181   07 Jun 2027 08:16:57.523   07 Jun 2027 08:16:58.393             0.870           165.000
       182   07 Jun 2027 08:17:35.158   07 Jun 2027 08:17:37.580             2.422           827.750
       183   07 Jun 2027 08:19:17.878   07 Jun 2027 08:19:25.616             7.738          2512.594
       184   07 Jun 2027 08:20:25.391   07 Jun 2027 08:20:25.391             0.000             0.000
       185   07 Jun 2027 08:22:49.890   07 Jun 2027 08:23:02.971            13.081          6281.937
       186   07 Jun 2027 08:23:54.063   07 Jun 2027 08:23:57.412             3.349          1596.625
       187   07 Jun 2027 09:53:29.775   07 Jun 2027 09:53:48.622            18.847          7789.781
       188   07 Jun 2027 09:54:18.309   07 Jun 2027 09:54:22.278             3.969            86.438
       189   07 Jun 2027 09:55:40.830   07 Jun 2027 09:55:44.772             3.942          1971.000
       190   07 Jun 2027 09:55:50.113   07 Jun 2027 09:55:55.773             5.660           253.063
       191   07 Jun 2027 09:56:40.271   07 Jun 2027 09:56:42.383             2.112          1032.937
       192   07 Jun 2027 09:58:22.180   07 Jun 2027 09:58:27.651             5.471          2239.594
       193   07 Jun 2027 09:59:04.302   07 Jun 2027 09:59:16.274            11.972           908.156
       194   07 Jun 2027 09:59:45.514   07 Jun 2027 09:59:47.912             2.398           913.750
       195   07 Jun 2027 11:30:26.850   07 Jun 2027 11:30:46.157            19.307          8125.406
       196   07 Jun 2027 11:32:10.185   07 Jun 2027 11:32:11.192             1.007           503.500
       197   07 Jun 2027 11:32:27.980   07 Jun 2027 11:32:30.272             2.292          1146.000
       198   07 Jun 2027 11:32:47.880   07 Jun 2027 11:32:48.006             0.126            63.000
       199   07 Jun 2027 11:33:37.546   07 Jun 2027 11:33:46.824             9.278          2078.625
       200   07 Jun 2027 11:33:52.430   07 Jun 2027 11:33:55.500             3.070           152.719
       201   07 Jun 2027 11:34:34.816   07 Jun 2027 11:34:37.714             2.898          1228.625
       202   07 Jun 2027 11:35:49.758   07 Jun 2027 11:35:56.440             6.682          2251.375
       203   08 Jun 2027 03:54:20.014   08 Jun 2027 03:56:03.262           103.248         51624.000
       204   08 Jun 2027 03:56:51.696   08 Jun 2027 03:57:01.813            10.117          5058.500
       205   08 Jun 2027 03:57:15.760   08 Jun 2027 03:57:23.570             7.810          3905.000
       206   08 Jun 2027 05:17:50.931   08 Jun 2027 05:19:00.512            69.581         34790.500
       207   08 Jun 2027 05:19:09.479   08 Jun 2027 05:19:17.889             8.410          4205.000
       208   08 Jun 2027 05:20:15.495   08 Jun 2027 05:20:15.495             0.000             0.000
       209   08 Jun 2027 06:54:29.645   08 Jun 2027 06:56:22.793           113.148         56574.000
       210   08 Jun 2027 06:57:02.394   08 Jun 2027 06:57:06.787             4.393          2196.500
       211   08 Jun 2027 06:57:30.332   08 Jun 2027 06:57:38.255             7.923          3961.500
       212   08 Jun 2027 08:29:24.923   08 Jun 2027 08:29:41.601            16.678          8241.688
       213   08 Jun 2027 08:30:12.183   08 Jun 2027 08:30:13.283             1.100           389.125
       214   08 Jun 2027 08:31:42.455   08 Jun 2027 08:31:49.088             6.633          2776.625
       215   08 Jun 2027 08:32:47.074   08 Jun 2027 08:32:50.274             3.200          1538.594
       216   08 Jun 2027 08:33:07.484   08 Jun 2027 08:33:10.586             3.102             9.187
       217   08 Jun 2027 08:33:29.146   08 Jun 2027 08:33:29.864             0.718           359.000
       218   08 Jun 2027 08:33:31.601   08 Jun 2027 08:33:31.937             0.336           164.531
       219   08 Jun 2027 08:35:24.284   08 Jun 2027 08:35:30.907             6.623          2975.125
       220   08 Jun 2027 10:05:37.396   08 Jun 2027 10:05:53.455            16.059          6739.312
       221   08 Jun 2027 10:06:49.002   08 Jun 2027 10:06:52.203             3.201           969.625
       222   08 Jun 2027 10:07:11.516   08 Jun 2027 10:07:14.958             3.442           603.531
       223   08 Jun 2027 10:07:31.820   08 Jun 2027 10:07:42.175            10.355           429.156
       224   08 Jun 2027 10:07:42.178   08 Jun 2027 10:07:44.842             2.664             0.094
       225   08 Jun 2027 10:08:01.818   08 Jun 2027 10:08:03.495             1.677            96.812
       226   08 Jun 2027 10:08:49.975   08 Jun 2027 10:08:54.541             4.566           628.656
       227   08 Jun 2027 10:10:18.442   08 Jun 2027 10:10:23.801             5.359          2026.000
       228   08 Jun 2027 10:11:31.195   08 Jun 2027 10:11:39.067             7.872          1557.750
       229   08 Jun 2027 10:12:10.959   08 Jun 2027 10:12:13.807             2.848           996.625
       230   08 Jun 2027 11:43:21.058   08 Jun 2027 11:43:33.379            12.321          6160.500
       231   08 Jun 2027 11:43:48.253   08 Jun 2027 11:43:50.710             2.457          1228.500
       232   08 Jun 2027 11:44:37.744   08 Jun 2027 11:44:41.983             4.239          1575.375
       233   08 Jun 2027 11:44:51.174   08 Jun 2027 11:44:52.441             1.267           287.219
       234   08 Jun 2027 11:45:48.749   08 Jun 2027 11:45:54.468             5.719          1759.625
       235   08 Jun 2027 11:46:05.110   08 Jun 2027 11:46:07.168             2.058           332.562
       236   08 Jun 2027 11:47:27.262   08 Jun 2027 11:47:33.270             6.008          2301.156
       237   09 Jun 2027 04:06:42.846   09 Jun 2027 04:07:13.826            30.980         15490.000
       238   09 Jun 2027 04:07:32.378   09 Jun 2027 04:09:03.432            91.054         45527.000
       239   09 Jun 2027 04:09:04.368   09 Jun 2027 04:09:17.369            13.001          6500.500
       240   09 Jun 2027 05:30:05.392   09 Jun 2027 05:31:12.317            66.925         33462.500
       241   09 Jun 2027 05:31:37.000   09 Jun 2027 05:31:47.297            10.297          5148.500
       242   09 Jun 2027 07:06:37.167   09 Jun 2027 07:08:27.363           110.196         55098.000
       243   09 Jun 2027 07:08:46.624   09 Jun 2027 07:08:48.200             1.576           788.000
       244   09 Jun 2027 07:09:13.779   09 Jun 2027 07:09:13.779             0.000             0.000
       245   09 Jun 2027 08:41:47.317   09 Jun 2027 08:42:16.292            28.975         13064.093
       246   09 Jun 2027 08:43:01.290   09 Jun 2027 08:43:05.799             4.509           647.625
       247   09 Jun 2027 08:43:17.451   09 Jun 2027 08:43:18.146             0.695           279.969
       248   09 Jun 2027 08:44:23.649   09 Jun 2027 08:44:30.927             7.278          1976.906
       249   09 Jun 2027 08:45:04.225   09 Jun 2027 08:45:08.020             3.795           632.000
       250   09 Jun 2027 08:45:40.138   09 Jun 2027 08:45:43.578             3.440           824.063
       251   09 Jun 2027 08:45:50.472   09 Jun 2027 08:45:51.824             1.352           186.187
       252   09 Jun 2027 08:46:10.324   09 Jun 2027 08:46:11.501             1.177           528.750
       253   09 Jun 2027 08:46:24.992   09 Jun 2027 08:46:27.502             2.510           367.031
       254   09 Jun 2027 08:47:15.886   09 Jun 2027 08:47:19.453             3.567          1308.188
       255   09 Jun 2027 08:47:52.637   09 Jun 2027 08:47:52.637             0.000             0.000
       256   09 Jun 2027 08:48:04.116   09 Jun 2027 08:48:12.690             8.574          1266.563
       257   09 Jun 2027 10:18:11.716   09 Jun 2027 10:18:24.342            12.626          5926.500
       258   09 Jun 2027 10:18:48.036   09 Jun 2027 10:18:50.490             2.454           342.938
       259   09 Jun 2027 10:19:26.378   09 Jun 2027 10:19:28.718             2.340          1108.094
       260   09 Jun 2027 10:20:03.011   09 Jun 2027 10:20:04.566             1.555           777.500
       261   09 Jun 2027 10:20:14.070   09 Jun 2027 10:20:15.708             1.638           591.156
       262   09 Jun 2027 10:20:21.016   09 Jun 2027 10:20:22.032             1.016           165.875
       263   09 Jun 2027 10:20:28.311   09 Jun 2027 10:20:29.582             1.271           188.906
       264   09 Jun 2027 10:20:45.074   09 Jun 2027 10:20:46.529             1.455           293.344
       265   09 Jun 2027 10:21:28.168   09 Jun 2027 10:21:37.198             9.030          1301.219
       266   09 Jun 2027 10:21:40.828   09 Jun 2027 10:21:45.936             5.108           113.438
       267   09 Jun 2027 10:22:00.091   09 Jun 2027 10:22:02.456             2.365           250.938
       268   09 Jun 2027 10:22:17.908   09 Jun 2027 10:22:19.499             1.591           332.063
       269   09 Jun 2027 10:22:34.628   09 Jun 2027 10:22:35.436             0.808           344.344
       270   09 Jun 2027 10:23:25.237   09 Jun 2027 10:23:29.914             4.677          1206.906
       271   09 Jun 2027 10:23:40.875   09 Jun 2027 10:23:42.795             1.920           242.469
       272   09 Jun 2027 10:23:56.037   09 Jun 2027 10:23:59.718             3.681           399.062
       273   09 Jun 2027 11:55:27.572   09 Jun 2027 11:55:43.460            15.888          7473.156
       274   09 Jun 2027 11:55:45.814   09 Jun 2027 11:55:47.330             1.516            58.781
       275   09 Jun 2027 11:56:07.356   09 Jun 2027 11:56:07.847             0.491           245.500
       276   09 Jun 2027 11:56:30.165   09 Jun 2027 11:56:36.433             6.268           905.781
       277   09 Jun 2027 11:57:45.737   09 Jun 2027 11:57:52.979             7.242          2165.750
       278   09 Jun 2027 11:58:44.445   09 Jun 2027 11:58:46.102             1.657           828.500
       279   09 Jun 2027 11:58:47.440   09 Jun 2027 11:58:51.064             3.624           657.750
       280   09 Jun 2027 11:59:06.252   09 Jun 2027 11:59:06.252             0.000             0.000
       281   09 Jun 2027 11:59:10.695   09 Jun 2027 11:59:12.442             1.747           393.562
       282   10 Jun 2027 04:18:39.618   10 Jun 2027 04:19:18.652            39.034         19517.000
       283   10 Jun 2027 04:19:41.684   10 Jun 2027 04:21:01.764            80.080         40040.000
       284   10 Jun 2027 05:42:07.913   10 Jun 2027 05:43:11.206            63.293         31646.500
       285   10 Jun 2027 05:43:22.030   10 Jun 2027 05:43:48.983            26.953         13476.500
       286   10 Jun 2027 07:18:30.123   10 Jun 2027 07:20:28.199           118.076         59038.000
       287   10 Jun 2027 07:20:35.345   10 Jun 2027 07:20:36.902             1.557           778.500
       288   10 Jun 2027 07:21:52.006   10 Jun 2027 07:21:52.006             0.000             0.000
       289   10 Jun 2027 07:22:22.545   10 Jun 2027 07:22:32.273             9.728          4812.531
       290   10 Jun 2027 08:53:26.071   10 Jun 2027 08:53:41.455            15.384          6485.063
       291   10 Jun 2027 08:55:21.646   10 Jun 2027 08:55:27.962             6.316          2816.938
       292   10 Jun 2027 08:56:08.774   10 Jun 2027 08:56:08.774             0.000             0.000
       293   10 Jun 2027 08:56:22.437   10 Jun 2027 08:56:27.152             4.715          1448.000
       294   10 Jun 2027 08:56:50.354   10 Jun 2027 08:56:52.490             2.136           585.188
       295   10 Jun 2027 08:57:54.420   10 Jun 2027 08:58:04.446            10.026          1935.313
       296   10 Jun 2027 08:58:39.027   10 Jun 2027 08:58:46.654             7.627          1048.031
       297   10 Jun 2027 08:58:47.646   10 Jun 2027 08:58:48.269             0.623            31.000
       298   10 Jun 2027 08:59:36.223   10 Jun 2027 08:59:40.007             3.784          1432.313
       299   10 Jun 2027 09:00:25.275   10 Jun 2027 09:00:25.275             0.000             0.000
       300   10 Jun 2027 10:29:45.372   10 Jun 2027 10:30:03.266            17.894          8118.500
       301   10 Jun 2027 10:30:21.991   10 Jun 2027 10:30:24.356             2.365            82.094
       302   10 Jun 2027 10:30:57.391   10 Jun 2027 10:30:58.340             0.949             3.469
       303   10 Jun 2027 10:31:11.441   10 Jun 2027 10:31:12.379             0.938           398.219
       304   10 Jun 2027 10:31:54.689   10 Jun 2027 10:32:01.952             7.263          1322.188
       305   10 Jun 2027 10:32:12.411   10 Jun 2027 10:32:13.674             1.263           297.219
       306   10 Jun 2027 10:32:27.398   10 Jun 2027 10:32:29.832             2.434           424.062
       307   10 Jun 2027 10:32:46.230   10 Jun 2027 10:32:47.382             1.152           157.438
       308   10 Jun 2027 10:32:48.261   10 Jun 2027 10:32:48.652             0.391            13.313
       309   10 Jun 2027 10:33:12.547   10 Jun 2027 10:33:14.590             2.043           722.625
       310   10 Jun 2027 10:33:54.047   10 Jun 2027 10:33:56.672             2.625          1233.031
       311   10 Jun 2027 10:34:23.522   10 Jun 2027 10:34:25.509             1.987           701.375
       312   10 Jun 2027 10:35:00.889   10 Jun 2027 10:35:03.911             3.022           817.000
       313   10 Jun 2027 10:35:08.918   10 Jun 2027 10:35:11.278             2.360           156.469
       314   10 Jun 2027 10:36:03.220   10 Jun 2027 10:36:06.938             3.718          1441.531
       315   11 Jun 2027 03:00:00.000   11 Jun 2027 03:00:05.047             5.047          2523.500
       316   11 Jun 2027 03:00:15.078   11 Jun 2027 03:00:28.870            13.792          6896.000
       317   11 Jun 2027 04:19:23.592   11 Jun 2027 04:20:01.399            37.807         18903.500
       318   11 Jun 2027 04:20:06.278   11 Jun 2027 04:20:15.227             8.949          4474.500
       319   11 Jun 2027 04:30:35.992   11 Jun 2027 04:31:30.193            54.201         27100.500
       320   11 Jun 2027 04:33:34.615   11 Jun 2027 04:33:34.615             0.000             0.000
       321   11 Jun 2027 05:53:12.676   11 Jun 2027 05:54:56.417           103.741         51870.500
       322   11 Jun 2027 07:28:48.436   11 Jun 2027 07:29:28.109            39.673         19836.500
       323   11 Jun 2027 07:30:14.367   11 Jun 2027 07:31:21.539            67.172         33586.000
       324   11 Jun 2027 07:33:06.485   11 Jun 2027 07:33:09.194             2.709          1354.500
       325   11 Jun 2027 07:33:43.856   11 Jun 2027 07:33:57.357            13.501          6750.500
       326   11 Jun 2027 07:34:28.100   11 Jun 2027 07:34:28.100             0.000             0.000
       327   11 Jun 2027 09:04:59.510   11 Jun 2027 09:05:14.345            14.835          6816.375
       328   11 Jun 2027 09:05:29.568   11 Jun 2027 09:05:30.940             1.372           177.313
       329   11 Jun 2027 09:07:22.006   11 Jun 2027 09:07:29.224             7.218          3470.813
       330   11 Jun 2027 09:08:03.361   11 Jun 2027 09:08:05.161             1.800           608.531
       331   11 Jun 2027 09:08:38.580   11 Jun 2027 09:08:40.558             1.978           959.938
       332   11 Jun 2027 09:09:21.130   11 Jun 2027 09:09:31.816            10.686          1267.875
       333   11 Jun 2027 09:10:17.946   11 Jun 2027 09:10:20.597             2.651          1019.281
       334   11 Jun 2027 09:10:50.776   11 Jun 2027 09:10:58.204             7.428           640.344
       335   11 Jun 2027 09:11:05.221   11 Jun 2027 09:11:06.086             0.865           219.281
       336   11 Jun 2027 09:11:25.138   11 Jun 2027 09:11:27.236             2.098           595.375
       337   11 Jun 2027 09:11:41.227   11 Jun 2027 09:11:41.227             0.000             0.000
       338   11 Jun 2027 09:12:05.964   11 Jun 2027 09:12:09.178             3.214          1210.250
       339   11 Jun 2027 10:42:05.207   11 Jun 2027 10:42:19.059            13.852          6812.281
       340   11 Jun 2027 10:43:25.389   11 Jun 2027 10:43:31.959             6.570          1891.563
       341   11 Jun 2027 10:43:56.308   11 Jun 2027 10:43:57.771             1.463           644.125
       342   11 Jun 2027 10:44:18.898   11 Jun 2027 10:44:20.213             1.315           236.406
       343   11 Jun 2027 10:44:26.608   11 Jun 2027 10:44:29.929             3.321            47.781
       344   11 Jun 2027 10:44:48.232   11 Jun 2027 10:44:49.879             1.647           337.563
       345   11 Jun 2027 10:45:37.395   11 Jun 2027 10:45:42.459             5.064          1419.094
       346   11 Jun 2027 10:45:55.941   11 Jun 2027 10:45:55.996             0.055            27.500
       347   11 Jun 2027 10:46:02.314   11 Jun 2027 10:46:06.128             3.814           552.406
       348   11 Jun 2027 10:46:52.023   11 Jun 2027 10:46:53.683             1.660           830.000
       349   11 Jun 2027 10:46:57.112   11 Jun 2027 10:46:58.246             1.134           567.000
       350   11 Jun 2027 10:47:47.247   11 Jun 2027 10:47:53.110             5.863          1644.906
       351   11 Jun 2027 10:48:09.694   11 Jun 2027 10:48:10.229             0.535            44.656
       352   11 Jun 2027 10:48:10.564   11 Jun 2027 10:48:18.025             7.461            10.469
       353   12 Jun 2027 03:06:04.283   12 Jun 2027 03:07:06.785            62.502         31251.000
       354   12 Jun 2027 03:08:05.736   12 Jun 2027 03:08:14.510             8.774          4387.000
       355   12 Jun 2027 03:08:16.404   12 Jun 2027 03:08:16.404             0.000             0.000
       356   12 Jun 2027 03:09:13.015   12 Jun 2027 03:09:15.342             2.327          1163.500
       357   12 Jun 2027 03:09:51.090   12 Jun 2027 03:09:58.178             7.088          3544.000
       358   12 Jun 2027 03:10:10.707   12 Jun 2027 03:10:14.628             3.921          1960.500
       359   12 Jun 2027 03:11:10.616   12 Jun 2027 03:11:26.748            16.132          8066.000
       360   12 Jun 2027 03:11:53.304   12 Jun 2027 03:12:14.563            21.259         10629.500
       361   12 Jun 2027 03:12:50.026   12 Jun 2027 03:13:10.788            20.762         10381.000
       362   12 Jun 2027 04:30:55.568   12 Jun 2027 04:31:19.123            23.555         11777.500
       363   12 Jun 2027 04:42:38.717   12 Jun 2027 04:43:25.204            46.487         23243.500
       364   12 Jun 2027 06:04:51.868   12 Jun 2027 06:05:47.027            55.159         27579.500
       365   12 Jun 2027 06:05:54.609   12 Jun 2027 06:06:01.988             7.379          3689.500
       366   12 Jun 2027 06:07:34.901   12 Jun 2027 06:07:42.538             7.637          3818.500
       367   12 Jun 2027 06:09:09.189   12 Jun 2027 06:09:09.566             0.377           188.500
       368   12 Jun 2027 06:09:12.100   12 Jun 2027 06:09:27.710            15.610          7805.000
       369   12 Jun 2027 07:39:54.783   12 Jun 2027 07:41:16.845            82.062         41031.000
       370   12 Jun 2027 07:41:32.212   12 Jun 2027 07:41:37.693             5.481          2641.626
       371   12 Jun 2027 07:42:08.600   12 Jun 2027 07:42:12.637             4.037           965.844
       372   12 Jun 2027 07:42:32.030   12 Jun 2027 07:42:32.030             0.000             0.000
       373   12 Jun 2027 07:45:05.201   12 Jun 2027 07:45:18.363            13.162          5291.844
       374   12 Jun 2027 07:46:12.139   12 Jun 2027 07:46:12.139             0.000             0.000
       375   12 Jun 2027 07:46:25.210   12 Jun 2027 07:46:25.662             0.452           226.000
       376   12 Jun 2027 07:47:54.565   12 Jun 2027 07:48:04.359             9.794          4586.469
       377   12 Jun 2027 09:17:18.732   12 Jun 2027 09:17:33.537            14.805          5076.844
       378   12 Jun 2027 09:18:14.427   12 Jun 2027 09:18:15.717             1.290           339.375
       379   12 Jun 2027 09:18:21.130   12 Jun 2027 09:18:22.937             1.807            79.031
       380   12 Jun 2027 09:19:14.687   12 Jun 2027 09:19:17.794             3.107          1396.844
       381   12 Jun 2027 09:20:25.806   12 Jun 2027 09:20:31.893             6.087          2000.625
       382   12 Jun 2027 09:20:58.627   12 Jun 2027 09:21:01.241             2.614           835.437
       383   12 Jun 2027 09:21:22.896   12 Jun 2027 09:21:24.323             1.427           676.719
       384   12 Jun 2027 09:21:51.434   12 Jun 2027 09:21:54.286             2.852           490.188
       385   12 Jun 2027 09:22:28.537   12 Jun 2027 09:22:30.951             2.414          1033.688
       386   12 Jun 2027 09:23:14.450   12 Jun 2027 09:23:17.933             3.483          1335.375
       387   12 Jun 2027 09:23:25.585   12 Jun 2027 09:23:27.173             1.588           238.687
       388   12 Jun 2027 09:23:55.877   12 Jun 2027 09:23:58.380             2.503           788.719
       389   12 Jun 2027 09:24:19.632   12 Jun 2027 09:24:24.218             4.586           624.906
       390   12 Jun 2027 10:54:06.817   12 Jun 2027 10:54:25.374            18.557          9242.906
       391   12 Jun 2027 10:55:43.026   12 Jun 2027 10:55:45.929             2.903          1131.406
       392   12 Jun 2027 10:56:30.344   12 Jun 2027 10:56:31.858             1.514           308.000
       393   12 Jun 2027 10:56:47.641   12 Jun 2027 10:56:53.479             5.838            46.875
       394   12 Jun 2027 10:57:28.101   12 Jun 2027 10:57:31.700             3.599           902.906
       395   12 Jun 2027 10:58:01.218   12 Jun 2027 10:58:03.756             2.538           573.562
       396   12 Jun 2027 10:58:26.596   12 Jun 2027 10:58:29.233             2.637           713.750
       397   12 Jun 2027 10:58:36.782   12 Jun 2027 10:58:37.924             1.142           118.594
       398   12 Jun 2027 10:59:47.132   12 Jun 2027 10:59:52.355             5.223          1904.594
       399   12 Jun 2027 11:00:08.152   12 Jun 2027 11:00:11.124             2.972           355.500
       400   12 Jun 2027 11:00:31.853   12 Jun 2027 11:00:33.869             2.016           647.781
       401   13 Jun 2027 03:18:04.535   13 Jun 2027 03:19:00.089            55.554         27777.000
       402   13 Jun 2027 03:19:03.504   13 Jun 2027 03:19:28.812            25.308         12654.000
       403   13 Jun 2027 03:20:14.005   13 Jun 2027 03:20:17.604             3.599          1799.500
       404   13 Jun 2027 03:22:05.408   13 Jun 2027 03:22:19.670            14.262          7131.000
       405   13 Jun 2027 03:22:59.479   13 Jun 2027 03:23:05.521             6.042          3021.000
       406   13 Jun 2027 03:23:32.387   13 Jun 2027 03:23:43.170            10.783          5391.500
       407   13 Jun 2027 03:24:56.654   13 Jun 2027 03:25:10.514            13.860          6930.000
       408   13 Jun 2027 04:42:26.709   13 Jun 2027 04:42:42.820            16.111          8055.500
       409   13 Jun 2027 04:43:20.255   13 Jun 2027 04:43:33.386            13.131          6565.500
       410   13 Jun 2027 04:54:39.824   13 Jun 2027 04:55:11.509            31.685         15842.500
       411   13 Jun 2027 06:16:35.159   13 Jun 2027 06:17:49.152            73.993         36996.500
       412   13 Jun 2027 06:20:17.556   13 Jun 2027 06:20:17.556             0.000             0.000
       413   13 Jun 2027 06:21:06.933   13 Jun 2027 06:21:31.068            24.135         12067.500
       414   13 Jun 2027 07:51:23.297   13 Jun 2027 07:52:41.679            78.382         38506.406
       415   13 Jun 2027 07:53:27.376   13 Jun 2027 07:53:29.836             2.460           848.719
       416   13 Jun 2027 07:55:46.852   13 Jun 2027 07:55:57.578            10.726          4281.750
       417   13 Jun 2027 07:57:07.107   13 Jun 2027 07:57:14.179             7.072          2172.781
       418   13 Jun 2027 07:58:22.711   13 Jun 2027 07:58:27.807             5.096          2084.906
       419   13 Jun 2027 07:59:49.763   13 Jun 2027 07:59:52.091             2.328          1164.000
       420   13 Jun 2027 08:00:04.835   13 Jun 2027 08:00:06.660             1.825           912.500
       421   13 Jun 2027 09:29:13.007   13 Jun 2027 09:29:29.261            16.254          7437.688
       422   13 Jun 2027 09:30:08.388   13 Jun 2027 09:30:11.502             3.114          1222.719
       423   13 Jun 2027 09:30:34.752   13 Jun 2027 09:30:35.265             0.513            49.281
       424   13 Jun 2027 09:30:41.892   13 Jun 2027 09:30:43.088             1.196           141.250
       425   13 Jun 2027 09:31:11.661   13 Jun 2027 09:31:14.881             3.220           550.094
       426   13 Jun 2027 09:32:14.331   13 Jun 2027 09:32:15.084             0.753           376.500
       427   13 Jun 2027 09:33:24.293   13 Jun 2027 09:33:33.248             8.955          3644.094
       428   13 Jun 2027 09:33:49.330   13 Jun 2027 09:33:52.224             2.894           502.563
       429   13 Jun 2027 09:34:38.907   13 Jun 2027 09:34:40.627             1.720           725.937
       430   13 Jun 2027 09:35:56.950   13 Jun 2027 09:36:04.170             7.220          2368.562
       431   13 Jun 2027 09:36:11.462   13 Jun 2027 09:36:13.049             1.587           227.875
       432   13 Jun 2027 09:36:32.214   13 Jun 2027 09:36:33.194             0.980           411.531
       433   13 Jun 2027 11:05:57.428   13 Jun 2027 11:06:03.758             6.330          3165.000
       434   13 Jun 2027 11:06:22.671   13 Jun 2027 11:06:32.612             9.941          4006.938
       435   13 Jun 2027 11:07:17.569   13 Jun 2027 11:07:19.668             2.099           528.906
       436   13 Jun 2027 11:08:21.456   13 Jun 2027 11:08:25.634             4.178          1930.875
       437   13 Jun 2027 11:08:59.015   13 Jun 2027 11:09:00.284             1.269           634.500
       438   13 Jun 2027 11:09:00.910   13 Jun 2027 11:09:07.883             6.973           428.219
       439   13 Jun 2027 11:09:45.626   13 Jun 2027 11:09:51.741             6.115          1122.844
       440   13 Jun 2027 11:10:48.796   13 Jun 2027 11:10:52.700             3.904          1782.969
       441   13 Jun 2027 11:11:08.051   13 Jun 2027 11:11:11.364             3.313           342.656
       442   13 Jun 2027 11:12:07.224   13 Jun 2027 11:12:11.989             4.765          1469.250
       443   13 Jun 2027 11:12:31.480   13 Jun 2027 11:12:36.472             4.992           609.094
       444   13 Jun 2027 11:12:43.469   13 Jun 2027 11:12:43.505             0.036            18.000
