uniorb/output/strategy_1/Camera/Camera_KinoSat_110605.txt

KinoSat_110605
-------------------------
    Access    *     Start Time (UTCG)     *     Stop Time (UTCG)  *   Duration (s) *   Data (Mbytes)
         1   01 Jun 2027 03:44:13.088   01 Jun 2027 03:45:35.443            82.355         41177.500
         2   01 Jun 2027 03:45:56.590   01 Jun 2027 03:46:06.013             9.423          4711.500
         3   01 Jun 2027 03:46:37.435   01 Jun 2027 03:47:02.080            24.645         12322.500
         4   01 Jun 2027 05:19:22.190   01 Jun 2027 05:20:55.988            93.798         46899.000
         5   01 Jun 2027 05:21:21.081   01 Jun 2027 05:21:50.521            29.440         14720.000
         6   01 Jun 2027 05:24:59.593   01 Jun 2027 05:25:03.559             3.966          1983.000
         7   01 Jun 2027 05:25:33.401   01 Jun 2027 05:25:59.417            26.016         13008.000
         8   01 Jun 2027 06:55:45.802   01 Jun 2027 06:57:46.877           121.075         60537.500
         9   01 Jun 2027 06:58:09.054   01 Jun 2027 06:58:28.109            19.055          9527.500
        10   01 Jun 2027 06:59:07.863   01 Jun 2027 06:59:13.249             5.386          2693.000
        11   01 Jun 2027 07:01:54.020   01 Jun 2027 07:01:57.438             3.418          1709.000
        12   01 Jun 2027 08:32:59.653   01 Jun 2027 08:35:03.357           123.704         61852.000
        13   01 Jun 2027 08:35:43.279   01 Jun 2027 08:35:55.949            12.670          6335.000
        14   01 Jun 2027 10:09:18.509   01 Jun 2027 10:11:05.526           107.017         53508.500
        15   01 Jun 2027 10:12:48.051   01 Jun 2027 10:13:19.678            31.627         15813.500
        16   02 Jun 2027 03:56:06.074   02 Jun 2027 03:56:37.104            31.030         15515.000
        17   02 Jun 2027 03:58:07.040   02 Jun 2027 03:58:08.497             1.457           728.500
        18   02 Jun 2027 03:58:47.912   02 Jun 2027 03:59:04.207            16.295          8147.500
        19   02 Jun 2027 03:59:42.296   02 Jun 2027 03:59:42.296             0.000             0.000
        20   02 Jun 2027 05:31:03.674   02 Jun 2027 05:33:13.265           129.591         64795.500
        21   02 Jun 2027 05:33:21.221   02 Jun 2027 05:33:47.023            25.802         12901.000
        22   02 Jun 2027 05:37:39.659   02 Jun 2027 05:37:59.926            20.267         10133.500
        23   02 Jun 2027 07:07:17.417   02 Jun 2027 07:09:37.769           140.352         70176.000
        24   02 Jun 2027 07:10:00.056   02 Jun 2027 07:10:07.832             7.776          3888.000
        25   02 Jun 2027 07:11:12.714   02 Jun 2027 07:11:23.813            11.099          5549.500
        26   02 Jun 2027 08:45:37.541   02 Jun 2027 08:47:02.437            84.896         42448.000
        27   02 Jun 2027 08:47:45.673   02 Jun 2027 08:48:42.432            56.759         28379.500
        28   02 Jun 2027 10:20:56.970   02 Jun 2027 10:22:57.872           120.902         60451.000
        29   02 Jun 2027 10:25:21.353   02 Jun 2027 10:25:29.406             8.053          4026.500
        30   03 Jun 2027 04:06:28.232   03 Jun 2027 04:06:53.963            25.731         12865.500
        31   03 Jun 2027 04:07:50.863   03 Jun 2027 04:08:11.170            20.307         10153.500
        32   03 Jun 2027 04:08:58.473   03 Jun 2027 04:09:05.568             7.095          3547.500
        33   03 Jun 2027 05:42:36.654   03 Jun 2027 05:44:46.878           130.224         65112.000
        34   03 Jun 2027 05:45:10.800   03 Jun 2027 05:45:24.262            13.462          6731.000
        35   03 Jun 2027 05:45:26.404   03 Jun 2027 05:45:31.454             5.050          2525.000
        36   03 Jun 2027 05:46:09.660   03 Jun 2027 05:46:11.009             1.349           674.500
        37   03 Jun 2027 05:50:08.230   03 Jun 2027 05:50:10.834             2.604          1302.000
        38   03 Jun 2027 07:19:39.027   03 Jun 2027 07:21:01.474            82.447         41223.500
        39   03 Jun 2027 07:21:51.863   03 Jun 2027 07:23:05.542            73.679         36839.500
        40   03 Jun 2027 07:24:22.274   03 Jun 2027 07:24:24.576             2.302          1151.000
        41   03 Jun 2027 07:24:54.589   03 Jun 2027 07:25:15.911            21.322         10661.000
        42   03 Jun 2027 07:25:35.241   03 Jun 2027 07:25:35.884             0.643           321.500
        43   03 Jun 2027 08:57:38.679   03 Jun 2027 09:00:12.171           153.492         76746.000
        44   03 Jun 2027 10:30:50.291   03 Jun 2027 10:31:54.702            64.411         31274.781
        45   03 Jun 2027 10:32:17.545   03 Jun 2027 10:32:19.401             1.856           537.219
        46   03 Jun 2027 10:32:34.603   03 Jun 2027 10:32:36.175             1.572           167.031
        47   03 Jun 2027 10:34:13.980   03 Jun 2027 10:34:18.167             4.187          2093.500
        48   03 Jun 2027 10:35:07.709   03 Jun 2027 10:35:13.731             6.022          2448.375
        49   03 Jun 2027 10:36:50.948   03 Jun 2027 10:37:00.460             9.512          2915.656
        50   03 Jun 2027 10:37:58.814   03 Jun 2027 10:37:58.814             0.000             0.000
        51   04 Jun 2027 04:17:32.767   04 Jun 2027 04:18:57.014            84.247         42123.500
        52   04 Jun 2027 04:22:43.622   04 Jun 2027 04:23:02.267            18.645          9322.500
        53   04 Jun 2027 05:54:48.067   04 Jun 2027 05:56:40.146           112.079         56039.500
        54   04 Jun 2027 05:57:17.634   04 Jun 2027 05:57:17.634             0.000             0.000
        55   04 Jun 2027 05:57:27.414   04 Jun 2027 05:57:35.835             8.421          4210.500
        56   04 Jun 2027 05:57:49.251   04 Jun 2027 05:57:49.251             0.000             0.000
        57   04 Jun 2027 05:59:16.593   04 Jun 2027 05:59:17.731             1.138           569.000
        58   04 Jun 2027 05:59:20.912   04 Jun 2027 05:59:27.949             7.037          3518.500
        59   04 Jun 2027 06:00:08.662   04 Jun 2027 06:00:20.400            11.738          5869.000
        60   04 Jun 2027 06:02:12.158   04 Jun 2027 06:02:12.375             0.217           108.500
        61   04 Jun 2027 07:31:42.351   04 Jun 2027 07:33:05.747            83.396         41698.000
        62   04 Jun 2027 07:33:45.674   04 Jun 2027 07:35:02.759            77.085         38542.500
        63   04 Jun 2027 07:36:12.118   04 Jun 2027 07:36:14.191             2.073          1036.500
        64   04 Jun 2027 07:36:22.670   04 Jun 2027 07:36:28.732             6.062          3014.937
        65   04 Jun 2027 09:09:38.477   04 Jun 2027 09:10:08.871            30.394         13565.906
        66   04 Jun 2027 09:10:56.435   04 Jun 2027 09:11:00.510             4.075          1472.625
        67   04 Jun 2027 09:12:07.872   04 Jun 2027 09:12:16.504             8.632          1891.938
        68   04 Jun 2027 09:12:46.749   04 Jun 2027 09:12:48.744             1.995           634.906
        69   04 Jun 2027 09:13:13.473   04 Jun 2027 09:13:15.936             2.463           646.937
        70   04 Jun 2027 09:13:32.132   04 Jun 2027 09:13:33.290             1.158           506.125
        71   04 Jun 2027 10:43:11.890   04 Jun 2027 10:43:24.930            13.040          2810.906
        72   04 Jun 2027 10:43:59.753   04 Jun 2027 10:44:04.968             5.215           382.938
        73   04 Jun 2027 10:44:26.852   04 Jun 2027 10:44:27.982             1.130           313.000
        74   04 Jun 2027 10:44:50.000   04 Jun 2027 10:44:52.198             2.198           452.844
        75   04 Jun 2027 10:45:12.367   04 Jun 2027 10:45:13.308             0.941           343.375
        76   04 Jun 2027 10:46:11.183   04 Jun 2027 10:46:15.591             4.408          1690.937
        77   04 Jun 2027 10:46:20.875   04 Jun 2027 10:46:23.085             2.210           153.000
        78   04 Jun 2027 10:46:59.576   04 Jun 2027 10:47:05.355             5.779           882.156
        79   04 Jun 2027 10:47:36.717   04 Jun 2027 10:47:39.700             2.983           980.062
        80   04 Jun 2027 10:48:17.816   04 Jun 2027 10:48:21.485             3.669          1030.375
        81   04 Jun 2027 10:49:06.255   04 Jun 2027 10:49:08.656             2.401          1200.500
        82   04 Jun 2027 10:49:57.326   04 Jun 2027 10:49:58.248             0.922           461.000
        83   05 Jun 2027 04:29:02.053   05 Jun 2027 04:29:29.215            27.162         13581.000
        84   05 Jun 2027 04:30:19.771   05 Jun 2027 04:31:21.613            61.842         30921.000
        85   05 Jun 2027 04:34:50.531   05 Jun 2027 04:35:05.549            15.018          7509.000
        86   05 Jun 2027 04:36:18.339   05 Jun 2027 04:36:37.583            19.244          9622.000
        87   05 Jun 2027 06:06:48.479   05 Jun 2027 06:08:38.979           110.500         55250.000
        88   05 Jun 2027 06:08:58.164   05 Jun 2027 06:09:05.614             7.450          3725.000
        89   05 Jun 2027 06:12:04.711   05 Jun 2027 06:12:25.774            21.063         10531.500
        90   05 Jun 2027 06:12:48.687   05 Jun 2027 06:12:58.316             9.629          4814.500
        91   05 Jun 2027 07:43:33.733   05 Jun 2027 07:45:29.532           115.799         55935.312
        92   05 Jun 2027 07:46:37.380   05 Jun 2027 07:46:41.773             4.393          1949.375
        93   05 Jun 2027 07:47:27.163   05 Jun 2027 07:47:27.884             0.721           360.500
        94   05 Jun 2027 07:48:01.731   05 Jun 2027 07:48:14.363            12.632          1947.625
        95   05 Jun 2027 07:48:44.954   05 Jun 2027 07:48:47.243             2.289           924.062
        96   05 Jun 2027 09:21:39.095   05 Jun 2027 09:22:02.373            23.278         11639.000
        97   05 Jun 2027 09:22:19.943   05 Jun 2027 09:22:22.098             2.155           577.969
        98   05 Jun 2027 09:22:47.186   05 Jun 2027 09:22:52.214             5.028           784.000
        99   05 Jun 2027 09:23:18.552   05 Jun 2027 09:23:18.808             0.256           128.000
       100   05 Jun 2027 09:24:26.592   05 Jun 2027 09:24:34.022             7.430          2578.719
       101   05 Jun 2027 09:25:27.963   05 Jun 2027 09:25:34.066             6.103          1685.656
       102   05 Jun 2027 10:55:30.137   05 Jun 2027 10:55:35.170             5.033          2045.406
       103   05 Jun 2027 10:56:06.302   05 Jun 2027 10:56:09.116             2.814           773.906
       104   05 Jun 2027 10:56:55.038   05 Jun 2027 10:56:55.038             0.000             0.000
       105   05 Jun 2027 10:57:07.491   05 Jun 2027 10:57:14.473             6.982          1606.250
       106   05 Jun 2027 10:57:51.717   05 Jun 2027 10:57:53.381             1.664           551.031
       107   05 Jun 2027 10:58:32.952   05 Jun 2027 10:58:34.679             1.727           750.219
       108   05 Jun 2027 10:59:02.423   05 Jun 2027 10:59:05.769             3.346           793.187
       109   05 Jun 2027 10:59:10.484   05 Jun 2027 10:59:11.396             0.912           147.344
       110   05 Jun 2027 11:00:18.330   05 Jun 2027 11:00:23.574             5.244          1887.969
       111   05 Jun 2027 11:01:26.054   05 Jun 2027 11:01:36.224            10.170          1907.781
       112   05 Jun 2027 11:01:58.254   05 Jun 2027 11:02:00.289             2.035           135.156
       113   06 Jun 2027 03:05:46.146   06 Jun 2027 03:06:01.682            15.536          7768.000
       114   06 Jun 2027 03:08:42.539   06 Jun 2027 03:08:42.539             0.000             0.000
       115   06 Jun 2027 03:09:12.353   06 Jun 2027 03:09:26.680            14.327          7163.500
       116   06 Jun 2027 03:10:31.332   06 Jun 2027 03:11:11.673            40.341         20170.500
       117   06 Jun 2027 04:41:48.025   06 Jun 2027 04:43:11.626            83.601         41800.500
       118   06 Jun 2027 04:43:32.735   06 Jun 2027 04:43:34.317             1.582           791.000
       119   06 Jun 2027 04:43:48.437   06 Jun 2027 04:43:50.271             1.834           917.000
       120   06 Jun 2027 04:45:43.486   06 Jun 2027 04:45:59.229            15.743          7871.500
       121   06 Jun 2027 04:47:25.107   06 Jun 2027 04:47:27.945             2.838          1419.000
       122   06 Jun 2027 04:47:58.195   06 Jun 2027 04:48:05.627             7.432          3716.000
       123   06 Jun 2027 06:18:52.269   06 Jun 2027 06:20:52.342           120.073         60036.500
       124   06 Jun 2027 06:21:00.497   06 Jun 2027 06:21:05.967             5.470          2735.000
       125   06 Jun 2027 06:21:54.118   06 Jun 2027 06:22:00.500             6.382          3191.000
       126   06 Jun 2027 06:24:11.723   06 Jun 2027 06:24:22.772            11.049          5524.500
       127   06 Jun 2027 07:55:50.948   06 Jun 2027 07:57:08.130            77.182         37869.281
       128   06 Jun 2027 07:57:36.834   06 Jun 2027 07:57:39.437             2.603           849.688
       129   06 Jun 2027 07:58:32.485   06 Jun 2027 07:58:33.413             0.928           464.000
       130   06 Jun 2027 07:59:41.460   06 Jun 2027 07:59:43.848             2.388          1194.000
       131   06 Jun 2027 08:00:03.854   06 Jun 2027 08:00:10.306             6.452          2751.406
       132   06 Jun 2027 08:00:22.902   06 Jun 2027 08:00:22.902             0.000             0.000
       133   06 Jun 2027 08:01:25.972   06 Jun 2027 08:01:32.179             6.207          2364.562
       134   06 Jun 2027 09:32:52.853   06 Jun 2027 09:33:15.614            22.761          9861.906
       135   06 Jun 2027 09:33:25.281   06 Jun 2027 09:33:25.724             0.443           188.594
       136   06 Jun 2027 09:34:49.429   06 Jun 2027 09:34:52.868             3.439          1719.500
       137   06 Jun 2027 09:35:18.538   06 Jun 2027 09:35:30.084            11.546          1698.469
       138   06 Jun 2027 09:35:54.488   06 Jun 2027 09:35:56.081             1.593           698.281
       139   06 Jun 2027 09:36:23.408   06 Jun 2027 09:36:27.774             4.366           853.969
       140   06 Jun 2027 09:36:53.097   06 Jun 2027 09:36:54.505             1.408           515.438
       141   06 Jun 2027 09:37:28.793   06 Jun 2027 09:37:30.154             1.361           624.594
       142   06 Jun 2027 11:07:56.386   06 Jun 2027 11:08:05.150             8.764          1854.844
       143   06 Jun 2027 11:08:16.524   06 Jun 2027 11:08:20.241             3.717           355.437
       144   06 Jun 2027 11:10:07.224   06 Jun 2027 11:10:13.220             5.996          2430.687
       145   06 Jun 2027 11:10:23.586   06 Jun 2027 11:10:26.821             3.235           155.781
       146   06 Jun 2027 11:10:53.549   06 Jun 2027 11:10:54.936             1.387           606.750
       147   06 Jun 2027 11:12:19.092   06 Jun 2027 11:12:29.406            10.314          2186.469
       148   07 Jun 2027 03:20:17.717   07 Jun 2027 03:20:41.362            23.645         11822.500
       149   07 Jun 2027 03:21:16.729   07 Jun 2027 03:21:32.914            16.185          8092.500
       150   07 Jun 2027 03:21:45.664   07 Jun 2027 03:22:01.591            15.927          7963.500
       151   07 Jun 2027 03:22:23.315   07 Jun 2027 03:22:28.519             5.204          2602.000
       152   07 Jun 2027 04:53:46.085   07 Jun 2027 04:55:29.742           103.657         51828.500
       153   07 Jun 2027 04:56:15.091   07 Jun 2027 04:56:44.806            29.715         14857.500
       154   07 Jun 2027 05:00:31.012   07 Jun 2027 05:00:31.012             0.000             0.000
       155   07 Jun 2027 05:01:14.605   07 Jun 2027 05:01:15.405             0.800           400.000
       156   07 Jun 2027 05:01:15.520   07 Jun 2027 05:01:18.551             3.031          1515.500
       157   07 Jun 2027 05:01:18.947   07 Jun 2027 05:01:22.106             3.159          1579.500
       158   07 Jun 2027 05:01:59.071   07 Jun 2027 05:02:07.354             8.283          4141.500
       159   07 Jun 2027 05:02:14.679   07 Jun 2027 05:02:16.897             2.218          1109.000
       160   07 Jun 2027 06:31:18.645   07 Jun 2027 06:33:13.709           115.064         57532.000
       161   07 Jun 2027 06:34:37.084   07 Jun 2027 06:34:44.282             7.198          3599.000
       162   07 Jun 2027 06:36:00.628   07 Jun 2027 06:36:17.577            16.949          8474.500
       163   07 Jun 2027 08:08:13.230   07 Jun 2027 08:09:23.089            69.859         33703.720
       164   07 Jun 2027 08:10:38.750   07 Jun 2027 08:10:43.492             4.742          2364.406
       165   07 Jun 2027 08:11:29.670   07 Jun 2027 08:11:34.583             4.913          1443.063
       166   07 Jun 2027 08:12:41.983   07 Jun 2027 08:12:50.607             8.624          2106.250
       167   07 Jun 2027 08:12:52.388   07 Jun 2027 08:12:53.492             1.104            31.125
       168   07 Jun 2027 08:13:30.519   07 Jun 2027 08:13:33.667             3.148          1137.469
       169   07 Jun 2027 09:45:04.163   07 Jun 2027 09:45:23.992            19.829          9301.781
       170   07 Jun 2027 09:45:41.432   07 Jun 2027 09:45:42.785             1.353           377.438
       171   07 Jun 2027 09:46:07.350   07 Jun 2027 09:46:07.350             0.000             0.000
       172   07 Jun 2027 09:46:28.120   07 Jun 2027 09:46:32.073             3.953          1387.625
       173   07 Jun 2027 09:46:46.762   07 Jun 2027 09:46:52.344             5.582           277.594
       174   07 Jun 2027 09:47:17.986   07 Jun 2027 09:47:18.829             0.843           421.500
       175   07 Jun 2027 09:48:12.487   07 Jun 2027 09:48:16.796             4.309          1835.812
       176   07 Jun 2027 09:48:45.266   07 Jun 2027 09:48:46.883             1.617           808.500
       177   07 Jun 2027 09:49:25.626   07 Jun 2027 09:49:28.506             2.880          1291.906
       178   07 Jun 2027 09:49:34.020   07 Jun 2027 09:49:36.225             2.205           172.313
       179   07 Jun 2027 11:22:40.661   07 Jun 2027 11:22:51.739            11.078          3192.531
       180   07 Jun 2027 11:23:13.646   07 Jun 2027 11:23:15.974             2.328           386.094
       181   07 Jun 2027 11:24:17.654   07 Jun 2027 11:24:20.069             2.415          1207.500
       182   08 Jun 2027 03:32:19.088   08 Jun 2027 03:32:50.431            31.343         15671.500
       183   08 Jun 2027 03:33:14.407   08 Jun 2027 03:33:24.286             9.879          4939.500
       184   08 Jun 2027 03:34:20.203   08 Jun 2027 03:34:21.483             1.280           640.000
       185   08 Jun 2027 05:06:49.227   08 Jun 2027 05:09:06.343           137.116         68558.000
       186   08 Jun 2027 05:12:24.736   08 Jun 2027 05:12:38.847            14.111          7055.500
       187   08 Jun 2027 05:13:26.498   08 Jun 2027 05:13:40.289            13.791          6895.500
       188   08 Jun 2027 05:14:09.684   08 Jun 2027 05:14:12.722             3.038          1519.000
       189   08 Jun 2027 06:43:25.464   08 Jun 2027 06:45:03.696            98.232         49116.000
       190   08 Jun 2027 06:45:08.703   08 Jun 2027 06:45:25.375            16.672          8336.000
       191   08 Jun 2027 06:46:54.749   08 Jun 2027 06:47:12.490            17.741          8870.500
       192   08 Jun 2027 08:21:07.805   08 Jun 2027 08:21:53.393            45.588         22272.624
       193   08 Jun 2027 08:22:44.399   08 Jun 2027 08:22:44.996             0.597           298.500
       194   08 Jun 2027 08:22:56.073   08 Jun 2027 08:23:00.346             4.273           886.469
       195   08 Jun 2027 08:23:14.158   08 Jun 2027 08:23:17.890             3.732           380.375
       196   08 Jun 2027 08:23:48.474   08 Jun 2027 08:23:49.043             0.569           284.500
       197   08 Jun 2027 08:24:27.353   08 Jun 2027 08:24:33.735             6.382          1784.125
       198   08 Jun 2027 08:24:43.447   08 Jun 2027 08:24:45.594             2.147           144.281
       199   08 Jun 2027 08:25:14.588   08 Jun 2027 08:25:18.192             3.604           582.969
       200   08 Jun 2027 09:57:06.302   08 Jun 2027 09:57:24.201            17.899          8416.969
       201   08 Jun 2027 09:57:50.128   08 Jun 2027 09:57:54.781             4.653           597.281
       202   08 Jun 2027 09:58:29.612   08 Jun 2027 09:58:29.612             0.000             0.000
       203   08 Jun 2027 09:58:39.416   08 Jun 2027 09:58:41.387             1.971           985.500
       204   08 Jun 2027 09:59:19.392   08 Jun 2027 09:59:23.894             4.502          1513.938
       205   08 Jun 2027 10:00:21.665   08 Jun 2027 10:00:24.651             2.986          1263.625
       206   08 Jun 2027 10:00:52.637   08 Jun 2027 10:01:00.511             7.874           874.125
       207   08 Jun 2027 10:01:40.387   08 Jun 2027 10:01:44.068             3.681           908.062
       208   09 Jun 2027 03:44:27.773   09 Jun 2027 03:45:01.508            33.735         16867.500
       209   09 Jun 2027 03:45:19.217   09 Jun 2027 03:45:25.504             6.287          3143.500
       210   09 Jun 2027 03:46:21.485   09 Jun 2027 03:46:25.027             3.542          1771.000
       211   09 Jun 2027 03:47:55.453   09 Jun 2027 03:47:59.424             3.971          1985.500
       212   09 Jun 2027 05:19:36.942   09 Jun 2027 05:22:03.800           146.858         73429.000
       213   09 Jun 2027 05:22:05.185   09 Jun 2027 05:22:05.185             0.000             0.000
       214   09 Jun 2027 05:24:16.622   09 Jun 2027 05:24:45.446            28.824         14412.000
       215   09 Jun 2027 05:26:03.018   09 Jun 2027 05:26:14.094            11.076          5538.000
       216   09 Jun 2027 06:56:00.768   09 Jun 2027 06:57:54.364           113.596         56798.000
       217   09 Jun 2027 06:58:01.818   09 Jun 2027 06:58:11.751             9.933          4966.500
       218   09 Jun 2027 06:59:22.665   09 Jun 2027 06:59:28.192             5.527          2763.500
       219   09 Jun 2027 07:01:13.715   09 Jun 2027 07:01:16.816             3.101          1550.500
       220   09 Jun 2027 07:01:27.561   09 Jun 2027 07:01:34.564             7.003          3501.500
       221   09 Jun 2027 08:33:14.343   09 Jun 2027 08:33:52.708            38.365         16442.063
       222   09 Jun 2027 08:34:09.693   09 Jun 2027 08:34:10.185             0.492           156.969
       223   09 Jun 2027 08:34:33.022   09 Jun 2027 08:34:37.494             4.472           367.219
       224   09 Jun 2027 08:35:18.346   09 Jun 2027 08:35:23.333             4.987          1133.031
       225   09 Jun 2027 08:35:48.216   09 Jun 2027 08:35:49.751             1.535           767.500
       226   09 Jun 2027 08:36:27.904   09 Jun 2027 08:36:33.252             5.348          1202.375
       227   09 Jun 2027 08:36:48.976   09 Jun 2027 08:36:50.351             1.375            50.219
       228   09 Jun 2027 10:09:33.319   09 Jun 2027 10:09:48.375            15.056          7528.000
       229   09 Jun 2027 10:10:30.962   09 Jun 2027 10:10:34.205             3.243          1504.781
       230   09 Jun 2027 10:11:20.186   09 Jun 2027 10:11:25.296             5.110          1358.562
       231   09 Jun 2027 10:12:00.850   09 Jun 2027 10:12:06.510             5.660           632.563
       232   09 Jun 2027 10:12:15.701   09 Jun 2027 10:12:15.986             0.285            84.156
       233   09 Jun 2027 10:12:34.203   09 Jun 2027 10:12:35.576             1.373            49.469
       234   09 Jun 2027 10:13:34.906   09 Jun 2027 10:13:42.675             7.769          1174.562
       235   10 Jun 2027 03:56:20.625   10 Jun 2027 03:57:08.384            47.759         23879.500
       236   10 Jun 2027 03:58:23.387   10 Jun 2027 03:58:31.587             8.200          4100.000
       237   10 Jun 2027 03:59:28.011   10 Jun 2027 03:59:28.011             0.000             0.000
       238   10 Jun 2027 03:59:56.608   10 Jun 2027 04:00:00.188             3.580          1790.000
       239   10 Jun 2027 05:31:18.116   10 Jun 2027 05:33:44.556           146.440         73220.000
       240   10 Jun 2027 05:34:08.465   10 Jun 2027 05:34:18.863            10.398          5199.000
       241   10 Jun 2027 05:34:21.920   10 Jun 2027 05:34:29.055             7.135          3567.500
       242   10 Jun 2027 05:37:17.843   10 Jun 2027 05:37:20.970             3.127          1563.500
       243   10 Jun 2027 05:37:54.164   10 Jun 2027 05:38:14.550            20.386         10193.000
       244   10 Jun 2027 07:07:32.349   10 Jun 2027 07:09:42.983           130.634         65317.000
       245   10 Jun 2027 07:10:53.262   10 Jun 2027 07:10:56.137             2.875          1437.500
       246   10 Jun 2027 07:12:09.571   10 Jun 2027 07:12:15.282             5.711          2855.500
       247   10 Jun 2027 07:12:21.139   10 Jun 2027 07:12:23.676             2.537          1268.500
       248   10 Jun 2027 07:12:45.047   10 Jun 2027 07:12:50.640             5.593          1414.876
       249   10 Jun 2027 08:45:52.080   10 Jun 2027 08:46:15.769            23.689         11844.500
       250   10 Jun 2027 08:46:34.641   10 Jun 2027 08:46:39.032             4.391          1473.750
       251   10 Jun 2027 08:47:02.285   10 Jun 2027 08:47:07.507             5.222           483.031
       252   10 Jun 2027 08:47:35.369   10 Jun 2027 08:47:38.269             2.900           870.687
       253   10 Jun 2027 08:48:07.874   10 Jun 2027 08:48:15.273             7.399           925.156
       254   10 Jun 2027 08:48:40.207   10 Jun 2027 08:48:42.363             2.156           657.406
       255   10 Jun 2027 08:48:58.026   10 Jun 2027 08:49:00.843             2.817           371.719
       256   10 Jun 2027 08:49:41.071   10 Jun 2027 08:49:42.744             1.673           836.500
       257   10 Jun 2027 10:21:11.574   10 Jun 2027 10:21:27.731            16.157          6975.125
       258   10 Jun 2027 10:22:32.114   10 Jun 2027 10:22:38.806             6.692          1871.688
       259   10 Jun 2027 10:23:37.135   10 Jun 2027 10:23:44.543             7.408          1796.969
       260   10 Jun 2027 10:24:17.982   10 Jun 2027 10:24:21.199             3.217          1005.187
       261   10 Jun 2027 10:24:32.493   10 Jun 2027 10:24:33.928             1.435           343.875
       262   10 Jun 2027 10:24:43.007   10 Jun 2027 10:24:47.881             4.874           283.719
       263   10 Jun 2027 10:25:29.402   10 Jun 2027 10:25:36.857             7.455          1297.531
       264   10 Jun 2027 10:26:03.310   10 Jun 2027 10:26:05.754             2.444           826.656
       265   11 Jun 2027 04:06:40.555   11 Jun 2027 04:07:09.020            28.465         14232.500
       266   11 Jun 2027 04:08:05.210   11 Jun 2027 04:08:37.984            32.774         16387.000
       267   11 Jun 2027 04:10:23.849   11 Jun 2027 04:10:23.849             0.000             0.000
       268   11 Jun 2027 04:11:47.386   11 Jun 2027 04:11:47.386             0.000             0.000
       269   11 Jun 2027 04:11:57.941   11 Jun 2027 04:12:00.674             2.733          1366.500
       270   11 Jun 2027 04:12:27.521   11 Jun 2027 04:12:27.521             0.000             0.000
       271   11 Jun 2027 05:42:51.110   11 Jun 2027 05:45:08.424           137.314         68657.000
       272   11 Jun 2027 05:45:31.339   11 Jun 2027 05:45:31.339             0.000             0.000
       273   11 Jun 2027 05:48:23.750   11 Jun 2027 05:48:28.812             5.062          2531.000
       274   11 Jun 2027 05:49:22.617   11 Jun 2027 05:49:40.310            17.693          8846.500
       275   11 Jun 2027 05:49:42.318   11 Jun 2027 05:49:42.835             0.517           258.500
       276   11 Jun 2027 07:19:53.755   11 Jun 2027 07:22:27.389           153.634         76680.813
       277   11 Jun 2027 07:24:43.528   11 Jun 2027 07:24:43.528             0.000             0.000
       278   11 Jun 2027 07:25:15.148   11 Jun 2027 07:25:20.871             5.723          2861.500
       279   11 Jun 2027 07:25:52.772   11 Jun 2027 07:25:58.618             5.846          2883.250
       280   11 Jun 2027 08:57:53.308   11 Jun 2027 08:58:24.155            30.847         13003.313
       281   11 Jun 2027 08:59:33.590   11 Jun 2027 08:59:38.048             4.458          2169.844
       282   11 Jun 2027 08:59:56.767   11 Jun 2027 08:59:58.883             2.116           381.187
       283   11 Jun 2027 09:00:29.417   11 Jun 2027 09:00:32.682             3.265           919.812
       284   11 Jun 2027 09:00:52.985   11 Jun 2027 09:00:53.781             0.796            79.156
       285   11 Jun 2027 09:01:00.315   11 Jun 2027 09:01:02.207             1.892           204.188
       286   11 Jun 2027 09:01:03.479   11 Jun 2027 09:01:04.960             1.481            39.750
       287   11 Jun 2027 09:01:41.295   11 Jun 2027 09:01:42.731             1.436           678.094
       288   11 Jun 2027 10:31:04.420   11 Jun 2027 10:31:27.263            22.843          7504.813
       289   11 Jun 2027 10:32:29.105   11 Jun 2027 10:32:31.958             2.853           869.313
       290   11 Jun 2027 10:32:54.509   11 Jun 2027 10:32:58.520             4.011           704.719
       291   11 Jun 2027 10:33:04.514   11 Jun 2027 10:33:07.223             2.709           144.125
       292   11 Jun 2027 10:33:24.391   11 Jun 2027 10:33:24.391             0.000             0.000
       293   11 Jun 2027 10:33:33.124   11 Jun 2027 10:33:36.480             3.356           785.406
       294   11 Jun 2027 10:34:26.176   11 Jun 2027 10:34:29.132             2.956          1092.687
       295   11 Jun 2027 10:34:33.015   11 Jun 2027 10:34:33.015             0.000             0.000
       296   11 Jun 2027 10:35:22.368   11 Jun 2027 10:35:26.045             3.677          1657.281
       297   11 Jun 2027 10:37:05.725   11 Jun 2027 10:37:14.741             9.016          2920.125
       298   11 Jun 2027 10:38:13.983   11 Jun 2027 10:38:17.248             3.265          1508.156
       299   11 Jun 2027 10:38:36.064   11 Jun 2027 10:38:37.188             1.124           503.031
       300   11 Jun 2027 10:38:58.930   11 Jun 2027 10:38:59.151             0.221           110.500
       301   12 Jun 2027 04:17:47.182   12 Jun 2027 04:19:11.831            84.649         42324.500
       302   12 Jun 2027 04:20:50.243   12 Jun 2027 04:20:50.243             0.000             0.000
       303   12 Jun 2027 04:23:09.379   12 Jun 2027 04:23:18.110             8.731          4365.500
       304   12 Jun 2027 04:24:26.600   12 Jun 2027 04:24:38.125            11.525          5762.500
       305   12 Jun 2027 04:25:44.097   12 Jun 2027 04:25:46.392             2.295          1147.500
       306   12 Jun 2027 05:55:03.200   12 Jun 2027 05:57:17.198           133.998         66999.000
       307   12 Jun 2027 05:57:44.852   12 Jun 2027 05:57:53.799             8.947          4473.500
       308   12 Jun 2027 05:58:42.487   12 Jun 2027 05:58:45.619             3.132          1566.000
       309   12 Jun 2027 06:00:38.564   12 Jun 2027 06:00:51.356            12.792          6396.000
       310   12 Jun 2027 06:02:12.076   12 Jun 2027 06:02:16.133             4.057          2028.500
       311   12 Jun 2027 07:31:56.765   12 Jun 2027 07:34:00.302           123.537         61768.500
       312   12 Jun 2027 07:35:35.712   12 Jun 2027 07:35:47.721            12.009          5716.156
       313   12 Jun 2027 07:36:44.471   12 Jun 2027 07:36:45.364             0.893           446.500
       314   12 Jun 2027 07:37:02.463   12 Jun 2027 07:37:02.463             0.000             0.000
       315   12 Jun 2027 09:09:52.986   12 Jun 2027 09:10:18.176            25.190         12061.500
       316   12 Jun 2027 09:10:48.471   12 Jun 2027 09:10:48.599             0.128            64.000
       317   12 Jun 2027 09:10:49.540   12 Jun 2027 09:10:52.199             2.659           912.125
       318   12 Jun 2027 09:11:39.944   12 Jun 2027 09:11:47.294             7.350           773.719
       319   12 Jun 2027 09:12:14.048   12 Jun 2027 09:12:16.177             2.129           492.563
       320   12 Jun 2027 09:12:41.559   12 Jun 2027 09:12:42.780             1.221             8.594
       321   12 Jun 2027 09:13:08.441   12 Jun 2027 09:13:10.368             1.927           730.312
       322   12 Jun 2027 09:13:45.393   12 Jun 2027 09:13:47.845             2.452          1094.531
       323   12 Jun 2027 10:43:27.754   12 Jun 2027 10:43:31.329             3.575          1664.656
       324   12 Jun 2027 10:43:54.396   12 Jun 2027 10:43:54.606             0.210            24.781
       325   12 Jun 2027 10:44:31.833   12 Jun 2027 10:44:33.738             1.905           479.281
       326   12 Jun 2027 10:45:17.327   12 Jun 2027 10:45:27.105             9.778          1066.062
       327   12 Jun 2027 10:45:32.325   12 Jun 2027 10:45:34.289             1.964           163.125
       328   12 Jun 2027 10:46:15.367   12 Jun 2027 10:46:17.153             1.786           489.625
       329   12 Jun 2027 10:47:08.592   12 Jun 2027 10:47:13.550             4.958          1607.469
       330   12 Jun 2027 10:47:34.877   12 Jun 2027 10:47:34.877             0.000             0.000
       331   12 Jun 2027 10:47:42.506   12 Jun 2027 10:47:47.802             5.296           587.875
       332   12 Jun 2027 10:48:32.663   12 Jun 2027 10:48:36.184             3.521           986.219
       333   12 Jun 2027 10:49:21.228   12 Jun 2027 10:49:28.142             6.914          1407.625
       334   12 Jun 2027 10:50:36.372   12 Jun 2027 10:50:39.931             3.559           800.250
       335   13 Jun 2027 04:29:16.354   13 Jun 2027 04:29:43.882            27.528         13764.000
       336   13 Jun 2027 04:30:35.206   13 Jun 2027 04:31:42.263            67.057         33528.500
       337   13 Jun 2027 04:34:41.251   13 Jun 2027 04:34:48.036             6.785          3392.500
       338   13 Jun 2027 04:36:25.548   13 Jun 2027 04:36:28.226             2.678          1339.000
       339   13 Jun 2027 04:37:47.537   13 Jun 2027 04:38:14.469            26.932         13466.000
       340   13 Jun 2027 06:07:03.057   13 Jun 2027 06:08:29.731            86.674         43337.000
       341   13 Jun 2027 06:08:40.907   13 Jun 2027 06:08:54.485            13.578          6789.000
       342   13 Jun 2027 06:09:13.569   13 Jun 2027 06:09:20.240             6.671          3335.500
       343   13 Jun 2027 06:10:04.106   13 Jun 2027 06:10:27.752            23.646         11823.000
       344   13 Jun 2027 07:43:48.148   13 Jun 2027 07:45:41.380           113.232         56616.000
       345   13 Jun 2027 07:46:47.565   13 Jun 2027 07:46:55.667             8.102          4051.000
       346   13 Jun 2027 07:47:14.636   13 Jun 2027 07:47:22.327             7.691          2100.437
       347   13 Jun 2027 07:47:39.104   13 Jun 2027 07:47:41.978             2.874           391.156
       348   13 Jun 2027 07:48:09.920   13 Jun 2027 07:48:11.667             1.747           871.844
       349   13 Jun 2027 07:49:01.744   13 Jun 2027 07:49:05.064             3.320          1483.219
       350   13 Jun 2027 09:21:53.757   13 Jun 2027 09:22:15.478            21.721         10754.656
       351   13 Jun 2027 09:22:35.864   13 Jun 2027 09:22:37.791             1.927           573.687
       352   13 Jun 2027 09:23:33.196   13 Jun 2027 09:23:48.988            15.792          1731.406
       353   13 Jun 2027 09:24:48.859   13 Jun 2027 09:24:53.581             4.722          1590.656
       354   13 Jun 2027 09:25:54.154   13 Jun 2027 09:25:59.399             5.245          1892.906
       355   13 Jun 2027 10:55:44.927   13 Jun 2027 10:55:52.885             7.958          3497.969
       356   13 Jun 2027 10:56:22.250   13 Jun 2027 10:56:24.420             2.170           814.094
       357   13 Jun 2027 10:57:11.024   13 Jun 2027 10:57:12.561             1.537           768.500
       358   13 Jun 2027 10:57:48.548   13 Jun 2027 10:57:53.867             5.319          1590.719
       359   13 Jun 2027 10:58:14.093   13 Jun 2027 10:58:14.093             0.000             0.000
       360   13 Jun 2027 10:58:24.335   13 Jun 2027 10:58:29.332             4.997           787.687
       361   13 Jun 2027 10:58:47.610   13 Jun 2027 10:58:51.389             3.779           432.562
       362   13 Jun 2027 11:00:18.038   13 Jun 2027 11:00:23.770             5.732          1907.594
       363   13 Jun 2027 11:00:29.735   13 Jun 2027 11:00:30.110             0.375           186.406
       364   13 Jun 2027 11:01:41.059   13 Jun 2027 11:01:53.155            12.096          2121.156
