uniorb/output/strategy_1/Camera/Camera_KinoSat_111910.txt

KinoSat_111910
-------------------------
    Access    *     Start Time (UTCG)     *     Stop Time (UTCG)  *   Duration (s) *   Data (Mbytes)
         1   01 Jun 2027 03:49:21.768   01 Jun 2027 03:51:51.240           149.472         74736.000
         2   01 Jun 2027 03:53:15.320   01 Jun 2027 03:53:21.835             6.515          3257.500
         3   01 Jun 2027 05:28:19.682   01 Jun 2027 05:30:18.874           119.192         59596.000
         4   01 Jun 2027 05:32:45.712   01 Jun 2027 05:32:51.675             5.963          2981.500
         5   01 Jun 2027 05:33:53.174   01 Jun 2027 05:34:02.039             8.865          4432.500
         6   01 Jun 2027 05:35:07.545   01 Jun 2027 05:35:43.927            36.382         18191.000
         7   01 Jun 2027 06:53:35.976   01 Jun 2027 06:54:38.629            62.653         31326.500
         8   01 Jun 2027 07:05:03.514   01 Jun 2027 07:05:42.894            39.380         19690.000
         9   01 Jun 2027 08:27:42.295   01 Jun 2027 08:28:41.332            59.037         29518.500
        10   01 Jun 2027 08:29:18.047   01 Jun 2027 08:29:54.116            36.069         18034.500
        11   01 Jun 2027 10:03:02.251   01 Jun 2027 10:03:45.249            42.998         21499.000
        12   01 Jun 2027 10:04:37.858   01 Jun 2027 10:05:04.447            26.589         13294.500
        13   01 Jun 2027 10:06:32.615   01 Jun 2027 10:07:05.267            32.652         16326.000
        14   01 Jun 2027 10:07:22.978   01 Jun 2027 10:07:24.172             1.194           597.000
        15   01 Jun 2027 10:08:19.964   01 Jun 2027 10:08:33.945            13.981          6990.500
        16   01 Jun 2027 11:44:19.651   01 Jun 2027 11:46:01.903           102.252         51126.000
        17   01 Jun 2027 11:46:15.438   01 Jun 2027 11:47:01.724            46.286         23143.000
        18   02 Jun 2027 04:01:30.652   02 Jun 2027 04:03:02.410            91.758         45879.000
        19   02 Jun 2027 04:03:05.022   02 Jun 2027 04:03:16.731            11.709          5854.500
        20   02 Jun 2027 04:03:31.618   02 Jun 2027 04:03:35.448             3.830          1915.000
        21   02 Jun 2027 04:04:04.562   02 Jun 2027 04:04:39.575            35.013         17506.500
        22   02 Jun 2027 05:40:35.596   02 Jun 2027 05:42:10.829            95.233         47616.500
        23   02 Jun 2027 05:43:53.981   02 Jun 2027 05:43:58.868             4.887          2443.500
        24   02 Jun 2027 05:44:36.415   02 Jun 2027 05:45:04.386            27.971         13985.500
        25   02 Jun 2027 05:47:23.480   02 Jun 2027 05:47:39.422            15.942          7971.000
        26   02 Jun 2027 07:04:50.283   02 Jun 2027 07:06:28.366            98.083         49041.500
        27   02 Jun 2027 07:17:02.653   02 Jun 2027 07:17:35.626            32.973         16486.500
        28   02 Jun 2027 08:39:18.436   02 Jun 2027 08:40:18.037            59.601         29800.500
        29   02 Jun 2027 08:41:14.197   02 Jun 2027 08:41:41.714            27.517         13758.500
        30   02 Jun 2027 08:43:17.876   02 Jun 2027 08:43:48.485            30.609         15304.500
        31   02 Jun 2027 10:14:11.728   02 Jun 2027 10:15:19.330            67.602         33801.000
        32   02 Jun 2027 11:57:57.056   02 Jun 2027 11:59:06.225            69.169         34584.500
        33   03 Jun 2027 04:13:56.920   03 Jun 2027 04:14:10.302            13.382          6691.000
        34   03 Jun 2027 04:14:23.806   03 Jun 2027 04:15:29.940            66.134         33067.000
        35   03 Jun 2027 04:19:08.700   03 Jun 2027 04:19:10.628             1.928           964.000
        36   03 Jun 2027 05:52:41.613   03 Jun 2027 05:54:44.489           122.876         61438.000
        37   03 Jun 2027 05:55:47.079   03 Jun 2027 05:55:57.967            10.888          5444.000
        38   03 Jun 2027 05:58:12.652   03 Jun 2027 05:58:17.470             4.818          2409.000
        39   03 Jun 2027 07:16:56.306   03 Jun 2027 07:18:50.087           113.781         56890.500
        40   03 Jun 2027 07:18:56.571   03 Jun 2027 07:18:58.427             1.856           928.000
        41   03 Jun 2027 07:29:24.965   03 Jun 2027 07:29:29.957             4.992          2496.000
        42   03 Jun 2027 08:50:47.631   03 Jun 2027 08:51:28.239            40.608         20304.000
        43   03 Jun 2027 08:52:47.989   03 Jun 2027 08:54:42.034           114.045         57022.500
        44   03 Jun 2027 10:25:42.159   03 Jun 2027 10:26:40.886            58.727         29363.500
        45   03 Jun 2027 10:27:59.689   03 Jun 2027 10:27:59.689             0.000             0.000
        46   03 Jun 2027 10:28:31.124   03 Jun 2027 10:29:04.595            33.471         16315.812
        47   03 Jun 2027 10:30:09.991   03 Jun 2027 10:30:15.930             5.939          2013.969
        48   03 Jun 2027 10:30:46.012   03 Jun 2027 10:30:48.114             2.102           646.688
        49   03 Jun 2027 10:31:45.705   03 Jun 2027 10:31:54.702             8.997          1693.594
        50   03 Jun 2027 10:32:42.989   03 Jun 2027 10:32:50.752             7.763          1508.969
        51   04 Jun 2027 04:26:34.308   04 Jun 2027 04:26:44.247             9.939          4969.500
        52   04 Jun 2027 04:26:56.340   04 Jun 2027 04:27:58.007            61.667         30833.500
        53   04 Jun 2027 04:28:03.231   04 Jun 2027 04:28:18.941            15.710          7855.000
        54   04 Jun 2027 04:28:27.717   04 Jun 2027 04:28:34.132             6.415          3207.500
        55   04 Jun 2027 04:30:38.671   04 Jun 2027 04:30:38.671             0.000             0.000
        56   04 Jun 2027 04:30:53.281   04 Jun 2027 04:31:07.802            14.521          7260.500
        57   04 Jun 2027 04:32:06.331   04 Jun 2027 04:32:10.973             4.642          2321.000
        58   04 Jun 2027 06:05:07.540   04 Jun 2027 06:06:55.314           107.774         53887.000
        59   04 Jun 2027 06:07:34.179   04 Jun 2027 06:07:47.321            13.142          6571.000
        60   04 Jun 2027 06:08:03.156   04 Jun 2027 06:08:07.988             4.832          2416.000
        61   04 Jun 2027 06:09:51.728   04 Jun 2027 06:10:00.328             8.600          4300.000
        62   04 Jun 2027 07:28:52.413   04 Jun 2027 07:30:37.003           104.590         52295.000
        63   04 Jun 2027 09:04:51.999   04 Jun 2027 09:05:44.933            52.934         25519.063
        64   04 Jun 2027 09:06:33.190   04 Jun 2027 09:06:42.478             9.288          1508.031
        65   04 Jun 2027 09:07:32.643   04 Jun 2027 09:07:35.669             3.026           606.937
        66   04 Jun 2027 09:07:38.353   04 Jun 2027 09:07:42.255             3.902            83.875
        67   04 Jun 2027 10:38:36.149   04 Jun 2027 10:38:43.091             6.942          3438.250
        68   04 Jun 2027 10:39:53.069   04 Jun 2027 10:39:56.889             3.820           816.000
        69   04 Jun 2027 10:41:16.682   04 Jun 2027 10:41:16.682             0.000             0.000
        70   04 Jun 2027 10:43:24.930   04 Jun 2027 10:43:25.302             0.372           186.000
        71   04 Jun 2027 10:45:42.464   04 Jun 2027 10:45:42.464             0.000             0.000
        72   04 Jun 2027 10:46:20.584   04 Jun 2027 10:46:46.160            25.576         10771.625
        73   05 Jun 2027 03:00:54.960   05 Jun 2027 03:01:06.052            11.092          5546.000
        74   05 Jun 2027 03:01:39.027   05 Jun 2027 03:01:50.082            11.055          5527.500
        75   05 Jun 2027 03:02:49.026   05 Jun 2027 03:03:03.400            14.374          7187.000
        76   05 Jun 2027 03:03:10.750   05 Jun 2027 03:03:18.591             7.841          3920.500
        77   05 Jun 2027 03:04:35.379   05 Jun 2027 03:04:59.558            24.179         12089.500
        78   05 Jun 2027 03:05:55.117   05 Jun 2027 03:06:10.375            15.258          7629.000
        79   05 Jun 2027 04:39:02.237   05 Jun 2027 04:39:30.695            28.458         14229.000
        80   05 Jun 2027 04:39:36.125   05 Jun 2027 04:40:29.347            53.222         26611.000
        81   05 Jun 2027 04:42:26.660   05 Jun 2027 04:42:31.365             4.705          2352.500
        82   05 Jun 2027 04:42:41.132   05 Jun 2027 04:42:48.894             7.762          3881.000
        83   05 Jun 2027 04:43:06.191   05 Jun 2027 04:43:22.593            16.402          8201.000
        84   05 Jun 2027 06:17:02.897   05 Jun 2027 06:18:30.195            87.298         43649.000
        85   05 Jun 2027 06:18:33.757   05 Jun 2027 06:18:43.777            10.020          5010.000
        86   05 Jun 2027 06:19:21.261   05 Jun 2027 06:19:22.521             1.260           630.000
        87   05 Jun 2027 06:19:47.754   05 Jun 2027 06:19:50.377             2.623          1311.500
        88   05 Jun 2027 06:21:16.408   05 Jun 2027 06:21:22.730             6.322          3161.000
        89   05 Jun 2027 07:40:44.008   05 Jun 2027 07:42:09.063            85.055         42527.500
        90   05 Jun 2027 09:17:06.716   05 Jun 2027 09:17:38.381            31.665         14304.437
        91   05 Jun 2027 10:51:11.520   05 Jun 2027 10:51:28.589            17.069          6820.750
        92   05 Jun 2027 10:52:54.249   05 Jun 2027 10:52:57.213             2.964           289.563
        93   05 Jun 2027 10:56:26.734   05 Jun 2027 10:56:39.580            12.846          6354.094
        94   05 Jun 2027 10:56:51.912   05 Jun 2027 10:56:54.813             2.901           135.719
        95   05 Jun 2027 10:57:27.682   05 Jun 2027 10:57:33.283             5.601           335.812
        96   05 Jun 2027 10:57:39.598   05 Jun 2027 10:57:42.170             2.572           197.344
        97   05 Jun 2027 10:58:55.179   05 Jun 2027 10:59:02.096             6.917          2011.500
        98   05 Jun 2027 10:59:07.401   05 Jun 2027 10:59:10.194             2.793           134.094
        99   06 Jun 2027 03:12:58.307   06 Jun 2027 03:13:39.784            41.477         20738.500
       100   06 Jun 2027 03:14:16.956   06 Jun 2027 03:14:50.827            33.871         16935.500
       101   06 Jun 2027 03:15:54.700   06 Jun 2027 03:16:04.706            10.006          5003.000
       102   06 Jun 2027 03:16:25.725   06 Jun 2027 03:16:25.725             0.000             0.000
       103   06 Jun 2027 03:16:49.749   06 Jun 2027 03:16:59.790            10.041          5020.500
       104   06 Jun 2027 03:17:50.986   06 Jun 2027 03:18:04.155            13.169          6584.500
       105   06 Jun 2027 03:19:33.374   06 Jun 2027 03:19:46.678            13.304          6652.000
       106   06 Jun 2027 04:51:08.418   06 Jun 2027 04:52:12.061            63.643         31821.500
       107   06 Jun 2027 04:52:18.989   06 Jun 2027 04:52:37.155            18.166          9083.000
       108   06 Jun 2027 04:53:06.956   06 Jun 2027 04:53:13.592             6.636          3318.000
       109   06 Jun 2027 04:54:02.180   06 Jun 2027 04:54:03.586             1.406           703.000
       110   06 Jun 2027 04:54:13.959   06 Jun 2027 04:54:29.659            15.700          7850.000
       111   06 Jun 2027 04:55:20.961   06 Jun 2027 04:55:32.165            11.204          5602.000
       112   06 Jun 2027 06:30:16.696   06 Jun 2027 06:31:47.253            90.557         45278.500
       113   06 Jun 2027 06:32:15.468   06 Jun 2027 06:32:15.468             0.000             0.000
       114   06 Jun 2027 07:52:48.568   06 Jun 2027 07:53:48.631            60.063         28573.250
       115   06 Jun 2027 07:54:25.853   06 Jun 2027 07:54:29.391             3.538          1163.188
       116   06 Jun 2027 09:29:17.567   06 Jun 2027 09:29:34.643            17.076          6282.594
       117   06 Jun 2027 09:29:46.514   06 Jun 2027 09:29:46.514             0.000             0.000
       118   06 Jun 2027 09:30:30.756   06 Jun 2027 09:30:34.764             4.008          1715.906
       119   06 Jun 2027 09:31:37.389   06 Jun 2027 09:31:44.672             7.283          1059.750
       120   06 Jun 2027 09:31:54.172   06 Jun 2027 09:31:54.172             0.000             0.000
       121   06 Jun 2027 11:05:01.194   06 Jun 2027 11:05:01.194             0.000             0.000
       122   06 Jun 2027 11:05:24.524   06 Jun 2027 11:05:44.588            20.064         10032.000
       123   06 Jun 2027 11:07:21.913   06 Jun 2027 11:07:32.480            10.567          4509.969
       124   06 Jun 2027 11:08:08.569   06 Jun 2027 11:08:10.876             2.307          1087.313
       125   06 Jun 2027 11:10:53.891   06 Jun 2027 11:10:53.891             0.000             0.000
       126   06 Jun 2027 11:11:02.134   06 Jun 2027 11:11:10.015             7.881          3940.500
       127   07 Jun 2027 03:24:56.675   07 Jun 2027 03:26:44.142           107.467         53733.500
       128   07 Jun 2027 03:26:56.058   07 Jun 2027 03:27:07.573            11.515          5757.500
       129   07 Jun 2027 03:29:21.976   07 Jun 2027 03:29:27.018             5.042          2521.000
       130   07 Jun 2027 05:03:12.166   07 Jun 2027 05:03:53.176            41.010         20505.000
       131   07 Jun 2027 05:04:16.507   07 Jun 2027 05:05:11.311            54.804         27402.000
       132   07 Jun 2027 05:05:26.210   07 Jun 2027 05:05:35.818             9.608          4804.000
       133   07 Jun 2027 05:08:09.533   07 Jun 2027 05:08:12.730             3.197          1598.500
       134   07 Jun 2027 06:41:24.408   07 Jun 2027 06:42:02.144            37.736         18868.000
       135   07 Jun 2027 06:42:15.879   07 Jun 2027 06:43:18.077            62.198         31099.000
       136   07 Jun 2027 08:04:53.288   07 Jun 2027 08:05:44.785            51.497         24187.687
       137   07 Jun 2027 08:06:54.407   07 Jun 2027 08:06:54.407             0.000             0.000
       138   07 Jun 2027 08:07:47.433   07 Jun 2027 08:07:53.385             5.952          2976.000
       139   07 Jun 2027 08:07:57.407   07 Jun 2027 08:07:58.079             0.672           162.250
       140   07 Jun 2027 09:41:22.207   07 Jun 2027 09:41:36.750            14.543          6429.250
       141   07 Jun 2027 11:16:32.584   07 Jun 2027 11:16:49.034            16.450          8225.000
       142   07 Jun 2027 11:21:05.476   07 Jun 2027 11:21:05.476             0.000             0.000
       143   07 Jun 2027 11:22:37.539   07 Jun 2027 11:23:05.749            28.210         14105.000
       144   08 Jun 2027 03:36:59.322   08 Jun 2027 03:38:47.482           108.160         54080.000
       145   08 Jun 2027 03:38:56.246   08 Jun 2027 03:39:23.051            26.805         13402.500
       146   08 Jun 2027 03:39:48.821   08 Jun 2027 03:40:04.185            15.364          7682.000
       147   08 Jun 2027 03:41:19.791   08 Jun 2027 03:41:19.791             0.000             0.000
       148   08 Jun 2027 03:41:52.807   08 Jun 2027 03:41:53.337             0.530           265.000
       149   08 Jun 2027 03:43:34.495   08 Jun 2027 03:43:44.546            10.051          5025.500
       150   08 Jun 2027 03:44:00.178   08 Jun 2027 03:44:00.725             0.547           273.500
       151   08 Jun 2027 05:16:16.950   08 Jun 2027 05:17:39.079            82.129         41064.500
       152   08 Jun 2027 05:20:41.610   08 Jun 2027 05:20:43.336             1.726           863.000
       153   08 Jun 2027 05:22:28.453   08 Jun 2027 05:22:39.436            10.983          5491.500
       154   08 Jun 2027 05:23:02.421   08 Jun 2027 05:23:03.314             0.893           446.500
       155   08 Jun 2027 06:42:33.528   08 Jun 2027 06:42:49.470            15.942          7971.000
       156   08 Jun 2027 06:53:21.585   08 Jun 2027 06:54:41.579            79.994         39997.000
       157   08 Jun 2027 06:56:35.061   08 Jun 2027 06:56:44.355             9.294          4647.000
       158   08 Jun 2027 06:56:49.464   08 Jun 2027 06:56:51.374             1.910           955.000
       159   08 Jun 2027 08:17:20.315   08 Jun 2027 08:17:54.927            34.612         17306.000
       160   08 Jun 2027 08:19:35.798   08 Jun 2027 08:19:43.460             7.662          3383.750
       161   08 Jun 2027 09:53:06.695   08 Jun 2027 09:53:20.655            13.960          6254.875
       162   08 Jun 2027 09:54:31.924   08 Jun 2027 09:54:38.291             6.367          2208.594
       163   08 Jun 2027 09:55:40.958   08 Jun 2027 09:55:45.728             4.770          1716.000
       164   08 Jun 2027 11:30:18.265   08 Jun 2027 11:30:36.835            18.570          9285.000
       165   08 Jun 2027 11:34:25.605   08 Jun 2027 11:34:53.275            27.670         13594.406
       166   08 Jun 2027 11:35:12.613   08 Jun 2027 11:35:14.899             2.286           565.937
       167   09 Jun 2027 03:49:39.778   09 Jun 2027 03:51:58.882           139.104         69552.000
       168   09 Jun 2027 03:53:08.670   09 Jun 2027 03:53:30.145            21.475         10737.500
       169   09 Jun 2027 05:28:38.346   09 Jun 2027 05:30:17.787            99.441         49720.500
       170   09 Jun 2027 05:32:51.405   09 Jun 2027 05:32:52.172             0.767           383.500
       171   09 Jun 2027 05:33:27.284   09 Jun 2027 05:33:36.129             8.845          4422.500
       172   09 Jun 2027 05:35:28.208   09 Jun 2027 05:35:58.911            30.703         15351.500
       173   09 Jun 2027 06:53:49.155   09 Jun 2027 06:55:07.550            78.395         39197.500
       174   09 Jun 2027 07:05:22.495   09 Jun 2027 07:05:51.866            29.371         14493.375
       175   09 Jun 2027 08:27:58.995   09 Jun 2027 08:28:27.404            28.409         12813.562
       176   09 Jun 2027 08:29:35.396   09 Jun 2027 08:29:38.474             3.078          1050.031
       177   09 Jun 2027 08:30:26.928   09 Jun 2027 08:30:34.156             7.228           927.344
       178   09 Jun 2027 10:07:33.578   09 Jun 2027 10:07:43.259             9.681          4840.500
       179   09 Jun 2027 10:08:48.307   09 Jun 2027 10:09:09.883            21.576         10650.219
       180   09 Jun 2027 11:46:31.710   09 Jun 2027 11:47:16.973            45.263         19803.906
       181   10 Jun 2027 04:01:55.784   10 Jun 2027 04:03:59.836           124.052         62026.000
       182   10 Jun 2027 04:04:41.973   10 Jun 2027 04:04:56.644            14.671          7335.500
       183   10 Jun 2027 04:07:01.214   10 Jun 2027 04:07:01.651             0.437           218.500
       184   10 Jun 2027 04:07:38.773   10 Jun 2027 04:07:39.740             0.967           483.500
       185   10 Jun 2027 05:40:55.020   10 Jun 2027 05:42:59.774           124.754         62377.000
       186   10 Jun 2027 05:44:15.438   10 Jun 2027 05:44:15.438             0.000             0.000
       187   10 Jun 2027 05:46:04.389   10 Jun 2027 05:46:16.875            12.486          6243.000
       188   10 Jun 2027 05:47:42.326   10 Jun 2027 05:47:56.026            13.700          6850.000
       189   10 Jun 2027 07:05:06.828   10 Jun 2027 07:06:39.836            93.008         45804.843
       190   10 Jun 2027 07:17:19.978   10 Jun 2027 07:17:33.229            13.251          6444.125
       191   10 Jun 2027 08:39:34.612   10 Jun 2027 08:39:59.707            25.095         12309.406
       192   10 Jun 2027 08:40:32.027   10 Jun 2027 08:40:32.027             0.000             0.000
       193   10 Jun 2027 08:40:37.477   10 Jun 2027 08:40:40.751             3.274          1180.312
       194   10 Jun 2027 08:42:10.989   10 Jun 2027 08:42:19.071             8.082          2153.188
       195   10 Jun 2027 08:43:34.352   10 Jun 2027 08:43:38.771             4.419          1938.406
       196   10 Jun 2027 08:44:07.808   10 Jun 2027 08:44:12.188             4.380           873.094
       197   10 Jun 2027 08:44:29.404   10 Jun 2027 08:44:30.609             1.205            12.250
       198   10 Jun 2027 10:15:09.132   10 Jun 2027 10:15:23.727            14.595          6088.188
       199   10 Jun 2027 11:58:12.706   10 Jun 2027 11:59:11.368            58.662         26848.063
       200   11 Jun 2027 04:14:15.097   11 Jun 2027 04:14:28.175            13.078          6539.000
       201   11 Jun 2027 04:14:42.487   11 Jun 2027 04:15:05.085            22.598         11299.000
       202   11 Jun 2027 04:15:24.222   11 Jun 2027 04:15:46.639            22.417         11208.500
       203   11 Jun 2027 04:17:39.591   11 Jun 2027 04:18:13.381            33.790         16895.000
       204   11 Jun 2027 04:18:38.668   11 Jun 2027 04:18:58.246            19.578          9789.000
       205   11 Jun 2027 05:53:01.856   11 Jun 2027 05:54:58.714           116.858         58429.000
       206   11 Jun 2027 05:55:48.298   11 Jun 2027 05:56:00.531            12.233          6116.500
       207   11 Jun 2027 05:57:24.470   11 Jun 2027 05:57:51.704            27.234         13617.000
       208   11 Jun 2027 07:17:12.959   11 Jun 2027 07:18:49.667            96.708         48301.531
       209   11 Jun 2027 07:29:45.309   11 Jun 2027 07:29:46.557             1.248           624.000
       210   11 Jun 2027 08:51:03.332   11 Jun 2027 08:51:38.822            35.490         16393.563
       211   11 Jun 2027 08:53:06.540   11 Jun 2027 08:53:07.895             1.355           677.500
       212   11 Jun 2027 08:53:29.723   11 Jun 2027 08:53:34.899             5.176          2470.812
       213   11 Jun 2027 08:55:32.455   11 Jun 2027 08:55:40.466             8.011          2855.750
       214   11 Jun 2027 08:56:13.465   11 Jun 2027 08:56:16.446             2.981           792.344
       215   11 Jun 2027 08:56:58.856   11 Jun 2027 08:57:00.159             1.303           651.500
       216   11 Jun 2027 10:25:57.611   11 Jun 2027 10:25:58.376             0.765           382.500
       217   11 Jun 2027 10:26:56.747   11 Jun 2027 10:27:14.668            17.921          6792.125
       218   11 Jun 2027 10:29:20.651   11 Jun 2027 10:29:26.892             6.241          2416.750
       219   11 Jun 2027 10:29:43.214   11 Jun 2027 10:29:43.593             0.379           145.563
       220   11 Jun 2027 10:33:38.419   11 Jun 2027 10:33:38.419             0.000             0.000
       221   11 Jun 2027 10:34:57.767   11 Jun 2027 10:35:15.681            17.914          8957.000
       222   12 Jun 2027 04:26:52.963   12 Jun 2027 04:26:59.970             7.007          3503.500
       223   12 Jun 2027 04:27:14.376   12 Jun 2027 04:28:15.552            61.176         30588.000
       224   12 Jun 2027 04:28:20.407   12 Jun 2027 04:28:49.333            28.926         14463.000
       225   12 Jun 2027 04:28:58.372   12 Jun 2027 04:28:58.372             0.000             0.000
       226   12 Jun 2027 04:29:32.217   12 Jun 2027 04:29:46.756            14.539          7269.500
       227   12 Jun 2027 04:29:57.925   12 Jun 2027 04:30:12.399            14.474          7237.000
       228   12 Jun 2027 04:30:40.009   12 Jun 2027 04:30:41.754             1.745           872.500
       229   12 Jun 2027 06:05:39.235   12 Jun 2027 06:07:43.666           124.431         62215.500
       230   12 Jun 2027 06:08:45.094   12 Jun 2027 06:08:58.728            13.634          6817.000
       231   12 Jun 2027 07:29:09.259   12 Jun 2027 07:30:34.848            85.589         42794.500
       232   12 Jun 2027 09:05:22.473   12 Jun 2027 09:06:02.466            39.993         19592.595
       233   12 Jun 2027 09:07:29.568   12 Jun 2027 09:07:35.266             5.698          2721.938
       234   12 Jun 2027 09:08:27.448   12 Jun 2027 09:08:31.253             3.805          1145.219
       235   12 Jun 2027 10:40:49.666   12 Jun 2027 10:41:05.114            15.448          7724.000
       236   12 Jun 2027 10:41:22.084   12 Jun 2027 10:41:22.084             0.000             0.000
       237   12 Jun 2027 10:43:42.759   12 Jun 2027 10:43:54.606            11.847          5851.250
       238   12 Jun 2027 10:44:22.122   12 Jun 2027 10:44:26.299             4.177           599.687
       239   12 Jun 2027 10:44:44.919   12 Jun 2027 10:44:48.837             3.918           581.875
       240   12 Jun 2027 10:45:58.964   12 Jun 2027 10:46:06.512             7.548          2105.531
       241   12 Jun 2027 10:46:10.724   12 Jun 2027 10:46:14.289             3.565           123.563
       242   12 Jun 2027 10:46:33.591   12 Jun 2027 10:46:35.757             2.166           401.969
       243   12 Jun 2027 10:47:02.650   12 Jun 2027 10:47:05.116             2.466           520.125
       244   13 Jun 2027 03:01:12.858   13 Jun 2027 03:01:22.739             9.881          4940.500
       245   13 Jun 2027 03:01:49.982   13 Jun 2027 03:01:53.560             3.578          1789.000
       246   13 Jun 2027 03:03:03.954   13 Jun 2027 03:03:23.398            19.444          9722.000
       247   13 Jun 2027 03:03:26.419   13 Jun 2027 03:03:35.803             9.384          4692.000
       248   13 Jun 2027 03:04:49.908   13 Jun 2027 03:05:02.166            12.258          6129.000
       249   13 Jun 2027 03:05:13.909   13 Jun 2027 03:05:14.907             0.998           499.000
       250   13 Jun 2027 03:05:51.651   13 Jun 2027 03:06:10.386            18.735          9367.500
       251   13 Jun 2027 04:39:19.534   13 Jun 2027 04:39:46.989            27.455         13727.500
       252   13 Jun 2027 04:39:50.797   13 Jun 2027 04:40:43.754            52.957         26478.500
       253   13 Jun 2027 04:40:44.645   13 Jun 2027 04:40:49.421             4.776          2388.000
       254   13 Jun 2027 04:40:59.809   13 Jun 2027 04:40:59.809             0.000             0.000
       255   13 Jun 2027 04:41:09.776   13 Jun 2027 04:41:17.717             7.941          3970.500
       256   13 Jun 2027 04:43:46.811   13 Jun 2027 04:43:48.734             1.923           961.500
       257   13 Jun 2027 04:44:52.901   13 Jun 2027 04:44:58.544             5.643          2821.500
       258   13 Jun 2027 04:45:03.905   13 Jun 2027 04:45:09.955             6.050          3025.000
       259   13 Jun 2027 06:17:20.432   13 Jun 2027 06:19:05.582           105.150         52575.000
       260   13 Jun 2027 06:19:35.738   13 Jun 2027 06:19:57.282            21.544         10772.000
       261   13 Jun 2027 07:41:01.322   13 Jun 2027 07:42:37.150            95.828         47470.594
       262   13 Jun 2027 09:17:27.938   13 Jun 2027 09:17:51.492            23.554         11777.000
       263   13 Jun 2027 09:20:08.372   13 Jun 2027 09:20:15.717             7.345          3672.500
       264   13 Jun 2027 09:20:38.734   13 Jun 2027 09:20:47.201             8.467          4061.719
       265   13 Jun 2027 09:20:53.396   13 Jun 2027 09:20:56.384             2.988           190.875
       266   13 Jun 2027 10:49:39.159   13 Jun 2027 10:49:45.478             6.319          3159.500
       267   13 Jun 2027 10:53:24.763   13 Jun 2027 10:53:26.883             2.120          1060.000
       268   13 Jun 2027 10:54:55.090   13 Jun 2027 10:54:58.398             3.308          1654.000
       269   13 Jun 2027 10:57:54.343   13 Jun 2027 10:58:16.236            21.893         10946.500
       270   13 Jun 2027 10:59:16.448   13 Jun 2027 10:59:25.145             8.697          4293.500
