uniorb/output/strategy_1/Camera/Camera_KinoSat_110706.txt

KinoSat_110706
-------------------------
    Access    *     Start Time (UTCG)     *     Stop Time (UTCG)  *   Duration (s) *   Data (Mbytes)
         1   01 Jun 2027 03:28:08.436   01 Jun 2027 03:29:14.981            66.545         33272.500
         2   01 Jun 2027 03:30:10.922   01 Jun 2027 03:30:18.438             7.516          3758.000
         3   01 Jun 2027 03:31:20.347   01 Jun 2027 03:31:37.272            16.925          8462.500
         4   01 Jun 2027 03:33:15.128   01 Jun 2027 03:33:43.057            27.929         13964.500
         5   01 Jun 2027 05:02:56.949   01 Jun 2027 05:04:42.515           105.566         52783.000
         6   01 Jun 2027 05:05:42.725   01 Jun 2027 05:05:51.139             8.414          4207.000
         7   01 Jun 2027 05:06:30.088   01 Jun 2027 05:06:30.088             0.000             0.000
         8   01 Jun 2027 05:09:30.696   01 Jun 2027 05:09:30.696             0.000             0.000
         9   01 Jun 2027 05:09:42.649   01 Jun 2027 05:09:50.519             7.870          3935.000
        10   01 Jun 2027 05:11:41.962   01 Jun 2027 05:11:52.678            10.716          5358.000
        11   01 Jun 2027 06:40:45.344   01 Jun 2027 06:42:21.336            95.992         47996.000
        12   01 Jun 2027 06:42:56.064   01 Jun 2027 06:43:16.036            19.972          9986.000
        13   01 Jun 2027 06:44:40.665   01 Jun 2027 06:44:43.313             2.648          1324.000
        14   01 Jun 2027 06:47:32.137   01 Jun 2027 06:47:33.925             1.788           894.000
        15   01 Jun 2027 06:48:07.074   01 Jun 2027 06:48:10.980             3.906          1953.000
        16   01 Jun 2027 08:17:29.929   01 Jun 2027 08:19:54.138           144.209         72104.500
        17   01 Jun 2027 08:23:07.206   01 Jun 2027 08:23:07.982             0.776           388.000
        18   01 Jun 2027 08:24:12.412   01 Jun 2027 08:24:15.714             3.302          1651.000
        19   01 Jun 2027 09:55:37.007   01 Jun 2027 09:57:34.429           117.422         58711.000
        20   01 Jun 2027 09:59:06.726   01 Jun 2027 09:59:11.580             4.854          2427.000
        21   01 Jun 2027 09:59:37.868   01 Jun 2027 09:59:44.836             6.968          3484.000
        22   01 Jun 2027 11:29:28.122   01 Jun 2027 11:31:21.772           113.650         56825.000
        23   01 Jun 2027 11:32:10.224   01 Jun 2027 11:32:15.004             4.780          2390.000
        24   01 Jun 2027 11:33:42.250   01 Jun 2027 11:33:54.022            11.772          5886.000
        25   02 Jun 2027 03:41:54.260   02 Jun 2027 03:42:02.808             8.548          4274.000
        26   02 Jun 2027 03:43:14.467   02 Jun 2027 03:43:39.571            25.104         12552.000
        27   02 Jun 2027 03:45:43.298   02 Jun 2027 03:45:50.476             7.178          3589.000
        28   02 Jun 2027 05:15:45.075   02 Jun 2027 05:18:09.867           144.792         72396.000
        29   02 Jun 2027 05:20:10.389   02 Jun 2027 05:20:10.389             0.000             0.000
        30   02 Jun 2027 05:20:28.781   02 Jun 2027 05:20:32.938             4.157          2078.500
        31   02 Jun 2027 05:21:24.801   02 Jun 2027 05:21:45.737            20.936         10468.000
        32   02 Jun 2027 05:22:07.311   02 Jun 2027 05:22:15.893             8.582          4291.000
        33   02 Jun 2027 05:23:30.558   02 Jun 2027 05:23:36.881             6.323          3161.500
        34   02 Jun 2027 06:52:51.737   02 Jun 2027 06:54:43.921           112.184         56092.000
        35   02 Jun 2027 06:56:19.138   02 Jun 2027 06:56:23.697             4.559          2279.500
        36   02 Jun 2027 06:56:47.677   02 Jun 2027 06:56:51.394             3.717          1858.500
        37   02 Jun 2027 06:57:30.329   02 Jun 2027 06:57:30.329             0.000             0.000
        38   02 Jun 2027 06:57:42.008   02 Jun 2027 06:57:50.095             8.087          4043.500
        39   02 Jun 2027 06:57:57.709   02 Jun 2027 06:58:00.265             2.556          1278.000
        40   02 Jun 2027 06:58:05.641   02 Jun 2027 06:58:07.774             2.133          1066.500
        41   02 Jun 2027 08:29:53.725   02 Jun 2027 08:31:39.326           105.601         52800.500
        42   02 Jun 2027 08:32:34.640   02 Jun 2027 08:33:24.837            50.197         25098.500
        43   02 Jun 2027 08:35:24.305   02 Jun 2027 08:35:32.840             8.535          4267.500
        44   02 Jun 2027 10:06:50.919   02 Jun 2027 10:08:51.463           120.544         60272.000
        45   02 Jun 2027 10:09:05.976   02 Jun 2027 10:09:11.469             5.493          2746.500
        46   02 Jun 2027 10:09:38.460   02 Jun 2027 10:09:48.874            10.414          5207.000
        47   02 Jun 2027 11:41:54.867   02 Jun 2027 11:42:24.078            29.211         14605.500
        48   02 Jun 2027 11:43:32.818   02 Jun 2027 11:44:29.304            56.486         28243.000
        49   02 Jun 2027 11:46:28.235   02 Jun 2027 11:46:41.917            13.682          6841.000
        50   03 Jun 2027 03:54:15.744   03 Jun 2027 03:54:40.312            24.568         12284.000
        51   03 Jun 2027 03:54:59.295   03 Jun 2027 03:55:13.783            14.488          7244.000
        52   03 Jun 2027 05:27:43.424   03 Jun 2027 05:29:55.453           132.029         66014.500
        53   03 Jun 2027 05:34:43.999   03 Jun 2027 05:35:11.885            27.886         13943.000
        54   03 Jun 2027 05:35:12.927   03 Jun 2027 05:35:20.444             7.517          3758.500
        55   03 Jun 2027 07:05:17.411   03 Jun 2027 07:07:50.972           153.561         76780.500
        56   03 Jun 2027 07:08:27.309   03 Jun 2027 07:08:27.774             0.465           232.500
        57   03 Jun 2027 07:09:43.690   03 Jun 2027 07:09:53.016             9.326          4663.000
        58   03 Jun 2027 07:10:56.259   03 Jun 2027 07:10:57.552             1.293           646.500
        59   03 Jun 2027 07:11:06.357   03 Jun 2027 07:11:19.155            12.798          6399.000
        60   03 Jun 2027 08:42:11.161   03 Jun 2027 08:44:21.883           130.722         65361.000
        61   03 Jun 2027 08:45:36.049   03 Jun 2027 08:45:44.448             8.399          4199.500
        62   03 Jun 2027 08:46:52.650   03 Jun 2027 08:46:56.045             3.395          1697.500
        63   03 Jun 2027 10:19:05.058   03 Jun 2027 10:20:24.941            79.883         39801.844
        64   03 Jun 2027 10:22:51.682   03 Jun 2027 10:23:00.545             8.863          4365.250
        65   03 Jun 2027 11:56:44.428   03 Jun 2027 11:56:50.944             6.516          3175.969
        66   03 Jun 2027 11:57:10.990   03 Jun 2027 11:57:10.990             0.000             0.000
        67   03 Jun 2027 11:57:16.529   03 Jun 2027 11:57:20.152             3.623           759.594
        68   03 Jun 2027 11:57:59.247   03 Jun 2027 11:58:02.266             3.019          1221.719
        69   04 Jun 2027 04:06:17.078   04 Jun 2027 04:06:37.726            20.648         10324.000
        70   04 Jun 2027 04:07:07.200   04 Jun 2027 04:07:22.698            15.498          7749.000
        71   04 Jun 2027 04:09:27.339   04 Jun 2027 04:09:46.109            18.770          9385.000
        72   04 Jun 2027 05:41:12.101   04 Jun 2027 05:43:19.702           127.601         63800.500
        73   04 Jun 2027 05:45:07.480   04 Jun 2027 05:45:21.121            13.641          6820.500
        74   04 Jun 2027 05:46:00.153   04 Jun 2027 05:46:20.565            20.412         10206.000
        75   04 Jun 2027 05:46:50.923   04 Jun 2027 05:46:55.359             4.436          2218.000
        76   04 Jun 2027 05:47:34.738   04 Jun 2027 05:47:34.738             0.000             0.000
        77   04 Jun 2027 07:17:24.575   04 Jun 2027 07:19:47.848           143.273         71636.500
        78   04 Jun 2027 07:21:01.188   04 Jun 2027 07:21:11.949            10.761          5380.500
        79   04 Jun 2027 08:55:07.670   04 Jun 2027 08:55:41.930            34.260         16907.874
        80   04 Jun 2027 08:56:01.159   04 Jun 2027 08:56:01.159             0.000             0.000
        81   04 Jun 2027 08:56:29.733   04 Jun 2027 08:56:33.388             3.655          1493.844
        82   04 Jun 2027 08:57:53.910   04 Jun 2027 08:57:57.329             3.419          1709.500
        83   04 Jun 2027 08:59:04.467   04 Jun 2027 08:59:08.905             4.438          2143.438
        84   04 Jun 2027 08:59:16.225   04 Jun 2027 08:59:16.990             0.765           213.844
        85   04 Jun 2027 10:31:12.098   04 Jun 2027 10:31:30.117            18.019          8338.469
        86   04 Jun 2027 10:31:55.332   04 Jun 2027 10:31:55.642             0.310           155.000
        87   04 Jun 2027 10:31:59.230   04 Jun 2027 10:31:59.807             0.577           288.500
        88   04 Jun 2027 10:32:03.625   04 Jun 2027 10:32:07.084             3.459           146.875
        89   04 Jun 2027 10:32:22.752   04 Jun 2027 10:32:25.678             2.926           382.000
        90   04 Jun 2027 10:33:16.656   04 Jun 2027 10:33:16.888             0.232           116.000
        91   04 Jun 2027 10:34:04.893   04 Jun 2027 10:34:12.162             7.269          1871.469
        92   04 Jun 2027 10:35:01.507   04 Jun 2027 10:35:07.720             6.213          1542.031
        93   05 Jun 2027 04:18:52.926   05 Jun 2027 04:19:47.733            54.807         27403.500
        94   05 Jun 2027 04:20:12.193   05 Jun 2027 04:20:18.894             6.701          3350.500
        95   05 Jun 2027 05:53:34.781   05 Jun 2027 05:55:41.521           126.740         63370.000
        96   05 Jun 2027 05:56:11.813   05 Jun 2027 05:56:27.328            15.515          7757.500
        97   05 Jun 2027 05:59:43.597   05 Jun 2027 05:59:46.467             2.870          1435.000
        98   05 Jun 2027 05:59:53.778   05 Jun 2027 06:00:04.663            10.885          5442.500
        99   05 Jun 2027 07:30:00.176   05 Jun 2027 07:32:08.036           127.860         63930.000
       100   05 Jun 2027 07:32:28.539   05 Jun 2027 07:32:33.081             4.542          2271.000
       101   05 Jun 2027 07:33:07.920   05 Jun 2027 07:33:13.549             5.629          2297.781
       102   05 Jun 2027 07:35:38.098   05 Jun 2027 07:35:45.979             7.881          3940.500
       103   05 Jun 2027 09:07:14.647   05 Jun 2027 09:07:40.746            26.099         13049.500
       104   05 Jun 2027 09:08:51.452   05 Jun 2027 09:08:58.219             6.767          2984.844
       105   05 Jun 2027 10:43:29.254   05 Jun 2027 10:43:45.110            15.856          7865.594
       106   05 Jun 2027 10:43:54.903   05 Jun 2027 10:43:55.562             0.659            13.750
       107   05 Jun 2027 10:44:03.827   05 Jun 2027 10:44:06.813             2.986           227.281
       108   05 Jun 2027 10:44:42.521   05 Jun 2027 10:44:46.380             3.859           873.438
       109   05 Jun 2027 10:46:06.080   05 Jun 2027 10:46:10.908             4.828          2346.438
       110   05 Jun 2027 10:46:36.765   05 Jun 2027 10:46:42.246             5.481           765.250
       111   05 Jun 2027 10:46:50.287   05 Jun 2027 10:46:53.856             3.569           251.281
       112   05 Jun 2027 10:47:17.689   05 Jun 2027 10:47:25.646             7.957           744.781
       113   05 Jun 2027 10:47:36.771   05 Jun 2027 10:47:38.987             2.216           347.656
       114   06 Jun 2027 04:30:17.761   06 Jun 2027 04:30:51.470            33.709         16854.500
       115   06 Jun 2027 04:31:15.966   06 Jun 2027 04:31:54.140            38.174         19087.000
       116   06 Jun 2027 04:32:49.751   06 Jun 2027 04:33:05.786            16.035          8017.500
       117   06 Jun 2027 04:33:18.783   06 Jun 2027 04:33:32.530            13.747          6873.500
       118   06 Jun 2027 04:34:01.010   06 Jun 2027 04:34:15.469            14.459          7229.500
       119   06 Jun 2027 06:05:14.098   06 Jun 2027 06:07:04.460           110.362         55181.000
       120   06 Jun 2027 06:09:06.041   06 Jun 2027 06:09:06.541             0.500           250.000
       121   06 Jun 2027 06:09:49.059   06 Jun 2027 06:09:51.910             2.851          1425.500
       122   06 Jun 2027 06:10:53.247   06 Jun 2027 06:11:24.733            31.486         15743.000
       123   06 Jun 2027 07:41:32.466   06 Jun 2027 07:43:21.388           108.922         54461.000
       124   06 Jun 2027 07:43:47.364   06 Jun 2027 07:43:50.287             2.923           941.594
       125   06 Jun 2027 07:45:33.154   06 Jun 2027 07:45:34.778             1.624           812.000
       126   06 Jun 2027 07:46:15.091   06 Jun 2027 07:46:22.755             7.664          3662.375
       127   06 Jun 2027 07:47:00.645   06 Jun 2027 07:47:07.665             7.020           998.563
       128   06 Jun 2027 07:47:16.986   06 Jun 2027 07:47:19.843             2.857           203.469
       129   06 Jun 2027 07:47:37.895   06 Jun 2027 07:47:39.564             1.669           414.781
       130   06 Jun 2027 09:19:48.109   06 Jun 2027 09:20:04.172            16.063          8031.500
       131   06 Jun 2027 09:20:30.401   06 Jun 2027 09:20:35.364             4.963          2151.875
       132   06 Jun 2027 09:21:37.312   06 Jun 2027 09:21:45.242             7.930          1528.469
       133   06 Jun 2027 09:22:10.368   06 Jun 2027 09:22:13.661             3.293           500.781
       134   06 Jun 2027 09:22:28.731   06 Jun 2027 09:22:38.764            10.033           457.344
       135   06 Jun 2027 09:23:12.542   06 Jun 2027 09:23:14.781             2.239          1033.156
       136   06 Jun 2027 09:23:37.585   06 Jun 2027 09:23:40.592             3.007           712.625
       137   06 Jun 2027 10:55:08.183   06 Jun 2027 10:55:21.810            13.627          6523.812
       138   06 Jun 2027 10:55:52.362   06 Jun 2027 10:55:53.923             1.561           780.500
       139   06 Jun 2027 10:56:01.891   06 Jun 2027 10:56:03.844             1.953           423.250
       140   06 Jun 2027 10:57:07.078   06 Jun 2027 10:57:14.220             7.142          1880.656
       141   06 Jun 2027 10:57:21.520   06 Jun 2027 10:57:22.278             0.758           182.156
       142   06 Jun 2027 10:57:37.903   06 Jun 2027 10:57:39.719             1.816           143.875
       143   06 Jun 2027 10:58:56.850   06 Jun 2027 10:59:06.183             9.333          2093.062
       144   06 Jun 2027 10:59:40.563   06 Jun 2027 10:59:43.079             2.516           592.344
       145   06 Jun 2027 11:00:18.651   06 Jun 2027 11:00:21.343             2.692           766.250
       146   07 Jun 2027 03:05:19.780   07 Jun 2027 03:05:30.167            10.387          5193.500
       147   07 Jun 2027 03:06:03.327   07 Jun 2027 03:06:07.193             3.866          1933.000
       148   07 Jun 2027 03:06:20.792   07 Jun 2027 03:06:26.488             5.696          2848.000
       149   07 Jun 2027 03:07:37.953   07 Jun 2027 03:07:56.580            18.627          9313.500
       150   07 Jun 2027 04:40:36.467   07 Jun 2027 04:41:09.922            33.455         16727.500
       151   07 Jun 2027 04:42:01.598   07 Jun 2027 04:42:51.709            50.111         25055.500
       152   07 Jun 2027 04:44:48.231   07 Jun 2027 04:45:16.061            27.830         13915.000
       153   07 Jun 2027 04:45:17.572   07 Jun 2027 04:45:30.946            13.374          6687.000
       154   07 Jun 2027 06:16:47.356   07 Jun 2027 06:18:12.758            85.402         42701.000
       155   07 Jun 2027 06:19:07.328   07 Jun 2027 06:19:08.915             1.587           793.500
       156   07 Jun 2027 06:19:48.093   07 Jun 2027 06:19:51.000             2.907          1453.500
       157   07 Jun 2027 06:19:51.364   07 Jun 2027 06:19:57.158             5.794          2897.000
       158   07 Jun 2027 06:20:18.503   07 Jun 2027 06:20:24.675             6.172          3086.000
       159   07 Jun 2027 06:23:14.251   07 Jun 2027 06:23:30.225            15.974          7987.000
       160   07 Jun 2027 06:23:40.445   07 Jun 2027 06:24:05.699            25.254         12627.000
       161   07 Jun 2027 07:53:51.720   07 Jun 2027 07:55:23.318            91.598         45681.469
       162   07 Jun 2027 07:55:43.754   07 Jun 2027 07:55:44.142             0.388            53.656
       163   07 Jun 2027 07:56:36.801   07 Jun 2027 07:56:39.608             2.807          1403.500
       164   07 Jun 2027 07:56:48.752   07 Jun 2027 07:56:48.752             0.000             0.000
       165   07 Jun 2027 07:58:09.367   07 Jun 2027 07:58:15.932             6.565          3047.063
       166   07 Jun 2027 07:58:44.749   07 Jun 2027 07:58:49.077             4.328           838.844
       167   07 Jun 2027 07:59:46.984   07 Jun 2027 07:59:52.811             5.827          1801.531
       168   07 Jun 2027 08:00:07.583   07 Jun 2027 08:00:07.880             0.297           148.500
       169   07 Jun 2027 08:00:13.700   07 Jun 2027 08:00:14.364             0.664           332.000
       170   07 Jun 2027 09:31:50.909   07 Jun 2027 09:32:12.305            21.396         10259.313
       171   07 Jun 2027 09:33:05.645   07 Jun 2027 09:33:09.820             4.175          1078.781
       172   07 Jun 2027 09:33:32.953   07 Jun 2027 09:33:36.061             3.108           674.781
       173   07 Jun 2027 09:34:36.580   07 Jun 2027 09:34:40.801             4.221          1856.344
       174   07 Jun 2027 09:34:51.808   07 Jun 2027 09:34:52.469             0.661           330.500
       175   07 Jun 2027 11:05:00.075   07 Jun 2027 11:05:14.488            14.413          7163.812
       176   07 Jun 2027 11:06:28.792   07 Jun 2027 11:06:31.774             2.982          1228.344
       177   07 Jun 2027 11:06:56.898   07 Jun 2027 11:06:58.364             1.466           210.406
       178   07 Jun 2027 11:07:17.969   07 Jun 2027 11:07:18.729             0.760           315.625
       179   07 Jun 2027 11:07:46.767   07 Jun 2027 11:07:49.044             2.277           197.812
       180   07 Jun 2027 11:08:02.922   07 Jun 2027 11:08:02.922             0.000             0.000
       181   07 Jun 2027 11:08:27.653   07 Jun 2027 11:08:35.367             7.714          1206.531
       182   07 Jun 2027 11:09:29.815   07 Jun 2027 11:09:33.595             3.780          1279.594
       183   07 Jun 2027 11:09:57.447   07 Jun 2027 11:09:57.447             0.000             0.000
       184   07 Jun 2027 11:10:29.684   07 Jun 2027 11:10:33.750             4.066          1262.062
       185   07 Jun 2027 11:10:42.065   07 Jun 2027 11:10:43.163             1.098           259.844
       186   07 Jun 2027 11:11:19.064   07 Jun 2027 11:11:28.755             9.691           713.594
       187   07 Jun 2027 11:12:32.477   07 Jun 2027 11:12:39.000             6.523          1991.313
       188   07 Jun 2027 11:12:44.960   07 Jun 2027 11:12:46.788             1.828            31.750
       189   08 Jun 2027 03:16:38.791   08 Jun 2027 03:17:41.804            63.013         31506.500
       190   08 Jun 2027 04:51:43.166   08 Jun 2027 04:53:26.331           103.165         51582.500
       191   08 Jun 2027 04:53:46.133   08 Jun 2027 04:53:52.747             6.614          3307.000
       192   08 Jun 2027 04:54:42.672   08 Jun 2027 04:54:44.743             2.071          1035.500
       193   08 Jun 2027 04:57:39.857   08 Jun 2027 04:57:53.439            13.582          6791.000
       194   08 Jun 2027 04:58:13.844   08 Jun 2027 04:58:13.844             0.000             0.000
       195   08 Jun 2027 04:58:40.987   08 Jun 2027 04:58:45.767             4.780          2390.000
       196   08 Jun 2027 06:29:04.489   08 Jun 2027 06:30:47.431           102.942         51471.000
       197   08 Jun 2027 06:31:00.175   08 Jun 2027 06:31:09.426             9.251          4625.500
       198   08 Jun 2027 06:33:01.577   08 Jun 2027 06:33:09.303             7.726          3863.000
       199   08 Jun 2027 06:34:01.424   08 Jun 2027 06:34:03.769             2.345          1172.500
       200   08 Jun 2027 06:34:20.778   08 Jun 2027 06:34:20.806             0.028            14.000
       201   08 Jun 2027 06:34:50.508   08 Jun 2027 06:35:10.943            20.435         10217.500
       202   08 Jun 2027 06:35:22.158   08 Jun 2027 06:35:27.962             5.804          2902.000
       203   08 Jun 2027 08:05:53.417   08 Jun 2027 08:06:52.248            58.831         28927.470
       204   08 Jun 2027 08:06:54.952   08 Jun 2027 08:06:55.067             0.115            40.594
       205   08 Jun 2027 08:07:12.305   08 Jun 2027 08:07:12.868             0.563           222.906
       206   08 Jun 2027 08:08:10.152   08 Jun 2027 08:08:15.927             5.775          1790.125
       207   08 Jun 2027 08:09:34.277   08 Jun 2027 08:09:38.977             4.700          2111.344
       208   08 Jun 2027 08:10:16.098   08 Jun 2027 08:10:16.497             0.399           199.500
       209   08 Jun 2027 08:11:31.184   08 Jun 2027 08:11:38.772             7.588          3294.500
       210   08 Jun 2027 09:43:50.416   08 Jun 2027 09:44:09.718            19.302          9651.000
       211   08 Jun 2027 09:44:30.357   08 Jun 2027 09:44:37.285             6.928          1742.406
       212   08 Jun 2027 09:45:00.538   08 Jun 2027 09:45:02.595             2.057           311.375
       213   08 Jun 2027 09:45:23.630   08 Jun 2027 09:45:30.746             7.116           657.344
       214   08 Jun 2027 09:45:40.257   08 Jun 2027 09:45:40.953             0.696           297.219
       215   08 Jun 2027 09:46:34.444   08 Jun 2027 09:46:36.069             1.625           812.500
       216   08 Jun 2027 09:47:04.787   08 Jun 2027 09:47:07.278             2.491          1030.250
       217   08 Jun 2027 09:47:27.754   08 Jun 2027 09:47:30.204             2.450           639.875
       218   08 Jun 2027 11:17:27.003   08 Jun 2027 11:17:33.884             6.881          1564.750
       219   08 Jun 2027 11:18:54.689   08 Jun 2027 11:18:59.551             4.862          1977.781
       220   08 Jun 2027 11:19:34.847   08 Jun 2027 11:19:37.215             2.368          1103.000
       221   08 Jun 2027 11:19:44.052   08 Jun 2027 11:19:51.883             7.831           114.875
       222   08 Jun 2027 11:20:29.307   08 Jun 2027 11:20:31.526             2.219           801.187
       223   08 Jun 2027 11:21:20.827   08 Jun 2027 11:21:21.059             0.232           116.000
       224   08 Jun 2027 11:21:32.541   08 Jun 2027 11:21:35.084             2.543          1264.875
       225   08 Jun 2027 11:21:56.186   08 Jun 2027 11:21:56.186             0.000             0.000
       226   08 Jun 2027 11:22:20.422   08 Jun 2027 11:22:23.745             3.323          1110.750
       227   08 Jun 2027 11:22:42.435   08 Jun 2027 11:22:42.435             0.000             0.000
       228   08 Jun 2027 11:23:09.282   08 Jun 2027 11:23:12.364             3.082          1348.844
       229   08 Jun 2027 11:23:52.155   08 Jun 2027 11:24:05.174            13.019          1205.187
       230   08 Jun 2027 11:24:31.067   08 Jun 2027 11:24:31.313             0.246           123.000
       231   08 Jun 2027 11:24:42.805   08 Jun 2027 11:24:42.805             0.000             0.000
       232   09 Jun 2027 03:28:22.945   09 Jun 2027 03:29:26.180            63.235         31617.500
       233   09 Jun 2027 03:33:12.188   09 Jun 2027 03:33:12.188             0.000             0.000
       234   09 Jun 2027 05:03:11.366   09 Jun 2027 05:05:28.561           137.195         68597.500
       235   09 Jun 2027 05:06:34.651   09 Jun 2027 05:06:45.241            10.590          5295.000
       236   09 Jun 2027 05:07:03.770   09 Jun 2027 05:07:03.770             0.000             0.000
       237   09 Jun 2027 05:08:09.948   09 Jun 2027 05:08:13.342             3.394          1697.000
       238   09 Jun 2027 05:08:31.883   09 Jun 2027 05:08:49.438            17.555          8777.500
       239   09 Jun 2027 05:12:03.344   09 Jun 2027 05:12:07.849             4.505          2252.500
       240   09 Jun 2027 06:41:00.016   09 Jun 2027 06:42:35.458            95.442         47721.000
       241   09 Jun 2027 06:44:08.905   09 Jun 2027 06:44:14.840             5.935          2967.500
       242   09 Jun 2027 06:45:48.316   09 Jun 2027 06:46:01.369            13.053          6526.500
       243   09 Jun 2027 08:17:44.452   09 Jun 2027 08:18:09.706            25.254         12627.000
       244   09 Jun 2027 08:18:13.937   09 Jun 2027 08:18:33.637            19.700          9361.312
       245   09 Jun 2027 08:18:42.402   09 Jun 2027 08:18:42.586             0.184            92.000
       246   09 Jun 2027 08:18:54.483   09 Jun 2027 08:18:55.903             1.420           553.688
       247   09 Jun 2027 08:20:45.109   09 Jun 2027 08:20:54.448             9.339          2596.313
       248   09 Jun 2027 08:21:32.643   09 Jun 2027 08:21:35.314             2.671          1071.875
       249   09 Jun 2027 08:21:44.398   09 Jun 2027 08:21:50.747             6.349           283.875
       250   09 Jun 2027 08:21:57.290   09 Jun 2027 08:22:00.020             2.730           204.469
       251   09 Jun 2027 08:22:09.420   09 Jun 2027 08:22:11.145             1.725           293.750
       252   09 Jun 2027 08:22:48.206   09 Jun 2027 08:22:50.646             2.440           950.969
       253   09 Jun 2027 08:23:21.739   09 Jun 2027 08:23:22.415             0.676           338.000
       254   09 Jun 2027 08:24:28.500   09 Jun 2027 08:24:30.283             1.783           891.500
       255   09 Jun 2027 09:55:51.940   09 Jun 2027 09:56:09.150            17.210          8605.000
       256   09 Jun 2027 09:56:10.563   09 Jun 2027 09:56:14.228             3.665          1165.812
       257   09 Jun 2027 09:57:05.743   09 Jun 2027 09:57:09.206             3.463          1609.844
       258   09 Jun 2027 09:57:47.403   09 Jun 2027 09:57:47.802             0.399           199.500
       259   09 Jun 2027 09:58:08.368   09 Jun 2027 09:58:10.651             2.283           973.250
       260   09 Jun 2027 09:59:14.440   09 Jun 2027 09:59:17.303             2.863          1332.969
       261   09 Jun 2027 09:59:44.981   09 Jun 2027 09:59:46.479             1.498           729.469
       262   09 Jun 2027 11:29:43.015   09 Jun 2027 11:29:51.185             8.170          2164.938
       263   09 Jun 2027 11:31:02.271   09 Jun 2027 11:31:06.011             3.740          1870.000
       264   09 Jun 2027 11:31:52.217   09 Jun 2027 11:32:01.903             9.686          1720.625
       265   09 Jun 2027 11:32:30.922   09 Jun 2027 11:32:34.033             3.111           839.469
       266   09 Jun 2027 11:33:19.887   09 Jun 2027 11:33:22.531             2.644          1049.375
       267   09 Jun 2027 11:34:11.904   09 Jun 2027 11:34:16.375             4.471          1542.906
       268   09 Jun 2027 11:35:05.236   09 Jun 2027 11:35:07.622             2.386           985.969
       269   09 Jun 2027 11:35:26.013   09 Jun 2027 11:35:29.327             3.314           516.094
       270   10 Jun 2027 03:42:08.752   10 Jun 2027 03:42:57.275            48.523         24261.500
       271   10 Jun 2027 03:44:22.766   10 Jun 2027 03:44:30.540             7.774          3887.000
       272   10 Jun 2027 05:15:59.782   10 Jun 2027 05:18:06.574           126.792         63396.000
       273   10 Jun 2027 05:18:56.029   10 Jun 2027 05:19:12.487            16.458          8229.000
       274   10 Jun 2027 05:20:17.659   10 Jun 2027 05:20:26.423             8.764          4382.000
       275   10 Jun 2027 05:20:44.636   10 Jun 2027 05:20:44.636             0.000             0.000
       276   10 Jun 2027 05:23:44.916   10 Jun 2027 05:23:52.689             7.773          3886.500
       277   10 Jun 2027 06:53:06.434   10 Jun 2027 06:53:21.060            14.626          7313.000
       278   10 Jun 2027 06:53:57.805   10 Jun 2027 06:55:48.704           110.899         54220.282
       279   10 Jun 2027 06:57:07.118   10 Jun 2027 06:57:13.544             6.426          2087.500
       280   10 Jun 2027 06:57:39.044   10 Jun 2027 06:57:45.424             6.380           796.875
       281   10 Jun 2027 06:58:19.551   10 Jun 2027 06:58:24.282             4.731          1066.469
       282   10 Jun 2027 08:30:08.787   10 Jun 2027 08:30:44.809            36.022         16021.531
       283   10 Jun 2027 08:31:52.886   10 Jun 2027 08:31:58.177             5.291           715.969
       284   10 Jun 2027 08:32:12.985   10 Jun 2027 08:32:14.248             1.263           360.438
       285   10 Jun 2027 08:32:44.928   10 Jun 2027 08:32:44.928             0.000             0.000
       286   10 Jun 2027 08:33:39.734   10 Jun 2027 08:33:41.821             2.087          1043.500
       287   10 Jun 2027 08:35:11.440   10 Jun 2027 08:35:20.373             8.933          4379.094
       288   10 Jun 2027 08:35:40.328   10 Jun 2027 08:35:41.963             1.635           489.344
       289   10 Jun 2027 10:07:06.044   10 Jun 2027 10:07:23.578            17.534          8317.750
       290   10 Jun 2027 10:07:55.326   10 Jun 2027 10:07:56.864             1.538           726.594
       291   10 Jun 2027 10:09:26.964   10 Jun 2027 10:09:36.370             9.406          2379.656
       292   10 Jun 2027 10:11:00.665   10 Jun 2027 10:11:09.320             8.655          2634.219
       293   10 Jun 2027 10:11:16.117   10 Jun 2027 10:11:16.797             0.680           212.406
       294   10 Jun 2027 11:42:09.754   10 Jun 2027 11:42:21.403            11.649          2986.000
       295   10 Jun 2027 11:43:48.171   10 Jun 2027 11:43:55.376             7.205          1455.062
       296   10 Jun 2027 11:44:32.459   10 Jun 2027 11:44:36.907             4.448           889.156
       297   10 Jun 2027 11:45:07.503   10 Jun 2027 11:45:09.383             1.880           704.031
       298   10 Jun 2027 11:45:24.097   10 Jun 2027 11:45:25.279             1.182           109.375
       299   10 Jun 2027 11:46:04.151   10 Jun 2027 11:46:07.367             3.216           788.687
       300   10 Jun 2027 11:46:09.490   10 Jun 2027 11:46:09.675             0.185            58.750
       301   11 Jun 2027 03:54:30.491   11 Jun 2027 03:55:28.358            57.867         28933.500
       302   11 Jun 2027 05:27:58.396   11 Jun 2027 05:30:10.955           132.559         66279.500
       303   11 Jun 2027 05:30:46.371   11 Jun 2027 05:30:54.138             7.767          3883.500
       304   11 Jun 2027 05:32:27.437   11 Jun 2027 05:32:27.617             0.180            90.000
       305   11 Jun 2027 05:33:10.513   11 Jun 2027 05:33:10.513             0.000             0.000
       306   11 Jun 2027 05:33:37.669   11 Jun 2027 05:33:49.201            11.532          5766.000
       307   11 Jun 2027 05:34:56.950   11 Jun 2027 05:34:59.218             2.268          1134.000
       308   11 Jun 2027 05:36:26.286   11 Jun 2027 05:36:28.746             2.460          1230.000
       309   11 Jun 2027 07:05:32.247   11 Jun 2027 07:07:50.866           138.619         68506.656
       310   11 Jun 2027 07:08:44.638   11 Jun 2027 07:08:45.236             0.598           299.000
       311   11 Jun 2027 07:08:49.245   11 Jun 2027 07:08:57.865             8.620          1441.875
       312   11 Jun 2027 08:42:26.360   11 Jun 2027 08:42:57.405            31.045         14560.031
       313   11 Jun 2027 08:43:02.231   11 Jun 2027 08:43:03.821             1.590            70.219
       314   11 Jun 2027 08:43:37.655   11 Jun 2027 08:43:40.624             2.969          1057.313
       315   11 Jun 2027 08:45:25.315   11 Jun 2027 08:45:32.207             6.892          2760.313
       316   11 Jun 2027 08:45:53.241   11 Jun 2027 08:45:53.241             0.000             0.000
       317   11 Jun 2027 08:46:08.104   11 Jun 2027 08:46:11.151             3.047           816.219
       318   11 Jun 2027 08:46:44.253   11 Jun 2027 08:46:50.437             6.184           760.812
       319   11 Jun 2027 08:47:10.425   11 Jun 2027 08:47:11.377             0.952           476.000
       320   11 Jun 2027 10:19:19.855   11 Jun 2027 10:19:38.943            19.088          9258.750
       321   11 Jun 2027 10:20:11.123   11 Jun 2027 10:20:12.433             1.310           655.000
       322   11 Jun 2027 10:20:28.006   11 Jun 2027 10:20:29.474             1.468           643.813
       323   11 Jun 2027 10:20:46.656   11 Jun 2027 10:20:50.908             4.252           536.937
       324   11 Jun 2027 10:21:30.790   11 Jun 2027 10:21:33.791             3.001           292.500
       325   11 Jun 2027 10:21:48.932   11 Jun 2027 10:21:51.441             2.509           398.563
       326   11 Jun 2027 10:21:57.447   11 Jun 2027 10:22:00.639             3.192           147.375
       327   11 Jun 2027 10:22:26.376   11 Jun 2027 10:22:42.927            16.551           804.281
       328   11 Jun 2027 10:22:45.659   11 Jun 2027 10:22:48.215             2.556            85.375
       329   11 Jun 2027 10:23:09.496   11 Jun 2027 10:23:15.477             5.981           665.031
       330   11 Jun 2027 11:56:59.510   11 Jun 2027 11:57:04.976             5.466          2694.344
       331   12 Jun 2027 04:06:32.078   12 Jun 2027 04:07:07.504            35.426         17713.000
       332   12 Jun 2027 04:07:29.498   12 Jun 2027 04:07:37.553             8.055          4027.500
       333   12 Jun 2027 04:08:34.426   12 Jun 2027 04:08:39.068             4.642          2321.000
       334   12 Jun 2027 04:10:02.867   12 Jun 2027 04:10:03.747             0.880           440.000
       335   12 Jun 2027 05:41:27.084   12 Jun 2027 05:43:34.913           127.829         63914.500
       336   12 Jun 2027 05:44:07.957   12 Jun 2027 05:44:20.593            12.636          6318.000
       337   12 Jun 2027 05:44:22.295   12 Jun 2027 05:44:25.654             3.359          1679.500
       338   12 Jun 2027 05:47:30.085   12 Jun 2027 05:47:30.085             0.000             0.000
       339   12 Jun 2027 05:47:57.354   12 Jun 2027 05:48:25.078            27.724         13862.000
       340   12 Jun 2027 07:17:39.652   12 Jun 2027 07:19:45.002           125.350         62675.000
       341   12 Jun 2027 07:19:59.837   12 Jun 2027 07:20:05.262             5.425          2048.688
       342   12 Jun 2027 07:23:37.369   12 Jun 2027 07:23:46.523             9.154          4577.000
       343   12 Jun 2027 07:24:04.268   12 Jun 2027 07:24:08.317             4.049          2024.500
       344   12 Jun 2027 08:55:23.024   12 Jun 2027 08:55:56.005            32.981         15990.688
       345   12 Jun 2027 08:57:31.837   12 Jun 2027 08:57:38.316             6.479          2964.938
       346   12 Jun 2027 08:58:15.841   12 Jun 2027 08:58:18.134             2.293          1141.062
       347   12 Jun 2027 10:31:29.310   12 Jun 2027 10:31:47.819            18.509          8715.156
       348   12 Jun 2027 10:31:49.665   12 Jun 2027 10:31:51.113             1.448            57.687
       349   12 Jun 2027 10:32:34.582   12 Jun 2027 10:32:37.387             2.805          1247.094
       350   12 Jun 2027 10:33:16.608   12 Jun 2027 10:33:21.493             4.885          1225.656
       351   12 Jun 2027 10:33:31.856   12 Jun 2027 10:33:34.433             2.577           323.844
       352   12 Jun 2027 10:34:19.102   12 Jun 2027 10:34:21.975             2.873          1395.906
       353   12 Jun 2027 10:34:57.863   12 Jun 2027 10:35:05.093             7.230           588.219
       354   12 Jun 2027 10:35:35.467   12 Jun 2027 10:35:38.187             2.720           796.000
       355   12 Jun 2027 10:35:48.508   12 Jun 2027 10:35:51.111             2.603           322.531
       356   13 Jun 2027 04:18:39.505   13 Jun 2027 04:19:28.885            49.380         24690.000
       357   13 Jun 2027 04:19:34.915   13 Jun 2027 04:19:46.509            11.594          5797.000
       358   13 Jun 2027 04:21:38.723   13 Jun 2027 04:21:56.921            18.198          9099.000
       359   13 Jun 2027 05:53:49.569   13 Jun 2027 05:55:54.845           125.276         62638.000
       360   13 Jun 2027 05:56:50.690   13 Jun 2027 05:56:54.674             3.984          1992.000
       361   13 Jun 2027 05:59:19.095   13 Jun 2027 05:59:25.252             6.157          3078.500
       362   13 Jun 2027 06:00:03.414   13 Jun 2027 06:00:19.312            15.898          7949.000
       363   13 Jun 2027 07:30:14.733   13 Jun 2027 07:32:22.907           128.174         64087.000
       364   13 Jun 2027 07:33:43.218   13 Jun 2027 07:33:48.939             5.721          2852.844
       365   13 Jun 2027 07:34:21.550   13 Jun 2027 07:34:24.493             2.943          1019.094
       366   13 Jun 2027 09:07:29.632   13 Jun 2027 09:08:00.741            31.109         14755.437
       367   13 Jun 2027 09:08:44.550   13 Jun 2027 09:08:46.836             2.286           849.906
       368   13 Jun 2027 09:09:11.369   13 Jun 2027 09:09:12.303             0.934           428.219
       369   13 Jun 2027 09:09:50.978   13 Jun 2027 09:09:54.484             3.506          1178.156
       370   13 Jun 2027 09:10:00.104   13 Jun 2027 09:10:00.445             0.341           170.500
       371   13 Jun 2027 09:11:10.370   13 Jun 2027 09:11:14.275             3.905          1952.500
       372   13 Jun 2027 09:11:18.364   13 Jun 2027 09:11:19.288             0.924           360.875
       373   13 Jun 2027 10:43:44.042   13 Jun 2027 10:44:00.308            16.266          7976.688
       374   13 Jun 2027 10:44:17.950   13 Jun 2027 10:44:18.349             0.399           199.500
       375   13 Jun 2027 10:44:42.871   13 Jun 2027 10:44:48.654             5.783           832.907
       376   13 Jun 2027 10:45:12.464   13 Jun 2027 10:45:13.674             1.210           605.000
       377   13 Jun 2027 10:45:21.598   13 Jun 2027 10:45:23.929             2.331           386.687
       378   13 Jun 2027 10:46:20.869   13 Jun 2027 10:46:24.667             3.798          1520.688
       379   13 Jun 2027 10:46:57.244   13 Jun 2027 10:47:00.953             3.709           550.469
       380   13 Jun 2027 10:47:41.601   13 Jun 2027 10:47:50.415             8.814          1091.844
       381   13 Jun 2027 10:48:03.011   13 Jun 2027 10:48:03.011             0.000             0.000
