uniorb/output/strategy_1/Camera/Camera_KinoSat_110809.txt

KinoSat_110809
-------------------------
    Access    *     Start Time (UTCG)     *     Stop Time (UTCG)  *   Duration (s) *   Data (Mbytes)
         1   01 Jun 2027 04:33:07.268   01 Jun 2027 04:35:24.229           136.961         68480.500
         2   01 Jun 2027 04:35:54.977   01 Jun 2027 04:36:01.518             6.541          3270.500
         3   01 Jun 2027 06:05:17.589   01 Jun 2027 06:05:26.601             9.012          4506.000
         4   01 Jun 2027 06:07:14.202   01 Jun 2027 06:08:58.300           104.098         52049.000
         5   01 Jun 2027 06:09:41.910   01 Jun 2027 06:09:45.450             3.540          1770.000
         6   01 Jun 2027 06:11:26.676   01 Jun 2027 06:11:31.649             4.973          2486.500
         7   01 Jun 2027 06:13:20.622   01 Jun 2027 06:13:39.604            18.982          9491.000
         8   01 Jun 2027 07:44:12.299   01 Jun 2027 07:46:40.625           148.326         74163.000
         9   01 Jun 2027 07:47:05.440   01 Jun 2027 07:47:14.586             9.146          4573.000
        10   01 Jun 2027 07:48:07.939   01 Jun 2027 07:48:17.206             9.267          4633.500
        11   01 Jun 2027 07:48:36.556   01 Jun 2027 07:48:36.556             0.000             0.000
        12   01 Jun 2027 09:21:30.272   01 Jun 2027 09:23:36.582           126.310         63155.000
        13   01 Jun 2027 09:24:29.892   01 Jun 2027 09:24:31.372             1.480           740.000
        14   01 Jun 2027 09:24:52.531   01 Jun 2027 09:24:52.531             0.000             0.000
        15   01 Jun 2027 09:25:02.893   01 Jun 2027 09:25:07.459             4.566          2283.000
        16   01 Jun 2027 10:57:57.557   01 Jun 2027 11:00:08.840           131.283         65641.500
        17   01 Jun 2027 11:00:21.675   01 Jun 2027 11:00:21.822             0.147            73.500
        18   01 Jun 2027 11:01:00.274   01 Jun 2027 11:01:00.513             0.239           119.500
        19   01 Jun 2027 11:01:32.250   01 Jun 2027 11:01:48.688            16.438          8219.000
        20   02 Jun 2027 03:08:48.376   02 Jun 2027 03:08:52.326             3.950          1975.000
        21   02 Jun 2027 03:09:18.201   02 Jun 2027 03:09:18.201             0.000             0.000
        22   02 Jun 2027 03:09:19.485   02 Jun 2027 03:09:28.906             9.421          4710.500
        23   02 Jun 2027 03:11:04.252   02 Jun 2027 03:11:04.252             0.000             0.000
        24   02 Jun 2027 03:11:07.239   02 Jun 2027 03:11:09.138             1.899           949.500
        25   02 Jun 2027 03:11:22.358   02 Jun 2027 03:11:41.120            18.762          9381.000
        26   02 Jun 2027 04:45:16.573   02 Jun 2027 04:47:17.845           121.272         60636.000
        27   02 Jun 2027 04:47:48.576   02 Jun 2027 04:47:58.251             9.675          4837.500
        28   02 Jun 2027 06:20:27.295   02 Jun 2027 06:21:52.646            85.351         42675.500
        29   02 Jun 2027 06:22:29.377   02 Jun 2027 06:22:57.295            27.918         13959.000
        30   02 Jun 2027 06:25:43.625   02 Jun 2027 06:25:45.043             1.418           709.000
        31   02 Jun 2027 06:26:10.989   02 Jun 2027 06:26:14.072             3.083          1541.500
        32   02 Jun 2027 06:26:57.183   02 Jun 2027 06:27:03.508             6.325          3162.500
        33   02 Jun 2027 07:56:46.287   02 Jun 2027 07:58:26.290           100.003         50001.500
        34   02 Jun 2027 07:59:08.030   02 Jun 2027 07:59:28.214            20.184         10092.000
        35   02 Jun 2027 08:00:48.019   02 Jun 2027 08:01:10.368            22.349         11174.500
        36   02 Jun 2027 08:02:46.282   02 Jun 2027 08:02:54.813             8.531          4265.500
        37   02 Jun 2027 09:34:09.748   02 Jun 2027 09:35:47.084            97.336         48668.000
        38   02 Jun 2027 09:36:01.460   02 Jun 2027 09:36:16.112            14.652          7326.000
        39   02 Jun 2027 09:37:21.003   02 Jun 2027 09:37:37.273            16.270          8135.000
        40   02 Jun 2027 09:38:31.947   02 Jun 2027 09:38:41.855             9.908          4954.000
        41   02 Jun 2027 11:10:21.305   02 Jun 2027 11:12:13.640           112.335         56167.500
        42   02 Jun 2027 11:12:24.889   02 Jun 2027 11:12:31.274             6.385          3192.500
        43   02 Jun 2027 11:13:00.660   02 Jun 2027 11:13:00.660             0.000             0.000
        44   02 Jun 2027 11:13:06.857   02 Jun 2027 11:13:16.822             9.965          4982.500
        45   02 Jun 2027 11:14:09.402   02 Jun 2027 11:14:12.046             2.644          1322.000
        46   02 Jun 2027 11:14:34.555   02 Jun 2027 11:14:34.602             0.047            23.500
        47   03 Jun 2027 03:20:49.487   03 Jun 2027 03:21:06.723            17.236          8618.000
        48   03 Jun 2027 03:21:22.022   03 Jun 2027 03:21:25.394             3.372          1686.000
        49   03 Jun 2027 04:57:17.212   03 Jun 2027 04:59:27.026           129.814         64907.000
        50   03 Jun 2027 04:59:27.378   03 Jun 2027 04:59:35.945             8.567          4283.500
        51   03 Jun 2027 06:32:30.019   03 Jun 2027 06:33:50.766            80.747         40373.500
        52   03 Jun 2027 06:34:48.383   03 Jun 2027 06:34:51.203             2.820          1410.000
        53   03 Jun 2027 06:35:13.530   03 Jun 2027 06:35:13.532             0.002             1.000
        54   03 Jun 2027 06:36:14.175   03 Jun 2027 06:36:29.092            14.917          7458.500
        55   03 Jun 2027 06:37:25.740   03 Jun 2027 06:37:27.923             2.183          1091.500
        56   03 Jun 2027 06:37:38.048   03 Jun 2027 06:37:43.559             5.511          2755.500
        57   03 Jun 2027 06:38:06.264   03 Jun 2027 06:38:12.040             5.776          2888.000
        58   03 Jun 2027 06:39:08.371   03 Jun 2027 06:39:10.785             2.414          1207.000
        59   03 Jun 2027 08:08:25.242   03 Jun 2027 08:10:34.117           128.875         64437.500
        60   03 Jun 2027 08:11:22.290   03 Jun 2027 08:11:29.605             7.315          3657.500
        61   03 Jun 2027 08:13:09.208   03 Jun 2027 08:13:11.892             2.684          1342.000
        62   03 Jun 2027 08:14:00.619   03 Jun 2027 08:14:19.027            18.408          9204.000
        63   03 Jun 2027 09:46:24.246   03 Jun 2027 09:48:03.022            98.776         49388.000
        64   03 Jun 2027 09:48:39.477   03 Jun 2027 09:48:48.335             8.858          4429.000
        65   03 Jun 2027 09:49:11.884   03 Jun 2027 09:49:11.884             0.000             0.000
        66   03 Jun 2027 09:50:17.627   03 Jun 2027 09:50:17.830             0.203           101.500
        67   03 Jun 2027 11:22:15.871   03 Jun 2027 11:22:53.203            37.332         15791.750
        68   03 Jun 2027 11:23:06.314   03 Jun 2027 11:23:10.358             4.044           391.406
        69   03 Jun 2027 11:24:09.722   03 Jun 2027 11:24:17.759             8.037          1825.094
        70   03 Jun 2027 11:24:54.610   03 Jun 2027 11:24:56.158             1.548           691.063
        71   03 Jun 2027 11:26:13.197   03 Jun 2027 11:26:21.281             8.084          1744.187
        72   03 Jun 2027 11:26:37.249   03 Jun 2027 11:26:37.516             0.267           133.500
        73   03 Jun 2027 11:27:05.646   03 Jun 2027 11:27:13.872             8.226           913.781
        74   04 Jun 2027 03:33:15.763   04 Jun 2027 03:33:30.883            15.120          7560.000
        75   04 Jun 2027 03:33:51.682   04 Jun 2027 03:33:51.682             0.000             0.000
        76   04 Jun 2027 03:34:12.826   04 Jun 2027 03:34:17.913             5.087          2543.500
        77   04 Jun 2027 03:34:26.515   04 Jun 2027 03:34:35.899             9.384          4692.000
        78   04 Jun 2027 03:35:08.609   04 Jun 2027 03:35:08.609             0.000             0.000
        79   04 Jun 2027 03:35:27.771   04 Jun 2027 03:35:46.338            18.567          9283.500
        80   04 Jun 2027 05:09:01.031   04 Jun 2027 05:10:46.293           105.262         52631.000
        81   04 Jun 2027 05:12:00.750   04 Jun 2027 05:12:11.285            10.535          5267.500
        82   04 Jun 2027 05:12:31.088   04 Jun 2027 05:12:33.299             2.211          1105.500
        83   04 Jun 2027 05:13:18.983   04 Jun 2027 05:13:22.142             3.159          1579.500
        84   04 Jun 2027 06:43:44.927   04 Jun 2027 06:45:31.614           106.687         53343.500
        85   04 Jun 2027 06:46:02.331   04 Jun 2027 06:46:14.727            12.396          6198.000
        86   04 Jun 2027 06:46:59.106   04 Jun 2027 06:47:01.294             2.188          1094.000
        87   04 Jun 2027 06:47:44.750   04 Jun 2027 06:47:57.858            13.108          6554.000
        88   04 Jun 2027 06:51:06.637   04 Jun 2027 06:51:09.259             2.622          1311.000
        89   04 Jun 2027 08:20:33.859   04 Jun 2027 08:21:33.275            59.416         29668.094
        90   04 Jun 2027 08:22:18.993   04 Jun 2027 08:22:23.147             4.154          1428.688
        91   04 Jun 2027 08:22:28.542   04 Jun 2027 08:22:29.004             0.462           163.812
        92   04 Jun 2027 08:24:19.242   04 Jun 2027 08:24:26.275             7.033          3444.937
        93   04 Jun 2027 08:25:05.840   04 Jun 2027 08:25:05.840             0.000             0.000
        94   04 Jun 2027 08:25:54.506   04 Jun 2027 08:25:59.704             5.198          2598.219
        95   04 Jun 2027 08:26:30.561   04 Jun 2027 08:26:32.201             1.640           820.000
        96   04 Jun 2027 08:26:44.050   04 Jun 2027 08:26:44.050             0.000             0.000
        97   04 Jun 2027 09:58:47.015   04 Jun 2027 09:59:06.724            19.709          8650.969
        98   04 Jun 2027 10:00:14.353   04 Jun 2027 10:00:20.412             6.059          1946.500
        99   04 Jun 2027 10:00:26.295   04 Jun 2027 10:00:31.041             4.746           183.844
       100   04 Jun 2027 10:01:03.507   04 Jun 2027 10:01:08.175             4.668           852.594
       101   04 Jun 2027 10:02:31.036   04 Jun 2027 10:02:38.332             7.296          2175.687
       102   04 Jun 2027 11:32:04.730   04 Jun 2027 11:32:24.847            20.117          8468.875
       103   04 Jun 2027 11:33:34.060   04 Jun 2027 11:33:37.127             3.067          1533.500
       104   04 Jun 2027 11:33:40.366   04 Jun 2027 11:33:41.498             1.132           134.375
       105   04 Jun 2027 11:34:07.109   04 Jun 2027 11:34:07.928             0.819           154.875
       106   04 Jun 2027 11:34:22.023   04 Jun 2027 11:34:23.151             1.128           426.406
       107   04 Jun 2027 11:35:04.382   04 Jun 2027 11:35:07.974             3.592          1081.375
       108   04 Jun 2027 11:36:06.956   04 Jun 2027 11:36:12.257             5.301          1843.188
       109   04 Jun 2027 11:36:55.686   04 Jun 2027 11:37:00.499             4.813          1308.781
       110   04 Jun 2027 11:37:55.386   04 Jun 2027 11:38:00.876             5.490          1376.312
       111   04 Jun 2027 11:38:09.998   04 Jun 2027 11:38:13.476             3.478             6.094
       112   04 Jun 2027 11:39:07.934   04 Jun 2027 11:39:14.741             6.807          1372.719
       113   05 Jun 2027 03:43:51.140   05 Jun 2027 03:44:35.502            44.362         22181.000
       114   05 Jun 2027 03:45:43.860   05 Jun 2027 03:45:43.921             0.061            30.500
       115   05 Jun 2027 03:46:45.021   05 Jun 2027 03:47:10.304            25.283         12641.500
       116   05 Jun 2027 03:47:30.366   05 Jun 2027 03:47:30.366             0.000             0.000
       117   05 Jun 2027 03:47:47.178   05 Jun 2027 03:47:47.281             0.103            51.500
       118   05 Jun 2027 05:18:54.544   05 Jun 2027 05:20:13.331            78.787         39393.500
       119   05 Jun 2027 05:20:45.108   05 Jun 2027 05:21:16.629            31.521         15760.500
       120   05 Jun 2027 05:21:38.889   05 Jun 2027 05:21:49.766            10.877          5438.500
       121   05 Jun 2027 05:24:20.466   05 Jun 2027 05:24:37.758            17.292          8646.000
       122   05 Jun 2027 05:25:07.185   05 Jun 2027 05:25:07.185             0.000             0.000
       123   05 Jun 2027 05:25:11.313   05 Jun 2027 05:25:16.275             4.962          2481.000
       124   05 Jun 2027 06:55:53.050   05 Jun 2027 06:57:32.371            99.321         49660.500
       125   05 Jun 2027 06:58:04.410   05 Jun 2027 06:58:15.514            11.104          5552.000
       126   05 Jun 2027 06:59:15.265   05 Jun 2027 06:59:20.210             4.945          2472.500
       127   05 Jun 2027 07:01:58.217   05 Jun 2027 07:01:58.217             0.000             0.000
       128   05 Jun 2027 07:02:07.870   05 Jun 2027 07:02:17.920            10.050          5025.000
       129   05 Jun 2027 08:32:51.148   05 Jun 2027 08:33:26.463            35.315         16063.406
       130   05 Jun 2027 08:33:47.815   05 Jun 2027 08:33:57.296             9.481           667.250
       131   05 Jun 2027 08:34:18.208   05 Jun 2027 08:34:22.008             3.800           653.500
       132   05 Jun 2027 08:34:39.241   05 Jun 2027 08:34:41.860             2.619           538.531
       133   05 Jun 2027 08:35:36.069   05 Jun 2027 08:35:39.127             3.058           937.688
       134   05 Jun 2027 08:36:39.826   05 Jun 2027 08:36:44.051             4.225          1896.844
       135   05 Jun 2027 08:36:51.937   05 Jun 2027 08:36:53.054             1.117           189.594
       136   05 Jun 2027 08:37:00.794   05 Jun 2027 08:37:03.472             2.678           214.000
       137   05 Jun 2027 08:37:36.287   05 Jun 2027 08:37:38.456             2.169          1025.469
       138   05 Jun 2027 10:10:46.291   05 Jun 2027 10:11:04.879            18.588          8571.469
       139   05 Jun 2027 10:12:04.709   05 Jun 2027 10:12:08.263             3.554          1620.344
       140   05 Jun 2027 10:12:24.554   05 Jun 2027 10:12:25.495             0.941           470.500
       141   05 Jun 2027 10:12:26.759   05 Jun 2027 10:12:28.742             1.983            78.094
       142   05 Jun 2027 10:13:40.819   05 Jun 2027 10:13:45.162             4.343          1990.406
       143   05 Jun 2027 10:14:37.903   05 Jun 2027 10:14:42.584             4.681          1648.156
       144   05 Jun 2027 11:44:05.691   05 Jun 2027 11:44:16.305            10.614          5269.125
       145   05 Jun 2027 11:45:35.997   05 Jun 2027 11:45:40.088             4.091          1576.000
       146   05 Jun 2027 11:47:19.695   05 Jun 2027 11:47:30.661            10.966          3112.719
       147   05 Jun 2027 11:47:45.320   05 Jun 2027 11:47:46.641             1.321           458.094
       148   05 Jun 2027 11:48:04.750   05 Jun 2027 11:48:06.616             1.866           404.781
       149   05 Jun 2027 11:48:12.208   05 Jun 2027 11:48:13.847             1.639           121.937
       150   05 Jun 2027 11:48:21.514   05 Jun 2027 11:48:21.934             0.420           210.000
       151   05 Jun 2027 11:48:56.127   05 Jun 2027 11:48:56.901             0.774           387.000
       152   05 Jun 2027 11:50:13.355   05 Jun 2027 11:50:17.218             3.863          1931.500
       153   05 Jun 2027 11:50:27.606   05 Jun 2027 11:50:34.500             6.894          1493.437
       154   06 Jun 2027 03:55:15.532   06 Jun 2027 03:56:05.319            49.787         24893.500
       155   06 Jun 2027 03:57:23.424   06 Jun 2027 03:57:33.938            10.514          5257.000
       156   06 Jun 2027 03:58:54.668   06 Jun 2027 03:59:12.433            17.765          8882.500
       157   06 Jun 2027 05:30:19.462   06 Jun 2027 05:32:29.118           129.656         64828.000
       158   06 Jun 2027 05:32:36.799   06 Jun 2027 05:32:49.767            12.968          6484.000
       159   06 Jun 2027 05:33:37.414   06 Jun 2027 05:33:37.414             0.000             0.000
       160   06 Jun 2027 05:34:04.704   06 Jun 2027 05:34:23.550            18.846          9423.000
       161   06 Jun 2027 05:35:50.497   06 Jun 2027 05:35:51.876             1.379           689.500
       162   06 Jun 2027 07:07:55.208   06 Jun 2027 07:09:37.816           102.608         51304.000
       163   06 Jun 2027 07:10:14.805   06 Jun 2027 07:10:24.644             9.839          4919.500
       164   06 Jun 2027 07:10:46.475   06 Jun 2027 07:10:46.475             0.000             0.000
       165   06 Jun 2027 07:11:12.273   06 Jun 2027 07:11:20.111             7.838          3919.000
       166   06 Jun 2027 07:12:16.078   06 Jun 2027 07:12:22.928             6.850          2132.876
       167   06 Jun 2027 07:14:11.586   06 Jun 2027 07:14:19.588             8.002          3392.906
       168   06 Jun 2027 07:15:07.255   06 Jun 2027 07:15:10.874             3.619          1489.594
       169   06 Jun 2027 08:44:40.779   06 Jun 2027 08:44:50.405             9.626          4813.000
       170   06 Jun 2027 08:44:59.382   06 Jun 2027 08:45:17.451            18.069          8945.719
       171   06 Jun 2027 08:45:42.290   06 Jun 2027 08:45:43.934             1.644           776.219
       172   06 Jun 2027 08:46:21.295   06 Jun 2027 08:46:23.250             1.955           768.062
       173   06 Jun 2027 08:47:00.212   06 Jun 2027 08:47:02.047             1.835           599.875
       174   06 Jun 2027 08:48:25.070   06 Jun 2027 08:48:31.877             6.807          2241.187
       175   06 Jun 2027 08:48:43.282   06 Jun 2027 08:48:49.699             6.417            58.656
       176   06 Jun 2027 08:49:16.043   06 Jun 2027 08:49:18.019             1.976           823.250
       177   06 Jun 2027 08:49:37.501   06 Jun 2027 08:49:39.086             1.585           239.688
       178   06 Jun 2027 08:50:07.709   06 Jun 2027 08:50:11.070             3.361           894.469
       179   06 Jun 2027 08:50:57.244   06 Jun 2027 08:51:01.407             4.163          1400.563
       180   06 Jun 2027 08:51:20.047   06 Jun 2027 08:51:22.160             2.113           582.500
       181   06 Jun 2027 10:22:45.619   06 Jun 2027 10:23:03.675            18.056          7239.562
       182   06 Jun 2027 10:23:08.930   06 Jun 2027 10:23:13.747             4.817           103.906
       183   06 Jun 2027 10:23:52.015   06 Jun 2027 10:23:54.808             2.793          1192.344
       184   06 Jun 2027 10:24:18.436   06 Jun 2027 10:24:25.074             6.638           683.156
       185   06 Jun 2027 10:24:40.424   06 Jun 2027 10:24:49.035             8.611           479.688
       186   06 Jun 2027 10:25:36.794   06 Jun 2027 10:25:40.778             3.984          1325.750
       187   06 Jun 2027 10:25:50.908   06 Jun 2027 10:25:52.826             1.918           237.313
       188   06 Jun 2027 10:26:11.181   06 Jun 2027 10:26:12.675             1.494           573.594
       189   06 Jun 2027 11:56:32.149   06 Jun 2027 11:56:39.418             7.269          1330.469
       190   06 Jun 2027 11:57:04.440   06 Jun 2027 11:57:05.620             1.180           527.219
       191   06 Jun 2027 11:57:39.778   06 Jun 2027 11:57:43.122             3.344           737.219
       192   06 Jun 2027 11:59:04.015   06 Jun 2027 11:59:11.293             7.278          2436.469
       193   07 Jun 2027 04:06:57.671   07 Jun 2027 04:07:50.493            52.822         26411.000
       194   07 Jun 2027 04:08:34.643   07 Jun 2027 04:08:37.799             3.156          1578.000
       195   07 Jun 2027 04:08:39.760   07 Jun 2027 04:08:49.243             9.483          4741.500
       196   07 Jun 2027 05:41:50.234   07 Jun 2027 05:44:33.596           163.362         81681.000
       197   07 Jun 2027 05:47:29.571   07 Jun 2027 05:47:36.974             7.403          3701.500
       198   07 Jun 2027 05:49:47.659   07 Jun 2027 05:49:52.489             4.830          2415.000
       199   07 Jun 2027 05:50:47.561   07 Jun 2027 05:50:51.897             4.336          2168.000
       200   07 Jun 2027 07:19:55.607   07 Jun 2027 07:21:55.452           119.845         59922.500
       201   07 Jun 2027 07:22:18.765   07 Jun 2027 07:22:29.561            10.796          3885.406
       202   07 Jun 2027 07:25:28.925   07 Jun 2027 07:25:33.689             4.764          2382.000
       203   07 Jun 2027 07:25:39.179   07 Jun 2027 07:25:42.610             3.431          1715.500
       204   07 Jun 2027 07:26:28.095   07 Jun 2027 07:26:30.308             2.213          1106.500
       205   07 Jun 2027 08:56:49.222   07 Jun 2027 08:57:17.965            28.743         13237.031
       206   07 Jun 2027 08:58:06.961   07 Jun 2027 08:58:09.042             2.081           859.344
       207   07 Jun 2027 08:59:26.236   07 Jun 2027 08:59:31.024             4.788          2189.625
       208   07 Jun 2027 08:59:49.400   07 Jun 2027 08:59:51.538             2.138           383.969
       209   07 Jun 2027 09:00:21.995   07 Jun 2027 09:00:25.037             3.042           951.781
       210   07 Jun 2027 09:01:29.946   07 Jun 2027 09:01:32.917             2.971          1461.437
       211   07 Jun 2027 09:01:37.037   07 Jun 2027 09:01:37.804             0.767            99.219
       212   07 Jun 2027 09:02:46.753   07 Jun 2027 09:02:54.212             7.459          2114.937
       213   07 Jun 2027 10:33:58.688   07 Jun 2027 10:34:18.003            19.315          7597.531
       214   07 Jun 2027 10:35:24.965   07 Jun 2027 10:35:29.975             5.010          2064.281
       215   07 Jun 2027 10:36:30.303   07 Jun 2027 10:36:41.139            10.836          1798.906
       216   07 Jun 2027 10:36:56.058   07 Jun 2027 10:36:58.337             2.279           410.188
       217   07 Jun 2027 10:37:18.742   07 Jun 2027 10:37:20.082             1.340           637.656
       218   07 Jun 2027 10:37:30.103   07 Jun 2027 10:37:37.693             7.590           313.156
       219   07 Jun 2027 10:38:06.399   07 Jun 2027 10:38:06.399             0.000             0.000
       220   08 Jun 2027 04:21:16.845   08 Jun 2027 04:22:51.014            94.169         47084.500
       221   08 Jun 2027 05:54:50.149   08 Jun 2027 05:56:43.523           113.374         56687.000
       222   08 Jun 2027 05:56:56.026   08 Jun 2027 05:57:04.726             8.700          4350.000
       223   08 Jun 2027 05:57:46.476   08 Jun 2027 05:57:51.097             4.621          2310.500
       224   08 Jun 2027 05:58:08.435   08 Jun 2027 05:58:31.529            23.094         11547.000
       225   08 Jun 2027 06:03:22.524   08 Jun 2027 06:03:23.787             1.263           631.500
       226   08 Jun 2027 07:32:18.731   08 Jun 2027 07:34:05.984           107.253         53626.500
       227   08 Jun 2027 07:35:24.113   08 Jun 2027 07:35:34.305            10.192          5096.000
       228   08 Jun 2027 07:36:17.421   08 Jun 2027 07:36:19.632             2.211          1105.500
       229   08 Jun 2027 07:37:34.812   08 Jun 2027 07:37:40.413             5.601          2800.500
       230   08 Jun 2027 07:38:44.465   08 Jun 2027 07:38:54.702            10.237          4773.313
       231   08 Jun 2027 07:38:57.846   08 Jun 2027 07:39:01.957             4.111            61.500
       232   08 Jun 2027 09:09:17.230   08 Jun 2027 09:09:40.422            23.192         11596.000
       233   08 Jun 2027 09:10:20.996   08 Jun 2027 09:10:29.924             8.928          2038.969
       234   08 Jun 2027 09:11:32.503   08 Jun 2027 09:11:38.369             5.866          1596.219
       235   08 Jun 2027 09:12:33.857   08 Jun 2027 09:12:36.747             2.890          1341.687
       236   08 Jun 2027 09:12:58.655   08 Jun 2027 09:13:00.342             1.687           672.687
       237   08 Jun 2027 09:13:40.752   08 Jun 2027 09:13:42.266             1.514           757.000
       238   08 Jun 2027 09:13:56.852   08 Jun 2027 09:14:00.154             3.302           961.625
       239   08 Jun 2027 09:14:28.317   08 Jun 2027 09:14:30.508             2.191           736.250
       240   08 Jun 2027 09:14:54.138   08 Jun 2027 09:14:57.418             3.280           610.625
       241   08 Jun 2027 10:46:11.274   08 Jun 2027 10:46:28.185            16.911          8133.063
       242   08 Jun 2027 10:46:36.959   08 Jun 2027 10:46:38.677             1.718           224.094
       243   08 Jun 2027 10:47:16.364   08 Jun 2027 10:47:18.415             2.051          1025.500
       244   08 Jun 2027 10:48:11.038   08 Jun 2027 10:48:14.284             3.246          1623.000
       245   08 Jun 2027 10:48:42.668   08 Jun 2027 10:48:45.154             2.486          1060.688
       246   08 Jun 2027 10:49:28.999   08 Jun 2027 10:49:36.459             7.460          1370.156
       247   08 Jun 2027 10:50:27.769   08 Jun 2027 10:50:32.201             4.432           777.750
       248   09 Jun 2027 04:33:21.964   09 Jun 2027 04:34:57.778            95.814         47907.000
       249   09 Jun 2027 06:05:31.657   09 Jun 2027 06:05:41.372             9.715          4857.500
       250   09 Jun 2027 06:07:29.016   09 Jun 2027 06:09:12.927           103.911         51955.500
       251   09 Jun 2027 06:09:56.707   09 Jun 2027 06:10:20.389            23.682         11841.000
       252   09 Jun 2027 06:14:59.852   09 Jun 2027 06:15:08.357             8.505          4252.500
       253   09 Jun 2027 07:44:27.510   09 Jun 2027 07:45:55.372            87.862         43931.000
       254   09 Jun 2027 07:46:55.433   09 Jun 2027 07:47:06.320            10.887          4280.594
       255   09 Jun 2027 07:47:34.955   09 Jun 2027 07:47:37.565             2.610           451.281
       256   09 Jun 2027 07:48:23.449   09 Jun 2027 07:48:27.847             4.398          1393.000
       257   09 Jun 2027 07:48:53.351   09 Jun 2027 07:48:54.760             1.409           672.937
       258   09 Jun 2027 07:49:12.357   09 Jun 2027 07:49:16.644             4.287           211.563
       259   09 Jun 2027 07:49:45.204   09 Jun 2027 07:49:49.124             3.920           441.750
       260   09 Jun 2027 09:21:47.546   09 Jun 2027 09:22:14.694            27.148         12322.844
       261   09 Jun 2027 09:22:42.442   09 Jun 2027 09:22:42.442             0.000             0.000
       262   09 Jun 2027 09:22:55.950   09 Jun 2027 09:22:59.647             3.697           604.000
       263   09 Jun 2027 09:23:25.874   09 Jun 2027 09:23:26.231             0.357           178.500
       264   09 Jun 2027 09:23:51.104   09 Jun 2027 09:24:03.699            12.595          1178.125
       265   09 Jun 2027 09:24:33.608   09 Jun 2027 09:24:37.656             4.048           885.969
       266   09 Jun 2027 09:25:07.620   09 Jun 2027 09:25:09.269             1.649           777.062
       267   09 Jun 2027 09:25:29.487   09 Jun 2027 09:25:29.487             0.000             0.000
       268   09 Jun 2027 09:25:46.382   09 Jun 2027 09:25:49.272             2.890          1159.781
       269   09 Jun 2027 09:26:05.342   09 Jun 2027 09:26:06.835             1.493           499.375
       270   09 Jun 2027 10:58:12.697   09 Jun 2027 10:58:35.289            22.592          8707.063
       271   09 Jun 2027 10:58:53.448   09 Jun 2027 10:58:54.464             1.016           469.063
       272   09 Jun 2027 10:59:19.813   09 Jun 2027 10:59:21.567             1.754           517.437
       273   09 Jun 2027 11:00:03.015   09 Jun 2027 11:00:07.451             4.436          1295.250
       274   09 Jun 2027 11:01:04.845   09 Jun 2027 11:01:09.015             4.170          1690.906
       275   09 Jun 2027 11:02:07.453   09 Jun 2027 11:02:11.370             3.917          1788.375
       276   09 Jun 2027 11:02:25.346   09 Jun 2027 11:02:28.388             3.042           436.750
       277   09 Jun 2027 11:02:50.796   09 Jun 2027 11:02:54.232             3.436           700.250
       278   09 Jun 2027 11:02:54.673   09 Jun 2027 11:02:54.824             0.151            13.781
       279   09 Jun 2027 11:03:06.391   09 Jun 2027 11:03:07.028             0.637           217.125
       280   10 Jun 2027 03:09:03.260   10 Jun 2027 03:09:20.265            17.005          8502.500
       281   10 Jun 2027 03:09:46.312   10 Jun 2027 03:09:53.587             7.275          3637.500
       282   10 Jun 2027 03:10:23.578   10 Jun 2027 03:10:26.696             3.118          1559.000
       283   10 Jun 2027 03:10:39.812   10 Jun 2027 03:10:39.812             0.000             0.000
       284   10 Jun 2027 03:10:41.424   10 Jun 2027 03:11:19.089            37.665         18832.500
       285   10 Jun 2027 04:45:31.645   10 Jun 2027 04:46:47.705            76.060         38030.000
       286   10 Jun 2027 04:46:49.167   10 Jun 2027 04:47:08.440            19.273          9636.500
       287   10 Jun 2027 06:20:42.530   10 Jun 2027 06:22:08.353            85.823         42911.500
       288   10 Jun 2027 06:23:24.401   10 Jun 2027 06:23:24.401             0.000             0.000
       289   10 Jun 2027 06:23:32.483   10 Jun 2027 06:23:38.272             5.789          2894.500
       290   10 Jun 2027 06:25:33.500   10 Jun 2027 06:25:44.720            11.220          5610.000
       291   10 Jun 2027 06:26:25.081   10 Jun 2027 06:26:38.865            13.784          6892.000
       292   10 Jun 2027 07:57:01.284   10 Jun 2027 07:57:56.137            54.853         27426.500
       293   10 Jun 2027 07:58:13.564   10 Jun 2027 07:58:36.188            22.624         11210.157
       294   10 Jun 2027 07:59:53.079   10 Jun 2027 07:59:58.592             5.513          2355.438
       295   10 Jun 2027 08:00:28.427   10 Jun 2027 08:00:29.324             0.897           448.500
       296   10 Jun 2027 08:00:52.097   10 Jun 2027 08:00:52.097             0.000             0.000
       297   10 Jun 2027 08:01:33.336   10 Jun 2027 08:01:40.033             6.697          1965.437
       298   10 Jun 2027 08:03:03.113   10 Jun 2027 08:03:10.985             7.872          2596.250
       299   10 Jun 2027 09:34:24.386   10 Jun 2027 09:34:43.680            19.294          9424.469
       300   10 Jun 2027 09:35:00.492   10 Jun 2027 09:35:02.129             1.637           522.938
       301   10 Jun 2027 09:35:17.869   10 Jun 2027 09:35:20.316             2.447           491.875
       302   10 Jun 2027 09:35:23.880   10 Jun 2027 09:35:25.861             1.981            85.625
       303   10 Jun 2027 09:36:30.702   10 Jun 2027 09:36:36.461             5.759          2026.281
       304   10 Jun 2027 09:36:44.009   10 Jun 2027 09:36:44.009             0.000             0.000
       305   10 Jun 2027 09:36:57.943   10 Jun 2027 09:37:00.521             2.578           668.438
       306   10 Jun 2027 09:37:16.831   10 Jun 2027 09:37:16.831             0.000             0.000
       307   10 Jun 2027 09:37:36.581   10 Jun 2027 09:37:37.858             1.277           638.500
       308   10 Jun 2027 09:38:03.024   10 Jun 2027 09:38:06.215             3.191          1274.812
       309   10 Jun 2027 09:38:19.696   10 Jun 2027 09:38:24.518             4.822           358.500
       310   10 Jun 2027 11:10:35.144   10 Jun 2027 11:10:58.181            23.037          8630.375
       311   10 Jun 2027 11:11:24.133   10 Jun 2027 11:11:27.655             3.522           811.000
       312   10 Jun 2027 11:12:09.607   10 Jun 2027 11:12:13.689             4.082          1311.000
       313   10 Jun 2027 11:12:14.697   10 Jun 2027 11:12:16.503             1.806            31.500
       314   10 Jun 2027 11:12:46.016   10 Jun 2027 11:12:47.829             1.813           609.281
       315   10 Jun 2027 11:13:22.215   10 Jun 2027 11:13:23.485             1.270           464.313
       316   10 Jun 2027 11:14:24.781   10 Jun 2027 11:14:28.524             3.743          1666.781
       317   10 Jun 2027 11:14:49.221   10 Jun 2027 11:14:49.760             0.539           269.500
       318   11 Jun 2027 03:21:04.157   11 Jun 2027 03:21:25.270            21.113         10556.500
       319   11 Jun 2027 03:21:40.436   11 Jun 2027 03:21:53.549            13.113          6556.500
       320   11 Jun 2027 03:22:30.987   11 Jun 2027 03:23:23.353            52.366         26183.000
       321   11 Jun 2027 04:57:31.532   11 Jun 2027 04:58:11.885            40.353         20176.500
       322   11 Jun 2027 04:58:40.683   11 Jun 2027 04:58:54.378            13.695          6847.500
       323   11 Jun 2027 05:00:54.140   11 Jun 2027 05:01:01.546             7.406          3703.000
       324   11 Jun 2027 06:32:44.544   11 Jun 2027 06:34:31.058           106.514         53257.000
       325   11 Jun 2027 06:34:44.413   11 Jun 2027 06:34:51.607             7.194          3597.000
       326   11 Jun 2027 06:35:06.094   11 Jun 2027 06:35:08.453             2.359          1179.500
       327   11 Jun 2027 06:36:27.319   11 Jun 2027 06:36:44.272            16.953          8476.500
       328   11 Jun 2027 06:38:54.175   11 Jun 2027 06:39:07.670            13.495          6747.500
       329   11 Jun 2027 08:08:39.937   11 Jun 2027 08:09:36.922            56.985         28359.719
       330   11 Jun 2027 08:11:11.147   11 Jun 2027 08:11:17.572             6.425          2944.531
       331   11 Jun 2027 08:12:59.192   11 Jun 2027 08:13:13.346            14.154          2948.062
       332   11 Jun 2027 08:13:38.082   11 Jun 2027 08:13:42.006             3.924           684.812
       333   11 Jun 2027 08:13:50.151   11 Jun 2027 08:13:52.309             2.158           185.156
       334   11 Jun 2027 08:14:12.424   11 Jun 2027 08:14:14.117             1.693           268.969
       335   11 Jun 2027 09:46:38.876   11 Jun 2027 09:47:01.608            22.732         10498.500
       336   11 Jun 2027 09:47:25.913   11 Jun 2027 09:47:26.153             0.240           120.000
       337   11 Jun 2027 09:47:57.211   11 Jun 2027 09:48:07.040             9.829          1448.531
       338   11 Jun 2027 09:48:25.121   11 Jun 2027 09:48:29.136             4.015           565.031
       339   11 Jun 2027 09:48:42.336   11 Jun 2027 09:48:43.688             1.352           412.500
       340   11 Jun 2027 09:49:27.494   11 Jun 2027 09:49:32.956             5.462          1293.750
       341   11 Jun 2027 09:50:32.738   11 Jun 2027 09:50:33.062             0.324           162.000
       342   11 Jun 2027 09:50:58.658   11 Jun 2027 09:51:02.505             3.847          1821.625
       343   11 Jun 2027 11:22:30.413   11 Jun 2027 11:22:42.744            12.331          6125.938
       344   11 Jun 2027 11:23:37.865   11 Jun 2027 11:23:48.087            10.222          1722.531
       345   11 Jun 2027 11:23:58.350   11 Jun 2027 11:23:58.649             0.299           149.500
       346   11 Jun 2027 11:24:46.860   11 Jun 2027 11:24:52.204             5.344          1670.250
       347   11 Jun 2027 11:25:34.489   11 Jun 2027 11:25:37.935             3.446          1200.281
       348   11 Jun 2027 11:26:09.100   11 Jun 2027 11:26:10.333             1.233           616.500
       349   11 Jun 2027 11:26:20.001   11 Jun 2027 11:26:20.876             0.875           437.500
       350   11 Jun 2027 11:27:18.219   11 Jun 2027 11:27:24.863             6.644          1908.563
       351   12 Jun 2027 03:33:30.275   12 Jun 2027 03:34:27.575            57.300         28650.000
       352   12 Jun 2027 03:35:23.614   12 Jun 2027 03:35:23.614             0.000             0.000
       353   12 Jun 2027 03:35:42.839   12 Jun 2027 03:35:56.573            13.734          6867.000
       354   12 Jun 2027 05:09:15.922   12 Jun 2027 05:11:11.069           115.147         57573.500
       355   12 Jun 2027 05:13:35.654   12 Jun 2027 05:13:37.506             1.852           926.000
       356   12 Jun 2027 06:43:59.747   12 Jun 2027 06:46:04.099           124.352         62176.000
       357   12 Jun 2027 06:49:07.454   12 Jun 2027 06:49:17.381             9.927          4963.500
       358   12 Jun 2027 06:50:52.933   12 Jun 2027 06:51:03.454            10.521          4617.563
       359   12 Jun 2027 08:20:49.464   12 Jun 2027 08:21:19.674            30.210         15101.531
       360   12 Jun 2027 08:22:11.521   12 Jun 2027 08:22:15.869             4.348           740.875
       361   12 Jun 2027 08:22:36.202   12 Jun 2027 08:22:37.333             1.131           353.156
       362   12 Jun 2027 08:22:52.427   12 Jun 2027 08:22:53.334             0.907           417.094
       363   12 Jun 2027 08:24:46.205   12 Jun 2027 08:24:54.729             8.524          2601.562
       364   12 Jun 2027 08:25:01.247   12 Jun 2027 08:25:01.546             0.299            46.250
       365   12 Jun 2027 08:25:46.591   12 Jun 2027 08:25:52.448             5.857          1407.656
       366   12 Jun 2027 08:25:56.374   12 Jun 2027 08:25:57.020             0.646            72.969
       367   12 Jun 2027 08:26:14.162   12 Jun 2027 08:26:15.385             1.223           157.969
       368   12 Jun 2027 09:59:01.421   12 Jun 2027 09:59:21.656            20.235          8188.781
       369   12 Jun 2027 10:00:29.862   12 Jun 2027 10:00:33.843             3.981          1973.250
       370   12 Jun 2027 10:00:41.123   12 Jun 2027 10:00:48.685             7.562           227.500
       371   12 Jun 2027 10:01:19.150   12 Jun 2027 10:01:24.480             5.330           838.437
       372   12 Jun 2027 10:01:42.526   12 Jun 2027 10:01:47.694             5.168            94.719
       373   12 Jun 2027 10:02:23.833   12 Jun 2027 10:02:26.468             2.635          1129.344
       374   12 Jun 2027 11:32:19.207   12 Jun 2027 11:32:31.788            12.581          6290.500
       375   12 Jun 2027 11:32:57.923   12 Jun 2027 11:33:01.913             3.990          1288.656
       376   12 Jun 2027 11:34:12.864   12 Jun 2027 11:34:17.507             4.643          2028.000
       377   12 Jun 2027 11:35:45.241   12 Jun 2027 11:35:54.262             9.021          2741.688
       378   12 Jun 2027 11:36:07.177   12 Jun 2027 11:36:10.766             3.589           149.437
       379   12 Jun 2027 11:37:09.253   12 Jun 2027 11:37:10.473             1.220           610.000
       380   12 Jun 2027 11:37:34.709   12 Jun 2027 11:37:45.760            11.051          1855.125
       381   12 Jun 2027 11:39:20.503   12 Jun 2027 11:39:32.616            12.113          2383.000
       382   12 Jun 2027 11:40:02.150   12 Jun 2027 11:40:02.150             0.000             0.000
       383   13 Jun 2027 03:44:05.395   13 Jun 2027 03:44:50.772            45.377         22688.500
       384   13 Jun 2027 03:48:03.624   13 Jun 2027 03:48:20.625            17.001          8500.500
       385   13 Jun 2027 05:19:08.913   13 Jun 2027 05:20:28.072            79.159         39579.500
       386   13 Jun 2027 05:20:59.641   13 Jun 2027 05:21:47.499            47.858         23929.000
       387   13 Jun 2027 05:25:02.275   13 Jun 2027 05:25:19.155            16.880          8440.000
       388   13 Jun 2027 05:25:45.412   13 Jun 2027 05:25:53.447             8.035          4017.500
       389   13 Jun 2027 06:56:07.741   13 Jun 2027 06:57:52.177           104.436         52218.000
       390   13 Jun 2027 06:58:46.214   13 Jun 2027 06:59:09.758            23.544         11772.000
       391   13 Jun 2027 07:02:24.843   13 Jun 2027 07:02:27.344             2.501          1250.500
       392   13 Jun 2027 08:33:05.789   13 Jun 2027 08:33:41.055            35.266         17246.375
       393   13 Jun 2027 08:34:03.021   13 Jun 2027 08:34:05.359             2.338           686.437
       394   13 Jun 2027 08:34:37.544   13 Jun 2027 08:34:37.959             0.415           149.125
       395   13 Jun 2027 08:34:54.104   13 Jun 2027 08:34:57.534             3.430           504.531
       396   13 Jun 2027 08:36:32.863   13 Jun 2027 08:36:35.507             2.644          1322.000
       397   13 Jun 2027 08:37:11.802   13 Jun 2027 08:37:15.427             3.625          1812.500
       398   13 Jun 2027 08:38:04.312   13 Jun 2027 08:38:08.107             3.795          1621.906
       399   13 Jun 2027 08:38:20.522   13 Jun 2027 08:38:21.803             1.281           148.438
       400   13 Jun 2027 08:38:29.550   13 Jun 2027 08:38:35.336             5.786           242.094
       401   13 Jun 2027 10:11:01.530   13 Jun 2027 10:11:18.728            17.198          8499.656
       402   13 Jun 2027 10:11:48.360   13 Jun 2027 10:11:55.015             6.655           926.000
       403   13 Jun 2027 10:12:23.137   13 Jun 2027 10:12:23.607             0.470            57.250
       404   13 Jun 2027 10:12:33.462   13 Jun 2027 10:12:37.070             3.608           307.969
       405   13 Jun 2027 10:12:52.093   13 Jun 2027 10:12:53.414             1.321           469.469
       406   13 Jun 2027 10:13:41.630   13 Jun 2027 10:13:42.275             0.645           322.500
       407   13 Jun 2027 10:14:00.364   13 Jun 2027 10:14:03.454             3.090          1182.250
       408   13 Jun 2027 10:14:45.099   13 Jun 2027 10:14:50.443             5.344          1007.000
       409   13 Jun 2027 11:44:21.340   13 Jun 2027 11:44:33.402            12.062          5469.906
       410   13 Jun 2027 11:45:50.163   13 Jun 2027 11:45:51.613             1.450           725.000
       411   13 Jun 2027 11:46:06.088   13 Jun 2027 11:46:11.092             5.004          1281.094
       412   13 Jun 2027 11:47:34.487   13 Jun 2027 11:47:45.258            10.771          2606.094
       413   13 Jun 2027 11:49:11.623   13 Jun 2027 11:49:17.878             6.255          2698.906
       414   13 Jun 2027 11:50:28.431   13 Jun 2027 11:50:31.234             2.803          1401.500
       415   13 Jun 2027 11:50:37.605   13 Jun 2027 11:50:42.567             4.962           795.063
       416   13 Jun 2027 11:51:49.721   13 Jun 2027 11:51:56.164             6.443          2098.562
