uniorb/output/strategy_1/Camera/Camera_KinoSat_111601.txt

KinoSat_111601
-------------------------
    Access    *     Start Time (UTCG)     *     Stop Time (UTCG)  *   Duration (s) *   Data (Mbytes)
         1   01 Jun 2027 03:52:52.791   01 Jun 2027 03:53:02.871            10.080          5040.000
         2   01 Jun 2027 03:53:54.487   01 Jun 2027 03:56:07.222           132.735         66367.500
         3   01 Jun 2027 03:57:26.322   01 Jun 2027 03:57:34.342             8.020          4010.000
         4   01 Jun 2027 04:00:30.832   01 Jun 2027 04:00:42.269            11.437          5718.500
         5   01 Jun 2027 05:31:03.119   01 Jun 2027 05:31:41.905            38.786         19393.000
         6   01 Jun 2027 05:32:07.521   01 Jun 2027 05:32:55.166            47.645         23822.500
         7   01 Jun 2027 05:33:17.075   01 Jun 2027 05:33:21.591             4.516          2258.000
         8   01 Jun 2027 05:34:02.039   01 Jun 2027 05:34:27.300            25.261         12630.500
         9   01 Jun 2027 06:55:08.918   01 Jun 2027 06:56:27.167            78.249         39124.500
        10   01 Jun 2027 08:30:54.341   01 Jun 2027 08:31:23.970            29.629         14814.500
        11   01 Jun 2027 08:32:16.766   01 Jun 2027 08:32:50.845            34.079         17039.500
        12   01 Jun 2027 08:32:57.555   01 Jun 2027 08:33:28.263            30.708         15354.000
        13   01 Jun 2027 08:34:08.038   01 Jun 2027 08:34:16.345             8.307          4153.500
        14   01 Jun 2027 10:05:51.828   01 Jun 2027 10:06:16.694            24.866         12433.000
        15   01 Jun 2027 10:07:24.172   01 Jun 2027 10:08:56.126            91.954         45977.000
        16   01 Jun 2027 10:12:29.390   01 Jun 2027 10:12:48.051            18.661          9330.500
        17   01 Jun 2027 11:42:05.450   01 Jun 2027 11:44:08.667           123.217         61608.500
        18   02 Jun 2027 04:05:58.104   02 Jun 2027 04:07:56.499           118.395         59197.500
        19   02 Jun 2027 04:10:46.980   02 Jun 2027 04:10:47.764             0.784           392.000
        20   02 Jun 2027 04:11:26.626   02 Jun 2027 04:11:32.917             6.291          3145.500
        21   02 Jun 2027 04:12:57.590   02 Jun 2027 04:13:36.611            39.021         19510.500
        22   02 Jun 2027 05:31:53.759   02 Jun 2027 05:32:37.052            43.293         21646.500
        23   02 Jun 2027 05:42:59.600   02 Jun 2027 05:43:53.981            54.381         27190.500
        24   02 Jun 2027 05:45:05.590   02 Jun 2027 05:45:14.125             8.535          4267.500
        25   02 Jun 2027 07:05:56.923   02 Jun 2027 07:07:43.807           106.884         53442.000
        26   02 Jun 2027 08:41:16.553   02 Jun 2027 08:41:42.154            25.601         12800.500
        27   02 Jun 2027 08:42:39.522   02 Jun 2027 08:44:12.023            92.501         46250.500
        28   02 Jun 2027 08:45:21.772   02 Jun 2027 08:45:21.772             0.000             0.000
        29   02 Jun 2027 08:45:35.137   02 Jun 2027 08:45:50.056            14.919          7459.500
        30   02 Jun 2027 10:19:24.982   02 Jun 2027 10:20:26.920            61.938         30969.000
        31   02 Jun 2027 10:20:46.237   02 Jun 2027 10:20:58.235            11.998          5999.000
        32   02 Jun 2027 10:24:18.029   02 Jun 2027 10:25:00.211            42.182         21091.000
        33   02 Jun 2027 11:54:27.401   02 Jun 2027 11:54:51.851            24.450         12225.000
        34   02 Jun 2027 11:57:11.335   02 Jun 2027 11:58:15.703            64.368         32184.000
        35   02 Jun 2027 11:58:55.199   02 Jun 2027 11:59:05.842            10.643          5321.500
        36   02 Jun 2027 11:59:41.583   02 Jun 2027 12:00:00.000            18.417          9208.500
        37   03 Jun 2027 04:18:27.972   03 Jun 2027 04:19:38.779            70.807         35403.500
        38   03 Jun 2027 04:19:59.374   03 Jun 2027 04:19:59.813             0.439           219.500
        39   03 Jun 2027 04:22:37.878   03 Jun 2027 04:22:58.609            20.731         10365.500
        40   03 Jun 2027 04:25:12.779   03 Jun 2027 04:25:13.755             0.976           488.000
        41   03 Jun 2027 05:43:19.437   03 Jun 2027 05:44:50.036            90.599         45299.500
        42   03 Jun 2027 05:55:02.714   03 Jun 2027 05:55:47.079            44.365         22182.500
        43   03 Jun 2027 07:17:15.015   03 Jun 2027 07:18:27.634            72.619         36309.500
        44   03 Jun 2027 07:19:16.859   03 Jun 2027 07:19:54.452            37.593         18796.500
        45   03 Jun 2027 07:20:30.065   03 Jun 2027 07:20:50.792            20.727         10363.500
        46   03 Jun 2027 08:52:21.105   03 Jun 2027 08:53:50.776            89.671         44835.500
        47   03 Jun 2027 08:54:42.034   03 Jun 2027 08:55:16.037            34.003         17001.500
        48   03 Jun 2027 08:55:29.931   03 Jun 2027 08:55:43.470            13.539          6769.500
        49   03 Jun 2027 08:56:06.416   03 Jun 2027 08:56:09.628             3.212          1606.000
        50   03 Jun 2027 08:58:21.734   03 Jun 2027 08:58:21.734             0.000             0.000
        51   03 Jun 2027 08:58:28.113   03 Jun 2027 08:58:35.433             7.320          3660.000
        52   03 Jun 2027 08:59:15.658   03 Jun 2027 08:59:18.881             3.223          1611.500
        53   03 Jun 2027 10:32:50.752   03 Jun 2027 10:34:04.587            73.835         36917.500
        54   03 Jun 2027 10:34:34.773   03 Jun 2027 10:34:36.737             1.964           982.000
        55   03 Jun 2027 10:34:57.310   03 Jun 2027 10:35:00.125             2.815          1383.874
        56   03 Jun 2027 10:35:05.401   03 Jun 2027 10:35:07.709             2.308           164.875
        57   03 Jun 2027 10:35:54.748   03 Jun 2027 10:36:02.356             7.608          1469.969
        58   03 Jun 2027 10:36:10.319   03 Jun 2027 10:36:10.931             0.612           175.000
        59   03 Jun 2027 10:37:00.460   03 Jun 2027 10:37:01.050             0.590           295.000
        60   04 Jun 2027 04:30:36.516   04 Jun 2027 04:31:52.152            75.636         37818.000
        61   04 Jun 2027 04:32:53.822   04 Jun 2027 04:33:09.546            15.724          7862.000
        62   04 Jun 2027 04:33:13.515   04 Jun 2027 04:33:16.389             2.874          1437.000
        63   04 Jun 2027 04:33:36.015   04 Jun 2027 04:33:43.365             7.350          3675.000
        64   04 Jun 2027 04:34:30.878   04 Jun 2027 04:34:34.117             3.239          1619.500
        65   04 Jun 2027 04:36:24.792   04 Jun 2027 04:36:34.507             9.715          4857.500
        66   04 Jun 2027 04:37:25.997   04 Jun 2027 04:37:35.816             9.819          4909.500
        67   04 Jun 2027 05:54:48.257   04 Jun 2027 05:55:28.751            40.494         20247.000
        68   04 Jun 2027 05:56:40.146   04 Jun 2027 05:57:01.827            21.681         10840.500
        69   04 Jun 2027 06:07:03.539   04 Jun 2027 06:07:35.327            31.788         15894.000
        70   04 Jun 2027 07:29:00.543   04 Jun 2027 07:30:21.137            80.594         40297.000
        71   04 Jun 2027 07:31:03.255   04 Jun 2027 07:31:25.566            22.311         11155.500
        72   04 Jun 2027 07:32:02.880   04 Jun 2027 07:32:27.426            24.546         11696.656
        73   04 Jun 2027 09:03:50.179   04 Jun 2027 09:04:10.082            19.903          9611.156
        74   04 Jun 2027 09:04:35.125   04 Jun 2027 09:04:35.960             0.835           365.438
        75   04 Jun 2027 09:05:11.817   04 Jun 2027 09:05:12.808             0.991           204.500
        76   04 Jun 2027 09:05:44.933   04 Jun 2027 09:05:46.555             1.622           391.844
        77   04 Jun 2027 09:07:50.209   04 Jun 2027 09:08:01.206            10.997          3864.188
        78   04 Jun 2027 09:09:30.576   04 Jun 2027 09:09:37.154             6.578          2529.188
        79   04 Jun 2027 09:10:22.258   04 Jun 2027 09:10:22.258             0.000             0.000
        80   04 Jun 2027 09:11:40.620   04 Jun 2027 09:11:43.329             2.709          1354.500
        81   04 Jun 2027 09:12:08.373   04 Jun 2027 09:12:11.179             2.806          1382.344
        82   04 Jun 2027 09:12:26.262   04 Jun 2027 09:12:27.435             1.173           216.625
        83   04 Jun 2027 10:41:37.277   04 Jun 2027 10:41:52.630            15.353          5330.125
        84   04 Jun 2027 10:42:20.417   04 Jun 2027 10:42:26.107             5.690           115.281
        85   04 Jun 2027 10:42:32.265   04 Jun 2027 10:42:33.538             1.273           173.500
        86   04 Jun 2027 10:42:39.250   04 Jun 2027 10:42:42.841             3.591           121.500
        87   04 Jun 2027 10:43:10.895   04 Jun 2027 10:43:13.785             2.890           791.938
        88   04 Jun 2027 10:43:14.638   04 Jun 2027 10:43:17.371             2.733            26.656
        89   04 Jun 2027 10:44:40.619   04 Jun 2027 10:44:48.215             7.596          2365.281
        90   04 Jun 2027 10:45:20.119   04 Jun 2027 10:45:23.834             3.715           872.531
        91   04 Jun 2027 10:47:39.700   04 Jun 2027 10:47:48.916             9.216          4086.594
        92   04 Jun 2027 10:48:46.018   04 Jun 2027 10:48:52.249             6.231          1310.156
        93   05 Jun 2027 03:04:24.708   05 Jun 2027 03:05:16.008            51.300         25650.000
        94   05 Jun 2027 03:05:49.201   05 Jun 2027 03:05:49.201             0.000             0.000
        95   05 Jun 2027 03:06:15.396   05 Jun 2027 03:06:23.720             8.324          4162.000
        96   05 Jun 2027 03:06:31.213   05 Jun 2027 03:06:34.520             3.307          1653.500
        97   05 Jun 2027 03:08:02.608   05 Jun 2027 03:08:02.608             0.000             0.000
        98   05 Jun 2027 03:08:21.263   05 Jun 2027 03:08:21.263             0.000             0.000
        99   05 Jun 2027 03:08:32.711   05 Jun 2027 03:08:41.423             8.712          4356.000
       100   05 Jun 2027 03:09:13.914   05 Jun 2027 03:09:14.282             0.368           184.000
       101   05 Jun 2027 03:09:33.427   05 Jun 2027 03:09:34.644             1.217           608.500
       102   05 Jun 2027 03:09:53.199   05 Jun 2027 03:09:54.336             1.137           568.500
       103   05 Jun 2027 04:42:47.437   05 Jun 2027 04:43:53.799            66.362         33181.000
       104   05 Jun 2027 04:44:28.030   05 Jun 2027 04:44:28.194             0.164            82.000
       105   05 Jun 2027 04:44:38.290   05 Jun 2027 04:44:45.070             6.780          3390.000
       106   05 Jun 2027 04:45:25.798   05 Jun 2027 04:45:45.851            20.053         10026.500
       107   05 Jun 2027 04:46:36.183   05 Jun 2027 04:46:36.466             0.283           141.500
       108   05 Jun 2027 04:46:48.595   05 Jun 2027 04:47:01.339            12.744          6372.000
       109   05 Jun 2027 06:06:49.974   05 Jun 2027 06:07:49.136            59.162         29581.000
       110   05 Jun 2027 07:42:47.915   05 Jun 2027 07:44:33.167           105.252         51633.532
       111   05 Jun 2027 09:16:36.993   05 Jun 2027 09:16:52.451            15.458          6387.094
       112   05 Jun 2027 09:17:59.450   05 Jun 2027 09:18:04.767             5.317           421.563
       113   05 Jun 2027 09:19:02.039   05 Jun 2027 09:19:02.039             0.000             0.000
       114   05 Jun 2027 09:19:09.190   05 Jun 2027 09:19:09.190             0.000             0.000
       115   05 Jun 2027 09:20:12.150   05 Jun 2027 09:20:20.559             8.409          3456.406
       116   05 Jun 2027 09:22:39.850   05 Jun 2027 09:22:52.214            12.364          4293.719
       117   05 Jun 2027 09:23:44.405   05 Jun 2027 09:23:56.934            12.529          1630.969
       118   05 Jun 2027 09:24:38.674   05 Jun 2027 09:24:41.125             2.451          1193.344
       119   05 Jun 2027 09:24:43.133   05 Jun 2027 09:24:48.647             5.514            55.937
       120   05 Jun 2027 09:25:05.970   05 Jun 2027 09:25:06.714             0.744           158.406
       121   05 Jun 2027 10:53:42.659   05 Jun 2027 10:54:01.341            18.682          8944.563
       122   05 Jun 2027 10:54:19.814   05 Jun 2027 10:54:21.496             1.682            64.844
       123   05 Jun 2027 10:54:39.370   05 Jun 2027 10:54:42.106             2.736           554.531
       124   05 Jun 2027 10:56:26.734   05 Jun 2027 10:56:39.580            12.846          2675.937
       125   05 Jun 2027 10:57:56.404   05 Jun 2027 10:57:59.301             2.897          1233.094
       126   05 Jun 2027 10:58:08.356   05 Jun 2027 10:58:08.683             0.327           128.344
       127   05 Jun 2027 10:58:45.653   05 Jun 2027 10:58:46.772             1.119           471.469
       128   05 Jun 2027 10:59:05.769   05 Jun 2027 10:59:07.374             1.605           593.656
       129   05 Jun 2027 11:00:08.538   05 Jun 2027 11:00:13.064             4.526          1785.688
       130   05 Jun 2027 11:00:34.255   05 Jun 2027 11:00:37.395             3.140           662.219
       131   06 Jun 2027 03:17:02.181   06 Jun 2027 03:17:46.558            44.377         22188.500
       132   06 Jun 2027 03:17:55.354   06 Jun 2027 03:18:38.689            43.335         21667.500
       133   06 Jun 2027 03:18:40.520   06 Jun 2027 03:18:42.840             2.320          1160.000
       134   06 Jun 2027 03:19:15.734   06 Jun 2027 03:19:33.374            17.640          8820.000
       135   06 Jun 2027 03:22:31.154   06 Jun 2027 03:22:37.256             6.102          3051.000
       136   06 Jun 2027 04:55:22.342   06 Jun 2027 04:56:25.795            63.453         31726.500
       137   06 Jun 2027 04:56:50.703   06 Jun 2027 04:57:10.931            20.228         10114.000
       138   06 Jun 2027 04:57:57.507   06 Jun 2027 04:58:17.910            20.403         10201.500
       139   06 Jun 2027 04:58:38.258   06 Jun 2027 04:58:41.752             3.494          1747.000
       140   06 Jun 2027 06:18:44.376   06 Jun 2027 06:19:41.081            56.705         28352.500
       141   06 Jun 2027 06:20:17.944   06 Jun 2027 06:20:40.806            22.862         11431.000
       142   06 Jun 2027 06:20:53.892   06 Jun 2027 06:20:53.892             0.000             0.000
       143   06 Jun 2027 07:55:07.289   06 Jun 2027 07:56:06.613            59.324         29516.188
       144   06 Jun 2027 07:56:22.641   06 Jun 2027 07:56:22.641             0.000             0.000
       145   06 Jun 2027 07:57:01.095   06 Jun 2027 07:57:06.358             5.263          1657.219
       146   06 Jun 2027 07:58:06.701   06 Jun 2027 07:58:06.701             0.000             0.000
       147   06 Jun 2027 09:28:35.365   06 Jun 2027 09:28:44.750             9.385          4557.375
       148   06 Jun 2027 09:29:08.390   06 Jun 2027 09:29:10.488             2.098           541.531
       149   06 Jun 2027 09:29:46.514   06 Jun 2027 09:29:51.274             4.760           333.344
       150   06 Jun 2027 09:31:03.477   06 Jun 2027 09:31:05.807             2.330          1022.531
       151   06 Jun 2027 09:31:37.389   06 Jun 2027 09:31:39.060             1.671           489.062
       152   06 Jun 2027 09:31:54.172   06 Jun 2027 09:31:56.758             2.586           296.875
       153   06 Jun 2027 09:32:21.523   06 Jun 2027 09:32:24.487             2.964           200.281
       154   06 Jun 2027 09:32:58.344   06 Jun 2027 09:33:00.658             2.314           509.281
       155   06 Jun 2027 09:35:37.019   06 Jun 2027 09:35:47.558            10.539          4684.625
       156   06 Jun 2027 09:36:23.408   06 Jun 2027 09:36:27.774             4.366           853.969
       157   06 Jun 2027 09:37:05.097   06 Jun 2027 09:37:06.795             1.698           849.000
       158   06 Jun 2027 11:06:09.297   06 Jun 2027 11:06:25.440            16.143          7626.093
       159   06 Jun 2027 11:06:47.907   06 Jun 2027 11:06:50.153             2.246           432.656
       160   06 Jun 2027 11:07:16.777   06 Jun 2027 11:07:19.714             2.937           832.000
       161   06 Jun 2027 11:08:22.646   06 Jun 2027 11:08:26.612             3.966           439.906
       162   06 Jun 2027 11:09:03.112   06 Jun 2027 11:09:07.371             4.259          1069.437
       163   06 Jun 2027 11:09:20.867   06 Jun 2027 11:09:25.213             4.346           421.750
       164   06 Jun 2027 11:09:25.988   06 Jun 2027 11:09:26.325             0.337            24.219
       165   06 Jun 2027 11:09:50.615   06 Jun 2027 11:09:51.727             1.112           200.562
       166   06 Jun 2027 11:10:03.646   06 Jun 2027 11:10:07.224             3.578           170.813
       167   06 Jun 2027 11:10:14.971   06 Jun 2027 11:10:18.601             3.630           143.281
       168   06 Jun 2027 11:10:34.133   06 Jun 2027 11:10:34.471             0.338           169.000
       169   06 Jun 2027 11:10:53.549   06 Jun 2027 11:10:55.709             2.160           756.781
       170   06 Jun 2027 11:12:17.903   06 Jun 2027 11:12:21.006             3.103          1551.500
       171   06 Jun 2027 11:12:38.646   06 Jun 2027 11:12:41.477             2.831          1350.844
       172   07 Jun 2027 03:28:55.863   07 Jun 2027 03:29:01.417             5.554          2777.000
       173   07 Jun 2027 03:29:21.181   07 Jun 2027 03:30:51.203            90.022         45011.000
       174   07 Jun 2027 03:32:29.141   07 Jun 2027 03:32:42.975            13.834          6917.000
       175   07 Jun 2027 03:33:11.604   07 Jun 2027 03:33:15.846             4.242          2121.000
       176   07 Jun 2027 03:34:37.713   07 Jun 2027 03:34:49.403            11.690          5845.000
       177   07 Jun 2027 05:07:00.289   07 Jun 2027 05:08:33.801            93.512         46756.000
       178   07 Jun 2027 05:09:22.551   07 Jun 2027 05:09:24.471             1.920           960.000
       179   07 Jun 2027 05:10:03.236   07 Jun 2027 05:10:17.975            14.739          7369.500
       180   07 Jun 2027 06:30:33.372   07 Jun 2027 06:31:25.037            51.665         25832.500
       181   07 Jun 2027 08:07:08.897   07 Jun 2027 08:08:07.206            58.309         29154.500
       182   07 Jun 2027 08:09:00.624   07 Jun 2027 08:09:02.378             1.754           877.000
       183   07 Jun 2027 08:09:45.412   07 Jun 2027 08:09:54.789             9.377          3135.718
       184   07 Jun 2027 09:42:02.705   07 Jun 2027 09:42:14.925            12.220          4484.688
       185   07 Jun 2027 09:43:23.485   07 Jun 2027 09:43:23.485             0.000             0.000
       186   07 Jun 2027 09:43:39.346   07 Jun 2027 09:43:44.745             5.399          1349.844
       187   07 Jun 2027 09:44:28.178   07 Jun 2027 09:44:31.362             3.184           713.406
       188   07 Jun 2027 09:44:46.366   07 Jun 2027 09:44:47.959             1.593            56.531
       189   07 Jun 2027 09:44:59.327   07 Jun 2027 09:45:00.008             0.681           228.906
       190   07 Jun 2027 09:45:46.442   07 Jun 2027 09:45:53.619             7.177          1309.813
       191   07 Jun 2027 09:45:55.010   07 Jun 2027 09:45:55.490             0.480            43.469
       192   07 Jun 2027 09:47:33.453   07 Jun 2027 09:47:44.015            10.562          2697.562
       193   07 Jun 2027 09:48:12.487   07 Jun 2027 09:48:16.796             4.309           732.750
       194   07 Jun 2027 09:48:21.834   07 Jun 2027 09:48:21.834             0.000             0.000
       195   07 Jun 2027 09:48:56.372   07 Jun 2027 09:48:59.965             3.593          1217.656
       196   07 Jun 2027 11:18:15.910   07 Jun 2027 11:18:28.575            12.665          5483.844
       197   07 Jun 2027 11:19:07.558   07 Jun 2027 11:19:09.535             1.977           623.938
       198   07 Jun 2027 11:20:10.716   07 Jun 2027 11:20:15.067             4.351          1696.750
       199   07 Jun 2027 11:20:47.891   07 Jun 2027 11:20:50.278             2.387           726.375
       200   07 Jun 2027 11:21:53.680   07 Jun 2027 11:22:04.405            10.725          1981.313
       201   07 Jun 2027 11:22:35.404   07 Jun 2027 11:22:37.181             1.777           716.469
       202   07 Jun 2027 11:23:04.976   07 Jun 2027 11:23:09.074             4.098           868.594
       203   08 Jun 2027 03:41:04.685   08 Jun 2027 03:42:06.466            61.781         30890.500
       204   08 Jun 2027 03:42:13.810   08 Jun 2027 03:43:13.995            60.185         30092.500
       205   08 Jun 2027 03:43:44.546   08 Jun 2027 03:43:51.390             6.844          3422.000
       206   08 Jun 2027 03:44:04.397   08 Jun 2027 03:44:05.640             1.243           621.500
       207   08 Jun 2027 03:45:02.159   08 Jun 2027 03:45:33.542            31.383         15691.500
       208   08 Jun 2027 05:19:23.201   08 Jun 2027 05:19:54.265            31.064         15532.000
       209   08 Jun 2027 05:20:12.770   08 Jun 2027 05:20:48.739            35.969         17984.500
       210   08 Jun 2027 05:21:29.497   08 Jun 2027 05:21:44.338            14.841          7420.500
       211   08 Jun 2027 06:42:45.876   08 Jun 2027 06:43:59.650            73.774         36887.000
       212   08 Jun 2027 06:44:46.053   08 Jun 2027 06:45:08.820            22.767         11383.500
       213   08 Jun 2027 08:19:17.787   08 Jun 2027 08:19:43.460            25.673         11823.593
       214   08 Jun 2027 08:20:25.625   08 Jun 2027 08:20:28.293             2.668           684.906
       215   08 Jun 2027 08:21:43.963   08 Jun 2027 08:21:53.393             9.430          2307.687
       216   08 Jun 2027 08:22:48.308   08 Jun 2027 08:22:48.308             0.000             0.000
       217   08 Jun 2027 09:54:46.046   08 Jun 2027 09:55:01.743            15.697          7274.094
       218   08 Jun 2027 09:55:47.097   08 Jun 2027 09:55:47.097             0.000             0.000
       219   08 Jun 2027 09:55:49.552   08 Jun 2027 09:55:50.463             0.911           268.563
       220   08 Jun 2027 09:56:39.863   08 Jun 2027 09:56:41.421             1.558           345.813
       221   08 Jun 2027 09:58:14.442   08 Jun 2027 09:58:23.746             9.304          2180.344
       222   08 Jun 2027 09:58:24.615   08 Jun 2027 09:58:28.556             3.941            27.156
       223   08 Jun 2027 09:59:04.523   08 Jun 2027 09:59:06.693             2.170           967.156
       224   08 Jun 2027 09:59:36.477   08 Jun 2027 09:59:41.229             4.752           897.406
       225   08 Jun 2027 10:00:22.430   08 Jun 2027 10:00:25.172             2.742          1287.531
       226   08 Jun 2027 10:00:54.123   08 Jun 2027 10:01:00.511             6.388           419.094
       227   08 Jun 2027 11:30:52.298   08 Jun 2027 11:31:05.066            12.768          5863.563
       228   08 Jun 2027 11:31:54.720   08 Jun 2027 11:32:06.558            11.838          1241.906
       229   08 Jun 2027 11:32:45.416   08 Jun 2027 11:32:46.779             1.363           681.500
       230   08 Jun 2027 11:32:57.558   08 Jun 2027 11:32:59.442             1.884           836.594
       231   08 Jun 2027 11:34:14.608   08 Jun 2027 11:34:21.002             6.394          2348.937
       232   08 Jun 2027 11:36:02.239   08 Jun 2027 11:36:11.453             9.214          3012.031
       233   08 Jun 2027 11:36:18.496   08 Jun 2027 11:36:19.809             1.313           161.656
       234   09 Jun 2027 03:53:10.402   09 Jun 2027 03:53:17.428             7.026          3513.000
       235   09 Jun 2027 03:54:11.367   09 Jun 2027 03:56:03.790           112.423         56211.500
       236   09 Jun 2027 03:57:01.001   09 Jun 2027 03:57:39.677            38.676         19338.000
       237   09 Jun 2027 04:00:58.461   09 Jun 2027 04:01:03.985             5.524          2762.000
       238   09 Jun 2027 05:31:20.117   09 Jun 2027 05:31:59.088            38.971         19485.500
       239   09 Jun 2027 05:32:21.849   09 Jun 2027 05:32:51.405            29.556         14778.000
       240   09 Jun 2027 05:33:02.612   09 Jun 2027 05:33:10.049             7.437          3718.500
       241   09 Jun 2027 05:33:33.198   09 Jun 2027 05:33:36.129             2.931          1465.500
       242   09 Jun 2027 06:55:22.010   09 Jun 2027 06:56:44.821            82.811         41405.500
       243   09 Jun 2027 08:31:10.760   09 Jun 2027 08:31:35.418            24.658         12329.000
       244   09 Jun 2027 08:31:42.186   09 Jun 2027 08:31:46.028             3.842           461.438
       245   09 Jun 2027 08:32:06.868   09 Jun 2027 08:32:07.807             0.939            89.125
       246   09 Jun 2027 08:32:25.358   09 Jun 2027 08:32:27.416             2.058           410.625
       247   09 Jun 2027 08:32:40.367   09 Jun 2027 08:32:43.679             3.312           200.781
       248   09 Jun 2027 08:33:29.517   09 Jun 2027 08:33:33.760             4.243           969.219
       249   09 Jun 2027 10:06:07.577   09 Jun 2027 10:06:22.530            14.953          5895.344
       250   09 Jun 2027 10:08:39.894   09 Jun 2027 10:08:48.307             8.413          3988.656
       251   09 Jun 2027 10:11:33.729   09 Jun 2027 10:11:47.458            13.729          5149.000
       252   09 Jun 2027 10:12:32.620   09 Jun 2027 10:12:34.203             1.583           528.719
       253   09 Jun 2027 10:13:03.730   09 Jun 2027 10:13:05.645             1.915           922.719
       254   09 Jun 2027 11:42:25.336   09 Jun 2027 11:42:40.879            15.543          7194.844
       255   09 Jun 2027 11:43:12.280   09 Jun 2027 11:43:14.726             2.446           434.125
       256   09 Jun 2027 11:45:12.852   09 Jun 2027 11:45:20.793             7.941          3128.531
       257   09 Jun 2027 11:46:29.464   09 Jun 2027 11:46:34.894             5.430          2145.969
       258   09 Jun 2027 11:46:37.344   09 Jun 2027 11:46:38.123             0.779            76.562
       259   09 Jun 2027 11:46:48.828   09 Jun 2027 11:46:48.828             0.000             0.000
       260   09 Jun 2027 11:47:06.465   09 Jun 2027 11:47:16.973            10.508           885.688
       261   09 Jun 2027 11:47:59.547   09 Jun 2027 11:48:11.716            12.169          1330.438
       262   10 Jun 2027 04:06:15.101   10 Jun 2027 04:08:09.923           114.822         57411.000
       263   10 Jun 2027 04:11:03.276   10 Jun 2027 04:11:14.736            11.460          5730.000
       264   10 Jun 2027 04:12:44.982   10 Jun 2027 04:12:49.283             4.301          2150.500
       265   10 Jun 2027 04:13:15.545   10 Jun 2027 04:13:52.182            36.637         18318.500
       266   10 Jun 2027 05:32:07.585   10 Jun 2027 05:32:54.679            47.094         23547.000
       267   10 Jun 2027 05:43:16.363   10 Jun 2027 05:44:08.773            52.410         26205.000
       268   10 Jun 2027 05:45:25.619   10 Jun 2027 05:46:04.389            38.770         19385.000
       269   10 Jun 2027 07:06:13.400   10 Jun 2027 07:07:45.058            91.658         45641.187
       270   10 Jun 2027 07:10:22.751   10 Jun 2027 07:10:23.731             0.980           490.000
       271   10 Jun 2027 08:41:29.757   10 Jun 2027 08:41:45.826            16.069          7566.469
       272   10 Jun 2027 08:42:55.059   10 Jun 2027 08:42:58.636             3.577          1031.562
       273   10 Jun 2027 08:43:22.276   10 Jun 2027 08:43:24.630             2.354           528.844
       274   10 Jun 2027 08:44:29.012   10 Jun 2027 08:44:33.563             4.551          1708.125
       275   10 Jun 2027 08:45:29.160   10 Jun 2027 08:45:39.450            10.290          1000.125
       276   10 Jun 2027 08:45:46.722   10 Jun 2027 08:45:47.962             1.240           227.250
       277   10 Jun 2027 10:17:40.774   10 Jun 2027 10:17:55.710            14.936          6638.531
       278   10 Jun 2027 10:19:35.145   10 Jun 2027 10:19:41.056             5.911          2572.844
       279   10 Jun 2027 10:21:41.912   10 Jun 2027 10:21:50.857             8.945          3718.063
       280   10 Jun 2027 10:22:21.135   10 Jun 2027 10:22:26.374             5.239           691.500
       281   10 Jun 2027 10:22:44.079   10 Jun 2027 10:22:46.398             2.319           553.281
       282   10 Jun 2027 10:23:13.336   10 Jun 2027 10:23:19.128             5.792           800.500
       283   10 Jun 2027 10:24:33.928   10 Jun 2027 10:24:43.007             9.079          2337.500
       284   10 Jun 2027 10:24:56.891   10 Jun 2027 10:24:59.689             2.798           281.563
       285   10 Jun 2027 11:54:44.980   10 Jun 2027 11:54:59.808            14.828          7410.125
       286   10 Jun 2027 11:56:00.658   10 Jun 2027 11:56:07.077             6.419          1882.938
       287   10 Jun 2027 11:56:16.405   10 Jun 2027 11:56:17.826             1.421           281.594
       288   10 Jun 2027 11:58:23.742   10 Jun 2027 11:58:31.412             7.670          3835.000
       289   10 Jun 2027 11:59:14.707   10 Jun 2027 11:59:18.622             3.915          1452.844
       290   11 Jun 2027 04:18:44.723   11 Jun 2027 04:20:01.117            76.394         38197.000
       291   11 Jun 2027 04:21:33.117   11 Jun 2027 04:21:59.129            26.012         13006.000
       292   11 Jun 2027 04:22:54.128   11 Jun 2027 04:23:13.188            19.060          9530.000
       293   11 Jun 2027 04:25:30.600   11 Jun 2027 04:25:51.393            20.793         10396.500
       294   11 Jun 2027 05:43:36.630   11 Jun 2027 05:44:09.919            33.289         16644.500
       295   11 Jun 2027 05:44:18.903   11 Jun 2027 05:44:58.482            39.579         19789.500
       296   11 Jun 2027 05:55:19.027   11 Jun 2027 05:56:01.558            42.531         21265.500
       297   11 Jun 2027 07:17:32.373   11 Jun 2027 07:18:43.531            71.158         35579.000
       298   11 Jun 2027 07:19:33.214   11 Jun 2027 07:20:00.034            26.820         13410.000
       299   11 Jun 2027 07:20:48.058   11 Jun 2027 07:20:59.289            11.231          5386.938
       300   11 Jun 2027 08:52:36.694   11 Jun 2027 08:53:00.559            23.865          8605.906
       301   11 Jun 2027 08:53:27.336   11 Jun 2027 08:53:29.723             2.387           836.781
       302   11 Jun 2027 08:54:57.476   11 Jun 2027 08:55:05.244             7.768          2742.281
       303   11 Jun 2027 08:56:13.465   11 Jun 2027 08:56:16.446             2.981          1281.562
       304   11 Jun 2027 08:57:47.479   11 Jun 2027 08:57:53.051             5.572          2508.156
       305   11 Jun 2027 10:29:58.051   11 Jun 2027 10:30:11.614            13.563          5884.813
       306   11 Jun 2027 10:31:02.034   11 Jun 2027 10:31:04.420             2.386           635.844
       307   11 Jun 2027 10:31:59.990   11 Jun 2027 10:32:04.928             4.938          1591.969
       308   11 Jun 2027 10:33:10.225   11 Jun 2027 10:33:15.264             5.039           813.844
       309   11 Jun 2027 10:33:24.342   11 Jun 2027 10:33:25.394             1.052           283.687
       310   11 Jun 2027 10:36:17.905   11 Jun 2027 10:36:29.524            11.619          5390.969
       311   11 Jun 2027 10:37:17.613   11 Jun 2027 10:37:18.084             0.471           235.500
       312   12 Jun 2027 04:30:45.503   12 Jun 2027 04:32:41.679           116.176         58088.000
       313   12 Jun 2027 04:34:03.512   12 Jun 2027 04:34:05.889             2.377          1188.500
       314   12 Jun 2027 04:34:38.744   12 Jun 2027 04:34:38.744             0.000             0.000
       315   12 Jun 2027 04:35:25.517   12 Jun 2027 04:35:57.564            32.047         16023.500
       316   12 Jun 2027 04:37:43.689   12 Jun 2027 04:37:47.975             4.286          2143.000
       317   12 Jun 2027 05:55:06.754   12 Jun 2027 05:56:11.504            64.750         32375.000
       318   12 Jun 2027 06:07:20.664   12 Jun 2027 06:07:44.002            23.338         11669.000
       319   12 Jun 2027 07:29:16.804   12 Jun 2027 07:30:32.484            75.680         37840.000
       320   12 Jun 2027 07:31:19.573   12 Jun 2027 07:31:30.073            10.500          5250.000
       321   12 Jun 2027 07:34:11.739   12 Jun 2027 07:34:38.282            26.543         10802.656
       322   12 Jun 2027 09:04:04.935   12 Jun 2027 09:04:18.758            13.823          6139.156
       323   12 Jun 2027 09:04:50.541   12 Jun 2027 09:04:50.541             0.000             0.000
       324   12 Jun 2027 09:05:50.458   12 Jun 2027 09:05:55.009             4.551          2174.000
       325   12 Jun 2027 09:08:08.151   12 Jun 2027 09:08:08.151             0.000             0.000
       326   12 Jun 2027 09:09:41.215   12 Jun 2027 09:09:55.136            13.921          6874.156
       327   12 Jun 2027 09:11:05.521   12 Jun 2027 09:11:09.702             4.181          1264.906
       328   12 Jun 2027 09:11:47.294   12 Jun 2027 09:11:53.516             6.222          1158.062
       329   12 Jun 2027 10:41:53.898   12 Jun 2027 10:42:07.268            13.370          5306.687
       330   12 Jun 2027 10:42:48.520   12 Jun 2027 10:42:49.665             1.145            80.594
       331   12 Jun 2027 10:44:06.739   12 Jun 2027 10:44:13.633             6.894          1854.000
       332   12 Jun 2027 10:44:53.674   12 Jun 2027 10:44:56.848             3.174           986.000
       333   12 Jun 2027 10:45:48.843   12 Jun 2027 10:45:53.048             4.205          1624.844
       334   12 Jun 2027 10:46:22.481   12 Jun 2027 10:46:26.555             4.074           845.437
       335   12 Jun 2027 10:46:36.366   12 Jun 2027 10:46:38.678             2.312           167.062
       336   12 Jun 2027 10:46:44.843   12 Jun 2027 10:46:45.901             1.058           192.656
       337   12 Jun 2027 10:47:02.182   12 Jun 2027 10:47:05.116             2.934           309.656
       338   12 Jun 2027 10:47:13.822   12 Jun 2027 10:47:14.952             1.130           272.063
       339   12 Jun 2027 10:47:47.802   12 Jun 2027 10:47:50.513             2.711           837.344
       340   12 Jun 2027 10:48:11.878   12 Jun 2027 10:48:14.695             2.817           397.156
       341   12 Jun 2027 10:49:02.053   12 Jun 2027 10:49:08.166             6.113          1341.656
       342   13 Jun 2027 03:04:42.004   13 Jun 2027 03:05:30.671            48.667         24333.500
       343   13 Jun 2027 03:06:43.952   13 Jun 2027 03:06:46.995             3.043          1521.500
       344   13 Jun 2027 03:07:15.418   13 Jun 2027 03:07:32.958            17.540          8770.000
       345   13 Jun 2027 03:09:46.620   13 Jun 2027 03:09:47.331             0.711           355.500
       346   13 Jun 2027 04:43:06.364   13 Jun 2027 04:44:14.648            68.284         34142.000
       347   13 Jun 2027 04:44:47.708   13 Jun 2027 04:44:52.834             5.126          2563.000
       348   13 Jun 2027 04:45:44.060   13 Jun 2027 04:45:48.924             4.864          2432.000
       349   13 Jun 2027 04:46:54.647   13 Jun 2027 04:47:16.137            21.490         10745.000
       350   13 Jun 2027 06:07:06.145   13 Jun 2027 06:08:05.734            59.589         29794.500
       351   13 Jun 2027 06:08:20.637   13 Jun 2027 06:08:45.299            24.662         12331.000
       352   13 Jun 2027 07:43:03.029   13 Jun 2027 07:44:37.346            94.317         47158.500
       353   13 Jun 2027 09:16:53.703   13 Jun 2027 09:17:17.393            23.690         10592.281
       354   13 Jun 2027 09:18:17.798   13 Jun 2027 09:18:19.447             1.649           448.250
       355   13 Jun 2027 09:18:47.365   13 Jun 2027 09:18:47.908             0.543           244.437
       356   13 Jun 2027 09:19:21.350   13 Jun 2027 09:19:24.833             3.483          1045.062
       357   13 Jun 2027 09:20:30.180   13 Jun 2027 09:20:34.877             4.697          2022.812
       358   13 Jun 2027 09:21:33.781   13 Jun 2027 09:21:38.203             4.422          1720.219
       359   13 Jun 2027 09:22:15.478   13 Jun 2027 09:22:18.273             2.795          1108.812
       360   13 Jun 2027 09:22:54.127   13 Jun 2027 09:22:54.592             0.465           232.500
       361   13 Jun 2027 09:23:07.077   13 Jun 2027 09:23:11.390             4.313           931.657
       362   13 Jun 2027 09:23:31.652   13 Jun 2027 09:23:33.196             1.544           381.562
       363   13 Jun 2027 09:24:34.873   13 Jun 2027 09:24:37.968             3.095          1433.906
       364   13 Jun 2027 09:24:55.366   13 Jun 2027 09:24:56.793             1.427           543.688
       365   13 Jun 2027 10:54:00.568   13 Jun 2027 10:54:32.082            31.514          8498.656
       366   13 Jun 2027 10:58:16.236   13 Jun 2027 10:58:29.332            13.096          6285.812
       367   13 Jun 2027 10:59:01.242   13 Jun 2027 10:59:11.297            10.055           466.719
       368   13 Jun 2027 11:00:23.770   13 Jun 2027 11:00:29.735             5.965          2264.781
