uniorb/output/strategy_1/Camera/Camera_KinoSat_110210.txt

KinoSat_110210
-------------------------
    Access    *     Start Time (UTCG)     *     Stop Time (UTCG)  *   Duration (s) *   Data (Mbytes)
         1   01 Jun 2027 03:12:58.512   01 Jun 2027 03:14:13.261            74.749         37374.500
         2   01 Jun 2027 03:14:36.605   01 Jun 2027 03:14:46.626            10.021          5010.500
         3   01 Jun 2027 03:15:41.686   01 Jun 2027 03:15:41.686             0.000             0.000
         4   01 Jun 2027 03:16:14.608   01 Jun 2027 03:16:26.047            11.439          5719.500
         5   01 Jun 2027 03:16:33.932   01 Jun 2027 03:16:35.883             1.951           975.500
         6   01 Jun 2027 03:17:18.269   01 Jun 2027 03:18:00.797            42.528         21264.000
         7   01 Jun 2027 03:18:35.848   01 Jun 2027 03:18:42.236             6.388          3194.000
         8   01 Jun 2027 03:19:08.447   01 Jun 2027 03:19:18.146             9.699          4849.500
         9   01 Jun 2027 03:19:25.480   01 Jun 2027 03:19:36.527            11.047          5523.500
        10   01 Jun 2027 03:19:50.757   01 Jun 2027 03:19:50.787             0.030            15.000
        11   01 Jun 2027 03:20:05.574   01 Jun 2027 03:20:10.098             4.524          2262.000
        12   01 Jun 2027 04:50:03.501   01 Jun 2027 04:52:59.761           176.260         88130.000
        13   01 Jun 2027 04:53:09.707   01 Jun 2027 04:53:11.514             1.807           903.500
        14   01 Jun 2027 04:53:18.369   01 Jun 2027 04:53:21.263             2.894          1447.000
        15   01 Jun 2027 04:53:41.814   01 Jun 2027 04:53:49.048             7.234          3617.000
        16   01 Jun 2027 04:54:22.449   01 Jun 2027 04:54:30.903             8.454          4227.000
        17   01 Jun 2027 04:54:53.477   01 Jun 2027 04:55:04.582            11.105          5552.500
        18   01 Jun 2027 04:55:22.892   01 Jun 2027 04:55:32.250             9.358          4679.000
        19   01 Jun 2027 04:55:44.599   01 Jun 2027 04:55:53.432             8.833          4416.500
        20   01 Jun 2027 04:56:03.629   01 Jun 2027 04:56:06.413             2.784          1392.000
        21   01 Jun 2027 06:28:02.449   01 Jun 2027 06:30:56.655           174.206         87103.000
        22   01 Jun 2027 08:01:11.187   01 Jun 2027 08:03:37.593           146.406         73203.000
        23   01 Jun 2027 08:04:05.412   01 Jun 2027 08:04:07.276             1.864           932.000
        24   01 Jun 2027 08:04:41.267   01 Jun 2027 08:05:18.938            37.671         18835.500
        25   01 Jun 2027 08:07:30.735   01 Jun 2027 08:07:37.826             7.091          3545.500
        26   01 Jun 2027 08:08:13.618   01 Jun 2027 08:08:23.157             9.539          4769.500
        27   02 Jun 2027 03:25:16.626   02 Jun 2027 03:32:13.646           417.020        208510.000
        28   02 Jun 2027 03:32:29.828   02 Jun 2027 03:32:36.237             6.409          3204.500
        29   02 Jun 2027 05:02:04.957   02 Jun 2027 05:04:46.465           161.508         80754.000
        30   02 Jun 2027 05:07:35.189   02 Jun 2027 05:08:28.529            53.340         26670.000
        31   02 Jun 2027 06:40:02.092   02 Jun 2027 06:42:18.674           136.582         68291.000
        32   02 Jun 2027 06:42:35.365   02 Jun 2027 06:42:51.535            16.170          8085.000
        33   02 Jun 2027 06:43:09.762   02 Jun 2027 06:43:16.606             6.844          3422.000
        34   02 Jun 2027 06:43:35.190   02 Jun 2027 06:43:37.009             1.819           909.500
        35   02 Jun 2027 08:13:38.542   02 Jun 2027 08:16:02.177           143.635         71817.500
        36   02 Jun 2027 08:17:41.303   02 Jun 2027 08:17:54.673            13.370          6685.000
        37   02 Jun 2027 08:18:36.585   02 Jun 2027 08:19:06.001            29.416         14708.000
        38   02 Jun 2027 08:20:17.271   02 Jun 2027 08:20:50.204            32.933         16466.500
        39   03 Jun 2027 03:37:11.432   03 Jun 2027 03:44:36.820           445.388        222694.000
        40   03 Jun 2027 05:14:25.820   03 Jun 2027 05:17:30.281           184.461         92230.500
        41   03 Jun 2027 05:19:14.841   03 Jun 2027 05:19:51.251            36.410         18205.000
        42   03 Jun 2027 05:20:23.905   03 Jun 2027 05:20:34.802            10.897          5448.500
        43   03 Jun 2027 06:52:03.843   03 Jun 2027 06:54:55.397           171.554         85777.000
        44   03 Jun 2027 08:25:54.689   03 Jun 2027 08:28:21.736           147.047         73523.500
        45   03 Jun 2027 08:29:33.999   03 Jun 2027 08:29:47.503            13.504          6752.000
        46   03 Jun 2027 08:30:52.075   03 Jun 2027 08:30:55.270             3.195          1597.500
        47   03 Jun 2027 08:31:04.714   03 Jun 2027 08:31:06.940             2.226          1113.000
        48   04 Jun 2027 03:49:17.851   04 Jun 2027 03:56:04.245           406.394        203197.000
        49   04 Jun 2027 03:56:25.069   04 Jun 2027 03:56:35.378            10.309          5154.500
        50   04 Jun 2027 05:26:20.639   04 Jun 2027 05:29:31.297           190.658         95329.000
        51   04 Jun 2027 05:32:08.937   04 Jun 2027 05:32:27.698            18.761          9380.500
        52   04 Jun 2027 07:03:18.168   04 Jun 2027 07:06:16.313           178.145         89072.500
        53   04 Jun 2027 07:07:11.465   04 Jun 2027 07:07:21.784            10.319          5159.500
        54   04 Jun 2027 08:38:21.480   04 Jun 2027 08:38:47.801            26.321         13160.500
        55   04 Jun 2027 08:40:01.509   04 Jun 2027 08:40:21.162            19.653          9826.500
        56   04 Jun 2027 08:41:17.934   04 Jun 2027 08:41:30.895            12.961          6480.500
        57   04 Jun 2027 08:41:46.920   04 Jun 2027 08:42:07.212            20.292         10146.000
        58   05 Jun 2027 04:01:43.984   05 Jun 2027 04:08:25.439           401.455        200727.500
        59   05 Jun 2027 05:38:40.931   05 Jun 2027 05:41:20.962           160.031         80015.500
        60   05 Jun 2027 05:41:35.568   05 Jun 2027 05:41:49.065            13.497          6748.500
        61   05 Jun 2027 05:43:59.339   05 Jun 2027 05:44:12.285            12.946          6473.000
        62   05 Jun 2027 07:15:31.394   05 Jun 2027 07:18:02.706           151.312         75656.000
        63   05 Jun 2027 07:18:05.858   05 Jun 2027 07:18:07.065             1.207           603.500
        64   05 Jun 2027 07:18:18.160   05 Jun 2027 07:18:31.151            12.991          6495.500
        65   05 Jun 2027 07:19:29.311   05 Jun 2027 07:19:44.126            14.815          7407.500
        66   05 Jun 2027 08:53:11.679   05 Jun 2027 08:53:33.648            21.969         10984.500
        67   05 Jun 2027 08:53:55.782   05 Jun 2027 08:54:01.913             6.131          3065.500
        68   05 Jun 2027 08:54:47.579   05 Jun 2027 08:54:47.829             0.250           125.000
        69   06 Jun 2027 04:13:51.415   06 Jun 2027 04:20:15.794           384.379        192189.500
        70   06 Jun 2027 05:51:35.347   06 Jun 2027 05:54:01.692           146.345         73172.500
        71   06 Jun 2027 05:55:28.759   06 Jun 2027 05:55:59.522            30.763         15381.500
        72   06 Jun 2027 07:27:41.430   06 Jun 2027 07:30:24.908           163.478         81739.000
        73   06 Jun 2027 07:31:04.089   06 Jun 2027 07:31:11.200             7.111          3555.500
        74   06 Jun 2027 07:31:19.209   06 Jun 2027 07:31:19.209             0.000             0.000
        75   06 Jun 2027 07:31:40.794   06 Jun 2027 07:31:51.091            10.297          5148.500
        76   07 Jun 2027 04:26:25.431   07 Jun 2027 04:32:33.806           368.375        184187.500
        77   07 Jun 2027 06:03:41.426   07 Jun 2027 06:07:13.680           212.254        106127.000
        78   07 Jun 2027 06:08:13.728   07 Jun 2027 06:08:17.967             4.239          2119.500
        79   07 Jun 2027 07:39:55.643   07 Jun 2027 07:42:25.921           150.278         75139.000
        80   07 Jun 2027 07:43:32.452   07 Jun 2027 07:43:34.129             1.677           838.500
        81   07 Jun 2027 07:43:39.211   07 Jun 2027 07:43:42.664             3.453          1726.500
        82   07 Jun 2027 07:44:15.983   07 Jun 2027 07:44:23.215             7.232          3616.000
        83   08 Jun 2027 03:01:39.749   08 Jun 2027 03:05:52.476           252.727        126363.500
        84   08 Jun 2027 03:06:22.175   08 Jun 2027 03:06:32.483            10.308          5154.000
        85   08 Jun 2027 03:06:45.313   08 Jun 2027 03:06:59.497            14.184          7092.000
        86   08 Jun 2027 03:07:26.902   08 Jun 2027 03:07:46.789            19.887          9943.500
        87   08 Jun 2027 03:08:06.775   08 Jun 2027 03:08:07.117             0.342           171.000
        88   08 Jun 2027 03:08:20.415   08 Jun 2027 03:08:46.243            25.828         12914.000
        89   08 Jun 2027 04:37:59.098   08 Jun 2027 04:41:11.993           192.895         96447.500
        90   08 Jun 2027 04:42:16.166   08 Jun 2027 04:42:22.617             6.451          3225.500
        91   08 Jun 2027 04:42:27.944   08 Jun 2027 04:42:40.964            13.020          6510.000
        92   08 Jun 2027 04:42:56.420   08 Jun 2027 04:43:06.095             9.675          4837.500
        93   08 Jun 2027 04:43:28.496   08 Jun 2027 04:43:50.033            21.537         10768.500
        94   08 Jun 2027 04:44:18.580   08 Jun 2027 04:44:23.690             5.110          2555.000
        95   08 Jun 2027 06:16:14.231   08 Jun 2027 06:18:57.430           163.199         81599.500
        96   08 Jun 2027 06:19:06.498   08 Jun 2027 06:19:14.374             7.876          3938.000
        97   08 Jun 2027 07:51:34.698   08 Jun 2027 07:53:38.383           123.685         61842.500
        98   08 Jun 2027 07:54:50.274   08 Jun 2027 07:54:56.144             5.870          2935.000
        99   08 Jun 2027 07:55:02.073   08 Jun 2027 07:55:02.527             0.454           227.000
       100   08 Jun 2027 07:55:26.925   08 Jun 2027 07:55:43.566            16.641          8320.500
       101   08 Jun 2027 07:56:24.238   08 Jun 2027 07:56:36.903            12.665          6332.500
       102   09 Jun 2027 03:13:13.118   09 Jun 2027 03:16:48.775           215.657        107828.500
       103   09 Jun 2027 03:16:52.278   09 Jun 2027 03:16:53.169             0.891           445.500
       104   09 Jun 2027 03:17:33.071   09 Jun 2027 03:18:32.385            59.314         29657.000
       105   09 Jun 2027 03:20:04.531   09 Jun 2027 03:20:47.770            43.239         21619.500
       106   09 Jun 2027 04:50:18.721   09 Jun 2027 04:53:05.388           166.667         83333.500
       107   09 Jun 2027 04:54:15.303   09 Jun 2027 04:54:29.356            14.053          7026.500
       108   09 Jun 2027 04:55:25.957   09 Jun 2027 04:55:46.762            20.805         10402.500
       109   09 Jun 2027 06:28:17.133   09 Jun 2027 06:31:00.624           163.491         81745.500
       110   09 Jun 2027 08:01:25.843   09 Jun 2027 08:02:54.243            88.400         44200.000
       111   09 Jun 2027 08:04:38.988   09 Jun 2027 08:04:54.101            15.113          7556.500
       112   09 Jun 2027 08:05:39.548   09 Jun 2027 08:05:54.070            14.522          7261.000
       113   09 Jun 2027 08:06:46.968   09 Jun 2027 08:06:55.335             8.367          4183.500
       114   09 Jun 2027 08:07:14.338   09 Jun 2027 08:07:19.376             5.038          2519.000
       115   09 Jun 2027 08:07:32.750   09 Jun 2027 08:07:40.251             7.501          3750.500
       116   09 Jun 2027 08:07:45.977   09 Jun 2027 08:07:54.145             8.168          4084.000
       117   09 Jun 2027 08:08:53.938   09 Jun 2027 08:09:17.051            23.113         11556.500
       118   10 Jun 2027 03:25:31.901   10 Jun 2027 03:30:12.820           280.919        140459.500
       119   10 Jun 2027 03:30:45.668   10 Jun 2027 03:31:59.115            73.447         36723.500
       120   10 Jun 2027 03:32:15.385   10 Jun 2027 03:32:24.876             9.491          4745.500
       121   10 Jun 2027 05:02:20.035   10 Jun 2027 05:05:08.639           168.604         84302.000
       122   10 Jun 2027 05:05:42.792   10 Jun 2027 05:05:47.019             4.227          2113.500
       123   10 Jun 2027 05:07:49.552   10 Jun 2027 05:08:22.722            33.170         16585.000
       124   10 Jun 2027 06:40:17.147   10 Jun 2027 06:42:29.231           132.084         66042.000
       125   10 Jun 2027 06:43:06.594   10 Jun 2027 06:43:10.971             4.377          2188.500
       126   10 Jun 2027 06:44:06.615   10 Jun 2027 06:44:15.880             9.265          4632.500
       127   10 Jun 2027 08:13:52.974   10 Jun 2027 08:14:53.478            60.504         30252.000
       128   10 Jun 2027 08:15:04.206   10 Jun 2027 08:15:15.507            11.301          5650.500
       129   10 Jun 2027 08:16:33.977   10 Jun 2027 08:16:50.478            16.501          8250.500
       130   10 Jun 2027 08:17:47.353   10 Jun 2027 08:17:56.300             8.947          4473.500
       131   10 Jun 2027 08:18:40.185   10 Jun 2027 08:18:45.551             5.366          2683.000
       132   10 Jun 2027 08:19:21.108   10 Jun 2027 08:19:31.276            10.168          5084.000
       133   10 Jun 2027 08:19:57.694   10 Jun 2027 08:20:05.038             7.344          3672.000
       134   11 Jun 2027 03:37:26.250   11 Jun 2027 03:42:39.963           313.713        156856.500
       135   11 Jun 2027 03:42:53.389   11 Jun 2027 03:43:19.555            26.166         13083.000
       136   11 Jun 2027 03:43:23.690   11 Jun 2027 03:43:54.655            30.965         15482.500
       137   11 Jun 2027 03:44:39.216   11 Jun 2027 03:44:51.819            12.603          6301.500
       138   11 Jun 2027 05:14:10.649   11 Jun 2027 05:16:25.425           134.776         67388.000
       139   11 Jun 2027 05:16:29.843   11 Jun 2027 05:16:48.357            18.514          9257.000
       140   11 Jun 2027 05:17:44.913   11 Jun 2027 05:18:00.722            15.809          7904.500
       141   11 Jun 2027 05:18:23.171   11 Jun 2027 05:18:36.014            12.843          6421.500
       142   11 Jun 2027 05:20:30.847   11 Jun 2027 05:20:56.189            25.342         12671.000
       143   11 Jun 2027 06:52:19.149   11 Jun 2027 06:54:37.021           137.872         68936.000
       144   11 Jun 2027 06:55:13.552   11 Jun 2027 06:55:44.006            30.454         15227.000
       145   11 Jun 2027 06:55:50.072   11 Jun 2027 06:55:51.443             1.371           685.500
       146   11 Jun 2027 06:56:04.763   11 Jun 2027 06:56:21.334            16.571          8285.500
       147   11 Jun 2027 08:26:09.714   11 Jun 2027 08:26:28.421            18.707          9353.500
       148   11 Jun 2027 08:26:49.402   11 Jun 2027 08:26:57.971             8.569          4284.500
       149   11 Jun 2027 08:27:14.928   11 Jun 2027 08:27:16.669             1.741           870.500
       150   11 Jun 2027 08:27:39.942   11 Jun 2027 08:27:50.996            11.054          5527.000
       151   11 Jun 2027 08:28:36.235   11 Jun 2027 08:28:42.884             6.649          3324.500
       152   11 Jun 2027 08:29:25.447   11 Jun 2027 08:29:40.383            14.936          7468.000
       153   11 Jun 2027 08:30:02.535   11 Jun 2027 08:30:05.998             3.463          1731.500
       154   11 Jun 2027 08:31:07.038   11 Jun 2027 08:31:21.897            14.859          7429.500
       155   12 Jun 2027 03:49:32.764   12 Jun 2027 03:56:17.741           404.977        202488.500
       156   12 Jun 2027 05:26:35.807   12 Jun 2027 05:29:45.969           190.162         95081.000
       157   12 Jun 2027 05:31:12.063   12 Jun 2027 05:31:24.336            12.273          6136.500
       158   12 Jun 2027 05:32:23.630   12 Jun 2027 05:32:42.408            18.778          9389.000
       159   12 Jun 2027 07:03:33.763   12 Jun 2027 07:05:55.892           142.129         71064.500
       160   12 Jun 2027 07:06:23.970   12 Jun 2027 07:06:34.168            10.198          5099.000
       161   12 Jun 2027 07:07:26.425   12 Jun 2027 07:07:36.991            10.566          5283.000
       162   12 Jun 2027 08:38:36.627   12 Jun 2027 08:39:01.703            25.076         12538.000
       163   12 Jun 2027 08:40:16.560   12 Jun 2027 08:40:23.700             7.140          3570.000
       164   12 Jun 2027 08:40:55.286   12 Jun 2027 08:41:19.462            24.176         12088.000
       165   12 Jun 2027 08:42:23.814   12 Jun 2027 08:42:35.971            12.157          6078.500
       166   13 Jun 2027 04:01:59.046   13 Jun 2027 04:08:40.668           401.622        200811.000
       167   13 Jun 2027 05:38:55.830   13 Jun 2027 05:42:02.448           186.618         93309.000
       168   13 Jun 2027 05:42:57.956   13 Jun 2027 05:43:10.756            12.800          6400.000
       169   13 Jun 2027 07:15:46.303   13 Jun 2027 07:18:30.123           163.820         81910.000
       170   13 Jun 2027 07:18:55.197   13 Jun 2027 07:19:03.331             8.134          4067.000
       171   13 Jun 2027 08:53:27.135   13 Jun 2027 08:53:52.099            24.964         12482.000
       172   13 Jun 2027 08:54:03.665   13 Jun 2027 08:54:03.665             0.000             0.000
       173   13 Jun 2027 08:54:12.067   13 Jun 2027 08:54:20.535             8.468          4234.000
       174   13 Jun 2027 08:55:02.500   13 Jun 2027 08:55:02.713             0.213           106.500
