uniorb/output/strategy_1/Camera/Camera_KinoSat_111405.txt

KinoSat_111405
-------------------------
    Access    *     Start Time (UTCG)     *     Stop Time (UTCG)  *   Duration (s) *   Data (Mbytes)
         1   01 Jun 2027 03:23:20.329   01 Jun 2027 03:25:31.094           130.765         65382.500
         2   01 Jun 2027 03:25:48.387   01 Jun 2027 03:25:57.846             9.459          4729.500
         3   01 Jun 2027 03:28:45.893   01 Jun 2027 03:29:04.518            18.625          9312.500
         4   01 Jun 2027 03:30:09.461   01 Jun 2027 03:30:16.614             7.153          3576.500
         5   01 Jun 2027 04:48:35.156   01 Jun 2027 04:48:57.847            22.691         11345.500
         6   01 Jun 2027 04:49:32.374   01 Jun 2027 04:49:50.732            18.358          9179.000
         7   01 Jun 2027 05:00:04.074   01 Jun 2027 05:00:46.336            42.262         21131.000
         8   01 Jun 2027 05:01:30.918   01 Jun 2027 05:01:31.169             0.251           125.500
         9   01 Jun 2027 06:22:43.330   01 Jun 2027 06:23:42.326            58.996         29498.000
        10   01 Jun 2027 06:24:19.086   01 Jun 2027 06:24:43.372            24.286         12143.000
        11   01 Jun 2027 07:58:03.089   01 Jun 2027 07:59:02.105            59.016         29508.000
        12   01 Jun 2027 07:59:35.243   01 Jun 2027 08:00:22.246            47.003         23501.500
        13   01 Jun 2027 08:00:50.923   01 Jun 2027 08:01:10.490            19.567          9783.500
        14   01 Jun 2027 09:34:33.635   01 Jun 2027 09:35:18.157            44.522         22261.000
        15   01 Jun 2027 09:37:50.736   01 Jun 2027 09:38:37.937            47.201         23600.500
        16   01 Jun 2027 09:41:15.136   01 Jun 2027 09:42:00.782            45.646         22823.000
        17   01 Jun 2027 11:11:38.134   01 Jun 2027 11:13:54.743           136.609         68304.500
        18   01 Jun 2027 11:15:57.395   01 Jun 2027 11:16:09.497            12.102          6051.000
        19   01 Jun 2027 11:16:46.888   01 Jun 2027 11:16:52.086             5.198          2599.000
        20   02 Jun 2027 03:35:34.220   02 Jun 2027 03:37:28.790           114.570         57285.000
        21   02 Jun 2027 03:38:53.421   02 Jun 2027 03:39:07.362            13.941          6970.500
        22   02 Jun 2027 03:42:23.638   02 Jun 2027 03:42:40.035            16.397          8198.500
        23   02 Jun 2027 04:59:50.995   02 Jun 2027 05:00:32.905            41.910         20955.000
        24   02 Jun 2027 05:01:53.516   02 Jun 2027 05:02:00.354             6.838          3419.000
        25   02 Jun 2027 05:12:03.308   02 Jun 2027 05:12:41.261            37.953         18976.500
        26   02 Jun 2027 06:34:19.290   02 Jun 2027 06:35:25.922            66.632         33316.000
        27   02 Jun 2027 06:36:48.170   02 Jun 2027 06:37:08.322            20.152         10076.000
        28   02 Jun 2027 06:39:35.269   02 Jun 2027 06:39:36.792             1.523           761.500
        29   02 Jun 2027 08:09:12.754   02 Jun 2027 08:11:00.112           107.358         53679.000
        30   02 Jun 2027 08:14:32.567   02 Jun 2027 08:14:32.567             0.000             0.000
        31   02 Jun 2027 08:15:19.988   02 Jun 2027 08:16:07.087            47.099         23549.500
        32   02 Jun 2027 09:46:46.718   02 Jun 2027 09:48:18.950            92.232         46116.000
        33   02 Jun 2027 09:48:47.533   02 Jun 2027 09:49:10.320            22.787         11393.500
        34   02 Jun 2027 09:52:05.741   02 Jun 2027 09:52:09.648             3.907          1953.500
        35   02 Jun 2027 09:52:55.013   02 Jun 2027 09:53:03.045             8.032          4016.000
        36   02 Jun 2027 11:23:29.345   02 Jun 2027 11:25:27.665           118.320         59160.000
        37   02 Jun 2027 11:25:37.239   02 Jun 2027 11:25:44.913             7.674          3837.000
        38   02 Jun 2027 11:29:32.358   02 Jun 2027 11:29:35.608             3.250          1625.000
        39   03 Jun 2027 03:47:38.991   03 Jun 2027 03:49:09.444            90.453         45226.500
        40   03 Jun 2027 03:49:43.896   03 Jun 2027 03:49:59.255            15.359          7679.500
        41   03 Jun 2027 03:50:23.563   03 Jun 2027 03:50:23.563             0.000             0.000
        42   03 Jun 2027 03:52:45.636   03 Jun 2027 03:52:47.445             1.809           904.500
        43   03 Jun 2027 03:54:21.532   03 Jun 2027 03:54:32.314            10.782          5391.000
        44   03 Jun 2027 05:11:56.789   03 Jun 2027 05:12:58.090            61.301         30650.500
        45   03 Jun 2027 05:24:18.779   03 Jun 2027 05:24:36.378            17.599          8799.500
        46   03 Jun 2027 06:45:48.415   03 Jun 2027 06:47:11.703            83.288         41644.000
        47   03 Jun 2027 06:47:48.827   03 Jun 2027 06:48:02.656            13.829          6914.500
        48   03 Jun 2027 06:49:19.212   03 Jun 2027 06:49:37.164            17.952          8976.000
        49   03 Jun 2027 08:20:43.422   03 Jun 2027 08:22:50.736           127.314         63657.000
        50   03 Jun 2027 08:24:56.006   03 Jun 2027 08:24:56.006             0.000             0.000
        51   03 Jun 2027 08:26:36.069   03 Jun 2027 08:26:40.173             4.104          2052.000
        52   03 Jun 2027 08:28:06.130   03 Jun 2027 08:28:21.674            15.544          7772.000
        53   03 Jun 2027 08:29:40.340   03 Jun 2027 08:29:44.492             4.152          2076.000
        54   03 Jun 2027 09:58:40.793   03 Jun 2027 09:58:55.376            14.583          7291.500
        55   03 Jun 2027 09:59:25.656   03 Jun 2027 10:00:31.303            65.647         32823.500
        56   03 Jun 2027 10:02:48.556   03 Jun 2027 10:02:56.661             8.105          4052.500
        57   03 Jun 2027 10:05:45.618   03 Jun 2027 10:06:02.217            16.599          7049.031
        58   03 Jun 2027 11:35:35.419   03 Jun 2027 11:36:00.680            25.261         11469.063
        59   03 Jun 2027 11:37:25.550   03 Jun 2027 11:37:30.452             4.902          2273.188
        60   03 Jun 2027 11:37:47.455   03 Jun 2027 11:37:48.595             1.140           300.781
        61   03 Jun 2027 11:37:51.575   03 Jun 2027 11:37:52.741             1.166            93.125
        62   03 Jun 2027 11:38:43.422   03 Jun 2027 11:38:44.079             0.657           328.500
        63   03 Jun 2027 11:39:29.755   03 Jun 2027 11:39:33.536             3.781          1890.500
        64   03 Jun 2027 11:39:53.632   03 Jun 2027 11:39:53.754             0.122            61.000
        65   03 Jun 2027 11:40:20.622   03 Jun 2027 11:40:26.098             5.476          1900.844
        66   03 Jun 2027 11:41:17.046   03 Jun 2027 11:41:21.615             4.569          1212.031
        67   03 Jun 2027 11:41:39.490   03 Jun 2027 11:41:41.444             1.954           480.219
        68   04 Jun 2027 04:00:04.202   04 Jun 2027 04:01:37.101            92.899         46449.500
        69   04 Jun 2027 04:03:35.394   04 Jun 2027 04:03:40.714             5.320          2660.000
        70   04 Jun 2027 04:03:53.642   04 Jun 2027 04:04:00.316             6.674          3337.000
        71   04 Jun 2027 04:04:35.019   04 Jun 2027 04:04:35.019             0.000             0.000
        72   04 Jun 2027 04:04:59.862   04 Jun 2027 04:05:01.583             1.721           860.500
        73   04 Jun 2027 05:23:52.664   04 Jun 2027 05:25:02.097            69.433         34716.500
        74   04 Jun 2027 05:25:24.933   04 Jun 2027 05:25:29.897             4.964          2482.000
        75   04 Jun 2027 05:26:03.816   04 Jun 2027 05:26:08.437             4.621          2310.500
        76   04 Jun 2027 06:59:52.536   04 Jun 2027 07:02:00.723           128.187         64093.500
        77   04 Jun 2027 07:02:46.649   04 Jun 2027 07:03:00.755            14.106          7053.000
        78   04 Jun 2027 08:33:36.905   04 Jun 2027 08:34:13.569            36.664         15366.968
        79   04 Jun 2027 08:35:33.773   04 Jun 2027 08:35:39.263             5.490          1709.250
        80   04 Jun 2027 08:36:41.688   04 Jun 2027 08:36:47.731             6.043          1950.781
        81   04 Jun 2027 08:37:42.034   04 Jun 2027 08:37:43.633             1.599           799.500
        82   04 Jun 2027 08:37:51.083   04 Jun 2027 08:37:52.925             1.842           902.531
        83   04 Jun 2027 08:38:16.487   04 Jun 2027 08:38:17.545             1.058            87.906
        84   04 Jun 2027 08:40:36.198   04 Jun 2027 08:40:45.335             9.137          4332.906
        85   04 Jun 2027 08:41:30.341   04 Jun 2027 08:41:31.965             1.624           812.000
        86   04 Jun 2027 08:42:11.064   04 Jun 2027 08:42:11.715             0.651           325.500
        87   04 Jun 2027 10:11:02.034   04 Jun 2027 10:11:17.942            15.908          7647.250
        88   04 Jun 2027 10:12:10.214   04 Jun 2027 10:12:17.750             7.536           947.563
        89   04 Jun 2027 10:12:43.077   04 Jun 2027 10:12:44.502             1.425           557.375
        90   04 Jun 2027 10:13:33.994   04 Jun 2027 10:13:39.213             5.219          1501.031
        91   04 Jun 2027 10:14:24.750   04 Jun 2027 10:14:28.232             3.482          1285.781
        92   04 Jun 2027 10:15:37.799   04 Jun 2027 10:15:43.700             5.901          1729.563
        93   04 Jun 2027 10:15:59.868   04 Jun 2027 10:16:03.840             3.972           501.219
        94   04 Jun 2027 10:16:06.595   04 Jun 2027 10:16:07.631             1.036            86.094
        95   04 Jun 2027 10:16:36.465   04 Jun 2027 10:16:36.465             0.000             0.000
        96   04 Jun 2027 10:16:45.098   04 Jun 2027 10:16:54.619             9.521          1042.125
        97   04 Jun 2027 10:17:16.413   04 Jun 2027 10:17:19.068             2.655           681.063
        98   04 Jun 2027 10:17:47.812   04 Jun 2027 10:17:53.532             5.720           898.250
        99   04 Jun 2027 10:18:03.083   04 Jun 2027 10:18:06.818             3.735           293.688
       100   04 Jun 2027 11:48:05.658   04 Jun 2027 11:48:22.483            16.825          7892.031
       101   04 Jun 2027 11:49:12.830   04 Jun 2027 11:49:16.029             3.199          1018.094
       102   04 Jun 2027 11:49:46.201   04 Jun 2027 11:49:48.053             1.852           446.281
       103   04 Jun 2027 11:50:20.550   04 Jun 2027 11:50:22.697             2.147          1015.531
       104   04 Jun 2027 11:51:35.734   04 Jun 2027 11:51:51.187            15.453          1868.625
       105   04 Jun 2027 11:52:09.075   04 Jun 2027 11:52:10.710             1.635           496.125
       106   04 Jun 2027 11:52:52.942   04 Jun 2027 11:52:52.942             0.000             0.000
       107   04 Jun 2027 11:53:05.837   04 Jun 2027 11:53:12.033             6.196          1565.125
       108   04 Jun 2027 11:53:13.710   04 Jun 2027 11:53:14.084             0.374            52.406
       109   04 Jun 2027 11:53:36.278   04 Jun 2027 11:53:37.841             1.563           592.094
       110   05 Jun 2027 04:12:22.716   05 Jun 2027 04:13:57.531            94.815         47407.500
       111   05 Jun 2027 04:14:19.140   05 Jun 2027 04:14:35.844            16.704          8352.000
       112   05 Jun 2027 04:15:06.598   05 Jun 2027 04:15:12.782             6.184          3092.000
       113   05 Jun 2027 04:15:21.803   05 Jun 2027 04:15:43.680            21.877         10938.500
       114   05 Jun 2027 05:35:44.272   05 Jun 2027 05:37:13.674            89.402         44701.000
       115   05 Jun 2027 05:37:25.298   05 Jun 2027 05:37:25.298             0.000             0.000
       116   05 Jun 2027 07:12:07.069   05 Jun 2027 07:14:07.051           119.982         59991.000
       117   05 Jun 2027 07:14:16.225   05 Jun 2027 07:14:22.201             5.976          2063.969
       118   05 Jun 2027 07:15:22.278   05 Jun 2027 07:15:26.288             4.010          1577.250
       119   05 Jun 2027 08:46:11.367   05 Jun 2027 08:46:24.977            13.610          6608.531
       120   05 Jun 2027 08:48:18.596   05 Jun 2027 08:48:20.957             2.361           904.781
       121   05 Jun 2027 08:49:17.263   05 Jun 2027 08:49:20.691             3.428          1253.031
       122   05 Jun 2027 08:49:36.393   05 Jun 2027 08:49:39.265             2.872           268.344
       123   05 Jun 2027 08:52:39.298   05 Jun 2027 08:52:47.184             7.886          3943.000
       124   05 Jun 2027 08:52:55.554   05 Jun 2027 08:52:56.846             1.292           646.000
       125   05 Jun 2027 08:53:11.813   05 Jun 2027 08:53:11.813             0.000             0.000
       126   05 Jun 2027 08:53:33.648   05 Jun 2027 08:53:37.242             3.594          1640.469
       127   05 Jun 2027 08:54:00.945   05 Jun 2027 08:54:02.271             1.326           485.281
       128   05 Jun 2027 10:23:15.473   05 Jun 2027 10:23:31.664            16.191          6597.563
       129   05 Jun 2027 10:23:47.011   05 Jun 2027 10:23:48.571             1.560           438.125
       130   05 Jun 2027 10:25:22.329   05 Jun 2027 10:25:27.745             5.416          1960.563
       131   05 Jun 2027 10:26:09.162   05 Jun 2027 10:26:11.535             2.373          1159.563
       132   05 Jun 2027 10:26:55.955   05 Jun 2027 10:26:57.881             1.926           868.188
       133   05 Jun 2027 10:27:16.727   05 Jun 2027 10:27:18.672             1.945           152.219
       134   05 Jun 2027 10:27:34.350   05 Jun 2027 10:27:35.827             1.477           387.656
       135   05 Jun 2027 10:28:11.692   05 Jun 2027 10:28:13.795             2.103           861.375
       136   05 Jun 2027 10:28:31.503   05 Jun 2027 10:28:34.014             2.511           310.125
       137   05 Jun 2027 10:28:38.901   05 Jun 2027 10:28:42.848             3.947            78.531
       138   05 Jun 2027 10:29:18.451   05 Jun 2027 10:29:20.709             2.258           268.781
       139   05 Jun 2027 10:29:50.692   05 Jun 2027 10:29:52.988             2.296           936.969
       140   06 Jun 2027 04:25:15.584   06 Jun 2027 04:26:54.316            98.732         49366.000
       141   06 Jun 2027 04:26:55.343   06 Jun 2027 04:27:02.343             7.000          3500.000
       142   06 Jun 2027 05:47:48.733   06 Jun 2027 05:49:47.136           118.403         59201.500
       143   06 Jun 2027 07:24:17.710   06 Jun 2027 07:26:03.400           105.690         51662.844
       144   06 Jun 2027 07:26:48.563   06 Jun 2027 07:26:48.563             0.000             0.000
       145   06 Jun 2027 08:59:23.223   06 Jun 2027 08:59:38.128            14.905          7452.500
       146   06 Jun 2027 08:59:39.683   06 Jun 2027 08:59:42.775             3.092           496.094
       147   06 Jun 2027 08:59:56.076   06 Jun 2027 08:59:56.076             0.000             0.000
       148   06 Jun 2027 09:00:32.367   06 Jun 2027 09:00:37.894             5.527          1549.750
       149   06 Jun 2027 09:01:45.981   06 Jun 2027 09:01:51.920             5.939          2054.250
       150   06 Jun 2027 09:02:24.346   06 Jun 2027 09:02:26.097             1.751           639.875
       151   06 Jun 2027 09:02:56.520   06 Jun 2027 09:03:00.161             3.641           920.844
       152   06 Jun 2027 09:04:47.675   06 Jun 2027 09:04:55.787             8.112          3275.844
       153   06 Jun 2027 09:05:38.939   06 Jun 2027 09:05:41.595             2.656          1073.156
       154   06 Jun 2027 09:05:49.920   06 Jun 2027 09:05:49.920             0.000             0.000
       155   06 Jun 2027 09:05:55.407   06 Jun 2027 09:05:58.260             2.853           367.875
       156   06 Jun 2027 10:35:45.442   06 Jun 2027 10:35:57.024            11.582          5435.125
       157   06 Jun 2027 10:37:27.621   06 Jun 2027 10:37:30.586             2.965          1156.281
       158   06 Jun 2027 10:37:46.902   06 Jun 2027 10:37:49.660             2.758           319.031
       159   06 Jun 2027 10:37:59.903   06 Jun 2027 10:38:00.908             1.005           159.219
       160   06 Jun 2027 10:38:07.712   06 Jun 2027 10:38:10.084             2.372           169.281
       161   06 Jun 2027 10:39:00.492   06 Jun 2027 10:39:03.378             2.886           387.688
       162   06 Jun 2027 10:39:33.573   06 Jun 2027 10:39:44.740            11.167           230.125
       163   06 Jun 2027 10:40:09.629   06 Jun 2027 10:40:13.066             3.437           777.781
       164   06 Jun 2027 10:40:23.637   06 Jun 2027 10:40:27.396             3.759            85.219
       165   06 Jun 2027 10:41:13.339   06 Jun 2027 10:41:18.321             4.982          1435.719
       166   06 Jun 2027 10:42:00.401   06 Jun 2027 10:42:04.624             4.223          1315.000
       167   07 Jun 2027 03:00:00.000   07 Jun 2027 03:00:21.223            21.223         10611.500
       168   07 Jun 2027 03:00:44.087   07 Jun 2027 03:00:46.798             2.711          1355.500
       169   07 Jun 2027 03:01:21.090   07 Jun 2027 03:01:35.238            14.148          7074.000
       170   07 Jun 2027 03:01:48.340   07 Jun 2027 03:01:52.021             3.681          1840.500
       171   07 Jun 2027 03:02:55.875   07 Jun 2027 03:03:17.762            21.887         10943.500
       172   07 Jun 2027 04:36:24.583   07 Jun 2027 04:37:02.283            37.700         18850.000
       173   07 Jun 2027 04:37:14.707   07 Jun 2027 04:37:47.459            32.752         16376.000
       174   07 Jun 2027 04:38:55.413   07 Jun 2027 04:39:11.544            16.131          8065.500
       175   07 Jun 2027 05:59:53.342   07 Jun 2027 06:01:04.726            71.384         35692.000
       176   07 Jun 2027 07:36:22.244   07 Jun 2027 07:38:20.311           118.067         58460.875
       177   07 Jun 2027 07:38:57.499   07 Jun 2027 07:38:58.710             1.211           605.500
       178   07 Jun 2027 09:11:32.633   07 Jun 2027 09:11:44.189            11.556          5778.000
       179   07 Jun 2027 09:13:02.857   07 Jun 2027 09:13:13.227            10.370          3892.281
       180   07 Jun 2027 09:14:51.620   07 Jun 2027 09:14:58.326             6.706          2916.281
       181   07 Jun 2027 09:15:40.606   07 Jun 2027 09:15:43.106             2.500          1058.937
       182   07 Jun 2027 09:15:56.406   07 Jun 2027 09:15:58.038             1.632           415.625
       183   07 Jun 2027 09:16:06.461   07 Jun 2027 09:16:16.150             9.689            45.438
       184   07 Jun 2027 09:16:51.495   07 Jun 2027 09:16:55.015             3.520          1067.563
       185   07 Jun 2027 09:17:40.641   07 Jun 2027 09:17:43.456             2.815          1383.250
       186   07 Jun 2027 09:18:05.058   07 Jun 2027 09:18:08.280             3.222           675.063
       187   07 Jun 2027 10:47:45.608   07 Jun 2027 10:48:00.546            14.938          6215.438
       188   07 Jun 2027 10:49:03.473   07 Jun 2027 10:49:14.738            11.265          1951.156
       189   07 Jun 2027 10:49:42.668   07 Jun 2027 10:49:46.321             3.653           138.281
       190   07 Jun 2027 10:49:57.862   07 Jun 2027 10:50:00.588             2.726           360.656
       191   07 Jun 2027 10:50:06.932   07 Jun 2027 10:50:07.897             0.965            18.500
       192   07 Jun 2027 10:50:11.411   07 Jun 2027 10:50:12.974             1.563            84.313
       193   07 Jun 2027 10:50:43.803   07 Jun 2027 10:50:46.722             2.919           499.813
       194   07 Jun 2027 10:51:14.547   07 Jun 2027 10:51:20.511             5.964           549.875
       195   07 Jun 2027 10:51:37.237   07 Jun 2027 10:51:37.830             0.593           129.219
       196   07 Jun 2027 10:51:54.748   07 Jun 2027 10:52:07.614            12.866           172.187
       197   07 Jun 2027 10:52:34.770   07 Jun 2027 10:52:37.168             2.398           810.375
       198   07 Jun 2027 10:53:26.393   07 Jun 2027 10:53:34.325             7.932          1155.813
       199   07 Jun 2027 10:53:48.716   07 Jun 2027 10:53:48.716             0.000             0.000
       200   08 Jun 2027 03:11:16.238   08 Jun 2027 03:12:35.843            79.605         39802.500
       201   08 Jun 2027 03:13:17.476   08 Jun 2027 03:13:25.097             7.621          3810.500
       202   08 Jun 2027 03:14:51.771   08 Jun 2027 03:15:01.207             9.436          4718.000
       203   08 Jun 2027 03:18:05.046   08 Jun 2027 03:18:09.606             4.560          2280.000
       204   08 Jun 2027 03:18:23.309   08 Jun 2027 03:18:35.218            11.909          5954.500
       205   08 Jun 2027 04:37:32.611   08 Jun 2027 04:37:49.871            17.260          8630.000
       206   08 Jun 2027 04:48:22.117   08 Jun 2027 04:49:35.127            73.010         36505.000
       207   08 Jun 2027 04:51:47.062   08 Jun 2027 04:51:47.062             0.000             0.000
       208   08 Jun 2027 06:12:20.216   08 Jun 2027 06:13:04.983            44.767         22383.500
       209   08 Jun 2027 07:48:06.515   08 Jun 2027 07:49:49.990           103.475         51737.500
       210   08 Jun 2027 07:50:36.136   08 Jun 2027 07:50:44.864             8.728          2796.218
       211   08 Jun 2027 07:50:51.469   08 Jun 2027 07:50:51.469             0.000             0.000
       212   08 Jun 2027 07:51:05.474   08 Jun 2027 07:51:10.405             4.931           530.313
       213   08 Jun 2027 09:22:52.721   08 Jun 2027 09:23:06.149            13.428          5951.062
       214   08 Jun 2027 09:23:16.099   08 Jun 2027 09:23:18.102             2.003           195.313
       215   08 Jun 2027 09:25:03.596   08 Jun 2027 09:25:11.234             7.638          2993.750
       216   08 Jun 2027 09:25:42.038   08 Jun 2027 09:25:42.286             0.248           124.000
       217   08 Jun 2027 09:26:28.317   08 Jun 2027 09:26:33.453             5.136          1527.406
       218   08 Jun 2027 09:27:09.982   08 Jun 2027 09:27:13.066             3.084           783.750
       219   08 Jun 2027 09:27:36.755   08 Jun 2027 09:27:38.778             2.023           537.844
       220   08 Jun 2027 09:28:05.013   08 Jun 2027 09:28:07.699             2.686            54.844
       221   08 Jun 2027 09:28:51.800   08 Jun 2027 09:28:54.935             3.135          1378.156
       222   08 Jun 2027 09:29:30.507   08 Jun 2027 09:29:31.989             1.482           741.000
       223   08 Jun 2027 09:29:42.322   08 Jun 2027 09:29:44.130             1.808           693.531
       224   08 Jun 2027 10:59:33.339   08 Jun 2027 10:59:49.641            16.302          7140.156
       225   08 Jun 2027 11:01:19.880   08 Jun 2027 11:01:25.536             5.656          2280.031
       226   08 Jun 2027 11:01:34.927   08 Jun 2027 11:01:35.597             0.670           213.219
       227   08 Jun 2027 11:02:03.709   08 Jun 2027 11:02:05.068             1.359           647.375
       228   08 Jun 2027 11:02:13.110   08 Jun 2027 11:02:14.724             1.614           239.656
       229   08 Jun 2027 11:02:50.268   08 Jun 2027 11:02:52.157             1.889           618.000
       230   08 Jun 2027 11:03:30.702   08 Jun 2027 11:03:32.983             2.281          1140.500
       231   08 Jun 2027 11:04:08.393   08 Jun 2027 11:04:16.156             7.763          1112.688
       232   08 Jun 2027 11:04:31.882   08 Jun 2027 11:04:34.568             2.686           348.438
       233   08 Jun 2027 11:04:45.349   08 Jun 2027 11:04:51.090             5.741           287.125
       234   09 Jun 2027 03:23:36.761   09 Jun 2027 03:25:22.896           106.135         53067.500
       235   09 Jun 2027 03:26:15.066   09 Jun 2027 03:26:19.191             4.125          2062.500
       236   09 Jun 2027 03:28:03.431   09 Jun 2027 03:28:22.914            19.483          9741.500
       237   09 Jun 2027 03:29:58.937   09 Jun 2027 03:30:07.017             8.080          4040.000
       238   09 Jun 2027 04:48:48.711   09 Jun 2027 04:49:19.393            30.682         15341.000
       239   09 Jun 2027 05:00:20.562   09 Jun 2027 05:00:46.994            26.432         13216.000
       240   09 Jun 2027 05:01:14.282   09 Jun 2027 05:01:23.196             8.914          4457.000
       241   09 Jun 2027 05:01:46.892   09 Jun 2027 05:01:57.599            10.707          5353.500
       242   09 Jun 2027 06:22:59.362   09 Jun 2027 06:23:57.710            58.348         29174.000
       243   09 Jun 2027 06:24:35.026   09 Jun 2027 06:24:47.776            12.750          6375.000
       244   09 Jun 2027 06:26:53.459   09 Jun 2027 06:27:15.348            21.889         10944.500
       245   09 Jun 2027 07:58:11.277   09 Jun 2027 07:59:01.135            49.858         23074.813
       246   09 Jun 2027 08:00:55.345   09 Jun 2027 08:01:02.149             6.804          3325.813
       247   09 Jun 2027 08:01:41.426   09 Jun 2027 08:01:43.591             2.165          1025.969
       248   09 Jun 2027 08:01:55.033   09 Jun 2027 08:02:02.643             7.610            94.500
       249   09 Jun 2027 08:02:33.077   09 Jun 2027 08:02:35.803             2.726           578.719
       250   09 Jun 2027 08:03:08.451   09 Jun 2027 08:03:11.528             3.077          1020.250
       251   09 Jun 2027 09:34:51.814   09 Jun 2027 09:35:01.482             9.668          4084.156
       252   09 Jun 2027 09:37:03.815   09 Jun 2027 09:37:20.400            16.585          3742.875
       253   09 Jun 2027 09:37:52.433   09 Jun 2027 09:37:54.082             1.649           136.438
       254   09 Jun 2027 09:38:16.246   09 Jun 2027 09:38:18.453             2.207           209.156
       255   09 Jun 2027 09:38:26.761   09 Jun 2027 09:38:27.870             1.109           259.625
       256   09 Jun 2027 09:39:24.525   09 Jun 2027 09:39:25.671             1.146           573.000
       257   09 Jun 2027 09:39:56.270   09 Jun 2027 09:40:01.986             5.716          2003.375
       258   09 Jun 2027 09:40:17.213   09 Jun 2027 09:40:20.931             3.718           475.156
       259   09 Jun 2027 09:40:50.104   09 Jun 2027 09:40:52.947             2.843           911.656
       260   09 Jun 2027 09:41:31.312   09 Jun 2027 09:41:34.398             3.086          1198.906
       261   09 Jun 2027 09:42:01.143   09 Jun 2027 09:42:05.696             4.553           537.250
       262   09 Jun 2027 11:11:54.525   09 Jun 2027 11:12:10.044            15.519          6727.500
       263   09 Jun 2027 11:12:47.861   09 Jun 2027 11:12:51.128             3.267           740.969
       264   09 Jun 2027 11:13:42.026   09 Jun 2027 11:13:45.686             3.660          1118.406
       265   09 Jun 2027 11:14:02.404   09 Jun 2027 11:14:04.973             2.569           211.594
       266   09 Jun 2027 11:14:20.901   09 Jun 2027 11:14:22.986             2.085           497.750
       267   09 Jun 2027 11:14:53.081   09 Jun 2027 11:14:53.081             0.000             0.000
       268   09 Jun 2027 11:15:13.331   09 Jun 2027 11:15:17.191             3.860          1312.562
       269   09 Jun 2027 11:15:31.208   09 Jun 2027 11:15:32.464             1.256           438.031
       270   09 Jun 2027 11:15:48.175   09 Jun 2027 11:15:56.875             8.700           484.031
       271   09 Jun 2027 11:17:23.041   09 Jun 2027 11:17:28.455             5.414          2493.594
       272   09 Jun 2027 11:17:43.808   09 Jun 2027 11:17:44.966             1.158           479.781
       273   09 Jun 2027 11:17:56.009   09 Jun 2027 11:17:58.587             2.578           240.000
       274   10 Jun 2027 03:35:52.252   10 Jun 2027 03:37:52.758           120.506         60253.000
       275   10 Jun 2027 03:39:10.941   10 Jun 2027 03:39:20.477             9.536          4768.000
       276   10 Jun 2027 03:39:44.491   10 Jun 2027 03:39:52.132             7.641          3820.500
       277   10 Jun 2027 03:39:53.941   10 Jun 2027 03:39:54.216             0.275           137.500
       278   10 Jun 2027 03:42:40.600   10 Jun 2027 03:42:56.752            16.152          8076.000
       279   10 Jun 2027 05:00:06.461   10 Jun 2027 05:00:49.043            42.582         21291.000
       280   10 Jun 2027 05:02:08.723   10 Jun 2027 05:02:08.723             0.000             0.000
       281   10 Jun 2027 05:12:19.740   10 Jun 2027 05:13:02.479            42.739         21369.500
       282   10 Jun 2027 06:34:35.014   10 Jun 2027 06:35:41.439            66.425         33212.500
       283   10 Jun 2027 06:39:16.323   10 Jun 2027 06:39:23.730             7.407          3703.500
       284   10 Jun 2027 08:09:27.661   10 Jun 2027 08:10:06.153            38.492         19246.000
       285   10 Jun 2027 08:10:42.945   10 Jun 2027 08:10:49.151             6.206          3103.000
       286   10 Jun 2027 08:11:10.371   10 Jun 2027 08:11:16.808             6.437          1719.812
       287   10 Jun 2027 08:13:28.594   10 Jun 2027 08:13:37.222             8.628          4118.313
       288   10 Jun 2027 08:14:52.750   10 Jun 2027 08:14:55.184             2.434          1217.000
       289   10 Jun 2027 08:15:33.540   10 Jun 2027 08:15:38.991             5.451          2228.937
       290   10 Jun 2027 08:16:25.972   10 Jun 2027 08:16:25.972             0.000             0.000
       291   10 Jun 2027 08:17:31.367   10 Jun 2027 08:17:39.852             8.485          2903.094
       292   10 Jun 2027 09:47:02.141   10 Jun 2027 09:47:12.241            10.100          4348.875
       293   10 Jun 2027 09:48:05.563   10 Jun 2027 09:48:08.040             2.477           881.063
       294   10 Jun 2027 09:48:35.034   10 Jun 2027 09:48:36.732             1.698           798.937
       295   10 Jun 2027 09:49:48.546   10 Jun 2027 09:49:53.932             5.386          2244.188
       296   10 Jun 2027 09:50:26.582   10 Jun 2027 09:50:32.492             5.910          1020.313
       297   10 Jun 2027 09:51:17.668   10 Jun 2027 09:51:24.507             6.839          1411.750
       298   10 Jun 2027 09:52:21.439   10 Jun 2027 09:52:26.426             4.987          1657.594
       299   10 Jun 2027 09:52:52.951   10 Jun 2027 09:52:54.767             1.816           825.219
       300   10 Jun 2027 09:53:48.770   10 Jun 2027 09:53:51.356             2.586          1239.781
       301   10 Jun 2027 09:54:00.032   10 Jun 2027 09:54:00.637             0.605           151.375
       302   10 Jun 2027 09:54:15.295   10 Jun 2027 09:54:16.912             1.617           458.063
       303   10 Jun 2027 09:54:23.374   10 Jun 2027 09:54:23.504             0.130            65.000
       304   10 Jun 2027 11:23:44.921   10 Jun 2027 11:23:57.685            12.764          6382.000
       305   10 Jun 2027 11:24:17.058   10 Jun 2027 11:24:20.490             3.432          1082.656
       306   10 Jun 2027 11:26:22.092   10 Jun 2027 11:26:30.350             8.258          2844.281
       307   10 Jun 2027 11:27:34.599   10 Jun 2027 11:27:37.875             3.276          1638.000
       308   10 Jun 2027 11:28:36.902   10 Jun 2027 11:28:42.729             5.827          2214.375
       309   10 Jun 2027 11:29:14.321   10 Jun 2027 11:29:18.501             4.180           987.250
       310   10 Jun 2027 11:29:51.881   10 Jun 2027 11:29:53.120             1.239           619.500
       311   10 Jun 2027 11:29:53.280   10 Jun 2027 11:29:54.438             1.158           317.594
       312   10 Jun 2027 11:30:05.891   10 Jun 2027 11:30:06.454             0.563           169.281
       313   10 Jun 2027 11:30:22.856   10 Jun 2027 11:30:23.579             0.723           289.531
       314   11 Jun 2027 03:47:56.911   11 Jun 2027 03:49:52.697           115.786         57893.000
       315   11 Jun 2027 03:51:43.859   11 Jun 2027 03:51:56.142            12.283          6141.500
       316   11 Jun 2027 03:53:00.210   11 Jun 2027 03:53:00.210             0.000             0.000
       317   11 Jun 2027 03:54:01.816   11 Jun 2027 03:54:23.688            21.872         10936.000
       318   11 Jun 2027 05:12:12.433   11 Jun 2027 05:13:02.154            49.721         24860.500
       319   11 Jun 2027 05:13:04.720   11 Jun 2027 05:13:12.790             8.070          4035.000
       320   11 Jun 2027 05:24:40.662   11 Jun 2027 05:24:51.595            10.933          5466.500
       321   11 Jun 2027 06:46:03.490   11 Jun 2027 06:47:26.565            83.075         41537.500
       322   11 Jun 2027 06:48:06.270   11 Jun 2027 06:48:29.902            23.632         11816.000
       323   11 Jun 2027 06:49:29.836   11 Jun 2027 06:49:29.836             0.000             0.000
       324   11 Jun 2027 06:51:22.717   11 Jun 2027 06:51:25.458             2.741          1370.500
       325   11 Jun 2027 08:20:57.785   11 Jun 2027 08:21:33.270            35.485         17683.156
       326   11 Jun 2027 08:23:07.954   11 Jun 2027 08:23:13.617             5.663          2320.375
       327   11 Jun 2027 08:24:16.611   11 Jun 2027 08:24:16.861             0.250           125.000
       328   11 Jun 2027 08:25:28.795   11 Jun 2027 08:25:42.275            13.480          3847.500
       329   11 Jun 2027 08:26:52.608   11 Jun 2027 08:26:57.971             5.363          2184.312
       330   11 Jun 2027 08:27:53.534   11 Jun 2027 08:27:59.427             5.893          1723.156
       331   11 Jun 2027 08:28:09.390   11 Jun 2027 08:28:09.390             0.000             0.000
       332   11 Jun 2027 08:28:23.524   11 Jun 2027 08:28:25.767             2.243           715.156
       333   11 Jun 2027 08:29:40.383   11 Jun 2027 08:29:43.382             2.999          1398.781
       334   11 Jun 2027 08:30:02.451   11 Jun 2027 08:30:02.535             0.084            42.000
       335   11 Jun 2027 09:58:56.926   11 Jun 2027 09:59:11.349            14.423          7092.344
       336   11 Jun 2027 10:00:17.778   11 Jun 2027 10:00:22.493             4.715          2073.844
       337   11 Jun 2027 10:00:34.526   11 Jun 2027 10:00:36.808             2.282           317.281
       338   11 Jun 2027 10:00:57.761   11 Jun 2027 10:00:58.377             0.616           194.875
       339   11 Jun 2027 10:01:55.014   11 Jun 2027 10:01:58.422             3.408          1647.625
       340   11 Jun 2027 10:02:34.346   11 Jun 2027 10:02:37.414             3.068           846.188
       341   11 Jun 2027 10:03:03.999   11 Jun 2027 10:03:12.754             8.755           830.781
       342   11 Jun 2027 10:04:20.979   11 Jun 2027 10:04:29.229             8.250          2132.031
       343   11 Jun 2027 10:04:35.674   11 Jun 2027 10:04:39.195             3.521           201.406
       344   11 Jun 2027 10:04:42.598   11 Jun 2027 10:04:46.335             3.737           100.781
       345   11 Jun 2027 10:04:54.242   11 Jun 2027 10:04:58.085             3.843           210.500
       346   11 Jun 2027 10:05:07.777   11 Jun 2027 10:05:13.569             5.792           302.875
       347   11 Jun 2027 10:05:32.007   11 Jun 2027 10:05:33.647             1.640           487.281
       348   11 Jun 2027 10:05:59.937   11 Jun 2027 10:06:01.453             1.516           758.000
       349   11 Jun 2027 10:06:06.721   11 Jun 2027 10:06:08.292             1.571           228.188
       350   11 Jun 2027 10:06:16.816   11 Jun 2027 10:06:19.228             2.412           241.219
       351   11 Jun 2027 11:35:53.356   11 Jun 2027 11:36:10.149            16.793          7466.469
       352   11 Jun 2027 11:36:27.862   11 Jun 2027 11:36:29.132             1.270           202.781
       353   11 Jun 2027 11:37:41.631   11 Jun 2027 11:37:46.146             4.515          2243.719
       354   11 Jun 2027 11:37:52.814   11 Jun 2027 11:37:55.637             2.823           208.375
       355   11 Jun 2027 11:38:09.555   11 Jun 2027 11:38:14.096             4.541           155.094
       356   11 Jun 2027 11:38:58.869   11 Jun 2027 11:39:00.031             1.162           581.000
       357   11 Jun 2027 11:39:28.151   11 Jun 2027 11:39:30.903             2.752          1186.219
       358   11 Jun 2027 11:39:52.381   11 Jun 2027 11:39:52.791             0.410           205.000
       359   11 Jun 2027 11:40:08.515   11 Jun 2027 11:40:13.608             5.093           957.562
       360   11 Jun 2027 11:40:36.745   11 Jun 2027 11:40:40.389             3.644           613.625
       361   11 Jun 2027 11:41:02.362   11 Jun 2027 11:41:05.529             3.167           686.656
       362   11 Jun 2027 11:41:32.598   11 Jun 2027 11:41:33.513             0.915           371.781
       363   11 Jun 2027 11:41:54.142   11 Jun 2027 11:41:54.142             0.000             0.000
       364   11 Jun 2027 11:42:07.469   11 Jun 2027 11:42:09.880             2.411           830.375
       365   12 Jun 2027 04:00:20.148   12 Jun 2027 04:02:13.788           113.640         56820.000
       366   12 Jun 2027 04:03:33.278   12 Jun 2027 04:03:47.606            14.328          7164.000
       367   12 Jun 2027 05:24:08.470   12 Jun 2027 05:25:18.125            69.655         34827.500
       368   12 Jun 2027 07:00:21.035   12 Jun 2027 07:02:18.836           117.801         58900.500
       369   12 Jun 2027 07:03:27.295   12 Jun 2027 07:03:45.746            18.451          7718.001
       370   12 Jun 2027 08:33:52.745   12 Jun 2027 08:34:14.494            21.749          8376.562
       371   12 Jun 2027 08:35:28.998   12 Jun 2027 08:35:31.325             2.327           529.531
       372   12 Jun 2027 08:36:15.708   12 Jun 2027 08:36:23.985             8.277          1206.812
       373   12 Jun 2027 08:36:56.220   12 Jun 2027 08:36:58.490             2.270           976.125
       374   12 Jun 2027 08:37:47.124   12 Jun 2027 08:37:47.124             0.000             0.000
       375   12 Jun 2027 08:39:01.484   12 Jun 2027 08:39:08.096             6.612          3302.563
       376   12 Jun 2027 08:40:55.862   12 Jun 2027 08:40:58.114             2.252          1126.000
       377   12 Jun 2027 08:41:08.457   12 Jun 2027 08:41:13.612             5.155          2086.094
       378   12 Jun 2027 08:41:39.166   12 Jun 2027 08:41:40.737             1.571           249.375
       379   12 Jun 2027 08:42:04.186   12 Jun 2027 08:42:06.582             2.396           558.938
       380   12 Jun 2027 10:11:18.751   12 Jun 2027 10:11:33.198            14.447          6978.437
       381   12 Jun 2027 10:12:50.056   12 Jun 2027 10:12:56.542             6.486           949.469
       382   12 Jun 2027 10:13:38.053   12 Jun 2027 10:13:41.026             2.973          1179.938
       383   12 Jun 2027 10:14:13.492   12 Jun 2027 10:14:15.467             1.975           475.844
       384   12 Jun 2027 10:14:42.935   12 Jun 2027 10:14:44.819             1.884            42.938
       385   12 Jun 2027 10:15:48.413   12 Jun 2027 10:15:49.563             1.150           575.000
       386   12 Jun 2027 10:15:50.708   12 Jun 2027 10:15:52.664             1.956           971.219
       387   12 Jun 2027 10:16:52.318   12 Jun 2027 10:16:59.741             7.423          1810.844
       388   12 Jun 2027 10:17:48.133   12 Jun 2027 10:17:50.828             2.695          1347.500
       389   12 Jun 2027 10:17:58.415   12 Jun 2027 10:18:02.032             3.617           400.344
       390   12 Jun 2027 11:48:22.355   12 Jun 2027 11:48:39.577            17.222          7710.906
       391   12 Jun 2027 11:50:04.647   12 Jun 2027 11:50:13.209             8.562          2117.719
       392   12 Jun 2027 11:51:08.582   12 Jun 2027 11:51:12.689             4.107          1657.563
       393   12 Jun 2027 11:51:41.496   12 Jun 2027 11:51:46.259             4.763           900.219
       394   12 Jun 2027 11:52:30.682   12 Jun 2027 11:52:34.014             3.332          1212.594
       395   12 Jun 2027 11:54:11.513   12 Jun 2027 11:54:12.357             0.844           422.000
       396   13 Jun 2027 04:12:38.406   13 Jun 2027 04:14:04.488            86.082         43041.000
       397   13 Jun 2027 04:15:22.300   13 Jun 2027 04:16:00.065            37.765         18882.500
       398   13 Jun 2027 05:36:00.206   13 Jun 2027 05:37:06.695            66.489         33244.500
       399   13 Jun 2027 07:12:24.174   13 Jun 2027 07:14:45.431           141.257         69884.812
       400   13 Jun 2027 08:44:36.259   13 Jun 2027 08:44:47.088            10.829          5414.500
       401   13 Jun 2027 08:46:30.198   13 Jun 2027 08:46:34.871             4.673          2332.625
       402   13 Jun 2027 08:48:20.487   13 Jun 2027 08:48:20.487             0.000             0.000
       403   13 Jun 2027 08:48:36.385   13 Jun 2027 08:48:42.532             6.147          2632.281
       404   13 Jun 2027 08:48:46.488   13 Jun 2027 08:48:46.859             0.371           123.625
       405   13 Jun 2027 08:49:46.121   13 Jun 2027 08:49:51.455             5.334           888.750
       406   13 Jun 2027 08:51:36.815   13 Jun 2027 08:51:41.829             5.014          2507.000
       407   13 Jun 2027 08:51:43.050   13 Jun 2027 08:51:44.693             1.643           738.469
       408   13 Jun 2027 08:53:04.395   13 Jun 2027 08:53:12.313             7.918          2479.219
       409   13 Jun 2027 08:53:48.690   13 Jun 2027 08:53:51.112             2.422          1124.063
       410   13 Jun 2027 08:54:03.665   13 Jun 2027 08:54:06.010             2.345           361.437
       411   13 Jun 2027 08:54:21.615   13 Jun 2027 08:54:23.048             1.433           487.656
       412   13 Jun 2027 10:23:30.545   13 Jun 2027 10:23:44.274            13.729          6366.813
       413   13 Jun 2027 10:24:04.746   13 Jun 2027 10:24:07.006             2.260           418.969
       414   13 Jun 2027 10:24:56.512   13 Jun 2027 10:24:58.421             1.909           698.062
       415   13 Jun 2027 10:25:46.879   13 Jun 2027 10:25:47.863             0.984           151.000
       416   13 Jun 2027 10:26:15.252   13 Jun 2027 10:26:16.367             1.115           472.219
       417   13 Jun 2027 10:26:27.100   13 Jun 2027 10:26:28.023             0.923           335.406
       418   13 Jun 2027 10:28:00.978   13 Jun 2027 10:28:05.473             4.495          1698.625
       419   13 Jun 2027 10:29:25.217   13 Jun 2027 10:29:30.720             5.503          2460.188
       420   13 Jun 2027 10:29:44.242   13 Jun 2027 10:29:45.889             1.647           322.375
