uniorb/output/strategy_1/Camera/Camera_KinoSat_110902.txt

KinoSat_110902
-------------------------
    Access    *     Start Time (UTCG)     *     Stop Time (UTCG)  *   Duration (s) *   Data (Mbytes)
         1   01 Jun 2027 04:00:18.809   01 Jun 2027 04:02:21.362           122.553         61276.500
         2   01 Jun 2027 05:36:04.117   01 Jun 2027 05:38:08.425           124.308         62154.000
         3   01 Jun 2027 05:39:40.690   01 Jun 2027 05:39:40.690             0.000             0.000
         4   01 Jun 2027 05:40:07.460   01 Jun 2027 05:40:17.838            10.378          5189.000
         5   01 Jun 2027 07:10:55.658   01 Jun 2027 07:13:04.978           129.320         64660.000
         6   01 Jun 2027 07:13:58.880   01 Jun 2027 07:14:00.952             2.072          1036.000
         7   01 Jun 2027 07:14:24.998   01 Jun 2027 07:14:29.156             4.158          2079.000
         8   01 Jun 2027 07:17:21.302   01 Jun 2027 07:17:31.857            10.555          5277.500
         9   01 Jun 2027 08:47:31.053   01 Jun 2027 08:49:37.665           126.612         63306.000
        10   01 Jun 2027 08:49:57.296   01 Jun 2027 08:50:06.377             9.081          4540.500
        11   01 Jun 2027 08:51:41.185   01 Jun 2027 08:51:47.986             6.801          3400.500
        12   01 Jun 2027 10:25:48.685   01 Jun 2027 10:27:50.476           121.791         60895.500
        13   01 Jun 2027 10:29:02.162   01 Jun 2027 10:29:10.714             8.552          4276.000
        14   01 Jun 2027 11:59:48.682   01 Jun 2027 12:00:00.000            11.318          5659.000
        15   02 Jun 2027 04:10:57.279   02 Jun 2027 04:11:29.579            32.300         16150.000
        16   02 Jun 2027 04:11:49.503   02 Jun 2027 04:11:54.330             4.827          2413.500
        17   02 Jun 2027 04:12:33.041   02 Jun 2027 04:12:56.703            23.662         11831.000
        18   02 Jun 2027 05:46:18.184   02 Jun 2027 05:47:15.704            57.520         28760.000
        19   02 Jun 2027 05:47:49.264   02 Jun 2027 05:49:12.550            83.286         41643.000
        20   02 Jun 2027 05:49:39.583   02 Jun 2027 05:49:52.290            12.707          6353.500
        21   02 Jun 2027 07:22:46.808   02 Jun 2027 07:24:50.868           124.060         62030.000
        22   02 Jun 2027 07:25:36.844   02 Jun 2027 07:25:46.104             9.260          4630.000
        23   02 Jun 2027 07:25:49.017   02 Jun 2027 07:26:01.677            12.660          6330.000
        24   02 Jun 2027 07:26:40.221   02 Jun 2027 07:26:40.221             0.000             0.000
        25   02 Jun 2027 07:28:15.013   02 Jun 2027 07:28:16.780             1.767           883.500
        26   02 Jun 2027 07:29:16.691   02 Jun 2027 07:29:35.426            18.735          9367.500
        27   02 Jun 2027 08:59:52.247   02 Jun 2027 09:01:02.159            69.912         34956.000
        28   02 Jun 2027 09:01:35.094   02 Jun 2027 09:02:47.717            72.623         36311.500
        29   02 Jun 2027 09:04:37.782   02 Jun 2027 09:04:38.942             1.160           580.000
        30   02 Jun 2027 09:06:00.104   02 Jun 2027 09:06:01.020             0.916           458.000
        31   02 Jun 2027 10:37:46.302   02 Jun 2027 10:39:40.050           113.748         56874.000
        32   02 Jun 2027 10:40:12.943   02 Jun 2027 10:40:23.702            10.759          5379.500
        33   02 Jun 2027 10:41:21.160   02 Jun 2027 10:41:24.158             2.998          1499.000
        34   03 Jun 2027 03:00:17.673   03 Jun 2027 03:00:35.610            17.937          8968.500
        35   03 Jun 2027 03:01:12.072   03 Jun 2027 03:01:12.072             0.000             0.000
        36   03 Jun 2027 04:22:33.216   03 Jun 2027 04:23:24.528            51.312         25656.000
        37   03 Jun 2027 04:25:02.708   03 Jun 2027 04:25:02.708             0.000             0.000
        38   03 Jun 2027 04:25:30.138   03 Jun 2027 04:25:31.142             1.004           502.000
        39   03 Jun 2027 04:26:57.446   03 Jun 2027 04:27:08.275            10.829          5414.500
        40   03 Jun 2027 04:27:34.125   03 Jun 2027 04:27:47.494            13.369          6684.500
        41   03 Jun 2027 05:57:27.230   03 Jun 2027 05:59:08.262           101.032         50516.000
        42   03 Jun 2027 06:00:38.548   03 Jun 2027 06:00:38.548             0.000             0.000
        43   03 Jun 2027 06:00:45.874   03 Jun 2027 06:00:56.041            10.167          5083.500
        44   03 Jun 2027 06:01:39.020   03 Jun 2027 06:01:50.375            11.355          5677.500
        45   03 Jun 2027 07:35:00.680   03 Jun 2027 07:36:53.964           113.284         56642.000
        46   03 Jun 2027 07:37:53.510   03 Jun 2027 07:38:13.465            19.955          9977.500
        47   03 Jun 2027 07:42:05.069   03 Jun 2027 07:42:20.918            15.849          7924.500
        48   03 Jun 2027 09:11:43.153   03 Jun 2027 09:14:04.022           140.869         70434.500
        49   03 Jun 2027 09:18:03.377   03 Jun 2027 09:18:10.551             7.174          3587.000
        50   03 Jun 2027 10:49:46.232   03 Jun 2027 10:50:49.889            63.657         31617.813
        51   03 Jun 2027 10:52:03.380   03 Jun 2027 10:52:06.288             2.908          1454.000
        52   03 Jun 2027 10:52:18.346   03 Jun 2027 10:52:23.637             5.291          1219.406
        53   03 Jun 2027 10:52:58.403   03 Jun 2027 10:53:00.447             2.044           966.469
        54   03 Jun 2027 10:53:16.358   03 Jun 2027 10:53:18.701             2.343           439.187
        55   03 Jun 2027 10:53:27.943   03 Jun 2027 10:53:27.943             0.000             0.000
        56   04 Jun 2027 03:00:10.500   04 Jun 2027 03:00:21.616            11.116          5558.000
        57   04 Jun 2027 03:01:10.239   04 Jun 2027 03:01:10.239             0.000             0.000
        58   04 Jun 2027 03:01:59.394   04 Jun 2027 03:02:03.795             4.401          2200.500
        59   04 Jun 2027 03:12:25.984   04 Jun 2027 03:12:52.983            26.999         13499.500
        60   04 Jun 2027 04:34:02.698   04 Jun 2027 04:35:06.312            63.614         31807.000
        61   04 Jun 2027 04:38:55.045   04 Jun 2027 04:38:59.094             4.049          2024.500
        62   04 Jun 2027 04:39:31.338   04 Jun 2027 04:39:37.927             6.589          3294.500
        63   04 Jun 2027 06:08:57.867   04 Jun 2027 06:10:28.648            90.781         45390.500
        64   04 Jun 2027 06:11:34.522   04 Jun 2027 06:11:34.522             0.000             0.000
        65   04 Jun 2027 06:12:17.166   04 Jun 2027 06:12:34.700            17.534          8767.000
        66   04 Jun 2027 06:13:34.876   04 Jun 2027 06:13:42.946             8.070          4035.000
        67   04 Jun 2027 06:15:11.451   04 Jun 2027 06:15:11.725             0.274           137.000
        68   04 Jun 2027 06:15:32.603   04 Jun 2027 06:15:33.037             0.434           217.000
        69   04 Jun 2027 06:16:29.285   04 Jun 2027 06:16:39.343            10.058          5029.000
        70   04 Jun 2027 06:17:52.610   04 Jun 2027 06:18:03.575            10.965          5482.500
        71   04 Jun 2027 07:46:54.652   04 Jun 2027 07:48:53.557           118.905         59452.500
        72   04 Jun 2027 07:50:05.218   04 Jun 2027 07:50:17.403            12.185          3241.094
        73   04 Jun 2027 07:51:28.656   04 Jun 2027 07:51:29.338             0.682           341.000
        74   04 Jun 2027 07:51:34.650   04 Jun 2027 07:51:41.125             6.475          2018.812
        75   04 Jun 2027 09:23:46.464   04 Jun 2027 09:24:10.092            23.628         11690.906
        76   04 Jun 2027 09:24:53.089   04 Jun 2027 09:24:54.060             0.971           375.125
        77   04 Jun 2027 09:26:10.764   04 Jun 2027 09:26:15.602             4.838          2397.000
        78   04 Jun 2027 09:26:43.476   04 Jun 2027 09:26:51.286             7.810           871.063
        79   04 Jun 2027 09:27:21.220   04 Jun 2027 09:27:23.246             2.026           586.531
        80   04 Jun 2027 09:27:54.862   04 Jun 2027 09:27:57.703             2.841           982.781
        81   04 Jun 2027 09:28:00.033   04 Jun 2027 09:28:01.423             1.390            72.812
        82   04 Jun 2027 09:28:13.731   04 Jun 2027 09:28:15.010             1.279            64.937
        83   04 Jun 2027 09:28:34.089   04 Jun 2027 09:28:38.357             4.268           596.219
        84   04 Jun 2027 09:29:10.354   04 Jun 2027 09:29:11.722             1.368           684.000
        85   04 Jun 2027 09:29:49.401   04 Jun 2027 09:29:54.623             5.222          1145.562
        86   04 Jun 2027 09:30:04.471   04 Jun 2027 09:30:05.465             0.994           307.750
        87   04 Jun 2027 11:01:32.798   04 Jun 2027 11:01:47.805            15.007          7324.750
        88   04 Jun 2027 11:01:57.774   04 Jun 2027 11:01:59.181             1.407           186.969
        89   04 Jun 2027 11:02:51.423   04 Jun 2027 11:02:55.929             4.506          1600.937
        90   04 Jun 2027 11:03:01.090   04 Jun 2027 11:03:04.963             3.873           161.281
        91   04 Jun 2027 11:03:18.656   04 Jun 2027 11:03:21.279             2.623           327.188
        92   04 Jun 2027 11:04:14.197   04 Jun 2027 11:04:23.311             9.114          1522.438
        93   04 Jun 2027 11:04:58.075   04 Jun 2027 11:05:01.332             3.257           961.375
        94   04 Jun 2027 11:05:51.281   04 Jun 2027 11:05:54.359             3.078          1454.719
        95   05 Jun 2027 03:12:06.463   05 Jun 2027 03:12:27.288            20.825         10412.500
        96   05 Jun 2027 03:13:12.477   05 Jun 2027 03:13:21.569             9.092          4546.000
        97   05 Jun 2027 04:48:05.885   05 Jun 2027 04:50:01.981           116.096         58048.000
        98   05 Jun 2027 04:50:52.313   05 Jun 2027 04:50:59.329             7.016          3508.000
        99   05 Jun 2027 06:21:51.876   05 Jun 2027 06:23:36.725           104.849         52424.500
       100   05 Jun 2027 06:24:18.558   05 Jun 2027 06:24:21.957             3.399          1699.500
       101   05 Jun 2027 06:29:14.804   05 Jun 2027 06:29:22.690             7.886          3943.000
       102   05 Jun 2027 06:29:50.149   05 Jun 2027 06:29:58.721             8.572          4286.000
       103   05 Jun 2027 07:59:14.839   05 Jun 2027 08:00:26.117            71.278         34600.437
       104   05 Jun 2027 08:01:20.875   05 Jun 2027 08:01:27.695             6.820          1711.187
       105   05 Jun 2027 08:02:42.757   05 Jun 2027 08:02:42.757             0.000             0.000
       106   05 Jun 2027 08:02:44.039   05 Jun 2027 08:02:49.532             5.493          2385.750
       107   05 Jun 2027 08:03:39.411   05 Jun 2027 08:03:45.137             5.726          1410.594
       108   05 Jun 2027 08:04:51.411   05 Jun 2027 08:04:55.484             4.073          2001.750
       109   05 Jun 2027 08:05:22.678   05 Jun 2027 08:05:27.224             4.546           833.562
       110   05 Jun 2027 08:05:40.893   05 Jun 2027 08:05:41.641             0.748           361.781
       111   05 Jun 2027 08:05:51.889   05 Jun 2027 08:05:55.222             3.333           299.906
       112   05 Jun 2027 09:36:19.337   05 Jun 2027 09:36:40.884            21.547          9571.281
       113   05 Jun 2027 09:37:40.269   05 Jun 2027 09:37:43.738             3.469          1695.219
       114   05 Jun 2027 09:38:08.362   05 Jun 2027 09:38:10.909             2.547           732.719
       115   05 Jun 2027 09:38:28.210   05 Jun 2027 09:38:30.997             2.787           422.563
       116   05 Jun 2027 09:39:43.746   05 Jun 2027 09:39:48.810             5.064          1834.531
       117   05 Jun 2027 09:39:57.271   05 Jun 2027 09:40:03.345             6.074           264.406
       118   05 Jun 2027 09:40:39.485   05 Jun 2027 09:40:41.794             2.309          1059.312
       119   05 Jun 2027 09:41:36.592   05 Jun 2027 09:41:46.092             9.500          1712.437
       120   05 Jun 2027 09:41:58.064   05 Jun 2027 09:42:01.512             3.448           365.844
       121   05 Jun 2027 11:13:03.636   05 Jun 2027 11:13:19.803            16.167          8030.188
       122   05 Jun 2027 11:13:46.580   05 Jun 2027 11:13:48.573             1.993           448.594
       123   05 Jun 2027 11:14:19.790   05 Jun 2027 11:14:23.538             3.748           839.188
       124   05 Jun 2027 11:15:05.973   05 Jun 2027 11:15:08.944             2.971          1326.094
       125   05 Jun 2027 11:15:55.223   05 Jun 2027 11:15:59.684             4.461          1446.219
       126   05 Jun 2027 11:16:54.231   05 Jun 2027 11:17:00.633             6.402          1600.469
       127   05 Jun 2027 11:17:20.421   05 Jun 2027 11:17:23.575             3.154           427.750
       128   05 Jun 2027 11:17:41.119   05 Jun 2027 11:17:43.655             2.536           437.156
       129   05 Jun 2027 11:17:46.309   05 Jun 2027 11:17:47.189             0.880            82.937
       130   06 Jun 2027 03:23:58.121   06 Jun 2027 03:24:11.206            13.085          6542.500
       131   06 Jun 2027 03:24:35.337   06 Jun 2027 03:24:56.869            21.532         10766.000
       132   06 Jun 2027 03:25:20.433   06 Jun 2027 03:25:30.212             9.779          4889.500
       133   06 Jun 2027 03:26:08.039   06 Jun 2027 03:26:15.411             7.372          3686.000
       134   06 Jun 2027 03:26:23.226   06 Jun 2027 03:26:32.948             9.722          4861.000
       135   06 Jun 2027 05:00:20.167   06 Jun 2027 05:02:01.120           100.953         50476.500
       136   06 Jun 2027 05:02:26.993   06 Jun 2027 05:02:33.581             6.588          3294.000
       137   06 Jun 2027 06:32:37.007   06 Jun 2027 06:32:55.605            18.598          9299.000
       138   06 Jun 2027 06:34:24.173   06 Jun 2027 06:35:49.875            85.702         42851.000
       139   06 Jun 2027 06:36:26.758   06 Jun 2027 06:36:40.570            13.812          6906.000
       140   06 Jun 2027 06:38:57.067   06 Jun 2027 06:39:08.015            10.948          5474.000
       141   06 Jun 2027 06:40:51.326   06 Jun 2027 06:41:07.344            16.018          8009.000
       142   06 Jun 2027 08:11:28.665   06 Jun 2027 08:12:10.545            41.880         17214.593
       143   06 Jun 2027 08:14:06.189   06 Jun 2027 08:14:09.988             3.799          1460.781
       144   06 Jun 2027 08:14:37.871   06 Jun 2027 08:14:38.685             0.814           367.344
       145   06 Jun 2027 08:15:33.948   06 Jun 2027 08:15:37.685             3.737          1458.531
       146   06 Jun 2027 08:16:17.196   06 Jun 2027 08:16:23.896             6.700          1115.844
       147   06 Jun 2027 08:16:48.918   06 Jun 2027 08:16:51.737             2.819           577.281
       148   06 Jun 2027 08:17:16.124   06 Jun 2027 08:17:19.336             3.212           762.094
       149   06 Jun 2027 08:17:35.396   06 Jun 2027 08:17:35.396             0.000             0.000
       150   06 Jun 2027 08:17:39.928   06 Jun 2027 08:17:46.270             6.342           538.344
       151   06 Jun 2027 09:48:24.805   06 Jun 2027 09:48:45.919            21.114          9537.000
       152   06 Jun 2027 09:49:18.259   06 Jun 2027 09:49:19.326             1.067           533.500
       153   06 Jun 2027 09:49:45.813   06 Jun 2027 09:49:46.698             0.885           442.500
       154   06 Jun 2027 09:50:14.167   06 Jun 2027 09:50:18.832             4.665          1584.344
       155   06 Jun 2027 09:50:49.512   06 Jun 2027 09:50:54.055             4.543           958.750
       156   06 Jun 2027 09:51:33.199   06 Jun 2027 09:51:38.170             4.971          1026.063
       157   06 Jun 2027 09:51:56.187   06 Jun 2027 09:51:57.188             1.001           400.250
       158   06 Jun 2027 09:52:13.591   06 Jun 2027 09:52:14.271             0.680           194.563
       159   06 Jun 2027 11:25:11.408   06 Jun 2027 11:25:26.210            14.802          6689.000
       160   06 Jun 2027 11:26:05.215   06 Jun 2027 11:26:10.778             5.563          1080.344
       161   06 Jun 2027 11:26:22.880   06 Jun 2027 11:26:22.880             0.000             0.000
       162   06 Jun 2027 11:26:35.900   06 Jun 2027 11:26:38.752             2.852           785.062
       163   06 Jun 2027 11:27:26.156   06 Jun 2027 11:27:26.156             0.000             0.000
       164   06 Jun 2027 11:27:50.756   06 Jun 2027 11:27:56.174             5.418          1587.406
       165   06 Jun 2027 11:28:42.808   06 Jun 2027 11:28:48.133             5.325          1389.406
       166   07 Jun 2027 03:36:01.603   07 Jun 2027 03:36:37.445            35.842         17921.000
       167   07 Jun 2027 03:36:55.680   07 Jun 2027 03:37:05.887            10.207          5103.500
       168   07 Jun 2027 03:37:17.327   07 Jun 2027 03:37:35.946            18.619          9309.500
       169   07 Jun 2027 05:12:30.721   07 Jun 2027 05:14:43.638           132.917         66458.500
       170   07 Jun 2027 06:47:35.621   07 Jun 2027 06:49:19.593           103.972         51986.000
       171   07 Jun 2027 06:50:02.366   07 Jun 2027 06:50:03.967             1.601           800.500
       172   07 Jun 2027 06:50:33.858   07 Jun 2027 06:50:36.998             3.140          1570.000
       173   07 Jun 2027 06:50:54.585   07 Jun 2027 06:50:59.348             4.763          2381.500
       174   07 Jun 2027 06:51:26.940   07 Jun 2027 06:51:29.191             2.251          1125.500
       175   07 Jun 2027 06:53:40.440   07 Jun 2027 06:53:49.231             8.791          4395.500
       176   07 Jun 2027 08:23:57.412   07 Jun 2027 08:24:28.542            31.130         15475.906
       177   07 Jun 2027 08:25:21.674   07 Jun 2027 08:25:23.273             1.599           474.938
       178   07 Jun 2027 08:26:01.093   07 Jun 2027 08:26:02.199             1.106           354.375
       179   07 Jun 2027 08:27:02.248   07 Jun 2027 08:27:06.572             4.324          1837.969
       180   07 Jun 2027 08:27:27.668   07 Jun 2027 08:27:29.601             1.933           518.344
       181   07 Jun 2027 08:27:43.363   07 Jun 2027 08:27:44.983             1.620           430.063
       182   07 Jun 2027 08:28:13.051   07 Jun 2027 08:28:14.829             1.778           796.562
       183   07 Jun 2027 08:28:32.823   07 Jun 2027 08:28:34.690             1.867           219.125
       184   07 Jun 2027 08:29:31.637   07 Jun 2027 08:29:36.096             4.459          1755.750
       185   07 Jun 2027 08:29:51.726   07 Jun 2027 08:29:53.845             2.119           488.438
       186   07 Jun 2027 10:01:27.905   07 Jun 2027 10:01:47.177            19.272          9594.094
       187   07 Jun 2027 10:02:05.136   07 Jun 2027 10:02:09.529             4.393           509.750
       188   07 Jun 2027 10:02:19.744   07 Jun 2027 10:02:20.598             0.854           260.906
       189   07 Jun 2027 10:03:28.486   07 Jun 2027 10:03:36.543             8.057          2025.250
       190   07 Jun 2027 10:03:57.881   07 Jun 2027 10:03:59.963             2.082           576.406
       191   07 Jun 2027 10:04:53.287   07 Jun 2027 10:04:59.969             6.682          1452.875
       192   07 Jun 2027 10:05:13.891   07 Jun 2027 10:05:14.895             1.004           427.906
       193   07 Jun 2027 10:05:47.438   07 Jun 2027 10:05:47.438             0.000             0.000
       194   07 Jun 2027 11:37:32.521   07 Jun 2027 11:37:50.168            17.647          7593.187
       195   07 Jun 2027 11:38:06.728   07 Jun 2027 11:38:06.728             0.000             0.000
       196   07 Jun 2027 11:38:10.679   07 Jun 2027 11:38:18.851             8.172           389.594
       197   07 Jun 2027 11:39:22.367   07 Jun 2027 11:39:26.897             4.530          1767.969
       198   07 Jun 2027 11:39:46.967   07 Jun 2027 11:39:48.560             1.593           627.188
       199   07 Jun 2027 11:40:11.168   07 Jun 2027 11:40:13.423             2.255           656.906
       200   07 Jun 2027 11:41:00.142   07 Jun 2027 11:41:03.297             3.155           983.187
       201   07 Jun 2027 11:41:06.381   07 Jun 2027 11:41:08.841             2.460            96.375
       202   08 Jun 2027 03:47:57.629   08 Jun 2027 03:48:44.301            46.672         23336.000
       203   08 Jun 2027 03:49:19.520   08 Jun 2027 03:49:25.284             5.764          2882.000
       204   08 Jun 2027 03:50:21.684   08 Jun 2027 03:50:43.347            21.663         10831.500
       205   08 Jun 2027 03:51:08.439   08 Jun 2027 03:51:08.439             0.000             0.000
       206   08 Jun 2027 05:24:35.425   08 Jun 2027 05:26:46.496           131.071         65535.500
       207   08 Jun 2027 05:27:54.121   08 Jun 2027 05:28:00.807             6.686          3343.000
       208   08 Jun 2027 06:59:45.693   08 Jun 2027 07:01:23.481            97.788         48894.000
       209   08 Jun 2027 07:01:35.182   08 Jun 2027 07:01:45.034             9.852          4926.000
       210   08 Jun 2027 07:02:08.682   08 Jun 2027 07:02:11.126             2.444          1222.000
       211   08 Jun 2027 07:02:27.083   08 Jun 2027 07:02:37.827            10.744          5193.032
       212   08 Jun 2027 07:05:57.871   08 Jun 2027 07:06:05.664             7.793          3896.500
       213   08 Jun 2027 07:06:15.209   08 Jun 2027 07:06:16.666             1.457           728.500
       214   08 Jun 2027 08:36:00.800   08 Jun 2027 08:36:33.259            32.459         14081.156
       215   08 Jun 2027 08:36:50.090   08 Jun 2027 08:36:53.042             2.952           525.969
       216   08 Jun 2027 08:37:36.141   08 Jun 2027 08:37:38.330             2.189          1074.500
       217   08 Jun 2027 08:37:59.186   08 Jun 2027 08:38:00.521             1.335           251.125
       218   08 Jun 2027 08:38:40.981   08 Jun 2027 08:38:43.471             2.490           514.000
       219   08 Jun 2027 08:39:24.945   08 Jun 2027 08:39:28.645             3.700           935.313
       220   08 Jun 2027 08:39:52.023   08 Jun 2027 08:39:53.750             1.727           730.563
       221   08 Jun 2027 08:40:13.918   08 Jun 2027 08:40:14.018             0.100            50.000
       222   08 Jun 2027 08:40:37.734   08 Jun 2027 08:40:42.505             4.771           885.969
       223   08 Jun 2027 08:41:00.711   08 Jun 2027 08:41:06.435             5.724            25.625
       224   08 Jun 2027 08:41:23.173   08 Jun 2027 08:41:26.099             2.926            44.344
       225   08 Jun 2027 08:41:43.014   08 Jun 2027 08:41:50.325             7.311           511.937
       226   08 Jun 2027 10:13:33.458   08 Jun 2027 10:13:49.882            16.424          8081.375
       227   08 Jun 2027 10:14:14.148   08 Jun 2027 10:14:14.148             0.000             0.000
       228   08 Jun 2027 10:14:39.538   08 Jun 2027 10:14:44.577             5.039           985.250
       229   08 Jun 2027 10:14:50.013   08 Jun 2027 10:14:51.096             1.083           169.875
       230   08 Jun 2027 10:15:14.103   08 Jun 2027 10:15:14.897             0.794            79.875
       231   08 Jun 2027 10:15:35.168   08 Jun 2027 10:15:40.959             5.791           149.344
       232   08 Jun 2027 10:15:54.967   08 Jun 2027 10:15:54.967             0.000             0.000
       233   08 Jun 2027 10:16:19.891   08 Jun 2027 10:16:23.144             3.253          1145.969
       234   08 Jun 2027 10:16:31.956   08 Jun 2027 10:16:33.494             1.538           275.375
       235   08 Jun 2027 10:16:52.444   08 Jun 2027 10:16:53.282             0.838           251.594
       236   08 Jun 2027 10:17:25.425   08 Jun 2027 10:17:27.095             1.670           723.594
       237   08 Jun 2027 10:17:55.749   08 Jun 2027 10:18:00.327             4.578           895.437
       238   08 Jun 2027 11:49:34.780   08 Jun 2027 11:49:51.364            16.584          6251.375
       239   08 Jun 2027 11:50:08.322   08 Jun 2027 11:50:12.525             4.203           294.969
       240   08 Jun 2027 11:50:44.270   08 Jun 2027 11:50:44.270             0.000             0.000
       241   08 Jun 2027 11:51:27.852   08 Jun 2027 11:51:30.807             2.955          1477.500
       242   08 Jun 2027 11:51:43.807   08 Jun 2027 11:51:44.931             1.124           562.000
       243   08 Jun 2027 11:52:00.949   08 Jun 2027 11:52:03.295             2.346          1007.719
       244   08 Jun 2027 11:52:59.738   08 Jun 2027 11:53:10.524            10.786          1763.844
       245   08 Jun 2027 11:53:19.418   08 Jun 2027 11:53:19.418             0.000             0.000
       246   08 Jun 2027 11:53:22.126   08 Jun 2027 11:53:26.015             3.889           267.656
       247   08 Jun 2027 11:54:30.742   08 Jun 2027 11:54:34.570             3.828          1914.000
       248   09 Jun 2027 04:00:33.482   09 Jun 2027 04:01:15.681            42.199         21099.500
       249   09 Jun 2027 04:01:36.082   09 Jun 2027 04:01:43.527             7.445          3722.500
       250   09 Jun 2027 04:01:50.506   09 Jun 2027 04:02:13.620            23.114         11557.000
       251   09 Jun 2027 05:36:19.051   09 Jun 2027 05:38:22.011           122.960         61480.000
       252   09 Jun 2027 05:40:25.048   09 Jun 2027 05:40:32.961             7.913          3956.500
       253   09 Jun 2027 07:11:10.264   09 Jun 2027 07:13:05.398           115.134         57567.000
       254   09 Jun 2027 07:13:46.520   09 Jun 2027 07:13:57.459            10.939          4868.406
       255   09 Jun 2027 07:15:30.421   09 Jun 2027 07:15:37.387             6.966          2905.062
       256   09 Jun 2027 07:16:20.864   09 Jun 2027 07:16:24.942             4.078          1280.406
       257   09 Jun 2027 07:17:56.505   09 Jun 2027 07:18:01.891             5.386          2646.750
       258   09 Jun 2027 08:47:45.940   09 Jun 2027 08:48:12.690            26.750         12924.563
       259   09 Jun 2027 08:49:55.733   09 Jun 2027 08:49:57.758             2.025           962.812
       260   09 Jun 2027 08:50:36.890   09 Jun 2027 08:50:40.810             3.920          1222.875
       261   09 Jun 2027 08:51:30.327   09 Jun 2027 08:51:34.487             4.160          1547.406
       262   09 Jun 2027 08:52:05.601   09 Jun 2027 08:52:07.507             1.906           953.000
       263   09 Jun 2027 08:52:14.406   09 Jun 2027 08:52:18.430             4.024           234.907
       264   09 Jun 2027 08:52:54.467   09 Jun 2027 08:52:56.802             2.335          1126.156
       265   09 Jun 2027 08:54:04.449   09 Jun 2027 08:54:09.761             5.312          2105.625
       266   09 Jun 2027 10:26:03.561   09 Jun 2027 10:26:19.496            15.935          7913.688
       267   09 Jun 2027 10:26:23.984   09 Jun 2027 10:26:27.473             3.489           140.250
       268   09 Jun 2027 10:26:38.830   09 Jun 2027 10:26:44.180             5.350           354.906
       269   09 Jun 2027 10:27:41.931   09 Jun 2027 10:27:45.760             3.829          1695.250
       270   09 Jun 2027 10:28:38.000   09 Jun 2027 10:28:41.546             3.546          1426.000
       271   09 Jun 2027 10:29:39.541   09 Jun 2027 10:29:40.338             0.797           398.500
       272   09 Jun 2027 10:29:45.780   09 Jun 2027 10:29:48.904             3.124          1479.000
       273   09 Jun 2027 10:29:50.671   09 Jun 2027 10:29:52.755             2.084            32.188
       274   09 Jun 2027 11:59:24.314   09 Jun 2027 11:59:32.531             8.217          4108.500
       275   10 Jun 2027 04:11:12.230   10 Jun 2027 04:12:09.799            57.569         28784.500
       276   10 Jun 2027 04:15:12.923   10 Jun 2027 04:15:42.088            29.165         14582.500
       277   10 Jun 2027 05:46:32.053   10 Jun 2027 05:47:31.073            59.020         29510.000
       278   10 Jun 2027 05:48:04.087   10 Jun 2027 05:49:11.053            66.966         33483.000
       279   10 Jun 2027 05:49:31.290   10 Jun 2027 05:49:36.615             5.325          2662.500
       280   10 Jun 2027 05:50:35.574   10 Jun 2027 05:50:35.574             0.000             0.000
       281   10 Jun 2027 05:51:19.553   10 Jun 2027 05:51:27.694             8.141          4070.500
       282   10 Jun 2027 05:52:37.580   10 Jun 2027 05:52:37.580             0.000             0.000
       283   10 Jun 2027 07:23:02.443   10 Jun 2027 07:25:01.691           119.248         58785.188
       284   10 Jun 2027 07:25:51.653   10 Jun 2027 07:25:52.970             1.317           658.500
       285   10 Jun 2027 07:26:02.486   10 Jun 2027 07:26:05.527             3.041          1092.844
       286   10 Jun 2027 07:26:50.809   10 Jun 2027 07:26:55.141             4.332          1415.063
       287   10 Jun 2027 07:28:59.658   10 Jun 2027 07:28:59.658             0.000             0.000
       288   10 Jun 2027 07:29:33.337   10 Jun 2027 07:29:44.573            11.236          4888.469
       289   10 Jun 2027 09:00:07.028   10 Jun 2027 09:00:28.204            21.176         10588.000
       290   10 Jun 2027 09:00:38.528   10 Jun 2027 09:00:41.100             2.572          1254.750
       291   10 Jun 2027 09:01:54.383   10 Jun 2027 09:01:59.199             4.816          2290.094
       292   10 Jun 2027 09:03:32.737   10 Jun 2027 09:03:38.648             5.911          1899.875
       293   10 Jun 2027 09:04:11.911   10 Jun 2027 09:04:14.406             2.495           785.687
       294   10 Jun 2027 09:04:22.261   10 Jun 2027 09:04:29.652             7.391           200.281
       295   10 Jun 2027 09:04:52.682   10 Jun 2027 09:04:54.403             1.721           597.625
       296   10 Jun 2027 10:38:01.269   10 Jun 2027 10:38:20.490            19.221          9190.500
       297   10 Jun 2027 10:39:26.124   10 Jun 2027 10:39:30.213             4.089          1571.219
       298   10 Jun 2027 10:39:33.729   10 Jun 2027 10:39:34.383             0.654           109.875
       299   10 Jun 2027 10:39:53.206   10 Jun 2027 10:39:56.401             3.195           588.219
       300   10 Jun 2027 10:40:28.876   10 Jun 2027 10:40:31.255             2.379          1014.844
       301   10 Jun 2027 10:40:38.433   10 Jun 2027 10:40:40.277             1.844           224.312
       302   10 Jun 2027 10:40:58.175   10 Jun 2027 10:40:59.315             1.140           192.000
       303   10 Jun 2027 10:41:16.322   10 Jun 2027 10:41:21.570             5.248           341.844
       304   11 Jun 2027 03:00:32.467   11 Jun 2027 03:00:57.973            25.506         12753.000
       305   11 Jun 2027 03:01:30.104   11 Jun 2027 03:01:33.274             3.170          1585.000
       306   11 Jun 2027 04:22:48.040   11 Jun 2027 04:23:41.482            53.442         26721.000
       307   11 Jun 2027 04:27:57.298   11 Jun 2027 04:28:05.915             8.617          4308.500
       308   11 Jun 2027 05:57:41.763   11 Jun 2027 05:59:07.947            86.184         43092.000
       309   11 Jun 2027 05:59:23.530   11 Jun 2027 05:59:44.753            21.223         10611.500
       310   11 Jun 2027 05:59:51.238   11 Jun 2027 06:00:06.632            15.394          7697.000
       311   11 Jun 2027 06:00:10.720   11 Jun 2027 06:00:10.720             0.000             0.000
       312   11 Jun 2027 06:01:03.169   11 Jun 2027 06:01:05.174             2.005          1002.500
       313   11 Jun 2027 06:01:25.482   11 Jun 2027 06:01:38.284            12.802          6401.000
       314   11 Jun 2027 06:02:07.469   11 Jun 2027 06:02:07.469             0.000             0.000
       315   11 Jun 2027 06:03:21.072   11 Jun 2027 06:03:28.553             7.481          3740.500
       316   11 Jun 2027 06:03:40.903   11 Jun 2027 06:03:41.639             0.736           368.000
       317   11 Jun 2027 06:04:28.927   11 Jun 2027 06:04:28.993             0.066            33.000
       318   11 Jun 2027 06:05:43.476   11 Jun 2027 06:05:56.515            13.039          6519.500
       319   11 Jun 2027 06:06:05.304   11 Jun 2027 06:06:09.069             3.765          1882.500
       320   11 Jun 2027 07:35:15.507   11 Jun 2027 07:37:00.231           104.724         52339.532
       321   11 Jun 2027 07:37:10.615   11 Jun 2027 07:37:10.838             0.223           107.656
       322   11 Jun 2027 07:38:08.434   11 Jun 2027 07:38:08.434             0.000             0.000
       323   11 Jun 2027 07:38:21.713   11 Jun 2027 07:38:27.776             6.063          2189.000
       324   11 Jun 2027 07:39:05.020   11 Jun 2027 07:39:13.212             8.192          1131.219
       325   11 Jun 2027 07:39:33.990   11 Jun 2027 07:39:35.018             1.028           104.156
       326   11 Jun 2027 07:41:05.441   11 Jun 2027 07:41:12.906             7.465          2784.094
       327   11 Jun 2027 07:42:19.834   11 Jun 2027 07:42:27.085             7.251          2020.719
       328   11 Jun 2027 09:11:58.044   11 Jun 2027 09:12:30.421            32.377         12924.063
       329   11 Jun 2027 09:13:02.794   11 Jun 2027 09:13:04.925             2.131           928.500
       330   11 Jun 2027 09:13:12.931   11 Jun 2027 09:13:14.525             1.594           129.094
       331   11 Jun 2027 09:14:21.747   11 Jun 2027 09:14:24.528             2.781          1189.750
       332   11 Jun 2027 09:14:37.929   11 Jun 2027 09:14:38.401             0.472           197.781
       333   11 Jun 2027 09:14:58.990   11 Jun 2027 09:15:00.686             1.696            10.687
       334   11 Jun 2027 09:15:50.825   11 Jun 2027 09:15:57.173             6.348          1563.063
       335   11 Jun 2027 09:16:25.234   11 Jun 2027 09:16:33.565             8.331           608.344
       336   11 Jun 2027 09:17:37.973   11 Jun 2027 09:17:39.278             1.305           652.500
       337   11 Jun 2027 09:17:51.297   11 Jun 2027 09:17:54.970             3.673          1411.594
       338   11 Jun 2027 09:18:26.846   11 Jun 2027 09:18:29.374             2.528           890.469
       339   11 Jun 2027 10:50:01.163   11 Jun 2027 10:50:16.176            15.013          7506.500
       340   11 Jun 2027 10:51:09.355   11 Jun 2027 10:51:13.528             4.173          1951.437
       341   11 Jun 2027 10:51:22.076   11 Jun 2027 10:51:29.271             7.195           142.313
       342   11 Jun 2027 10:51:48.258   11 Jun 2027 10:51:54.107             5.849           369.875
       343   11 Jun 2027 10:52:17.121   11 Jun 2027 10:52:22.207             5.086           719.188
       344   11 Jun 2027 10:52:33.098   11 Jun 2027 10:52:35.070             1.972           338.719
       345   11 Jun 2027 10:53:14.054   11 Jun 2027 10:53:16.262             2.208           999.813
       346   11 Jun 2027 10:53:32.424   11 Jun 2027 10:53:33.471             1.047           462.594
       347   11 Jun 2027 10:53:42.782   11 Jun 2027 10:53:42.782             0.000             0.000
       348   11 Jun 2027 10:53:56.045   11 Jun 2027 10:53:58.704             2.659           686.312
       349   11 Jun 2027 10:54:00.654   11 Jun 2027 10:54:03.012             2.358             9.500
       350   12 Jun 2027 03:00:25.238   12 Jun 2027 03:00:36.604            11.366          5683.000
       351   12 Jun 2027 03:02:14.951   12 Jun 2027 03:02:18.586             3.635          1817.500
       352   12 Jun 2027 03:12:41.034   12 Jun 2027 03:13:07.573            26.539         13269.500
       353   12 Jun 2027 04:34:17.170   12 Jun 2027 04:35:40.287            83.117         41558.500
       354   12 Jun 2027 04:37:50.123   12 Jun 2027 04:38:00.534            10.411          5205.500
       355   12 Jun 2027 04:38:18.298   12 Jun 2027 04:38:35.176            16.878          8439.000
       356   12 Jun 2027 06:09:12.472   12 Jun 2027 06:10:42.941            90.469         45234.500
       357   12 Jun 2027 06:12:32.942   12 Jun 2027 06:12:49.417            16.475          8237.500
       358   12 Jun 2027 06:13:49.475   12 Jun 2027 06:13:56.798             7.323          3661.500
       359   12 Jun 2027 06:15:54.974   12 Jun 2027 06:15:56.459             1.485           742.500
       360   12 Jun 2027 06:16:15.500   12 Jun 2027 06:16:19.957             4.457          2228.500
       361   12 Jun 2027 06:17:01.098   12 Jun 2027 06:17:13.292            12.194          6097.000
       362   12 Jun 2027 07:47:09.447   12 Jun 2027 07:48:34.309            84.862         42431.000
       363   12 Jun 2027 07:50:20.124   12 Jun 2027 07:50:26.150             6.026          3013.000
       364   12 Jun 2027 07:50:44.276   12 Jun 2027 07:50:46.845             2.569          1253.593
       365   12 Jun 2027 07:50:59.787   12 Jun 2027 07:50:59.787             0.000             0.000
       366   12 Jun 2027 07:51:13.709   12 Jun 2027 07:51:18.118             4.409           502.563
       367   12 Jun 2027 07:52:03.457   12 Jun 2027 07:52:08.658             5.201          1190.375
       368   12 Jun 2027 07:52:12.649   12 Jun 2027 07:52:13.675             1.026           124.719
       369   12 Jun 2027 07:53:15.319   12 Jun 2027 07:53:21.109             5.790          1926.375
       370   12 Jun 2027 07:53:39.006   12 Jun 2027 07:53:44.521             5.515           469.031
       371   12 Jun 2027 07:54:10.365   12 Jun 2027 07:54:14.378             4.013           568.688
       372   12 Jun 2027 09:24:03.802   12 Jun 2027 09:24:25.165            21.363         10450.156
       373   12 Jun 2027 09:25:07.647   12 Jun 2027 09:25:09.740             2.093           365.594
       374   12 Jun 2027 09:26:24.442   12 Jun 2027 09:26:29.203             4.761          2334.438
       375   12 Jun 2027 09:27:26.651   12 Jun 2027 09:27:30.603             3.952          1795.250
       376   12 Jun 2027 09:27:49.486   12 Jun 2027 09:27:51.183             1.697           590.094
       377   12 Jun 2027 09:28:37.363   12 Jun 2027 09:28:41.551             4.188          1355.375
       378   12 Jun 2027 09:29:50.220   12 Jun 2027 09:29:56.831             6.611          1986.312
       379   12 Jun 2027 09:30:19.711   12 Jun 2027 09:30:19.711             0.000             0.000
       380   12 Jun 2027 11:01:47.502   12 Jun 2027 11:02:06.143            18.641          8388.719
       381   12 Jun 2027 11:02:12.361   12 Jun 2027 11:02:13.169             0.808           194.313
       382   12 Jun 2027 11:03:04.785   12 Jun 2027 11:03:07.781             2.996          1484.531
       383   12 Jun 2027 11:03:23.008   12 Jun 2027 11:03:24.232             1.224           374.969
       384   12 Jun 2027 11:03:40.486   12 Jun 2027 11:03:42.471             1.985           168.437
       385   12 Jun 2027 11:04:07.760   12 Jun 2027 11:04:11.064             3.304           420.750
       386   12 Jun 2027 11:04:27.862   12 Jun 2027 11:04:28.970             1.108           390.469
       387   12 Jun 2027 11:05:25.393   12 Jun 2027 11:05:31.069             5.676          1763.219
       388   12 Jun 2027 11:05:33.044   12 Jun 2027 11:05:34.418             1.374            36.688
       389   12 Jun 2027 11:05:45.575   12 Jun 2027 11:05:47.788             2.213           348.656
       390   12 Jun 2027 11:05:58.563   12 Jun 2027 11:05:58.860             0.297            88.094
       391   13 Jun 2027 03:12:20.987   13 Jun 2027 03:12:41.793            20.806         10403.000
       392   13 Jun 2027 03:13:27.366   13 Jun 2027 03:13:27.366             0.000             0.000
       393   13 Jun 2027 03:13:36.273   13 Jun 2027 03:13:36.273             0.000             0.000
       394   13 Jun 2027 03:13:55.921   13 Jun 2027 03:13:57.071             1.150           575.000
       395   13 Jun 2027 04:48:20.950   13 Jun 2027 04:49:56.340            95.390         47695.000
       396   13 Jun 2027 04:50:49.772   13 Jun 2027 04:50:59.955            10.183          5091.500
       397   13 Jun 2027 04:51:14.517   13 Jun 2027 04:51:18.918             4.401          2200.500
       398   13 Jun 2027 04:51:38.615   13 Jun 2027 04:51:47.092             8.477          4238.500
       399   13 Jun 2027 04:51:52.648   13 Jun 2027 04:51:52.648             0.000             0.000
       400   13 Jun 2027 06:22:05.959   13 Jun 2027 06:23:47.319           101.360         50680.000
       401   13 Jun 2027 06:24:06.534   13 Jun 2027 06:24:08.843             2.309          1154.500
       402   13 Jun 2027 06:24:20.493   13 Jun 2027 06:24:20.493             0.000             0.000
       403   13 Jun 2027 06:24:37.467   13 Jun 2027 06:24:39.504             2.037          1018.500
       404   13 Jun 2027 06:25:41.887   13 Jun 2027 06:26:02.374            20.487         10243.500
       405   13 Jun 2027 06:27:13.539   13 Jun 2027 06:27:19.459             5.920          2960.000
       406   13 Jun 2027 07:59:30.322   13 Jun 2027 08:00:46.035            75.713         37051.937
       407   13 Jun 2027 08:01:17.427   13 Jun 2027 08:01:20.834             3.407           771.531
       408   13 Jun 2027 08:01:59.392   13 Jun 2027 08:02:02.543             3.151          1066.969
       409   13 Jun 2027 08:02:22.617   13 Jun 2027 08:02:26.186             3.569           627.312
       410   13 Jun 2027 08:02:37.973   13 Jun 2027 08:02:38.313             0.340            94.281
       411   13 Jun 2027 08:02:44.603   13 Jun 2027 08:02:45.033             0.430           127.375
       412   13 Jun 2027 08:03:14.923   13 Jun 2027 08:03:18.798             3.875           934.063
       413   13 Jun 2027 08:03:38.750   13 Jun 2027 08:03:40.925             2.175           486.937
       414   13 Jun 2027 08:04:11.531   13 Jun 2027 08:04:19.457             7.926           682.438
       415   13 Jun 2027 08:05:53.404   13 Jun 2027 08:05:58.196             4.792          2396.000
       416   13 Jun 2027 08:06:06.749   13 Jun 2027 08:06:09.857             3.108           697.000
       417   13 Jun 2027 09:36:34.127   13 Jun 2027 09:36:55.984            21.857         10540.125
       418   13 Jun 2027 09:37:56.537   13 Jun 2027 09:38:00.175             3.638          1749.531
       419   13 Jun 2027 09:38:14.206   13 Jun 2027 09:38:15.264             1.058           237.594
       420   13 Jun 2027 09:38:35.242   13 Jun 2027 09:38:35.277             0.035            17.500
       421   13 Jun 2027 09:39:33.117   13 Jun 2027 09:39:37.419             4.302          2078.969
       422   13 Jun 2027 09:39:50.121   13 Jun 2027 09:39:51.086             0.965           396.937
       423   13 Jun 2027 09:40:01.431   13 Jun 2027 09:40:03.732             2.301           112.125
       424   13 Jun 2027 09:40:15.278   13 Jun 2027 09:40:19.779             4.501           360.813
       425   13 Jun 2027 09:40:55.635   13 Jun 2027 09:40:57.945             2.310          1083.656
       426   13 Jun 2027 09:42:04.277   13 Jun 2027 09:42:09.864             5.587          2072.875
       427   13 Jun 2027 11:13:18.906   13 Jun 2027 11:13:34.748            15.842          6513.313
       428   13 Jun 2027 11:14:07.504   13 Jun 2027 11:14:10.432             2.928          1023.625
       429   13 Jun 2027 11:14:52.122   13 Jun 2027 11:14:56.806             4.684          1049.250
       430   13 Jun 2027 11:15:05.567   13 Jun 2027 11:15:06.944             1.377           154.219
       431   13 Jun 2027 11:16:10.034   13 Jun 2027 11:16:17.599             7.565          1971.562
       432   13 Jun 2027 11:17:08.911   13 Jun 2027 11:17:17.741             8.830          1603.500
       433   13 Jun 2027 11:18:05.832   13 Jun 2027 11:18:07.311             1.479           739.500
