uniorb/output/strategy_1/Camera/Camera_KinoSat_111103.txt

KinoSat_111103
-------------------------
    Access    *     Start Time (UTCG)     *     Stop Time (UTCG)  *   Duration (s) *   Data (Mbytes)
         1   01 Jun 2027 03:43:01.034   01 Jun 2027 03:44:27.866            86.832         43416.000
         2   01 Jun 2027 03:54:45.136   01 Jun 2027 03:55:43.299            58.163         29081.500
         3   01 Jun 2027 05:16:58.684   01 Jun 2027 05:18:04.908            66.224         33112.000
         4   01 Jun 2027 05:18:56.787   01 Jun 2027 05:19:19.434            22.647         11323.500
         5   01 Jun 2027 06:51:54.219   01 Jun 2027 06:53:32.272            98.053         49026.500
         6   01 Jun 2027 06:54:10.347   01 Jun 2027 06:54:19.374             9.027          4513.500
         7   01 Jun 2027 06:54:38.629   01 Jun 2027 06:55:05.473            26.844         13422.000
         8   01 Jun 2027 06:58:28.189   01 Jun 2027 06:58:38.138             9.949          4974.500
         9   01 Jun 2027 06:58:53.664   01 Jun 2027 06:59:07.863            14.199          7099.500
        10   01 Jun 2027 08:29:24.952   01 Jun 2027 08:31:05.452           100.500         50250.000
        11   01 Jun 2027 08:34:25.272   01 Jun 2027 08:34:34.926             9.654          4827.000
        12   01 Jun 2027 08:34:49.884   01 Jun 2027 08:34:56.043             6.159          3079.500
        13   01 Jun 2027 08:35:22.525   01 Jun 2027 08:35:22.525             0.000             0.000
        14   01 Jun 2027 08:35:35.722   01 Jun 2027 08:35:43.279             7.557          3778.500
        15   01 Jun 2027 08:36:07.910   01 Jun 2027 08:36:12.703             4.793          2396.500
        16   01 Jun 2027 10:06:10.268   01 Jun 2027 10:08:04.838           114.570         57285.000
        17   01 Jun 2027 10:12:34.063   01 Jun 2027 10:12:42.253             8.190          4095.000
        18   01 Jun 2027 11:44:09.292   01 Jun 2027 11:46:19.799           130.507         65253.500
        19   02 Jun 2027 03:54:34.232   02 Jun 2027 03:55:18.445            44.213         22106.500
        20   02 Jun 2027 03:55:22.641   02 Jun 2027 03:55:31.776             9.135          4567.500
        21   02 Jun 2027 04:06:49.921   02 Jun 2027 04:07:17.573            27.652         13826.000
        22   02 Jun 2027 05:28:30.789   02 Jun 2027 05:29:50.469            79.680         39840.000
        23   02 Jun 2027 05:30:38.694   02 Jun 2027 05:31:17.324            38.630         19315.000
        24   02 Jun 2027 07:03:24.129   02 Jun 2027 07:05:23.084           118.955         59477.500
        25   02 Jun 2027 07:06:28.366   02 Jun 2027 07:06:28.366             0.000             0.000
        26   02 Jun 2027 07:07:28.342   02 Jun 2027 07:07:40.530            12.188          6094.000
        27   02 Jun 2027 07:08:31.186   02 Jun 2027 07:08:33.913             2.727          1363.500
        28   02 Jun 2027 07:09:54.549   02 Jun 2027 07:10:00.056             5.507          2753.500
        29   02 Jun 2027 07:10:38.413   02 Jun 2027 07:10:39.090             0.677           338.500
        30   02 Jun 2027 07:11:13.688   02 Jun 2027 07:11:13.688             0.000             0.000
        31   02 Jun 2027 07:11:49.170   02 Jun 2027 07:11:54.601             5.431          2715.500
        32   02 Jun 2027 08:41:19.578   02 Jun 2027 08:43:17.876           118.298         59149.000
        33   02 Jun 2027 08:44:12.023   02 Jun 2027 08:44:13.858             1.835           917.500
        34   02 Jun 2027 08:45:21.772   02 Jun 2027 08:45:35.137            13.365          6682.500
        35   02 Jun 2027 08:47:08.890   02 Jun 2027 08:47:24.799            15.909          7954.500
        36   02 Jun 2027 08:48:42.432   02 Jun 2027 08:48:42.432             0.000             0.000
        37   02 Jun 2027 10:18:06.792   02 Jun 2027 10:18:24.846            18.054          9027.000
        38   02 Jun 2027 10:18:39.490   02 Jun 2027 10:20:23.270           103.780         51890.000
        39   02 Jun 2027 10:22:57.872   02 Jun 2027 10:23:06.530             8.658          4329.000
        40   02 Jun 2027 11:55:57.209   02 Jun 2027 11:57:49.214           112.005         56002.500
        41   02 Jun 2027 11:59:03.961   02 Jun 2027 11:59:14.509            10.548          5274.000
        42   03 Jun 2027 04:06:29.831   03 Jun 2027 04:07:20.053            50.222         25111.000
        43   03 Jun 2027 05:42:29.540   03 Jun 2027 05:44:43.323           133.783         66891.500
        44   03 Jun 2027 05:44:52.882   03 Jun 2027 05:45:15.551            22.669         11334.500
        45   03 Jun 2027 07:16:17.507   03 Jun 2027 07:18:08.363           110.856         55428.000
        46   03 Jun 2027 07:18:27.488   03 Jun 2027 07:18:40.774            13.286          6643.000
        47   03 Jun 2027 07:18:58.427   03 Jun 2027 07:19:22.163            23.736         11868.000
        48   03 Jun 2027 07:23:03.029   03 Jun 2027 07:23:03.029             0.000             0.000
        49   03 Jun 2027 07:23:48.321   03 Jun 2027 07:23:50.344             2.023          1011.500
        50   03 Jun 2027 07:23:57.909   03 Jun 2027 07:24:00.940             3.031          1515.500
        51   03 Jun 2027 07:24:15.972   03 Jun 2027 07:24:22.274             6.302          3151.000
        52   03 Jun 2027 07:24:24.576   03 Jun 2027 07:24:28.928             4.352          2176.000
        53   03 Jun 2027 08:53:30.801   03 Jun 2027 08:55:53.079           142.278         71139.000
        54   03 Jun 2027 10:30:43.612   03 Jun 2027 10:30:48.114             4.502          2251.000
        55   03 Jun 2027 10:30:57.879   03 Jun 2027 10:32:00.354            62.475         30769.782
        56   03 Jun 2027 10:33:13.556   03 Jun 2027 10:33:18.406             4.850          2024.469
        57   03 Jun 2027 10:34:13.980   03 Jun 2027 10:34:18.167             4.187          1736.688
        58   03 Jun 2027 10:35:07.709   03 Jun 2027 10:35:12.371             4.662          1548.187
        59   04 Jun 2027 04:18:21.767   04 Jun 2027 04:19:20.000            58.233         29116.500
        60   04 Jun 2027 04:19:27.938   04 Jun 2027 04:19:49.102            21.164         10582.000
        61   04 Jun 2027 05:54:43.222   04 Jun 2027 05:56:36.558           113.336         56668.000
        62   04 Jun 2027 07:28:47.413   04 Jun 2027 07:31:08.251           140.838         70419.000
        63   04 Jun 2027 07:31:40.317   04 Jun 2027 07:31:48.442             8.125          3655.531
        64   04 Jun 2027 07:35:05.018   04 Jun 2027 07:35:09.639             4.621          2310.500
        65   04 Jun 2027 07:35:33.823   04 Jun 2027 07:35:34.615             0.792           396.000
        66   04 Jun 2027 09:05:52.868   04 Jun 2027 09:06:18.005            25.137         11135.937
        67   04 Jun 2027 09:07:07.597   04 Jun 2027 09:07:08.910             1.313           538.906
        68   04 Jun 2027 09:08:13.208   04 Jun 2027 09:08:19.202             5.994          2002.844
        69   04 Jun 2027 09:08:29.533   04 Jun 2027 09:08:30.203             0.670           145.156
        70   04 Jun 2027 09:08:57.346   04 Jun 2027 09:08:58.885             1.539           612.437
        71   04 Jun 2027 09:09:42.044   04 Jun 2027 09:09:45.037             2.993          1348.719
        72   04 Jun 2027 09:10:14.359   04 Jun 2027 09:10:21.800             7.441           726.156
        73   04 Jun 2027 09:11:07.330   04 Jun 2027 09:11:10.705             3.375          1422.812
        74   04 Jun 2027 09:12:06.794   04 Jun 2027 09:12:07.872             1.078           539.000
        75   04 Jun 2027 09:12:30.513   04 Jun 2027 09:12:35.018             4.505          1921.313
        76   04 Jun 2027 10:42:50.471   04 Jun 2027 10:43:07.568            17.097          6937.938
        77   04 Jun 2027 10:43:17.371   04 Jun 2027 10:43:24.930             7.559            85.406
        78   04 Jun 2027 10:44:08.796   04 Jun 2027 10:44:10.807             2.011           704.531
        79   04 Jun 2027 10:44:27.982   04 Jun 2027 10:44:33.681             5.699           536.719
        80   04 Jun 2027 10:44:34.681   04 Jun 2027 10:44:35.509             0.828            31.250
        81   04 Jun 2027 10:45:12.228   04 Jun 2027 10:45:16.723             4.495          1062.969
        82   04 Jun 2027 10:46:11.183   04 Jun 2027 10:46:15.591             4.408          1690.937
        83   04 Jun 2027 10:46:15.979   04 Jun 2027 10:46:18.749             2.770            12.125
        84   04 Jun 2027 10:46:31.347   04 Jun 2027 10:46:31.347             0.000             0.000
        85   04 Jun 2027 10:47:09.034   04 Jun 2027 10:47:11.111             2.077          1038.500
        86   05 Jun 2027 03:07:19.775   05 Jun 2027 03:08:21.263            61.488         30744.000
        87   05 Jun 2027 03:09:13.914   05 Jun 2027 03:09:13.914             0.000             0.000
        88   05 Jun 2027 03:09:30.525   05 Jun 2027 03:09:31.893             1.368           684.000
        89   05 Jun 2027 03:09:54.336   05 Jun 2027 03:10:15.203            20.867         10433.500
        90   05 Jun 2027 04:30:24.582   05 Jun 2027 04:30:51.364            26.782         13391.000
        91   05 Jun 2027 04:31:53.798   05 Jun 2027 04:32:00.162             6.364          3182.000
        92   05 Jun 2027 04:32:30.926   05 Jun 2027 04:32:58.201            27.275         13637.500
        93   05 Jun 2027 06:06:49.887   05 Jun 2027 06:08:26.878            96.991         48495.500
        94   05 Jun 2027 06:09:05.614   05 Jun 2027 06:09:19.466            13.852          6926.000
        95   05 Jun 2027 07:41:57.930   05 Jun 2027 07:43:33.754            95.824         47912.000
        96   05 Jun 2027 07:45:14.477   05 Jun 2027 07:45:24.427             9.950          4721.094
        97   05 Jun 2027 07:46:32.950   05 Jun 2027 07:46:37.380             4.430          2124.000
        98   05 Jun 2027 07:46:58.001   05 Jun 2027 07:47:04.537             6.536           644.406
        99   05 Jun 2027 07:47:24.338   05 Jun 2027 07:47:26.568             2.230           383.281
       100   05 Jun 2027 07:47:59.217   05 Jun 2027 07:48:01.731             2.514          1001.688
       101   05 Jun 2027 07:48:39.875   05 Jun 2027 07:48:44.954             5.079          1192.000
       102   05 Jun 2027 09:18:18.856   05 Jun 2027 09:18:36.067            17.211          8258.000
       103   05 Jun 2027 09:19:18.660   05 Jun 2027 09:19:20.916             2.256           408.500
       104   05 Jun 2027 09:19:46.264   05 Jun 2027 09:19:50.483             4.219           478.656
       105   05 Jun 2027 09:20:27.072   05 Jun 2027 09:20:28.237             1.165           203.531
       106   05 Jun 2027 09:20:29.025   05 Jun 2027 09:20:31.917             2.892            24.625
       107   05 Jun 2027 09:21:39.769   05 Jun 2027 09:21:42.951             3.182          1591.000
       108   05 Jun 2027 09:22:13.345   05 Jun 2027 09:22:19.943             6.598          1468.250
       109   05 Jun 2027 09:23:16.482   05 Jun 2027 09:23:30.472            13.990          1766.844
       110   05 Jun 2027 09:24:00.487   05 Jun 2027 09:24:01.755             1.268           502.562
       111   05 Jun 2027 09:24:25.267   05 Jun 2027 09:24:26.322             1.055           525.750
       112   05 Jun 2027 10:55:52.342   05 Jun 2027 10:56:09.116            16.774          7493.531
       113   05 Jun 2027 10:56:31.586   05 Jun 2027 10:56:39.580             7.994           501.469
       114   05 Jun 2027 10:57:34.084   05 Jun 2027 10:57:39.598             5.514          1691.063
       115   05 Jun 2027 10:58:18.933   05 Jun 2027 10:58:28.140             9.207          1096.875
       116   05 Jun 2027 10:58:30.566   05 Jun 2027 10:58:32.952             2.386            70.125
       117   05 Jun 2027 10:58:46.772   05 Jun 2027 10:58:55.179             8.407           431.875
       118   05 Jun 2027 10:58:56.818   05 Jun 2027 10:59:02.096             5.278            51.219
       119   05 Jun 2027 10:59:07.374   05 Jun 2027 10:59:10.194             2.820           154.719
       120   05 Jun 2027 10:59:35.653   05 Jun 2027 10:59:38.884             3.231           786.531
       121   06 Jun 2027 03:19:03.591   06 Jun 2027 03:19:38.471            34.880         17440.000
       122   06 Jun 2027 03:19:52.155   06 Jun 2027 03:20:42.548            50.393         25196.500
       123   06 Jun 2027 03:21:40.156   06 Jun 2027 03:21:45.787             5.631          2815.500
       124   06 Jun 2027 03:22:19.720   06 Jun 2027 03:22:21.516             1.796           898.000
       125   06 Jun 2027 03:22:24.405   06 Jun 2027 03:22:41.199            16.794          8397.000
       126   06 Jun 2027 04:42:22.880   06 Jun 2027 04:43:11.626            48.746         24373.000
       127   06 Jun 2027 06:18:59.800   06 Jun 2027 06:20:06.449            66.649         33324.500
       128   06 Jun 2027 06:21:05.967   06 Jun 2027 06:21:54.118            48.151         24075.500
       129   06 Jun 2027 07:54:09.833   06 Jun 2027 07:55:10.071            60.238         29574.031
       130   06 Jun 2027 07:55:29.062   06 Jun 2027 07:55:29.253             0.191            95.500
       131   06 Jun 2027 07:55:32.386   06 Jun 2027 07:55:34.883             2.497           595.875
       132   06 Jun 2027 07:56:22.641   06 Jun 2027 07:56:25.476             2.835          1417.500
       133   06 Jun 2027 07:56:43.161   06 Jun 2027 07:56:44.488             1.327           627.594
       134   06 Jun 2027 07:57:00.482   06 Jun 2027 07:57:01.095             0.613           306.500
       135   06 Jun 2027 07:57:16.194   06 Jun 2027 07:57:16.194             0.000             0.000
       136   06 Jun 2027 07:58:06.701   06 Jun 2027 07:58:17.153            10.452          2243.500
       137   06 Jun 2027 07:58:33.121   06 Jun 2027 07:58:33.413             0.292            89.687
       138   06 Jun 2027 07:58:42.038   06 Jun 2027 07:58:46.412             4.374           226.812
       139   06 Jun 2027 07:59:35.609   06 Jun 2027 07:59:37.327             1.718           768.438
       140   06 Jun 2027 08:00:03.854   06 Jun 2027 08:00:03.854             0.000             0.000
       141   06 Jun 2027 08:00:10.306   06 Jun 2027 08:00:12.008             1.702           826.812
       142   06 Jun 2027 09:30:27.060   06 Jun 2027 09:30:46.463            19.403          8746.281
       143   06 Jun 2027 09:32:42.047   06 Jun 2027 09:32:43.958             1.911           955.500
       144   06 Jun 2027 09:33:19.246   06 Jun 2027 09:33:24.239             4.993          1800.750
       145   06 Jun 2027 09:34:45.527   06 Jun 2027 09:34:49.429             3.902          1951.000
       146   06 Jun 2027 09:35:13.809   06 Jun 2027 09:35:17.726             3.917          1351.125
       147   06 Jun 2027 09:35:32.143   06 Jun 2027 09:35:35.150             3.007           450.531
       148   06 Jun 2027 09:35:38.634   06 Jun 2027 09:35:39.550             0.916           108.875
       149   06 Jun 2027 09:36:09.812   06 Jun 2027 09:36:14.045             4.233           478.875
       150   06 Jun 2027 11:07:57.923   06 Jun 2027 11:08:13.530            15.607          6525.938
       151   06 Jun 2027 11:08:52.983   06 Jun 2027 11:09:03.112            10.129          1191.469
       152   06 Jun 2027 11:09:25.213   06 Jun 2027 11:09:26.325             1.112           556.000
       153   06 Jun 2027 11:09:47.139   06 Jun 2027 11:09:49.705             2.566           785.094
       154   06 Jun 2027 11:10:50.918   06 Jun 2027 11:10:53.549             2.631          1315.500
       155   06 Jun 2027 11:11:09.125   06 Jun 2027 11:11:11.759             2.634           812.563
       156   06 Jun 2027 11:12:19.092   06 Jun 2027 11:12:29.406            10.314          2095.656
       157   07 Jun 2027 03:20:13.593   07 Jun 2027 03:20:22.509             8.916          4458.000
       158   07 Jun 2027 03:31:00.178   07 Jun 2027 03:31:41.051            40.873         20436.500
       159   07 Jun 2027 03:31:50.174   07 Jun 2027 03:32:36.175            46.001         23000.500
       160   07 Jun 2027 03:32:43.482   07 Jun 2027 03:33:04.400            20.918         10459.000
       161   07 Jun 2027 04:54:58.990   07 Jun 2027 04:55:17.724            18.734          9367.000
       162   07 Jun 2027 04:55:30.700   07 Jun 2027 04:55:50.350            19.650          9825.000
       163   07 Jun 2027 06:30:43.811   07 Jun 2027 06:32:41.242           117.431         58715.500
       164   07 Jun 2027 08:05:38.182   07 Jun 2027 08:06:38.906            60.724         29755.094
       165   07 Jun 2027 08:07:32.400   07 Jun 2027 08:07:34.827             2.427           576.531
       166   07 Jun 2027 08:07:57.407   07 Jun 2027 08:07:59.160             1.753           681.812
       167   07 Jun 2027 08:09:02.378   07 Jun 2027 08:09:04.155             1.777           888.500
       168   07 Jun 2027 08:09:42.064   07 Jun 2027 08:09:45.412             3.348          1674.000
       169   07 Jun 2027 08:11:00.972   07 Jun 2027 08:11:08.813             7.841          2958.969
       170   07 Jun 2027 08:11:17.341   07 Jun 2027 08:11:28.291            10.950           266.500
       171   07 Jun 2027 08:12:31.857   07 Jun 2027 08:12:36.508             4.651          1943.344
       172   07 Jun 2027 09:42:10.297   07 Jun 2027 09:42:29.921            19.624          9444.625
       173   07 Jun 2027 09:42:33.802   07 Jun 2027 09:42:35.708             1.906            30.094
       174   07 Jun 2027 09:43:00.250   07 Jun 2027 09:43:03.796             3.546           116.375
       175   07 Jun 2027 09:44:18.188   07 Jun 2027 09:44:19.532             1.344           468.531
       176   07 Jun 2027 09:44:53.079   07 Jun 2027 09:44:57.985             4.906           778.156
       177   07 Jun 2027 09:45:09.387   07 Jun 2027 09:45:13.355             3.968           176.563
       178   07 Jun 2027 09:45:36.929   07 Jun 2027 09:45:37.741             0.812           278.469
       179   07 Jun 2027 09:46:29.523   07 Jun 2027 09:46:36.549             7.026          1502.844
       180   07 Jun 2027 09:47:04.217   07 Jun 2027 09:47:07.385             3.168           864.625
       181   07 Jun 2027 09:47:47.941   07 Jun 2027 09:47:51.723             3.782          1188.625
       182   07 Jun 2027 09:48:12.078   07 Jun 2027 09:48:12.487             0.409            21.062
       183   07 Jun 2027 09:48:21.834   07 Jun 2027 09:48:24.500             2.666           292.094
       184   07 Jun 2027 11:20:27.757   07 Jun 2027 11:20:41.314            13.557          6293.844
       185   07 Jun 2027 11:21:01.515   07 Jun 2027 11:21:03.961             2.446           529.625
       186   07 Jun 2027 11:21:21.436   07 Jun 2027 11:21:23.102             1.666           546.094
       187   07 Jun 2027 11:21:44.411   07 Jun 2027 11:21:53.680             9.269           658.219
       188   07 Jun 2027 11:22:51.739   07 Jun 2027 11:23:01.291             9.552          1814.344
       189   07 Jun 2027 11:23:19.525   07 Jun 2027 11:23:27.887             8.362           569.813
       190   07 Jun 2027 11:24:00.249   07 Jun 2027 11:24:04.052             3.803           951.156
       191   08 Jun 2027 03:31:31.348   08 Jun 2027 03:32:12.463            41.115         20557.500
       192   08 Jun 2027 03:42:57.010   08 Jun 2027 03:44:33.244            96.234         48117.000
       193   08 Jun 2027 05:05:34.594   08 Jun 2027 05:06:23.503            48.909         24454.500
       194   08 Jun 2027 06:40:58.326   08 Jun 2027 06:41:53.974            55.648         27824.000
       195   08 Jun 2027 06:42:29.380   08 Jun 2027 06:43:30.389            61.009         30504.500
       196   08 Jun 2027 06:44:02.314   08 Jun 2027 06:44:06.983             4.669          2334.500
       197   08 Jun 2027 06:45:08.820   08 Jun 2027 06:45:08.820             0.000             0.000
       198   08 Jun 2027 06:45:24.743   08 Jun 2027 06:45:37.279            12.536          6268.000
       199   08 Jun 2027 06:46:50.767   08 Jun 2027 06:46:53.013             2.246          1123.000
       200   08 Jun 2027 06:47:12.490   08 Jun 2027 06:47:12.720             0.230           115.000
       201   08 Jun 2027 08:17:24.495   08 Jun 2027 08:17:46.379            21.884         10942.000
       202   08 Jun 2027 08:17:54.927   08 Jun 2027 08:18:06.687            11.760          3157.625
       203   08 Jun 2027 08:18:31.512   08 Jun 2027 08:18:36.103             4.591           409.906
       204   08 Jun 2027 08:20:01.366   08 Jun 2027 08:20:03.152             1.786           709.719
       205   08 Jun 2027 08:20:34.845   08 Jun 2027 08:20:36.826             1.981           669.469
       206   08 Jun 2027 08:21:01.662   08 Jun 2027 08:21:03.309             1.647           656.031
       207   08 Jun 2027 08:21:19.829   08 Jun 2027 08:21:25.097             5.268           516.250
       208   08 Jun 2027 08:22:03.968   08 Jun 2027 08:22:08.529             4.561           733.313
       209   08 Jun 2027 08:23:14.408   08 Jun 2027 08:23:18.299             3.891          1805.375
       210   08 Jun 2027 08:23:37.800   08 Jun 2027 08:23:38.989             1.189           594.500
       211   08 Jun 2027 08:24:39.706   08 Jun 2027 08:24:45.594             5.888          1912.313
       212   08 Jun 2027 09:54:30.882   08 Jun 2027 09:54:46.046            15.164          7557.594
       213   08 Jun 2027 09:55:50.463   08 Jun 2027 09:55:56.294             5.831          1284.313
       214   08 Jun 2027 09:56:28.797   08 Jun 2027 09:56:30.117             1.320           322.344
       215   08 Jun 2027 09:56:48.116   08 Jun 2027 09:56:51.072             2.956           465.094
       216   08 Jun 2027 09:57:04.671   08 Jun 2027 09:57:05.023             0.352            65.281
       217   08 Jun 2027 09:57:13.534   08 Jun 2027 09:57:16.357             2.823           200.281
       218   08 Jun 2027 09:57:36.015   08 Jun 2027 09:57:37.634             1.619            59.156
       219   08 Jun 2027 09:57:57.439   08 Jun 2027 09:57:57.523             0.084            42.000
       220   08 Jun 2027 09:58:33.574   08 Jun 2027 09:58:36.706             3.132          1313.063
       221   08 Jun 2027 09:59:19.392   08 Jun 2027 09:59:23.894             4.502          1249.250
       222   08 Jun 2027 10:00:10.099   08 Jun 2027 10:00:13.043             2.944          1416.156
       223   08 Jun 2027 10:00:24.665   08 Jun 2027 10:00:25.536             0.871           332.938
       224   08 Jun 2027 11:32:25.626   08 Jun 2027 11:32:40.383            14.757          7378.500
       225   08 Jun 2027 11:32:47.378   08 Jun 2027 11:32:50.479             3.101          1122.406
       226   08 Jun 2027 11:33:41.489   08 Jun 2027 11:33:46.341             4.852          1594.062
       227   08 Jun 2027 11:34:25.854   08 Jun 2027 11:34:30.330             4.476           804.656
       228   08 Jun 2027 11:34:54.503   08 Jun 2027 11:34:58.279             3.776           753.375
       229   08 Jun 2027 11:35:32.793   08 Jun 2027 11:35:37.875             5.082           911.844
       230   08 Jun 2027 11:35:38.677   08 Jun 2027 11:35:38.814             0.137            25.062
       231   08 Jun 2027 11:35:54.329   08 Jun 2027 11:35:57.085             2.756           231.094
       232   08 Jun 2027 11:36:07.363   08 Jun 2027 11:36:11.453             4.090           321.187
       233   09 Jun 2027 03:43:04.265   09 Jun 2027 03:43:34.191            29.926         14963.000
       234   09 Jun 2027 03:44:18.730   09 Jun 2027 03:44:23.544             4.814          2407.000
       235   09 Jun 2027 03:44:43.136   09 Jun 2027 03:44:50.921             7.785          3892.500
       236   09 Jun 2027 03:54:57.305   09 Jun 2027 03:55:58.246            60.941         30470.500
       237   09 Jun 2027 05:17:13.527   09 Jun 2027 05:18:19.928            66.401         33200.500
       238   09 Jun 2027 05:19:07.955   09 Jun 2027 05:19:36.230            28.275         14137.500
       239   09 Jun 2027 05:22:03.800   09 Jun 2027 05:22:05.185             1.385           692.500
       240   09 Jun 2027 06:52:07.667   09 Jun 2027 06:53:51.711           104.044         52022.000
       241   09 Jun 2027 06:54:31.743   09 Jun 2027 06:54:33.889             2.146          1073.000
       242   09 Jun 2027 06:56:00.201   09 Jun 2027 06:56:08.753             8.552          4276.000
       243   09 Jun 2027 06:56:44.821   09 Jun 2027 06:57:00.816            15.995          7997.500
       244   09 Jun 2027 06:58:34.961   09 Jun 2027 06:58:38.218             3.257          1628.500
       245   09 Jun 2027 06:59:02.350   09 Jun 2027 06:59:02.714             0.364           182.000
       246   09 Jun 2027 08:29:39.910   09 Jun 2027 08:30:01.310            21.400          9339.000
       247   09 Jun 2027 08:31:35.418   09 Jun 2027 08:31:42.186             6.768          2140.313
       248   09 Jun 2027 08:32:33.942   09 Jun 2027 08:32:38.099             4.157          1617.375
       249   09 Jun 2027 08:32:40.158   09 Jun 2027 08:32:40.367             0.209            64.344
       250   09 Jun 2027 08:33:08.147   09 Jun 2027 08:33:14.343             6.196           868.125
       251   09 Jun 2027 08:33:45.533   09 Jun 2027 08:33:52.708             7.175           953.250
       252   09 Jun 2027 08:34:06.674   09 Jun 2027 08:34:08.978             2.304           351.719
       253   09 Jun 2027 08:34:25.490   09 Jun 2027 08:34:25.611             0.121            60.500
       254   09 Jun 2027 08:35:40.451   09 Jun 2027 08:35:46.985             6.534          2771.906
       255   09 Jun 2027 08:36:47.369   09 Jun 2027 08:36:51.561             4.192          1887.000
       256   09 Jun 2027 10:06:25.987   09 Jun 2027 10:06:43.923            17.936          8772.656
       257   09 Jun 2027 10:07:40.322   09 Jun 2027 10:07:43.259             2.937          1051.531
       258   09 Jun 2027 10:08:32.432   09 Jun 2027 10:08:33.676             1.244           378.094
       259   09 Jun 2027 10:08:49.343   09 Jun 2027 10:08:50.987             1.644           489.594
       260   09 Jun 2027 10:09:10.842   09 Jun 2027 10:09:16.570             5.728           219.687
       261   09 Jun 2027 10:09:16.906   09 Jun 2027 10:09:18.512             1.606            10.500
       262   09 Jun 2027 10:09:43.141   09 Jun 2027 10:09:44.709             1.568           163.719
       263   09 Jun 2027 10:10:03.663   09 Jun 2027 10:10:05.546             1.883           557.062
       264   09 Jun 2027 10:10:24.318   09 Jun 2027 10:10:26.581             2.263           534.031
       265   09 Jun 2027 10:10:30.715   09 Jun 2027 10:10:30.962             0.247            71.625
       266   09 Jun 2027 10:10:36.712   09 Jun 2027 10:10:37.147             0.435           179.688
       267   09 Jun 2027 10:10:44.629   09 Jun 2027 10:10:46.633             2.004           233.812
       268   09 Jun 2027 10:10:55.241   09 Jun 2027 10:10:57.299             2.058           269.000
       269   09 Jun 2027 10:11:13.879   09 Jun 2027 10:11:20.186             6.307           518.125
       270   09 Jun 2027 10:12:13.008   09 Jun 2027 10:12:18.845             5.837          1650.688
       271   09 Jun 2027 10:12:50.243   09 Jun 2027 10:12:55.601             5.358           784.094
       272   09 Jun 2027 11:44:25.773   09 Jun 2027 11:44:39.284            13.511          6323.625
       273   09 Jun 2027 11:45:09.793   09 Jun 2027 11:45:11.973             2.180           524.656
       274   09 Jun 2027 11:45:58.360   09 Jun 2027 11:45:58.360             0.000             0.000
       275   09 Jun 2027 11:46:12.838   09 Jun 2027 11:46:14.725             1.887           916.781
       276   09 Jun 2027 11:46:34.894   09 Jun 2027 11:46:37.344             2.450           567.281
       277   09 Jun 2027 11:47:03.560   09 Jun 2027 11:47:06.465             2.905           819.250
       278   09 Jun 2027 11:47:16.973   09 Jun 2027 11:47:19.774             2.801           328.375
       279   09 Jun 2027 11:47:48.998   09 Jun 2027 11:47:52.595             3.597           806.312
       280   10 Jun 2027 03:54:49.721   10 Jun 2027 03:55:54.841            65.120         32560.000
       281   10 Jun 2027 04:07:05.242   10 Jun 2027 04:07:32.721            27.479         13739.500
       282   10 Jun 2027 05:28:45.003   10 Jun 2027 05:30:05.631            80.628         40314.000
       283   10 Jun 2027 05:30:53.935   10 Jun 2027 05:31:32.260            38.325         19162.500
       284   10 Jun 2027 07:03:38.682   10 Jun 2027 07:05:36.033           117.351         58345.187
       285   10 Jun 2027 07:05:54.997   10 Jun 2027 07:05:54.997             0.000             0.000
       286   10 Jun 2027 07:05:55.144   10 Jun 2027 07:05:59.009             3.865           501.344
       287   10 Jun 2027 07:07:05.320   10 Jun 2027 07:07:05.320             0.000             0.000
       288   10 Jun 2027 07:08:00.363   10 Jun 2027 07:08:09.702             9.339          3792.313
       289   10 Jun 2027 07:10:22.751   10 Jun 2027 07:10:22.751             0.000             0.000
       290   10 Jun 2027 07:10:53.857   10 Jun 2027 07:10:56.996             3.139          1569.500
       291   10 Jun 2027 07:11:20.217   10 Jun 2027 07:11:29.510             9.293          4268.781
       292   10 Jun 2027 07:11:36.624   10 Jun 2027 07:11:36.624             0.000             0.000
       293   10 Jun 2027 08:41:34.863   10 Jun 2027 08:41:59.313            24.450         10733.969
       294   10 Jun 2027 08:42:32.452   10 Jun 2027 08:42:36.029             3.577           599.438
       295   10 Jun 2027 08:43:05.353   10 Jun 2027 08:43:07.963             2.610           569.938
       296   10 Jun 2027 08:43:24.630   10 Jun 2027 08:43:28.343             3.713            60.344
       297   10 Jun 2027 08:44:03.784   10 Jun 2027 08:44:06.497             2.713           998.094
       298   10 Jun 2027 08:44:25.938   10 Jun 2027 08:44:29.012             3.074           566.562
       299   10 Jun 2027 08:45:39.450   10 Jun 2027 08:45:44.325             4.875          2188.937
       300   10 Jun 2027 08:45:52.731   10 Jun 2027 08:45:54.439             1.708           187.781
       301   10 Jun 2027 08:46:01.486   10 Jun 2027 08:46:02.567             1.081           220.219
       302   10 Jun 2027 08:46:20.700   10 Jun 2027 08:46:23.779             3.079           105.562
       303   10 Jun 2027 08:46:48.448   10 Jun 2027 08:46:51.003             2.555           599.094
       304   10 Jun 2027 08:47:17.401   10 Jun 2027 08:47:20.273             2.872           824.937
       305   10 Jun 2027 08:48:39.494   10 Jun 2027 08:48:44.425             4.931          2003.906
       306   10 Jun 2027 10:18:22.788   10 Jun 2027 10:18:37.794            15.006          7022.125
       307   10 Jun 2027 10:19:18.679   10 Jun 2027 10:19:25.967             7.288          1277.656
       308   10 Jun 2027 10:19:54.250   10 Jun 2027 10:19:56.553             2.303           883.844
       309   10 Jun 2027 10:20:22.271   10 Jun 2027 10:20:22.420             0.149            14.375
       310   10 Jun 2027 10:20:49.921   10 Jun 2027 10:20:50.759             0.838           302.219
       311   10 Jun 2027 10:21:18.053   10 Jun 2027 10:21:20.278             2.225           507.188
       312   10 Jun 2027 10:22:32.114   10 Jun 2027 10:22:38.806             6.692          1871.688
       313   10 Jun 2027 10:22:40.228   10 Jun 2027 10:22:42.054             1.826            44.437
       314   10 Jun 2027 10:23:47.402   10 Jun 2027 10:23:57.504            10.102          1978.844
       315   10 Jun 2027 10:24:11.397   10 Jun 2027 10:24:16.879             5.482           115.969
       316   10 Jun 2027 10:25:01.762   10 Jun 2027 10:25:01.763             0.001             0.500
       317   10 Jun 2027 11:56:12.991   10 Jun 2027 11:56:26.289            13.298          5664.469
       318   10 Jun 2027 11:56:56.610   10 Jun 2027 11:57:02.970             6.360           912.812
       319   10 Jun 2027 11:57:23.657   10 Jun 2027 11:57:24.854             1.197           598.500
       320   10 Jun 2027 11:58:26.897   10 Jun 2027 11:58:30.228             3.331          1665.500
       321   10 Jun 2027 11:59:11.368   10 Jun 2027 11:59:14.707             3.339          1606.938
       322   11 Jun 2027 04:06:45.706   11 Jun 2027 04:07:36.804            51.098         25549.000
       323   11 Jun 2027 04:07:57.728   11 Jun 2027 04:08:03.368             5.640          2820.000
       324   11 Jun 2027 04:08:37.984   11 Jun 2027 04:08:42.059             4.075          2037.500
       325   11 Jun 2027 05:42:45.054   11 Jun 2027 05:44:44.018           118.964         59482.000
       326   11 Jun 2027 05:45:34.813   11 Jun 2027 05:45:47.617            12.804          6402.000
       327   11 Jun 2027 07:16:32.434   11 Jun 2027 07:18:41.522           129.088         63627.937
       328   11 Jun 2027 07:19:02.367   11 Jun 2027 07:19:02.367             0.000             0.000
       329   11 Jun 2027 07:19:40.419   11 Jun 2027 07:19:45.655             5.236          1769.500
       330   11 Jun 2027 07:23:31.351   11 Jun 2027 07:23:31.351             0.000             0.000
       331   11 Jun 2027 07:24:04.371   11 Jun 2027 07:24:08.192             3.821          1910.500
       332   11 Jun 2027 07:24:12.419   11 Jun 2027 07:24:15.724             3.305          1652.500
       333   11 Jun 2027 07:24:31.146   11 Jun 2027 07:24:36.679             5.533          2766.500
       334   11 Jun 2027 07:24:40.318   11 Jun 2027 07:24:43.528             3.210          1605.000
       335   11 Jun 2027 08:53:47.252   11 Jun 2027 08:54:09.378            22.126         10569.875
       336   11 Jun 2027 08:55:24.587   11 Jun 2027 08:55:29.026             4.439           801.625
       337   11 Jun 2027 08:55:48.110   11 Jun 2027 08:55:49.499             1.389           489.219
       338   11 Jun 2027 08:56:27.218   11 Jun 2027 08:56:28.430             1.212           429.781
       339   11 Jun 2027 08:57:11.277   11 Jun 2027 08:57:17.309             6.032          1338.969
       340   11 Jun 2027 08:57:46.077   11 Jun 2027 08:57:47.479             1.402           701.000
       341   11 Jun 2027 08:58:07.925   11 Jun 2027 08:58:11.216             3.291           792.563
       342   11 Jun 2027 08:58:24.155   11 Jun 2027 08:58:26.154             1.999           310.406
       343   11 Jun 2027 08:59:07.030   11 Jun 2027 08:59:13.509             6.479          1235.094
       344   11 Jun 2027 09:00:11.959   11 Jun 2027 09:00:18.487             6.528          1769.469
       345   11 Jun 2027 09:00:33.936   11 Jun 2027 09:00:35.451             1.515           418.313
       346   11 Jun 2027 10:30:59.415   11 Jun 2027 10:31:07.196             7.781          3890.500
       347   11 Jun 2027 10:31:13.833   11 Jun 2027 10:31:27.263            13.430          3903.906
       348   11 Jun 2027 10:31:56.923   11 Jun 2027 10:31:59.990             3.067           871.250
       349   11 Jun 2027 10:32:32.535   11 Jun 2027 10:32:33.449             0.914            18.031
       350   11 Jun 2027 10:32:45.487   11 Jun 2027 10:32:49.785             4.298           376.187
       351   11 Jun 2027 10:33:07.991   11 Jun 2027 10:33:10.225             2.234           421.313
       352   11 Jun 2027 10:33:28.807   11 Jun 2027 10:33:33.124             4.317           580.688
       353   11 Jun 2027 10:34:29.335   11 Jun 2027 10:34:33.015             3.680          1756.594
       354   11 Jun 2027 10:35:22.368   11 Jun 2027 10:35:26.045             3.677          1542.281
       355   11 Jun 2027 10:36:19.962   11 Jun 2027 10:36:23.713             3.751          1281.469
       356   12 Jun 2027 04:18:37.378   12 Jun 2027 04:20:04.318            86.940         43470.000
       357   12 Jun 2027 05:54:59.461   12 Jun 2027 05:56:53.388           113.927         56963.500
       358   12 Jun 2027 05:57:25.342   12 Jun 2027 05:57:44.852            19.510          9755.000
       359   12 Jun 2027 07:27:17.653   12 Jun 2027 07:27:51.640            33.987         16993.500
       360   12 Jun 2027 07:29:04.050   12 Jun 2027 07:30:21.804            77.754         36688.469
       361   12 Jun 2027 07:31:16.526   12 Jun 2027 07:31:16.940             0.414           207.000
       362   12 Jun 2027 07:34:00.302   12 Jun 2027 07:34:06.581             6.279          3139.500
       363   12 Jun 2027 07:35:23.676   12 Jun 2027 07:35:32.266             8.590          4295.000
       364   12 Jun 2027 07:36:33.719   12 Jun 2027 07:36:36.226             2.507          1253.500
       365   12 Jun 2027 07:36:45.364   12 Jun 2027 07:36:51.271             5.907          2422.313
       366   12 Jun 2027 07:36:59.708   12 Jun 2027 07:36:59.941             0.233            77.906
       367   12 Jun 2027 09:06:08.035   12 Jun 2027 09:06:26.102            18.067          8127.313
       368   12 Jun 2027 09:06:33.401   12 Jun 2027 09:06:34.757             1.356            89.812
       369   12 Jun 2027 09:08:31.736   12 Jun 2027 09:08:37.359             5.623          2076.406
       370   12 Jun 2027 09:09:12.182   12 Jun 2027 09:09:13.893             1.711           597.781
       371   12 Jun 2027 09:09:57.503   12 Jun 2027 09:10:01.432             3.929          1337.406
       372   12 Jun 2027 09:10:48.599   12 Jun 2027 09:10:49.540             0.941           470.500
       373   12 Jun 2027 09:11:22.532   12 Jun 2027 09:11:27.116             4.584          1594.375
       374   12 Jun 2027 09:12:22.035   12 Jun 2027 09:12:25.653             3.618          1695.156
       375   12 Jun 2027 09:12:42.780   12 Jun 2027 09:12:44.141             1.361           265.969
       376   12 Jun 2027 09:12:45.959   12 Jun 2027 09:12:50.626             4.667            56.812
       377   12 Jun 2027 10:43:05.971   12 Jun 2027 10:43:23.271            17.300          6814.719
       378   12 Jun 2027 10:43:31.999   12 Jun 2027 10:43:40.277             8.278            20.937
       379   12 Jun 2027 10:44:50.441   12 Jun 2027 10:44:56.848             6.407          1751.406
       380   12 Jun 2027 10:46:06.770   12 Jun 2027 10:46:10.724             3.954          1155.844
       381   12 Jun 2027 10:47:05.116   12 Jun 2027 10:47:08.592             3.476          1699.750
       382   12 Jun 2027 10:47:25.717   12 Jun 2027 10:47:28.553             2.836           535.156
       383   13 Jun 2027 03:07:38.956   13 Jun 2027 03:08:35.744            56.788         28394.000
       384   13 Jun 2027 03:09:31.048   13 Jun 2027 03:09:46.620            15.572          7786.000
       385   13 Jun 2027 04:30:40.620   13 Jun 2027 04:31:04.447            23.827         11913.500
       386   13 Jun 2027 04:31:41.357   13 Jun 2027 04:31:42.263             0.906           453.000
       387   13 Jun 2027 04:32:16.833   13 Jun 2027 04:32:31.013            14.180          7090.000
       388   13 Jun 2027 06:07:06.817   13 Jun 2027 06:08:45.299            98.482         49241.000
       389   13 Jun 2027 06:08:54.485   13 Jun 2027 06:09:05.022            10.537          5268.500
       390   13 Jun 2027 07:42:14.144   13 Jun 2027 07:44:07.497           113.353         56323.500
       391   13 Jun 2027 07:44:13.662   13 Jun 2027 07:44:15.071             1.409            94.187
       392   13 Jun 2027 07:47:08.413   13 Jun 2027 07:47:22.327            13.914          5289.500
       393   13 Jun 2027 07:47:42.021   13 Jun 2027 07:47:42.324             0.303           151.500
       394   13 Jun 2027 07:48:14.281   13 Jun 2027 07:48:14.281             0.000             0.000
       395   13 Jun 2027 07:48:50.042   13 Jun 2027 07:48:55.537             5.495          2401.406
       396   13 Jun 2027 09:18:35.745   13 Jun 2027 09:18:57.124            21.379          9838.625
       397   13 Jun 2027 09:19:43.472   13 Jun 2027 09:19:45.237             1.765           685.844
       398   13 Jun 2027 09:20:13.803   13 Jun 2027 09:20:15.460             1.657           390.594
       399   13 Jun 2027 09:20:47.201   13 Jun 2027 09:20:49.286             2.085           991.906
       400   13 Jun 2027 09:22:54.592   13 Jun 2027 09:23:03.719             9.127          3787.375
       401   13 Jun 2027 09:24:00.050   13 Jun 2027 09:24:10.460            10.410          1520.625
       402   13 Jun 2027 09:24:53.581   13 Jun 2027 09:24:53.581             0.000             0.000
       403   13 Jun 2027 10:56:07.563   13 Jun 2027 10:56:22.250            14.687          7263.187
       404   13 Jun 2027 10:56:54.893   13 Jun 2027 10:56:57.391             2.498          1020.094
       405   13 Jun 2027 10:57:08.512   13 Jun 2027 10:57:09.055             0.543           174.031
       406   13 Jun 2027 10:57:22.250   13 Jun 2027 10:57:29.192             6.942           350.813
       407   13 Jun 2027 10:58:12.078   13 Jun 2027 10:58:14.093             2.015          1007.500
       408   13 Jun 2027 10:58:33.768   13 Jun 2027 10:58:35.720             1.952           874.938
       409   13 Jun 2027 10:58:46.307   13 Jun 2027 10:58:47.610             1.303             8.313
       410   13 Jun 2027 10:59:22.393   13 Jun 2027 10:59:24.665             2.272          1086.969
       411   13 Jun 2027 10:59:32.863   13 Jun 2027 10:59:32.863             0.000             0.000
       412   13 Jun 2027 10:59:51.961   13 Jun 2027 10:59:55.613             3.652           838.000
