uniorb/output/strategy_1/Camera/Camera_KinoSat_111002.txt

KinoSat_111002
-------------------------
    Access    *     Start Time (UTCG)     *     Stop Time (UTCG)  *   Duration (s) *   Data (Mbytes)
         1   01 Jun 2027 03:55:44.924   01 Jun 2027 03:57:31.173           106.249         53124.500
         2   01 Jun 2027 03:57:50.818   01 Jun 2027 03:58:07.571            16.753          8376.500
         3   01 Jun 2027 05:32:11.980   01 Jun 2027 05:33:54.739           102.759         51379.500
         4   01 Jun 2027 05:34:14.751   01 Jun 2027 05:34:19.890             5.139          2569.500
         5   01 Jun 2027 05:35:07.403   01 Jun 2027 05:35:37.023            29.620         14810.000
         6   01 Jun 2027 07:04:19.879   01 Jun 2027 07:04:30.955            11.076          5538.000
         7   01 Jun 2027 07:06:18.810   01 Jun 2027 07:07:50.265            91.455         45727.500
         8   01 Jun 2027 07:08:01.626   01 Jun 2027 07:08:11.282             9.656          4828.000
         9   01 Jun 2027 07:08:47.744   01 Jun 2027 07:08:49.891             2.147          1073.500
        10   01 Jun 2027 07:10:11.416   01 Jun 2027 07:10:26.195            14.779          7389.500
        11   01 Jun 2027 07:10:47.050   01 Jun 2027 07:10:47.050             0.000             0.000
        12   01 Jun 2027 07:10:51.679   01 Jun 2027 07:10:58.613             6.934          3467.000
        13   01 Jun 2027 07:12:22.200   01 Jun 2027 07:12:26.159             3.959          1979.500
        14   01 Jun 2027 07:13:51.693   01 Jun 2027 07:13:58.880             7.187          3593.500
        15   01 Jun 2027 07:14:07.802   01 Jun 2027 07:14:07.993             0.191            95.500
        16   01 Jun 2027 08:43:17.446   01 Jun 2027 08:44:53.295            95.849         47924.500
        17   01 Jun 2027 08:45:02.706   01 Jun 2027 08:45:25.257            22.551         11275.500
        18   01 Jun 2027 08:45:38.166   01 Jun 2027 08:45:55.440            17.274          8637.000
        19   01 Jun 2027 08:46:57.374   01 Jun 2027 08:46:59.250             1.876           938.000
        20   01 Jun 2027 10:20:43.933   01 Jun 2027 10:22:29.395           105.462         52731.000
        21   01 Jun 2027 10:25:12.480   01 Jun 2027 10:25:24.617            12.137          6068.500
        22   01 Jun 2027 11:57:04.719   01 Jun 2027 11:58:43.275            98.556         49278.000
        23   01 Jun 2027 11:58:51.420   01 Jun 2027 11:58:51.420             0.000             0.000
        24   02 Jun 2027 04:07:53.145   02 Jun 2027 04:08:40.500            47.355         23677.500
        25   02 Jun 2027 04:10:26.280   02 Jun 2027 04:10:26.280             0.000             0.000
        26   02 Jun 2027 04:10:37.843   02 Jun 2027 04:10:44.719             6.876          3438.000
        27   02 Jun 2027 05:44:21.788   02 Jun 2027 05:46:41.271           139.483         69741.500
        28   02 Jun 2027 05:46:45.840   02 Jun 2027 05:46:47.644             1.804           902.000
        29   02 Jun 2027 07:19:32.841   02 Jun 2027 07:22:00.475           147.634         73817.000
        30   02 Jun 2027 07:24:50.243   02 Jun 2027 07:24:50.289             0.046            23.000
        31   02 Jun 2027 07:25:07.516   02 Jun 2027 07:25:07.516             0.000             0.000
        32   02 Jun 2027 07:25:55.946   02 Jun 2027 07:26:07.772            11.826          5913.000
        33   02 Jun 2027 08:55:51.724   02 Jun 2027 08:57:52.765           121.041         60520.500
        34   02 Jun 2027 08:58:05.307   02 Jun 2027 08:58:10.884             5.577          2788.500
        35   02 Jun 2027 08:58:43.601   02 Jun 2027 08:58:57.174            13.573          6786.500
        36   02 Jun 2027 08:59:31.818   02 Jun 2027 08:59:36.925             5.107          2553.500
        37   02 Jun 2027 10:33:14.819   02 Jun 2027 10:34:48.308            93.489         46744.500
        38   02 Jun 2027 10:35:52.194   02 Jun 2027 10:36:12.824            20.630         10315.000
        39   02 Jun 2027 10:37:09.281   02 Jun 2027 10:37:18.396             9.115          4557.500
        40   02 Jun 2027 10:37:25.374   02 Jun 2027 10:37:28.517             3.143          1571.500
        41   03 Jun 2027 04:20:35.518   03 Jun 2027 04:21:16.605            41.087         20543.500
        42   03 Jun 2027 04:21:50.167   03 Jun 2027 04:21:50.167             0.000             0.000
        43   03 Jun 2027 04:22:40.660   03 Jun 2027 04:22:55.766            15.106          7553.000
        44   03 Jun 2027 05:56:20.321   03 Jun 2027 05:58:13.791           113.470         56735.000
        45   03 Jun 2027 05:58:20.435   03 Jun 2027 05:58:20.435             0.000             0.000
        46   03 Jun 2027 05:58:32.765   03 Jun 2027 05:58:35.468             2.703          1351.500
        47   03 Jun 2027 05:58:49.977   03 Jun 2027 05:58:49.977             0.000             0.000
        48   03 Jun 2027 05:59:08.262   03 Jun 2027 05:59:11.433             3.171          1585.500
        49   03 Jun 2027 05:59:46.985   03 Jun 2027 05:59:49.650             2.665          1332.500
        50   03 Jun 2027 07:31:25.976   03 Jun 2027 07:33:40.768           134.792         67396.000
        51   03 Jun 2027 07:34:56.542   03 Jun 2027 07:35:04.522             7.980          3990.000
        52   03 Jun 2027 07:35:23.641   03 Jun 2027 07:35:45.427            21.786         10893.000
        53   03 Jun 2027 07:38:13.465   03 Jun 2027 07:38:16.272             2.807          1403.500
        54   03 Jun 2027 09:07:30.204   03 Jun 2027 09:09:50.873           140.669         70334.500
        55   03 Jun 2027 09:11:07.913   03 Jun 2027 09:11:09.485             1.572           786.000
        56   03 Jun 2027 10:45:27.994   03 Jun 2027 10:46:37.056            69.062         33909.717
        57   03 Jun 2027 10:48:11.945   03 Jun 2027 10:48:18.068             6.123          2965.281
        58   03 Jun 2027 10:48:23.434   03 Jun 2027 10:48:25.883             2.449           146.156
        59   03 Jun 2027 10:48:33.593   03 Jun 2027 10:48:34.371             0.778           240.938
        60   04 Jun 2027 03:09:10.356   04 Jun 2027 03:10:19.452            69.096         34548.000
        61   04 Jun 2027 03:11:11.107   04 Jun 2027 03:11:25.806            14.699          7349.500
        62   04 Jun 2027 04:31:42.235   04 Jun 2027 04:31:52.736            10.501          5250.500
        63   04 Jun 2027 04:32:45.077   04 Jun 2027 04:32:45.533             0.456           228.000
        64   04 Jun 2027 04:33:18.639   04 Jun 2027 04:33:33.219            14.580          7290.000
        65   04 Jun 2027 04:34:18.575   04 Jun 2027 04:34:18.575             0.000             0.000
        66   04 Jun 2027 04:34:43.400   04 Jun 2027 04:34:47.807             4.407          2203.500
        67   04 Jun 2027 06:08:04.887   04 Jun 2027 06:09:43.634            98.747         49373.500
        68   04 Jun 2027 07:42:50.149   04 Jun 2027 07:44:46.080           115.931         57965.500
        69   04 Jun 2027 07:45:10.054   04 Jun 2027 07:45:24.884            14.830          7415.000
        70   04 Jun 2027 07:47:29.038   04 Jun 2027 07:47:37.964             8.926          4158.906
        71   04 Jun 2027 07:48:53.557   04 Jun 2027 07:48:54.399             0.842           421.000
        72   04 Jun 2027 07:49:07.114   04 Jun 2027 07:49:16.124             9.010          2338.625
        73   04 Jun 2027 07:50:06.056   04 Jun 2027 07:50:09.401             3.345          1560.375
        74   04 Jun 2027 09:19:39.499   04 Jun 2027 09:20:05.012            25.513         10951.750
        75   04 Jun 2027 09:20:16.280   04 Jun 2027 09:20:16.760             0.480            90.250
        76   04 Jun 2027 09:21:20.368   04 Jun 2027 09:21:27.870             7.502          1635.344
        77   04 Jun 2027 09:22:03.962   04 Jun 2027 09:22:06.433             2.471           915.313
        78   04 Jun 2027 09:22:32.930   04 Jun 2027 09:22:37.418             4.488           828.031
        79   04 Jun 2027 09:22:45.717   04 Jun 2027 09:22:48.915             3.198           103.781
        80   04 Jun 2027 09:23:15.099   04 Jun 2027 09:23:16.212             1.113           521.406
        81   04 Jun 2027 09:23:52.031   04 Jun 2027 09:23:55.070             3.039          1000.531
        82   04 Jun 2027 09:24:21.024   04 Jun 2027 09:24:22.379             1.355           499.844
        83   04 Jun 2027 09:24:48.097   04 Jun 2027 09:24:48.395             0.298           149.000
        84   04 Jun 2027 09:25:14.277   04 Jun 2027 09:25:17.284             3.007          1349.781
        85   04 Jun 2027 10:57:50.312   04 Jun 2027 10:58:07.645            17.333          8571.313
        86   04 Jun 2027 10:58:40.679   04 Jun 2027 10:58:42.250             1.571           785.500
        87   04 Jun 2027 10:58:56.419   04 Jun 2027 10:58:58.202             1.783           689.594
        88   04 Jun 2027 11:00:07.248   04 Jun 2027 11:00:13.495             6.247          1806.094
        89   04 Jun 2027 11:00:53.883   04 Jun 2027 11:01:07.433            13.550          1262.125
        90   05 Jun 2027 03:08:43.892   05 Jun 2027 03:09:27.784            43.892         21946.000
        91   05 Jun 2027 03:20:24.488   05 Jun 2027 03:21:23.264            58.776         29388.000
        92   05 Jun 2027 04:42:40.489   05 Jun 2027 04:43:17.641            37.152         18576.000
        93   05 Jun 2027 04:45:44.139   05 Jun 2027 04:45:46.488             2.349          1174.500
        94   05 Jun 2027 04:45:53.133   05 Jun 2027 04:46:18.567            25.434         12717.000
        95   05 Jun 2027 04:46:46.048   05 Jun 2027 04:46:46.048             0.000             0.000
        96   05 Jun 2027 04:47:25.751   05 Jun 2027 04:47:26.805             1.054           527.000
        97   05 Jun 2027 06:17:53.199   05 Jun 2027 06:19:17.598            84.399         42199.500
        98   05 Jun 2027 06:20:02.154   05 Jun 2027 06:20:02.154             0.000             0.000
        99   05 Jun 2027 06:20:52.006   05 Jun 2027 06:21:14.775            22.769         11384.500
       100   05 Jun 2027 06:23:23.016   05 Jun 2027 06:23:31.873             8.857          4428.500
       101   05 Jun 2027 06:24:25.255   05 Jun 2027 06:24:34.574             9.319          4659.500
       102   05 Jun 2027 07:54:57.337   05 Jun 2027 07:56:04.608            67.271         33457.126
       103   05 Jun 2027 07:56:22.086   05 Jun 2027 07:56:24.564             2.478           438.094
       104   05 Jun 2027 07:57:01.234   05 Jun 2027 07:57:05.318             4.084           983.844
       105   05 Jun 2027 07:58:00.042   05 Jun 2027 07:58:02.019             1.977           988.500
       106   05 Jun 2027 07:58:07.583   05 Jun 2027 07:58:09.719             2.136           895.500
       107   05 Jun 2027 07:59:00.425   05 Jun 2027 07:59:00.425             0.000             0.000
       108   05 Jun 2027 07:59:32.706   05 Jun 2027 07:59:37.455             4.749          2374.500
       109   05 Jun 2027 08:00:21.164   05 Jun 2027 08:00:21.718             0.554           277.000
       110   05 Jun 2027 08:00:28.582   05 Jun 2027 08:00:30.186             1.604           802.000
       111   05 Jun 2027 08:00:59.760   05 Jun 2027 08:01:07.733             7.973          1535.187
       112   05 Jun 2027 08:02:17.378   05 Jun 2027 08:02:19.994             2.616          1308.000
       113   05 Jun 2027 08:02:22.664   05 Jun 2027 08:02:22.690             0.026            13.000
       114   05 Jun 2027 09:31:55.343   05 Jun 2027 09:32:19.976            24.633         10483.531
       115   05 Jun 2027 09:33:12.563   05 Jun 2027 09:33:19.274             6.711          1227.062
       116   05 Jun 2027 09:33:34.552   05 Jun 2027 09:33:37.417             2.865           455.094
       117   05 Jun 2027 09:34:18.783   05 Jun 2027 09:34:23.916             5.133          1129.094
       118   05 Jun 2027 09:34:36.420   05 Jun 2027 09:34:40.195             3.775           390.750
       119   05 Jun 2027 09:36:00.051   05 Jun 2027 09:36:03.531             3.480          1740.000
       120   05 Jun 2027 09:36:15.193   05 Jun 2027 09:36:18.206             3.013           947.406
       121   05 Jun 2027 09:36:40.884   05 Jun 2027 09:36:45.242             4.358           708.688
       122   05 Jun 2027 09:37:17.074   05 Jun 2027 09:37:21.197             4.123           977.688
       123   05 Jun 2027 11:09:51.768   05 Jun 2027 11:10:06.363            14.595          7297.500
       124   05 Jun 2027 11:10:33.099   05 Jun 2027 11:10:35.817             2.718          1126.000
       125   05 Jun 2027 11:11:05.633   05 Jun 2027 11:11:08.687             3.054           931.750
       126   05 Jun 2027 11:11:54.746   05 Jun 2027 11:11:58.814             4.068          1439.344
       127   05 Jun 2027 11:13:08.250   05 Jun 2027 11:13:11.927             3.677          1838.500
       128   05 Jun 2027 11:13:32.777   05 Jun 2027 11:13:32.777             0.000             0.000
       129   06 Jun 2027 03:20:06.113   06 Jun 2027 03:20:56.935            50.822         25411.000
       130   06 Jun 2027 03:20:59.567   06 Jun 2027 03:21:06.583             7.016          3508.000
       131   06 Jun 2027 03:21:29.676   06 Jun 2027 03:21:31.544             1.868           934.000
       132   06 Jun 2027 03:32:21.786   06 Jun 2027 03:33:17.054            55.268         27634.000
       133   06 Jun 2027 04:54:21.064   06 Jun 2027 04:55:18.942            57.878         28939.000
       134   06 Jun 2027 04:59:08.080   06 Jun 2027 04:59:15.926             7.846          3923.000
       135   06 Jun 2027 04:59:28.237   06 Jun 2027 04:59:30.235             1.998           999.000
       136   06 Jun 2027 04:59:47.446   06 Jun 2027 04:59:50.051             2.605          1302.500
       137   06 Jun 2027 06:29:20.615   06 Jun 2027 06:30:56.448            95.833         47916.500
       138   06 Jun 2027 06:31:42.421   06 Jun 2027 06:31:50.392             7.971          3985.500
       139   06 Jun 2027 06:32:13.688   06 Jun 2027 06:32:13.688             0.000             0.000
       140   06 Jun 2027 06:34:06.032   06 Jun 2027 06:34:13.454             7.422          3711.000
       141   06 Jun 2027 06:34:34.460   06 Jun 2027 06:34:39.942             5.482          2741.000
       142   06 Jun 2027 06:35:18.534   06 Jun 2027 06:35:24.519             5.985          2992.500
       143   06 Jun 2027 06:36:17.761   06 Jun 2027 06:36:17.761             0.000             0.000
       144   06 Jun 2027 06:36:56.128   06 Jun 2027 06:37:03.901             7.773          3886.500
       145   06 Jun 2027 08:06:59.351   06 Jun 2027 08:07:42.987            43.636         21393.938
       146   06 Jun 2027 08:09:08.406   06 Jun 2027 08:09:14.215             5.809          2646.688
       147   06 Jun 2027 08:09:14.514   06 Jun 2027 08:09:15.706             1.192             9.344
       148   06 Jun 2027 08:10:05.357   06 Jun 2027 08:10:11.578             6.221          1459.469
       149   06 Jun 2027 08:10:45.840   06 Jun 2027 08:10:49.954             4.114          1038.969
       150   06 Jun 2027 08:11:39.285   06 Jun 2027 08:11:41.955             2.670          1255.344
       151   06 Jun 2027 08:12:27.738   06 Jun 2027 08:12:27.738             0.000             0.000
       152   06 Jun 2027 08:13:02.396   06 Jun 2027 08:13:08.348             5.952          2513.781
       153   06 Jun 2027 09:43:45.770   06 Jun 2027 09:44:12.111            26.341         10418.281
       154   06 Jun 2027 09:44:51.759   06 Jun 2027 09:44:53.283             1.524           437.250
       155   06 Jun 2027 09:46:24.551   06 Jun 2027 09:46:28.230             3.679          1839.500
       156   06 Jun 2027 09:47:24.103   06 Jun 2027 09:47:29.026             4.923          2215.562
       157   06 Jun 2027 09:47:58.007   06 Jun 2027 09:48:00.486             2.479           905.656
       158   06 Jun 2027 09:48:51.721   06 Jun 2027 09:48:53.590             1.869           934.500
       159   06 Jun 2027 09:49:16.094   06 Jun 2027 09:49:18.259             2.165          1082.500
       160   06 Jun 2027 09:50:06.243   06 Jun 2027 09:50:09.851             3.608          1786.844
       161   06 Jun 2027 09:50:28.321   06 Jun 2027 09:50:28.801             0.480           240.000
       162   06 Jun 2027 11:21:49.877   06 Jun 2027 11:22:09.658            19.781          9827.406
       163   06 Jun 2027 11:23:35.230   06 Jun 2027 11:23:40.444             5.214          2326.469
       164   06 Jun 2027 11:23:46.953   06 Jun 2027 11:23:48.389             1.436           188.469
       165   06 Jun 2027 11:24:08.458   06 Jun 2027 11:24:13.149             4.691           576.500
       166   06 Jun 2027 11:24:19.843   06 Jun 2027 11:24:20.527             0.684           170.875
       167   06 Jun 2027 11:24:24.967   06 Jun 2027 11:24:24.967             0.000             0.000
       168   06 Jun 2027 11:24:47.454   06 Jun 2027 11:24:49.209             1.755           821.875
       169   06 Jun 2027 11:24:58.984   06 Jun 2027 11:25:01.685             2.701           234.250
       170   06 Jun 2027 11:25:14.941   06 Jun 2027 11:25:17.107             2.166           276.875
       171   07 Jun 2027 03:32:13.185   07 Jun 2027 03:33:28.718            75.533         37766.500
       172   07 Jun 2027 03:44:45.898   07 Jun 2027 03:44:48.629             2.731          1365.500
       173   07 Jun 2027 05:06:01.985   07 Jun 2027 05:07:36.954            94.969         47484.500
       174   07 Jun 2027 05:08:44.719   07 Jun 2027 05:09:03.632            18.913          9456.500
       175   07 Jun 2027 05:10:29.067   07 Jun 2027 05:10:29.067             0.000             0.000
       176   07 Jun 2027 05:10:44.095   07 Jun 2027 05:10:50.929             6.834          3417.000
       177   07 Jun 2027 05:10:55.520   07 Jun 2027 05:11:02.402             6.882          3441.000
       178   07 Jun 2027 05:11:19.544   07 Jun 2027 05:11:20.078             0.534           267.000
       179   07 Jun 2027 05:11:28.137   07 Jun 2027 05:11:29.796             1.659           829.500
       180   07 Jun 2027 06:40:54.343   07 Jun 2027 06:42:38.662           104.319         52159.500
       181   07 Jun 2027 06:44:36.639   07 Jun 2027 06:44:44.308             7.669          3834.500
       182   07 Jun 2027 06:45:00.409   07 Jun 2027 06:45:08.461             8.052          4026.000
       183   07 Jun 2027 06:49:28.521   07 Jun 2027 06:49:43.361            14.840          7420.000
       184   07 Jun 2027 06:50:06.933   07 Jun 2027 06:50:17.996            11.063          5531.500
       185   07 Jun 2027 08:19:00.803   07 Jun 2027 08:19:40.541            39.738         18032.782
       186   07 Jun 2027 08:20:49.130   07 Jun 2027 08:20:56.519             7.389          1865.563
       187   07 Jun 2027 08:21:21.417   07 Jun 2027 08:21:23.499             2.082           778.062
       188   07 Jun 2027 08:21:49.811   07 Jun 2027 08:21:50.883             1.072           111.719
       189   07 Jun 2027 08:22:26.597   07 Jun 2027 08:22:29.528             2.931          1100.094
       190   07 Jun 2027 08:22:53.725   07 Jun 2027 08:22:56.741             3.016           756.156
       191   07 Jun 2027 08:23:13.863   07 Jun 2027 08:23:14.627             0.764           382.000
       192   07 Jun 2027 08:23:24.941   07 Jun 2027 08:23:27.365             2.424           475.375
       193   07 Jun 2027 08:23:54.063   07 Jun 2027 08:23:57.412             3.349           834.313
       194   07 Jun 2027 08:24:27.731   07 Jun 2027 08:24:28.542             0.811           405.500
       195   07 Jun 2027 08:24:52.560   07 Jun 2027 08:24:55.577             3.017          1200.812
       196   07 Jun 2027 08:25:49.753   07 Jun 2027 08:25:57.763             8.010          1693.000
       197   07 Jun 2027 09:55:55.773   07 Jun 2027 09:56:13.636            17.863          8683.125
       198   07 Jun 2027 09:56:19.061   07 Jun 2027 09:56:22.475             3.414           105.687
       199   07 Jun 2027 09:56:32.353   07 Jun 2027 09:56:35.262             2.909           233.219
       200   07 Jun 2027 09:56:44.133   07 Jun 2027 09:56:47.642             3.509           120.688
       201   07 Jun 2027 09:57:48.095   07 Jun 2027 09:57:54.576             6.481           306.563
       202   07 Jun 2027 09:58:19.873   07 Jun 2027 09:58:21.050             1.177           588.500
       203   07 Jun 2027 09:58:47.379   07 Jun 2027 09:58:54.855             7.476           973.562
       204   07 Jun 2027 09:59:40.254   07 Jun 2027 09:59:44.331             4.077          1123.500
       205   07 Jun 2027 10:00:53.399   07 Jun 2027 10:00:57.681             4.282          2121.406
       206   07 Jun 2027 10:01:41.149   07 Jun 2027 10:01:43.695             2.546          1256.500
       207   07 Jun 2027 10:02:11.395   07 Jun 2027 10:02:13.992             2.597           865.625
       208   07 Jun 2027 11:33:03.632   07 Jun 2027 11:33:24.299            20.667          6921.375
       209   07 Jun 2027 11:34:24.702   07 Jun 2027 11:34:28.007             3.305          1142.500
       210   07 Jun 2027 11:34:37.714   07 Jun 2027 11:34:41.066             3.352           201.531
       211   07 Jun 2027 11:35:47.087   07 Jun 2027 11:35:49.758             2.671          1335.500
       212   07 Jun 2027 11:36:25.825   07 Jun 2027 11:36:45.560            19.735          1833.188
       213   07 Jun 2027 11:36:52.445   07 Jun 2027 11:36:54.176             1.731           215.156
       214   07 Jun 2027 11:37:29.021   07 Jun 2027 11:37:29.021             0.000             0.000
       215   08 Jun 2027 03:44:08.637   08 Jun 2027 03:45:11.880            63.243         31621.500
       216   08 Jun 2027 05:20:23.063   08 Jun 2027 05:22:01.269            98.206         49103.000
       217   08 Jun 2027 05:22:53.387   08 Jun 2027 05:23:28.430            35.043         17521.500
       218   08 Jun 2027 05:23:39.051   08 Jun 2027 05:23:55.250            16.199          8099.500
       219   08 Jun 2027 06:53:55.482   08 Jun 2027 06:55:56.574           121.092         60429.625
       220   08 Jun 2027 06:58:09.020   08 Jun 2027 06:58:10.224             1.204           602.000
       221   08 Jun 2027 06:59:26.981   08 Jun 2027 06:59:32.408             5.427          2713.500
       222   08 Jun 2027 07:01:14.900   08 Jun 2027 07:01:19.156             4.256          2128.000
       223   08 Jun 2027 07:02:11.568   08 Jun 2027 07:02:23.868            12.300          5778.938
       224   08 Jun 2027 07:02:27.433   08 Jun 2027 07:02:28.703             1.270            10.937
       225   08 Jun 2027 08:31:28.014   08 Jun 2027 08:31:56.161            28.147         13683.469
       226   08 Jun 2027 08:33:04.424   08 Jun 2027 08:33:10.586             6.162          1987.594
       227   08 Jun 2027 08:33:49.611   08 Jun 2027 08:33:52.286             2.675           920.062
       228   08 Jun 2027 08:34:23.483   08 Jun 2027 08:34:29.449             5.966           504.406
       229   08 Jun 2027 08:34:33.463   08 Jun 2027 08:34:33.609             0.146            49.375
       230   08 Jun 2027 08:34:49.177   08 Jun 2027 08:34:50.046             0.869            90.563
       231   08 Jun 2027 08:35:47.178   08 Jun 2027 08:35:50.653             3.475          1737.500
       232   08 Jun 2027 08:36:23.220   08 Jun 2027 08:36:27.108             3.888          1064.812
       233   08 Jun 2027 08:37:28.317   08 Jun 2027 08:37:34.987             6.670          1887.375
       234   08 Jun 2027 08:37:50.729   08 Jun 2027 08:37:58.338             7.609           455.875
       235   08 Jun 2027 10:08:22.957   08 Jun 2027 10:08:37.459            14.502          7251.000
       236   08 Jun 2027 10:08:44.400   08 Jun 2027 10:08:48.792             4.392          1292.187
       237   08 Jun 2027 10:10:06.212   08 Jun 2027 10:10:07.556             1.344           425.062
       238   08 Jun 2027 10:11:25.621   08 Jun 2027 10:11:31.195             5.574          2071.656
       239   08 Jun 2027 10:11:47.471   08 Jun 2027 10:11:49.180             1.709           508.625
       240   08 Jun 2027 10:12:11.590   08 Jun 2027 10:12:13.807             2.217           565.500
       241   08 Jun 2027 10:12:56.974   08 Jun 2027 10:13:00.033             3.059           848.969
       242   08 Jun 2027 10:14:08.010   08 Jun 2027 10:14:13.524             5.514          1948.844
       243   08 Jun 2027 11:45:17.428   08 Jun 2027 11:45:33.750            16.322          6369.813
       244   08 Jun 2027 11:45:51.433   08 Jun 2027 11:45:54.468             3.035           545.312
       245   08 Jun 2027 11:46:49.524   08 Jun 2027 11:46:51.748             2.224          1112.000
       246   08 Jun 2027 11:47:19.195   08 Jun 2027 11:47:27.262             8.067          1393.625
       247   08 Jun 2027 11:48:02.689   08 Jun 2027 11:48:04.375             1.686           843.000
       248   08 Jun 2027 11:48:24.235   08 Jun 2027 11:48:31.033             6.798           791.500
       249   08 Jun 2027 11:49:16.657   08 Jun 2027 11:49:21.620             4.963          1234.250
       250   08 Jun 2027 11:49:26.209   08 Jun 2027 11:49:27.866             1.657           111.781
       251   09 Jun 2027 03:56:00.143   09 Jun 2027 03:56:50.668            50.525         25262.500
       252   09 Jun 2027 03:57:37.227   09 Jun 2027 03:57:37.550             0.323           161.500
       253   09 Jun 2027 03:57:47.180   09 Jun 2027 03:57:47.180             0.000             0.000
       254   09 Jun 2027 03:58:06.573   09 Jun 2027 03:58:08.209             1.636           818.000
       255   09 Jun 2027 05:32:27.382   09 Jun 2027 05:34:40.038           132.656         66328.000
       256   09 Jun 2027 05:35:22.055   09 Jun 2027 05:35:51.737            29.682         14841.000
       257   09 Jun 2027 07:04:35.077   09 Jun 2027 07:04:45.903            10.826          5413.000
       258   09 Jun 2027 07:06:34.222   09 Jun 2027 07:08:08.639            94.417         47208.500
       259   09 Jun 2027 07:08:27.363   09 Jun 2027 07:08:46.624            19.261          8506.063
       260   09 Jun 2027 07:11:03.180   09 Jun 2027 07:11:03.180             0.000             0.000
       261   09 Jun 2027 07:11:08.744   09 Jun 2027 07:11:20.096            11.352          4441.250
       262   09 Jun 2027 07:12:36.935   09 Jun 2027 07:12:40.791             3.856          1928.000
       263   09 Jun 2027 07:13:57.459   09 Jun 2027 07:13:57.570             0.111            55.500
       264   09 Jun 2027 07:14:23.169   09 Jun 2027 07:14:23.169             0.000             0.000
       265   09 Jun 2027 08:43:32.691   09 Jun 2027 08:43:56.323            23.632         10881.563
       266   09 Jun 2027 08:44:52.179   09 Jun 2027 08:44:56.654             4.475           891.563
       267   09 Jun 2027 08:45:19.775   09 Jun 2027 08:45:22.854             3.079           367.344
       268   09 Jun 2027 08:45:53.404   09 Jun 2027 08:45:55.048             1.644           414.563
       269   09 Jun 2027 08:46:34.024   09 Jun 2027 08:46:36.629             2.605           203.812
       270   09 Jun 2027 08:47:14.548   09 Jun 2027 08:47:19.453             4.905          1184.969
       271   09 Jun 2027 08:48:22.522   09 Jun 2027 08:48:26.846             4.324          1467.656
       272   09 Jun 2027 08:48:44.944   09 Jun 2027 08:48:47.906             2.962           565.563
       273   09 Jun 2027 08:49:01.721   09 Jun 2027 08:49:02.420             0.699            95.906
       274   09 Jun 2027 08:49:27.644   09 Jun 2027 08:49:27.999             0.355           177.500
       275   09 Jun 2027 10:21:02.265   09 Jun 2027 10:21:20.055            17.790          8220.781
       276   09 Jun 2027 10:22:35.436   09 Jun 2027 10:22:41.465             6.029          1384.625
       277   09 Jun 2027 10:23:50.887   09 Jun 2027 10:23:54.571             3.684          1439.500
       278   09 Jun 2027 10:24:10.447   09 Jun 2027 10:24:12.040             1.593           496.125
       279   09 Jun 2027 10:24:32.887   09 Jun 2027 10:24:34.577             1.690           228.375
       280   09 Jun 2027 10:24:52.993   09 Jun 2027 10:24:54.503             1.510           398.500
       281   09 Jun 2027 10:24:56.635   09 Jun 2027 10:24:59.485             2.850            66.625
       282   09 Jun 2027 10:25:15.312   09 Jun 2027 10:25:16.645             1.333           239.906
       283   09 Jun 2027 11:57:21.235   09 Jun 2027 11:57:37.720            16.485          8242.500
       284   09 Jun 2027 11:57:49.644   09 Jun 2027 11:57:52.979             3.335           519.500
       285   09 Jun 2027 11:58:07.930   09 Jun 2027 11:58:10.412             2.482           303.344
       286   09 Jun 2027 11:59:00.026   09 Jun 2027 11:59:05.140             5.114          1550.437
       287   09 Jun 2027 11:59:30.845   09 Jun 2027 11:59:32.531             1.686           768.531
       288   09 Jun 2027 11:59:48.488   09 Jun 2027 11:59:53.690             5.202           358.000
       289   10 Jun 2027 04:08:08.267   10 Jun 2027 04:09:03.137            54.870         27435.000
       290   10 Jun 2027 04:09:51.244   10 Jun 2027 04:10:01.159             9.915          4957.500
       291   10 Jun 2027 05:44:37.218   10 Jun 2027 05:46:56.759           139.541         69770.500
       292   10 Jun 2027 05:47:01.044   10 Jun 2027 05:47:04.762             3.718          1859.000
       293   10 Jun 2027 07:19:48.228   10 Jun 2027 07:21:45.559           117.331         58665.500
       294   10 Jun 2027 07:22:38.884   10 Jun 2027 07:22:44.487             5.603          1793.375
       295   10 Jun 2027 07:25:52.970   10 Jun 2027 07:26:02.486             9.516          4758.000
       296   10 Jun 2027 07:26:05.527   10 Jun 2027 07:26:10.851             5.324          1104.344
       297   10 Jun 2027 08:56:07.206   10 Jun 2027 08:56:27.152            19.946          9626.531
       298   10 Jun 2027 08:57:08.051   10 Jun 2027 08:57:08.176             0.125            62.500
       299   10 Jun 2027 08:57:32.092   10 Jun 2027 08:57:38.665             6.573          1608.531
       300   10 Jun 2027 08:57:57.743   10 Jun 2027 08:58:04.446             6.703           103.844
       301   10 Jun 2027 08:58:18.908   10 Jun 2027 08:58:23.937             5.029           170.875
       302   10 Jun 2027 08:58:50.389   10 Jun 2027 08:58:56.164             5.775           770.437
       303   10 Jun 2027 08:58:58.051   10 Jun 2027 08:59:02.898             4.847            58.969
       304   10 Jun 2027 08:59:33.008   10 Jun 2027 08:59:36.223             3.215           625.000
       305   10 Jun 2027 09:01:16.758   10 Jun 2027 09:01:25.505             8.747          3141.719
       306   10 Jun 2027 09:01:52.611   10 Jun 2027 09:01:54.193             1.582           784.031
       307   10 Jun 2027 10:33:30.495   10 Jun 2027 10:33:47.396            16.901          7579.187
       308   10 Jun 2027 10:34:03.678   10 Jun 2027 10:34:04.983             1.305           508.813
       309   10 Jun 2027 10:34:26.389   10 Jun 2027 10:34:27.798             1.409           608.063
       310   10 Jun 2027 10:35:33.245   10 Jun 2027 10:35:40.425             7.180          1011.125
       311   10 Jun 2027 10:36:48.560   10 Jun 2027 10:36:53.754             5.194          2129.219
       312   10 Jun 2027 10:36:58.126   10 Jun 2027 10:36:58.369             0.243           121.500
       313   10 Jun 2027 10:37:36.834   10 Jun 2027 10:37:44.872             8.038          1217.156
       314   10 Jun 2027 10:37:54.413   10 Jun 2027 10:37:58.202             3.789           298.156
       315   11 Jun 2027 03:00:00.000   11 Jun 2027 03:00:02.626             2.626          1313.000
       316   11 Jun 2027 03:00:05.570   11 Jun 2027 03:00:14.396             8.826          4413.000
       317   11 Jun 2027 04:20:50.762   11 Jun 2027 04:21:38.529            47.767         23883.500
       318   11 Jun 2027 04:22:56.202   11 Jun 2027 04:22:58.785             2.583          1291.500
       319   11 Jun 2027 05:56:34.946   11 Jun 2027 05:58:40.450           125.504         62752.000
       320   11 Jun 2027 05:59:21.319   11 Jun 2027 05:59:23.530             2.211          1105.500
       321   11 Jun 2027 07:31:39.400   11 Jun 2027 07:33:43.856           124.456         62194.188
       322   11 Jun 2027 07:33:54.045   11 Jun 2027 07:33:57.134             3.089           140.719
       323   11 Jun 2027 07:34:05.829   11 Jun 2027 07:34:11.032             5.203           271.719
       324   11 Jun 2027 07:36:46.982   11 Jun 2027 07:36:48.478             1.496           748.000
       325   11 Jun 2027 07:37:11.665   11 Jun 2027 07:37:11.665             0.000             0.000
       326   11 Jun 2027 07:37:39.997   11 Jun 2027 07:37:50.766            10.769          5384.500
       327   11 Jun 2027 07:38:15.135   11 Jun 2027 07:38:19.017             3.882          1112.438
       328   11 Jun 2027 09:07:44.771   11 Jun 2027 09:08:08.170            23.399         11621.844
       329   11 Jun 2027 09:09:04.113   11 Jun 2027 09:09:06.713             2.600           526.469
       330   11 Jun 2027 09:09:50.351   11 Jun 2027 09:09:56.197             5.846           246.750
       331   11 Jun 2027 09:10:05.807   11 Jun 2027 09:10:07.410             1.603           300.312
       332   11 Jun 2027 09:10:41.132   11 Jun 2027 09:10:45.006             3.874           742.313
       333   11 Jun 2027 09:11:06.086   11 Jun 2027 09:11:10.586             4.500            27.031
       334   11 Jun 2027 09:11:13.440   11 Jun 2027 09:11:14.813             1.373            89.187
       335   11 Jun 2027 09:11:24.879   11 Jun 2027 09:11:25.138             0.259           129.500
       336   11 Jun 2027 09:11:54.459   11 Jun 2027 09:11:56.740             2.281          1093.156
       337   11 Jun 2027 09:13:08.800   11 Jun 2027 09:13:12.931             4.131          2047.437
       338   11 Jun 2027 09:13:59.997   11 Jun 2027 09:14:02.823             2.826           989.875
       339   11 Jun 2027 10:45:43.058   11 Jun 2027 10:46:02.314            19.256          9383.031
       340   11 Jun 2027 10:46:52.023   11 Jun 2027 10:46:55.189             3.166          1403.469
       341   11 Jun 2027 10:47:47.247   11 Jun 2027 10:47:53.110             5.863          1531.281
       342   11 Jun 2027 10:49:11.268   11 Jun 2027 10:49:23.241            11.973          1924.187
       343   11 Jun 2027 10:49:46.100   11 Jun 2027 10:49:46.870             0.770           385.000
       344   12 Jun 2027 03:08:39.028   12 Jun 2027 03:09:51.090            72.062         36031.000
       345   12 Jun 2027 03:10:34.296   12 Jun 2027 03:10:42.602             8.306          4153.000
       346   12 Jun 2027 03:11:26.748   12 Jun 2027 03:11:26.748             0.000             0.000
       347   12 Jun 2027 03:11:53.304   12 Jun 2027 03:12:06.061            12.757          6378.500
       348   12 Jun 2027 04:31:57.108   12 Jun 2027 04:32:15.227            18.119          9059.500
       349   12 Jun 2027 04:33:01.729   12 Jun 2027 04:33:02.432             0.703           351.500
       350   12 Jun 2027 04:33:48.096   12 Jun 2027 04:34:02.688            14.592          7296.000
       351   12 Jun 2027 06:08:19.607   12 Jun 2027 06:09:58.114            98.507         49253.500
       352   12 Jun 2027 06:12:03.976   12 Jun 2027 06:12:32.942            28.966         14483.000
       353   12 Jun 2027 07:43:05.337   12 Jun 2027 07:44:29.958            84.621         42038.250
       354   12 Jun 2027 07:44:50.872   12 Jun 2027 07:44:56.287             5.415           653.562
       355   12 Jun 2027 07:45:01.936   12 Jun 2027 07:45:05.201             3.265           126.594
       356   12 Jun 2027 07:45:20.114   12 Jun 2027 07:45:20.114             0.000             0.000
       357   12 Jun 2027 07:46:12.139   12 Jun 2027 07:46:16.215             4.076          2034.000
       358   12 Jun 2027 07:47:18.529   12 Jun 2027 07:47:22.003             3.474          1737.000
       359   12 Jun 2027 07:48:40.948   12 Jun 2027 07:48:44.443             3.495          1747.500
       360   12 Jun 2027 07:49:02.418   12 Jun 2027 07:49:05.836             3.418          1491.562
       361   12 Jun 2027 07:49:47.500   12 Jun 2027 07:49:50.658             3.158          1302.000
       362   12 Jun 2027 07:50:01.758   12 Jun 2027 07:50:02.782             1.024           346.875
       363   12 Jun 2027 07:50:33.786   12 Jun 2027 07:50:35.079             1.293           426.937
       364   12 Jun 2027 09:19:54.852   12 Jun 2027 09:20:16.085            21.233         10582.375
       365   12 Jun 2027 09:20:42.702   12 Jun 2027 09:20:44.625             1.923           821.844
       366   12 Jun 2027 09:21:35.986   12 Jun 2027 09:21:40.108             4.122          1605.031
       367   12 Jun 2027 09:22:18.584   12 Jun 2027 09:22:20.923             2.339           848.437
       368   12 Jun 2027 09:22:41.359   12 Jun 2027 09:22:43.937             2.578           400.687
       369   12 Jun 2027 09:22:58.324   12 Jun 2027 09:22:59.929             1.605           319.500
       370   12 Jun 2027 09:23:30.638   12 Jun 2027 09:23:30.638             0.000             0.000
       371   12 Jun 2027 09:23:55.877   12 Jun 2027 09:23:59.635             3.758          1294.594
       372   12 Jun 2027 09:24:55.948   12 Jun 2027 09:25:01.032             5.084          1510.469
       373   12 Jun 2027 09:25:48.429   12 Jun 2027 09:25:56.043             7.614          1415.656
       374   12 Jun 2027 09:25:58.028   12 Jun 2027 09:26:07.359             9.331            62.031
       375   12 Jun 2027 10:58:05.308   12 Jun 2027 10:58:21.522            16.214          8041.344
       376   12 Jun 2027 10:59:00.116   12 Jun 2027 10:59:05.344             5.228          1019.187
       377   12 Jun 2027 10:59:46.131   12 Jun 2027 10:59:47.132             1.001           500.500
       378   12 Jun 2027 10:59:52.355   12 Jun 2027 10:59:56.776             4.421           747.562
       379   12 Jun 2027 11:00:27.805   12 Jun 2027 11:00:30.404             2.599           774.906
       380   12 Jun 2027 11:00:37.708   12 Jun 2027 11:00:41.208             3.500           182.969
       381   12 Jun 2027 11:00:49.666   12 Jun 2027 11:00:50.286             0.620           216.969
       382   12 Jun 2027 11:01:00.641   12 Jun 2027 11:01:00.641             0.000             0.000
       383   12 Jun 2027 11:01:24.898   12 Jun 2027 11:01:27.324             2.426          1081.625
       384   12 Jun 2027 11:01:35.990   12 Jun 2027 11:01:42.030             6.040           258.313
       385   12 Jun 2027 11:01:56.558   12 Jun 2027 11:01:57.540             0.982           448.125
       386   13 Jun 2027 03:08:58.702   13 Jun 2027 03:09:44.087            45.385         22692.500
       387   13 Jun 2027 03:20:39.760   13 Jun 2027 03:21:41.828            62.068         31034.000
       388   13 Jun 2027 04:42:55.205   13 Jun 2027 04:43:20.255            25.050         12525.000
       389   13 Jun 2027 04:43:59.502   13 Jun 2027 04:43:59.502             0.000             0.000
       390   13 Jun 2027 04:44:52.469   13 Jun 2027 04:45:05.373            12.904          6452.000
       391   13 Jun 2027 04:47:01.577   13 Jun 2027 04:47:01.577             0.000             0.000
       392   13 Jun 2027 04:47:41.169   13 Jun 2027 04:47:43.783             2.614          1307.000
       393   13 Jun 2027 06:18:07.580   13 Jun 2027 06:19:24.921            77.341         38670.500
       394   13 Jun 2027 06:20:03.683   13 Jun 2027 06:20:23.951            20.268         10134.000
       395   13 Jun 2027 06:21:31.068   13 Jun 2027 06:21:53.109            22.041         11020.500
       396   13 Jun 2027 06:22:09.622   13 Jun 2027 06:22:09.622             0.000             0.000
       397   13 Jun 2027 06:24:08.843   13 Jun 2027 06:24:20.493            11.650          5825.000
       398   13 Jun 2027 06:24:55.125   13 Jun 2027 06:24:58.256             3.131          1565.500
       399   13 Jun 2027 07:55:12.270   13 Jun 2027 07:56:25.554            73.284         36642.000
       400   13 Jun 2027 07:56:31.150   13 Jun 2027 07:56:33.165             2.015           656.156
       401   13 Jun 2027 07:57:04.649   13 Jun 2027 07:57:07.107             2.458           898.469
       402   13 Jun 2027 07:58:16.877   13 Jun 2027 07:58:22.711             5.834          2180.312
       403   13 Jun 2027 07:58:30.093   13 Jun 2027 07:58:32.972             2.879           222.656
       404   13 Jun 2027 08:00:02.107   13 Jun 2027 08:00:04.835             2.728          1364.000
       405   13 Jun 2027 08:00:38.086   13 Jun 2027 08:00:46.035             7.949          2398.187
       406   13 Jun 2027 08:01:36.635   13 Jun 2027 08:01:42.390             5.755          1581.250
       407   13 Jun 2027 08:02:32.209   13 Jun 2027 08:02:36.384             4.175          1437.000
       408   13 Jun 2027 09:32:10.399   13 Jun 2027 09:32:36.374            25.975         10174.562
       409   13 Jun 2027 09:33:28.558   13 Jun 2027 09:33:33.248             4.690          1210.031
       410   13 Jun 2027 09:35:32.206   13 Jun 2027 09:35:41.571             9.365          1825.000
       411   13 Jun 2027 09:37:04.775   13 Jun 2027 09:37:10.311             5.536          2442.813
       412   13 Jun 2027 09:37:42.111   13 Jun 2027 09:37:43.640             1.529           764.500
       413   13 Jun 2027 09:38:05.697   13 Jun 2027 09:38:08.392             2.695           898.063
       414   13 Jun 2027 11:10:06.702   13 Jun 2027 11:10:21.572            14.870          5834.875
       415   13 Jun 2027 11:10:51.800   13 Jun 2027 11:10:57.086             5.286           890.406
       416   13 Jun 2027 11:11:08.051   13 Jun 2027 11:11:11.364             3.313           342.656
       417   13 Jun 2027 11:11:45.432   13 Jun 2027 11:11:46.347             0.915           387.594
       418   13 Jun 2027 11:12:26.237   13 Jun 2027 11:12:31.101             4.864          1246.563
       419   13 Jun 2027 11:12:55.634   13 Jun 2027 11:12:59.988             4.354           754.812
       420   13 Jun 2027 11:13:48.396   13 Jun 2027 11:13:53.285             4.889          1463.469
