uniorb/output/strategy_1/Camera/Camera_KinoSat_112004.txt

KinoSat_112004
-------------------------
    Access    *     Start Time (UTCG)     *     Stop Time (UTCG)  *   Duration (s) *   Data (Mbytes)
         1   01 Jun 2027 03:06:25.068   01 Jun 2027 03:07:21.090            56.022         28011.000
         2   01 Jun 2027 03:07:42.902   01 Jun 2027 03:07:58.223            15.321          7660.500
         3   01 Jun 2027 03:08:41.671   01 Jun 2027 03:08:41.859             0.188            94.000
         4   01 Jun 2027 03:09:05.916   01 Jun 2027 03:09:15.695             9.779          4889.500
         5   01 Jun 2027 03:10:20.492   01 Jun 2027 03:10:30.815            10.323          5161.500
         6   01 Jun 2027 03:11:08.389   01 Jun 2027 03:11:16.529             8.140          4070.000
         7   01 Jun 2027 03:12:02.781   01 Jun 2027 03:12:07.537             4.756          2378.000
         8   01 Jun 2027 03:12:13.803   01 Jun 2027 03:12:14.092             0.289           144.500
         9   01 Jun 2027 03:12:36.341   01 Jun 2027 03:12:48.451            12.110          6055.000
        10   01 Jun 2027 04:43:39.164   01 Jun 2027 04:43:43.879             4.715          2357.500
        11   01 Jun 2027 04:44:00.277   01 Jun 2027 04:45:24.001            83.724         41862.000
        12   01 Jun 2027 04:46:09.682   01 Jun 2027 04:46:27.377            17.695          8847.500
        13   01 Jun 2027 04:48:06.159   01 Jun 2027 04:48:18.692            12.533          6266.500
        14   01 Jun 2027 06:22:21.282   01 Jun 2027 06:24:17.861           116.579         58289.500
        15   01 Jun 2027 06:24:37.607   01 Jun 2027 06:24:40.637             3.030          1515.000
        16   01 Jun 2027 06:25:17.280   01 Jun 2027 06:25:24.808             7.528          3764.000
        17   01 Jun 2027 06:25:58.655   01 Jun 2027 06:26:02.298             3.643          1821.500
        18   01 Jun 2027 06:26:37.166   01 Jun 2027 06:27:03.226            26.060         13030.000
        19   01 Jun 2027 07:46:28.819   01 Jun 2027 07:47:05.865            37.046         18523.000
        20   01 Jun 2027 07:47:31.040   01 Jun 2027 07:47:44.931            13.891          6945.500
        21   01 Jun 2027 09:20:18.412   01 Jun 2027 09:21:09.079            50.667         25333.500
        22   01 Jun 2027 09:22:29.747   01 Jun 2027 09:24:19.271           109.524         54762.000
        23   01 Jun 2027 09:25:26.894   01 Jun 2027 09:25:26.894             0.000             0.000
        24   01 Jun 2027 10:55:10.886   01 Jun 2027 10:56:18.785            67.899         33949.500
        25   01 Jun 2027 10:57:45.829   01 Jun 2027 10:57:54.323             8.494          4247.000
        26   01 Jun 2027 11:04:13.243   01 Jun 2027 11:04:44.099            30.856         15428.000
        27   02 Jun 2027 03:18:24.893   02 Jun 2027 03:18:51.566            26.673         13336.500
        28   02 Jun 2027 03:20:41.743   02 Jun 2027 03:22:00.407            78.664         39332.000
        29   02 Jun 2027 03:22:16.656   02 Jun 2027 03:22:29.865            13.209          6604.500
        30   02 Jun 2027 03:23:40.997   02 Jun 2027 03:23:51.573            10.576          5288.000
        31   02 Jun 2027 03:24:36.375   02 Jun 2027 03:24:55.421            19.046          9523.000
        32   02 Jun 2027 04:56:32.638   02 Jun 2027 04:57:30.858            58.220         29110.000
        33   02 Jun 2027 04:57:36.632   02 Jun 2027 04:58:19.212            42.580         21290.000
        34   02 Jun 2027 05:00:33.708   02 Jun 2027 05:00:40.162             6.454          3227.000
        35   02 Jun 2027 05:00:55.274   02 Jun 2027 05:01:01.750             6.476          3238.000
        36   02 Jun 2027 05:01:49.471   02 Jun 2027 05:01:50.418             0.947           473.500
        37   02 Jun 2027 06:34:58.086   02 Jun 2027 06:36:17.296            79.210         39605.000
        38   02 Jun 2027 06:36:53.854   02 Jun 2027 06:37:06.675            12.821          6410.500
        39   02 Jun 2027 06:38:05.390   02 Jun 2027 06:38:15.530            10.140          5070.000
        40   02 Jun 2027 07:58:26.696   02 Jun 2027 07:59:46.488            79.792         39896.000
        41   02 Jun 2027 08:00:10.602   02 Jun 2027 08:00:12.936             2.334          1167.000
        42   02 Jun 2027 09:34:27.375   02 Jun 2027 09:35:28.312            60.937         30468.500
        43   02 Jun 2027 11:08:11.155   02 Jun 2027 11:10:17.014           125.859         62929.500
        44   02 Jun 2027 11:15:44.976   02 Jun 2027 11:16:45.860            60.884         30442.000
        45   03 Jun 2027 03:30:30.393   03 Jun 2027 03:30:51.580            21.187         10593.500
        46   03 Jun 2027 03:31:28.047   03 Jun 2027 03:31:46.993            18.946          9473.000
        47   03 Jun 2027 03:32:16.866   03 Jun 2027 03:33:20.494            63.628         31814.000
        48   03 Jun 2027 03:33:59.579   03 Jun 2027 03:34:07.823             8.244          4122.000
        49   03 Jun 2027 03:35:17.256   03 Jun 2027 03:35:25.649             8.393          4196.500
        50   03 Jun 2027 03:36:39.640   03 Jun 2027 03:36:50.951            11.311          5655.500
        51   03 Jun 2027 05:08:34.392   03 Jun 2027 05:09:02.532            28.140         14070.000
        52   03 Jun 2027 05:09:05.672   03 Jun 2027 05:10:10.260            64.588         32294.000
        53   03 Jun 2027 05:10:27.397   03 Jun 2027 05:10:32.902             5.505          2752.500
        54   03 Jun 2027 05:10:44.206   03 Jun 2027 05:10:50.805             6.599          3299.500
        55   03 Jun 2027 05:13:57.905   03 Jun 2027 05:14:00.428             2.523          1261.500
        56   03 Jun 2027 06:46:37.215   03 Jun 2027 06:48:28.801           111.586         55793.000
        57   03 Jun 2027 06:49:16.845   03 Jun 2027 06:49:35.080            18.235          9117.500
        58   03 Jun 2027 06:49:59.656   03 Jun 2027 06:50:01.739             2.083          1041.500
        59   03 Jun 2027 08:10:16.790   03 Jun 2027 08:11:47.839            91.049         45524.500
        60   03 Jun 2027 08:12:41.143   03 Jun 2027 08:12:55.513            14.370          7185.000
        61   03 Jun 2027 09:47:33.577   03 Jun 2027 09:48:52.216            78.639         39319.500
        62   03 Jun 2027 09:49:47.254   03 Jun 2027 09:50:17.051            29.797         14898.500
        63   03 Jun 2027 11:18:52.130   03 Jun 2027 11:19:02.678            10.548          5274.000
        64   03 Jun 2027 11:20:57.455   03 Jun 2027 11:21:45.082            47.627         22560.656
        65   03 Jun 2027 11:23:32.344   03 Jun 2027 11:23:37.595             5.251          2124.250
        66   03 Jun 2027 11:23:58.609   03 Jun 2027 11:24:00.117             1.508           200.094
        67   03 Jun 2027 11:24:56.158   03 Jun 2027 11:25:01.600             5.442          1751.281
        68   03 Jun 2027 11:26:06.963   03 Jun 2027 11:26:11.328             4.365          2042.594
        69   03 Jun 2027 11:26:58.125   03 Jun 2027 11:27:03.188             5.063          1462.406
        70   03 Jun 2027 11:28:12.100   03 Jun 2027 11:28:16.045             3.945          1784.219
        71   04 Jun 2027 03:42:33.263   04 Jun 2027 03:43:19.466            46.203         23101.500
        72   04 Jun 2027 03:43:44.890   04 Jun 2027 03:44:52.491            67.601         33800.500
        73   04 Jun 2027 03:47:11.080   04 Jun 2027 03:47:18.606             7.526          3763.000
        74   04 Jun 2027 05:20:42.454   04 Jun 2027 05:21:43.009            60.555         30277.500
        75   04 Jun 2027 05:21:51.526   04 Jun 2027 05:22:47.775            56.249         28124.500
        76   04 Jun 2027 05:24:15.677   04 Jun 2027 05:24:27.312            11.635          5817.500
        77   04 Jun 2027 06:59:50.607   04 Jun 2027 07:01:50.862           120.255         60127.500
        78   04 Jun 2027 08:22:24.983   04 Jun 2027 08:23:16.298            51.315         24139.375
        79   04 Jun 2027 08:24:01.299   04 Jun 2027 08:24:06.401             5.102          1017.375
        80   04 Jun 2027 08:25:20.366   04 Jun 2027 08:25:22.402             2.036          1018.000
        81   04 Jun 2027 09:59:09.116   04 Jun 2027 09:59:20.144            11.028          5514.000
        82   04 Jun 2027 10:00:11.634   04 Jun 2027 10:00:31.041            19.407          9011.281
        83   04 Jun 2027 10:00:45.948   04 Jun 2027 10:00:51.765             5.817           465.844
        84   04 Jun 2027 10:01:36.356   04 Jun 2027 10:01:41.961             5.605          1393.469
        85   04 Jun 2027 11:37:39.932   04 Jun 2027 11:37:39.932             0.000             0.000
        86   04 Jun 2027 11:40:07.984   04 Jun 2027 11:40:43.447            35.463         17731.500
        87   05 Jun 2027 03:54:30.715   05 Jun 2027 03:56:49.812           139.097         69548.500
        88   05 Jun 2027 03:59:57.921   05 Jun 2027 04:00:00.835             2.914          1457.000
        89   05 Jun 2027 04:00:27.109   05 Jun 2027 04:00:27.259             0.150            75.000
        90   05 Jun 2027 04:01:01.689   05 Jun 2027 04:01:05.429             3.740          1870.000
        91   05 Jun 2027 05:32:47.357   05 Jun 2027 05:33:04.340            16.983          8491.500
        92   05 Jun 2027 05:33:50.132   05 Jun 2027 05:35:15.278            85.146         42573.000
        93   05 Jun 2027 05:35:41.677   05 Jun 2027 05:35:46.453             4.776          2388.000
        94   05 Jun 2027 05:36:35.696   05 Jun 2027 05:36:39.465             3.769          1884.500
        95   05 Jun 2027 05:38:45.249   05 Jun 2027 05:38:52.394             7.145          3572.500
        96   05 Jun 2027 05:41:06.350   05 Jun 2027 05:41:17.606            11.256          5628.000
        97   05 Jun 2027 07:10:59.121   05 Jun 2027 07:11:36.207            37.086         18543.000
        98   05 Jun 2027 07:12:05.109   05 Jun 2027 07:13:17.557            72.448         35915.781
        99   05 Jun 2027 08:34:26.516   05 Jun 2027 08:34:58.725            32.209         15005.688
       100   05 Jun 2027 08:35:31.487   05 Jun 2027 08:35:31.487             0.000             0.000
       101   05 Jun 2027 08:35:43.068   05 Jun 2027 08:35:47.498             4.430          1217.656
       102   05 Jun 2027 10:10:54.057   05 Jun 2027 10:11:12.858            18.801          7589.906
       103   05 Jun 2027 10:11:50.622   05 Jun 2027 10:11:50.622             0.000             0.000
       104   05 Jun 2027 11:48:25.335   05 Jun 2027 11:49:03.501            38.166         19083.000
       105   05 Jun 2027 11:52:27.978   05 Jun 2027 11:52:43.956            15.978          7989.000
       106   06 Jun 2027 04:07:00.747   06 Jun 2027 04:07:50.432            49.685         24842.500
       107   06 Jun 2027 04:09:05.217   06 Jun 2027 04:09:56.390            51.173         25586.500
       108   06 Jun 2027 04:10:30.290   06 Jun 2027 04:10:54.212            23.922         11961.000
       109   06 Jun 2027 05:45:52.826   06 Jun 2027 05:48:05.846           133.020         66510.000
       110   06 Jun 2027 05:49:49.331   06 Jun 2027 05:49:59.227             9.896          4948.000
       111   06 Jun 2027 05:52:31.393   06 Jun 2027 05:52:44.280            12.887          6443.500
       112   06 Jun 2027 07:12:01.114   06 Jun 2027 07:12:27.878            26.764         13382.000
       113   06 Jun 2027 07:22:55.257   06 Jun 2027 07:24:04.381            69.124         34562.000
       114   06 Jun 2027 07:24:53.988   06 Jun 2027 07:24:57.799             3.811          1905.500
       115   06 Jun 2027 07:25:15.689   06 Jun 2027 07:25:15.689             0.000             0.000
       116   06 Jun 2027 07:25:40.024   06 Jun 2027 07:25:44.072             4.048          2024.000
       117   06 Jun 2027 07:25:48.307   06 Jun 2027 07:25:53.199             4.892           656.124
       118   06 Jun 2027 08:46:15.219   06 Jun 2027 08:46:41.016            25.797         12620.250
       119   06 Jun 2027 08:47:34.036   06 Jun 2027 08:47:39.624             5.588          1037.781
       120   06 Jun 2027 08:49:12.220   06 Jun 2027 08:49:18.019             5.799          2565.031
       121   07 Jun 2027 04:19:15.484   07 Jun 2027 04:19:53.999            38.515         19257.500
       122   07 Jun 2027 04:20:48.426   07 Jun 2027 04:21:50.437            62.011         31005.500
       123   07 Jun 2027 04:22:27.314   07 Jun 2027 04:22:40.619            13.305          6652.500
       124   07 Jun 2027 04:24:21.883   07 Jun 2027 04:24:35.920            14.037          7018.500
       125   07 Jun 2027 04:24:55.687   07 Jun 2027 04:25:17.476            21.789         10894.500
       126   07 Jun 2027 05:58:16.813   07 Jun 2027 06:00:14.126           117.313         58656.500
       127   07 Jun 2027 06:01:08.521   07 Jun 2027 06:01:12.529             4.008          2004.000
       128   07 Jun 2027 06:01:57.765   07 Jun 2027 06:02:00.535             2.770          1385.000
       129   07 Jun 2027 06:02:23.572   07 Jun 2027 06:02:26.949             3.377          1688.500
       130   07 Jun 2027 06:03:07.243   07 Jun 2027 06:03:17.792            10.549          5274.500
       131   07 Jun 2027 07:23:17.401   07 Jun 2027 07:24:42.974            85.573         42786.500
       132   07 Jun 2027 07:34:57.207   07 Jun 2027 07:35:21.868            24.661         11405.531
       133   07 Jun 2027 08:57:14.111   07 Jun 2027 08:57:53.689            39.578         17727.188
       134   07 Jun 2027 08:59:50.066   07 Jun 2027 09:00:02.093            12.027          3636.781
       135   07 Jun 2027 09:01:20.331   07 Jun 2027 09:01:20.331             0.000             0.000
       136   07 Jun 2027 09:02:07.417   07 Jun 2027 09:02:15.400             7.983          3662.188
       137   07 Jun 2027 10:32:58.990   07 Jun 2027 10:33:13.751            14.761          6505.125
       138   07 Jun 2027 10:38:07.237   07 Jun 2027 10:38:25.652            18.415          9171.438
       139   08 Jun 2027 03:00:00.000   08 Jun 2027 03:00:09.757             9.757          4878.500
       140   08 Jun 2027 03:00:28.086   08 Jun 2027 03:00:49.477            21.391         10695.500
       141   08 Jun 2027 04:31:33.433   08 Jun 2027 04:31:34.097             0.664           332.000
       142   08 Jun 2027 04:32:00.925   08 Jun 2027 04:32:34.703            33.778         16889.000
       143   08 Jun 2027 04:33:15.014   08 Jun 2027 04:34:23.906            68.892         34446.000
       144   08 Jun 2027 06:10:35.662   08 Jun 2027 06:12:56.457           140.795         70397.500
       145   08 Jun 2027 06:13:26.672   08 Jun 2027 06:13:44.594            17.922          8961.000
       146   08 Jun 2027 06:15:18.677   08 Jun 2027 06:15:21.906             3.229          1614.500
       147   08 Jun 2027 07:34:38.656   08 Jun 2027 07:36:17.421            98.765         49382.500
       148   08 Jun 2027 07:36:49.073   08 Jun 2027 07:36:50.772             1.699           849.500
       149   08 Jun 2027 07:46:54.326   08 Jun 2027 07:47:10.763            16.437          7931.813
       150   08 Jun 2027 09:08:53.794   08 Jun 2027 09:09:30.860            37.066         15832.562
       151   08 Jun 2027 09:11:49.409   08 Jun 2027 09:11:58.152             8.743          4266.250
       152   08 Jun 2027 09:14:03.334   08 Jun 2027 09:14:06.857             3.523          1761.500
       153   08 Jun 2027 10:45:38.884   08 Jun 2027 10:45:50.148            11.264          5632.000
       154   08 Jun 2027 10:49:37.782   08 Jun 2027 10:50:01.953            24.171         10313.562
       155   08 Jun 2027 10:50:32.201   08 Jun 2027 10:50:37.716             5.515           138.500
       156   08 Jun 2027 10:50:54.316   08 Jun 2027 10:50:56.852             2.536           414.281
       157   08 Jun 2027 10:51:15.888   08 Jun 2027 10:51:17.172             1.284           433.938
       158   09 Jun 2027 03:06:42.609   09 Jun 2027 03:06:54.262            11.653          5826.500
       159   09 Jun 2027 03:07:36.092   09 Jun 2027 03:07:57.661            21.569         10784.500
       160   09 Jun 2027 03:09:37.082   09 Jun 2027 03:10:32.891            55.809         27904.500
       161   09 Jun 2027 03:11:12.224   09 Jun 2027 03:11:30.140            17.916          8958.000
       162   09 Jun 2027 03:13:03.361   09 Jun 2027 03:13:15.679            12.318          6159.000
       163   09 Jun 2027 03:13:39.093   09 Jun 2027 03:13:45.025             5.932          2966.000
       164   09 Jun 2027 03:14:25.741   09 Jun 2027 03:14:31.646             5.905          2952.500
       165   09 Jun 2027 04:44:19.499   09 Jun 2027 04:44:44.577            25.078         12539.000
       166   09 Jun 2027 04:44:46.988   09 Jun 2027 04:45:13.256            26.268         13134.000
       167   09 Jun 2027 04:45:41.576   09 Jun 2027 04:45:53.660            12.084          6042.000
       168   09 Jun 2027 04:46:20.531   09 Jun 2027 04:46:25.919             5.388          2694.000
       169   09 Jun 2027 04:46:45.376   09 Jun 2027 04:46:45.557             0.181            90.500
       170   09 Jun 2027 04:48:22.124   09 Jun 2027 04:48:42.818            20.694         10347.000
       171   09 Jun 2027 06:22:41.629   09 Jun 2027 06:24:21.311            99.682         49841.000
       172   09 Jun 2027 06:24:55.256   09 Jun 2027 06:25:03.284             8.028          4014.000
       173   09 Jun 2027 06:25:19.919   09 Jun 2027 06:25:23.732             3.813          1906.500
       174   09 Jun 2027 06:26:50.568   09 Jun 2027 06:27:17.896            27.328         13664.000
       175   09 Jun 2027 07:46:46.804   09 Jun 2027 07:47:41.767            54.963         26767.906
       176   09 Jun 2027 09:20:35.612   09 Jun 2027 09:21:22.449            46.837         23215.625
       177   09 Jun 2027 09:23:48.019   09 Jun 2027 09:24:03.699            15.680          4452.031
       178   09 Jun 2027 09:25:16.726   09 Jun 2027 09:25:16.726             0.000             0.000
       179   09 Jun 2027 09:25:49.272   09 Jun 2027 09:25:55.185             5.913          2610.938
       180   09 Jun 2027 10:58:06.094   09 Jun 2027 10:58:17.642            11.548          5774.000
       181   09 Jun 2027 11:04:29.371   09 Jun 2027 11:04:39.533            10.162          5081.000
       182   09 Jun 2027 11:04:40.070   09 Jun 2027 11:05:02.069            21.999         10999.500
       183   10 Jun 2027 03:18:42.487   10 Jun 2027 03:19:52.865            70.378         35189.000
       184   10 Jun 2027 03:20:58.123   10 Jun 2027 03:20:58.123             0.000             0.000
       185   10 Jun 2027 03:21:04.398   10 Jun 2027 03:21:48.170            43.772         21886.000
       186   10 Jun 2027 03:22:32.152   10 Jun 2027 03:22:32.152             0.000             0.000
       187   10 Jun 2027 03:22:49.684   10 Jun 2027 03:23:22.166            32.482         16241.000
       188   10 Jun 2027 04:56:52.516   10 Jun 2027 04:57:44.141            51.625         25812.500
       189   10 Jun 2027 04:57:54.166   10 Jun 2027 04:58:14.866            20.700         10350.000
       190   10 Jun 2027 04:58:51.743   10 Jun 2027 04:58:58.566             6.823          3411.500
       191   10 Jun 2027 04:59:25.702   10 Jun 2027 04:59:26.383             0.681           340.500
       192   10 Jun 2027 05:00:00.599   10 Jun 2027 05:00:02.789             2.190          1095.000
       193   10 Jun 2027 05:00:46.989   10 Jun 2027 05:00:48.493             1.504           752.000
       194   10 Jun 2027 05:01:42.414   10 Jun 2027 05:01:55.547            13.133          6566.500
       195   10 Jun 2027 06:35:16.383   10 Jun 2027 06:36:57.166           100.783         50391.500
       196   10 Jun 2027 06:38:19.938   10 Jun 2027 06:38:33.661            13.723          6861.500
       197   10 Jun 2027 07:58:43.064   10 Jun 2027 07:59:15.914            32.850         16425.000
       198   10 Jun 2027 08:00:04.296   10 Jun 2027 08:00:29.140            24.844         12293.656
       199   10 Jun 2027 09:34:56.341   10 Jun 2027 09:35:20.316            23.975         11987.500
       200   10 Jun 2027 09:35:45.724   10 Jun 2027 09:35:45.724             0.000             0.000
       201   10 Jun 2027 09:36:06.996   10 Jun 2027 09:36:21.773            14.777          5899.406
       202   10 Jun 2027 09:37:13.389   10 Jun 2027 09:37:16.533             3.144          1115.781
       203   10 Jun 2027 11:08:29.553   10 Jun 2027 11:08:49.755            20.202          8511.156
       204   10 Jun 2027 11:11:01.166   10 Jun 2027 11:11:03.002             1.836           733.563
       205   10 Jun 2027 11:15:28.212   10 Jun 2027 11:15:44.838            16.626          8047.531
       206   10 Jun 2027 11:16:41.223   10 Jun 2027 11:16:46.666             5.443          1505.031
       207   11 Jun 2027 03:30:49.389   11 Jun 2027 03:31:25.391            36.002         18001.000
       208   11 Jun 2027 03:31:44.568   11 Jun 2027 03:31:44.568             0.000             0.000
       209   11 Jun 2027 03:32:01.739   11 Jun 2027 03:32:50.349            48.610         24305.000
       210   11 Jun 2027 03:34:57.571   11 Jun 2027 03:35:13.134            15.563          7781.500
       211   11 Jun 2027 05:08:52.076   11 Jun 2027 05:08:59.759             7.683          3841.500
       212   11 Jun 2027 05:09:07.398   11 Jun 2027 05:10:47.672           100.274         50137.000
       213   11 Jun 2027 05:10:48.838   11 Jun 2027 05:10:58.564             9.726          4863.000
       214   11 Jun 2027 05:13:49.241   11 Jun 2027 05:14:02.324            13.083          6541.500
       215   11 Jun 2027 05:14:14.552   11 Jun 2027 05:14:14.673             0.121            60.500
       216   11 Jun 2027 05:14:37.596   11 Jun 2027 05:14:37.924             0.328           164.000
       217   11 Jun 2027 06:46:55.358   11 Jun 2027 06:48:35.775           100.417         50208.500
       218   11 Jun 2027 06:48:43.265   11 Jun 2027 06:48:48.024             4.759          2379.500
       219   11 Jun 2027 06:49:51.638   11 Jun 2027 06:50:06.477            14.839          7419.500
       220   11 Jun 2027 06:50:19.021   11 Jun 2027 06:50:26.281             7.260          3630.000
       221   11 Jun 2027 08:10:34.395   11 Jun 2027 08:11:07.665            33.270         16635.000
       222   11 Jun 2027 08:12:05.629   11 Jun 2027 08:12:13.781             8.152          3149.593
       223   11 Jun 2027 09:47:01.608   11 Jun 2027 09:47:25.913            24.305         12152.187
       224   11 Jun 2027 09:49:07.272   11 Jun 2027 09:49:07.272             0.000             0.000
       225   11 Jun 2027 11:19:12.033   11 Jun 2027 11:19:19.740             7.707          3853.500
       226   11 Jun 2027 11:21:08.688   11 Jun 2027 11:21:13.494             4.806          2403.000
       227   11 Jun 2027 11:23:03.386   11 Jun 2027 11:23:03.386             0.000             0.000
       228   11 Jun 2027 11:26:18.306   11 Jun 2027 11:26:18.306             0.000             0.000
       229   11 Jun 2027 11:27:59.695   11 Jun 2027 11:28:31.122            31.427         15642.219
       230   11 Jun 2027 11:28:58.523   11 Jun 2027 11:29:00.815             2.292           737.281
       231   12 Jun 2027 03:42:51.435   12 Jun 2027 03:45:07.575           136.140         68070.000
       232   12 Jun 2027 03:47:03.269   12 Jun 2027 03:47:06.340             3.071          1535.500
       233   12 Jun 2027 03:47:19.828   12 Jun 2027 03:47:34.541            14.713          7356.500
       234   12 Jun 2027 03:48:00.636   12 Jun 2027 03:48:00.636             0.000             0.000
       235   12 Jun 2027 03:48:42.676   12 Jun 2027 03:48:49.801             7.125          3562.500
       236   12 Jun 2027 03:49:45.815   12 Jun 2027 03:49:49.251             3.436          1718.000
       237   12 Jun 2027 05:21:00.582   12 Jun 2027 05:22:00.627            60.045         30022.500
       238   12 Jun 2027 05:22:09.672   12 Jun 2027 05:23:03.170            53.498         26749.000
       239   12 Jun 2027 05:23:21.673   12 Jun 2027 05:23:31.238             9.565          4782.500
       240   12 Jun 2027 05:23:33.127   12 Jun 2027 05:23:41.262             8.135          4067.500
       241   12 Jun 2027 05:24:04.110   12 Jun 2027 05:24:24.031            19.921          9960.500
       242   12 Jun 2027 05:27:16.814   12 Jun 2027 05:27:21.192             4.378          2189.000
       243   12 Jun 2027 06:59:20.405   12 Jun 2027 07:00:43.332            82.927         40933.501
       244   12 Jun 2027 07:01:29.186   12 Jun 2027 07:01:33.364             4.178          1432.938
       245   12 Jun 2027 07:01:42.826   12 Jun 2027 07:01:44.156             1.330           125.125
       246   12 Jun 2027 07:02:56.694   12 Jun 2027 07:03:01.401             4.707          2266.813
       247   12 Jun 2027 08:22:42.902   12 Jun 2027 08:23:09.184            26.282         12546.000
       248   12 Jun 2027 08:23:46.688   12 Jun 2027 08:23:53.674             6.986           756.250
       249   12 Jun 2027 08:25:32.075   12 Jun 2027 08:25:37.676             5.601          2667.906
       250   12 Jun 2027 09:59:24.710   12 Jun 2027 09:59:37.279            12.569          6284.500
       251   12 Jun 2027 10:00:32.929   12 Jun 2027 10:00:50.387            17.458          8729.000
       252   12 Jun 2027 10:01:02.293   12 Jun 2027 10:01:02.293             0.000             0.000
       253   12 Jun 2027 10:01:10.818   12 Jun 2027 10:01:15.440             4.622          1459.281
       254   12 Jun 2027 11:35:57.165   12 Jun 2027 11:36:26.846            29.681         12946.844
       255   12 Jun 2027 11:37:03.681   12 Jun 2027 11:37:07.526             3.845           739.313
       256   12 Jun 2027 11:37:47.372   12 Jun 2027 11:37:50.172             2.800           895.594
       257   12 Jun 2027 11:40:52.818   12 Jun 2027 11:41:02.584             9.766          4883.000
       258   13 Jun 2027 03:54:49.210   13 Jun 2027 03:56:56.119           126.909         63454.500
       259   13 Jun 2027 03:59:19.857   13 Jun 2027 03:59:22.027             2.170          1085.000
       260   13 Jun 2027 04:01:37.126   13 Jun 2027 04:01:43.594             6.468          3234.000
       261   13 Jun 2027 05:33:05.589   13 Jun 2027 05:33:18.272            12.683          6341.500
       262   13 Jun 2027 05:34:07.806   13 Jun 2027 05:35:37.706            89.900         44950.000
       263   13 Jun 2027 05:36:02.618   13 Jun 2027 05:36:21.966            19.348          9674.000
       264   13 Jun 2027 05:41:32.757   13 Jun 2027 05:41:56.490            23.733         11866.500
       265   13 Jun 2027 07:11:16.549   13 Jun 2027 07:11:54.562            38.013         19006.500
       266   13 Jun 2027 07:12:24.098   13 Jun 2027 07:13:37.155            73.057         35915.219
       267   13 Jun 2027 08:35:25.713   13 Jun 2027 08:35:59.490            33.777         16759.625
       268   13 Jun 2027 10:11:09.741   13 Jun 2027 10:11:27.514            17.773          7645.500
       269   13 Jun 2027 10:14:37.570   13 Jun 2027 10:14:41.728             4.158          2079.000
       270   13 Jun 2027 11:48:47.915   13 Jun 2027 11:49:00.401            12.486          6243.000
       271   13 Jun 2027 11:52:45.021   13 Jun 2027 11:53:02.958            17.937          8968.500
