uniorb/output/strategy_1/Camera/Camera_KinoSat_111105.txt

KinoSat_111105
-------------------------
    Access    *     Start Time (UTCG)     *     Stop Time (UTCG)  *   Duration (s) *   Data (Mbytes)
         1   01 Jun 2027 03:24:34.793   01 Jun 2027 03:25:06.653            31.860         15930.000
         2   01 Jun 2027 03:35:34.213   01 Jun 2027 03:37:11.808            97.595         48797.500
         3   01 Jun 2027 03:37:37.329   01 Jun 2027 03:38:23.624            46.295         23147.500
         4   01 Jun 2027 04:58:52.652   01 Jun 2027 04:59:30.560            37.908         18954.000
         5   01 Jun 2027 04:59:58.889   01 Jun 2027 05:00:11.459            12.570          6285.000
         6   01 Jun 2027 05:00:51.928   01 Jun 2027 05:00:53.479             1.551           775.500
         7   01 Jun 2027 05:01:02.720   01 Jun 2027 05:01:02.720             0.000             0.000
         8   01 Jun 2027 05:02:20.634   01 Jun 2027 05:02:24.647             4.013          2006.500
         9   01 Jun 2027 06:35:15.281   01 Jun 2027 06:37:15.501           120.220         60110.000
        10   01 Jun 2027 06:39:33.506   01 Jun 2027 06:39:33.506             0.000             0.000
        11   01 Jun 2027 08:10:00.552   01 Jun 2027 08:12:10.465           129.913         64956.500
        12   01 Jun 2027 08:14:46.732   01 Jun 2027 08:14:49.117             2.385          1192.500
        13   01 Jun 2027 08:15:54.875   01 Jun 2027 08:16:05.492            10.617          5308.500
        14   01 Jun 2027 08:16:41.528   01 Jun 2027 08:16:41.528             0.000             0.000
        15   01 Jun 2027 09:46:49.914   01 Jun 2027 09:48:37.534           107.620         53810.000
        16   01 Jun 2027 09:50:34.944   01 Jun 2027 09:50:39.560             4.616          2308.000
        17   01 Jun 2027 09:51:55.303   01 Jun 2027 09:52:10.999            15.696          7848.000
        18   01 Jun 2027 11:25:00.701   01 Jun 2027 11:27:25.219           144.518         72259.000
        19   01 Jun 2027 11:27:28.737   01 Jun 2027 11:27:34.432             5.695          2847.500
        20   02 Jun 2027 03:35:54.359   02 Jun 2027 03:36:10.296            15.937          7968.500
        21   02 Jun 2027 03:47:34.967   02 Jun 2027 03:48:59.075            84.108         42054.000
        22   02 Jun 2027 05:09:50.889   02 Jun 2027 05:10:57.842            66.953         33476.500
        23   02 Jun 2027 05:11:47.689   02 Jun 2027 05:11:52.707             5.018          2509.000
        24   02 Jun 2027 05:12:25.554   02 Jun 2027 05:12:40.202            14.648          7324.000
        25   02 Jun 2027 05:12:52.566   02 Jun 2027 05:12:52.566             0.000             0.000
        26   02 Jun 2027 06:45:03.483   02 Jun 2027 06:46:28.020            84.537         42268.500
        27   02 Jun 2027 06:46:59.229   02 Jun 2027 06:47:22.577            23.348         11674.000
        28   02 Jun 2027 06:51:21.628   02 Jun 2027 06:51:32.984            11.356          5678.000
        29   02 Jun 2027 08:22:07.748   02 Jun 2027 08:24:10.481           122.733         61366.500
        30   02 Jun 2027 08:25:21.443   02 Jun 2027 08:25:21.443             0.000             0.000
        31   02 Jun 2027 08:26:18.803   02 Jun 2027 08:26:48.313            29.510         14755.000
        32   02 Jun 2027 09:59:05.773   02 Jun 2027 10:00:53.046           107.273         53636.500
        33   02 Jun 2027 10:01:03.736   02 Jun 2027 10:01:11.622             7.886          3943.000
        34   02 Jun 2027 10:02:14.087   02 Jun 2027 10:02:21.209             7.122          3561.000
        35   02 Jun 2027 10:02:36.393   02 Jun 2027 10:02:50.257            13.864          6932.000
        36   02 Jun 2027 11:37:02.186   02 Jun 2027 11:38:01.253            59.067         29533.500
        37   02 Jun 2027 11:38:39.472   02 Jun 2027 11:39:37.713            58.241         29120.500
        38   03 Jun 2027 03:47:16.595   03 Jun 2027 03:47:39.097            22.502         11251.000
        39   03 Jun 2027 03:48:12.048   03 Jun 2027 03:48:37.292            25.244         12622.000
        40   03 Jun 2027 03:59:32.142   03 Jun 2027 04:00:27.216            55.074         27537.000
        41   03 Jun 2027 05:21:31.659   03 Jun 2027 05:22:53.763            82.104         41052.000
        42   03 Jun 2027 05:26:22.457   03 Jun 2027 05:26:27.689             5.232          2616.000
        43   03 Jun 2027 06:56:31.029   03 Jun 2027 06:58:24.962           113.933         56966.500
        44   03 Jun 2027 06:59:23.985   03 Jun 2027 06:59:33.436             9.451          4725.500
        45   03 Jun 2027 07:00:43.019   03 Jun 2027 07:00:44.403             1.384           692.000
        46   03 Jun 2027 07:03:10.593   03 Jun 2027 07:03:20.500             9.907          4953.500
        47   03 Jun 2027 07:03:32.278   03 Jun 2027 07:03:48.388            16.110          8055.000
        48   03 Jun 2027 07:04:59.866   03 Jun 2027 07:05:12.531            12.665          6332.500
        49   03 Jun 2027 08:34:09.797   03 Jun 2027 08:35:57.234           107.437         53718.500
        50   03 Jun 2027 08:39:20.382   03 Jun 2027 08:39:46.102            25.720         12860.000
        51   03 Jun 2027 08:40:17.280   03 Jun 2027 08:40:21.637             4.357          2178.500
        52   03 Jun 2027 10:10:56.269   03 Jun 2027 10:12:05.683            69.414         34707.000
        53   03 Jun 2027 10:12:29.227   03 Jun 2027 10:12:53.404            24.177          6870.687
        54   03 Jun 2027 10:13:04.789   03 Jun 2027 10:13:08.207             3.418           252.656
        55   03 Jun 2027 10:14:26.469   03 Jun 2027 10:14:31.665             5.196          2365.250
        56   03 Jun 2027 10:14:53.154   03 Jun 2027 10:15:00.854             7.700           671.531
        57   03 Jun 2027 10:16:42.665   03 Jun 2027 10:16:47.062             4.397          2198.500
        58   03 Jun 2027 10:17:36.350   03 Jun 2027 10:17:39.160             2.810          1405.000
        59   03 Jun 2027 11:48:59.945   03 Jun 2027 11:49:17.428            17.483          8158.313
        60   03 Jun 2027 11:49:56.876   03 Jun 2027 11:50:00.882             4.006           844.219
        61   03 Jun 2027 11:50:25.668   03 Jun 2027 11:50:27.934             2.266           727.656
        62   03 Jun 2027 11:50:47.439   03 Jun 2027 11:50:48.852             1.413           558.500
        63   03 Jun 2027 11:50:52.275   03 Jun 2027 11:50:52.742             0.467            78.563
        64   03 Jun 2027 11:51:10.153   03 Jun 2027 11:51:11.817             1.664           544.094
        65   03 Jun 2027 11:51:38.119   03 Jun 2027 11:51:38.991             0.872           436.000
        66   03 Jun 2027 11:52:47.243   03 Jun 2027 11:52:50.685             3.442          1721.000
        67   04 Jun 2027 03:59:23.690   04 Jun 2027 04:00:09.701            46.011         23005.500
        68   04 Jun 2027 04:11:57.165   04 Jun 2027 04:11:58.404             1.239           619.500
        69   04 Jun 2027 05:33:12.371   04 Jun 2027 05:35:39.665           147.294         73647.000
        70   04 Jun 2027 05:35:50.129   04 Jun 2027 05:35:56.337             6.208          3104.000
        71   04 Jun 2027 05:37:52.619   04 Jun 2027 05:38:05.363            12.744          6372.000
        72   04 Jun 2027 07:08:04.817   04 Jun 2027 07:10:12.343           127.526         63763.000
        73   04 Jun 2027 07:11:41.661   04 Jun 2027 07:11:43.637             1.976           988.000
        74   04 Jun 2027 07:11:55.482   04 Jun 2027 07:12:08.089            12.607          6303.500
        75   04 Jun 2027 07:13:21.354   04 Jun 2027 07:13:30.692             9.338          4669.000
        76   04 Jun 2027 07:17:10.224   04 Jun 2027 07:17:24.575            14.351          7006.406
        77   04 Jun 2027 08:46:11.399   04 Jun 2027 08:46:40.913            29.514         13524.312
        78   04 Jun 2027 08:47:09.033   04 Jun 2027 08:47:15.763             6.730           738.969
        79   04 Jun 2027 08:48:56.121   04 Jun 2027 08:48:59.334             3.213          1606.500
        80   04 Jun 2027 08:50:21.304   04 Jun 2027 08:50:24.118             2.814          1407.000
        81   04 Jun 2027 08:50:46.653   04 Jun 2027 08:50:53.114             6.461          2017.938
        82   04 Jun 2027 08:52:09.894   04 Jun 2027 08:52:14.951             5.057          2329.563
        83   04 Jun 2027 08:52:52.989   04 Jun 2027 08:52:55.498             2.509          1188.688
        84   04 Jun 2027 08:53:17.646   04 Jun 2027 08:53:20.123             2.477           692.125
        85   04 Jun 2027 08:53:25.338   04 Jun 2027 08:53:25.812             0.474           162.969
        86   04 Jun 2027 10:23:06.372   04 Jun 2027 10:23:23.564            17.192          8297.094
        87   04 Jun 2027 10:23:44.268   04 Jun 2027 10:23:46.880             2.612           348.969
        88   04 Jun 2027 10:24:58.669   04 Jun 2027 10:25:00.670             2.001           258.188
        89   04 Jun 2027 10:25:25.805   04 Jun 2027 10:25:30.365             4.560           271.031
        90   04 Jun 2027 10:26:04.287   04 Jun 2027 10:26:08.252             3.965          1060.063
        91   04 Jun 2027 10:26:13.633   04 Jun 2027 10:26:15.215             1.582           168.156
        92   04 Jun 2027 10:26:21.299   04 Jun 2027 10:26:23.960             2.661           190.125
        93   04 Jun 2027 10:27:16.672   04 Jun 2027 10:27:19.454             2.782          1115.500
        94   04 Jun 2027 10:27:30.425   04 Jun 2027 10:27:32.203             1.778           342.844
        95   04 Jun 2027 10:28:26.085   04 Jun 2027 10:28:29.933             3.848          1524.719
        96   04 Jun 2027 10:29:08.557   04 Jun 2027 10:29:10.611             2.054          1027.000
        97   04 Jun 2027 10:29:18.130   04 Jun 2027 10:29:22.235             4.105           414.969
        98   05 Jun 2027 04:11:19.112   05 Jun 2027 04:12:12.187            53.075         26537.500
        99   05 Jun 2027 05:47:33.804   05 Jun 2027 05:50:05.382           151.578         75789.000
       100   05 Jun 2027 07:21:06.085   05 Jun 2027 07:23:11.840           125.755         61531.188
       101   05 Jun 2027 07:23:17.582   05 Jun 2027 07:23:21.175             3.593           179.438
       102   05 Jun 2027 07:23:32.083   05 Jun 2027 07:23:32.083             0.000             0.000
       103   05 Jun 2027 07:25:40.104   05 Jun 2027 07:25:46.871             6.767          3383.500
       104   05 Jun 2027 07:26:01.942   05 Jun 2027 07:26:07.612             5.670          1302.406
       105   05 Jun 2027 07:27:23.110   05 Jun 2027 07:27:30.230             7.120          2359.313
       106   05 Jun 2027 07:28:32.039   05 Jun 2027 07:28:37.074             5.035          1931.531
       107   05 Jun 2027 08:58:38.651   05 Jun 2027 08:58:59.926            21.275          9846.313
       108   05 Jun 2027 08:59:22.944   05 Jun 2027 08:59:25.068             2.124           695.531
       109   05 Jun 2027 09:02:21.900   05 Jun 2027 09:02:30.361             8.461          3130.625
       110   05 Jun 2027 09:03:01.918   05 Jun 2027 09:03:04.141             2.223           451.938
       111   05 Jun 2027 09:03:27.163   05 Jun 2027 09:03:27.306             0.143            71.500
       112   05 Jun 2027 09:03:36.254   05 Jun 2027 09:03:39.403             3.149           927.563
       113   05 Jun 2027 09:04:03.299   05 Jun 2027 09:04:03.299             0.000             0.000
       114   05 Jun 2027 09:04:10.206   05 Jun 2027 09:04:15.855             5.649           962.594
       115   05 Jun 2027 09:04:51.130   05 Jun 2027 09:04:55.077             3.947           651.125
       116   05 Jun 2027 09:05:01.654   05 Jun 2027 09:05:02.141             0.487           148.156
       117   05 Jun 2027 10:35:33.459   05 Jun 2027 10:35:55.016            21.557          8821.313
       118   05 Jun 2027 10:37:32.378   05 Jun 2027 10:37:37.228             4.850          1834.969
       119   05 Jun 2027 10:39:03.865   05 Jun 2027 10:39:07.596             3.731          1783.156
       120   05 Jun 2027 10:39:19.056   05 Jun 2027 10:39:21.291             2.235           358.125
       121   05 Jun 2027 10:39:59.152   05 Jun 2027 10:40:02.597             3.445          1183.156
       122   05 Jun 2027 10:40:38.130   05 Jun 2027 10:40:41.028             2.898           949.937
       123   05 Jun 2027 10:41:08.612   05 Jun 2027 10:41:12.051             3.439           833.094
       124   05 Jun 2027 10:41:15.075   05 Jun 2027 10:41:23.971             8.896             0.969
       125   06 Jun 2027 03:00:09.311   06 Jun 2027 03:00:31.087            21.776         10888.000
       126   06 Jun 2027 03:01:17.292   06 Jun 2027 03:01:19.001             1.709           854.500
       127   06 Jun 2027 03:01:52.346   06 Jun 2027 03:02:10.210            17.864          8932.000
       128   06 Jun 2027 04:23:10.702   06 Jun 2027 04:24:19.997            69.295         34647.500
       129   06 Jun 2027 04:25:09.748   06 Jun 2027 04:25:09.748             0.000             0.000
       130   06 Jun 2027 05:59:37.925   06 Jun 2027 06:01:32.259           114.334         57167.000
       131   06 Jun 2027 06:01:56.409   06 Jun 2027 06:02:09.552            13.143          6571.500
       132   06 Jun 2027 06:02:20.187   06 Jun 2027 06:02:22.737             2.550          1275.000
       133   06 Jun 2027 07:31:45.780   06 Jun 2027 07:31:56.377            10.597          5298.500
       134   06 Jun 2027 07:33:44.847   06 Jun 2027 07:35:10.489            85.642         42821.000
       135   06 Jun 2027 07:35:25.373   06 Jun 2027 07:35:27.131             1.758           879.000
       136   06 Jun 2027 07:35:57.566   06 Jun 2027 07:36:02.016             4.450          1940.406
       137   06 Jun 2027 07:37:12.673   06 Jun 2027 07:37:14.873             2.200          1100.000
       138   06 Jun 2027 07:37:18.437   06 Jun 2027 07:37:22.157             3.720          1034.656
       139   06 Jun 2027 07:37:34.925   06 Jun 2027 07:37:36.041             1.116           313.969
       140   06 Jun 2027 07:38:10.120   06 Jun 2027 07:38:14.770             4.650          1064.969
       141   06 Jun 2027 07:40:07.475   06 Jun 2027 07:40:13.311             5.836          2918.000
       142   06 Jun 2027 07:40:16.739   06 Jun 2027 07:40:18.220             1.481           711.156
       143   06 Jun 2027 07:40:31.795   06 Jun 2027 07:40:32.726             0.931           424.219
       144   06 Jun 2027 07:40:36.328   06 Jun 2027 07:40:38.420             2.092           112.562
       145   06 Jun 2027 07:40:51.357   06 Jun 2027 07:40:55.596             4.239           366.813
       146   06 Jun 2027 07:41:29.554   06 Jun 2027 07:41:29.554             0.000             0.000
       147   06 Jun 2027 07:41:33.509   06 Jun 2027 07:41:33.784             0.275           137.500
       148   06 Jun 2027 09:10:43.312   06 Jun 2027 09:11:06.651            23.339          7836.656
       149   06 Jun 2027 09:12:52.287   06 Jun 2027 09:12:57.080             4.793          2096.062
       150   06 Jun 2027 09:13:51.214   06 Jun 2027 09:14:01.288            10.074          1565.375
       151   06 Jun 2027 09:14:24.647   06 Jun 2027 09:14:25.145             0.498           249.000
       152   06 Jun 2027 09:14:45.820   06 Jun 2027 09:14:46.585             0.765           382.500
       153   06 Jun 2027 09:15:20.242   06 Jun 2027 09:15:20.242             0.000             0.000
       154   06 Jun 2027 09:15:25.325   06 Jun 2027 09:15:29.039             3.714          1610.187
       155   06 Jun 2027 09:15:33.918   06 Jun 2027 09:15:39.571             5.653           151.281
       156   06 Jun 2027 09:15:55.237   06 Jun 2027 09:15:57.757             2.520           489.563
       157   06 Jun 2027 09:16:56.675   06 Jun 2027 09:17:01.505             4.830          1760.781
       158   06 Jun 2027 09:17:24.159   06 Jun 2027 09:17:27.978             3.819           494.125
       159   06 Jun 2027 10:48:13.540   06 Jun 2027 10:48:27.864            14.324          7141.625
       160   06 Jun 2027 10:49:28.341   06 Jun 2027 10:49:41.188            12.847          1777.937
       161   06 Jun 2027 10:50:38.432   06 Jun 2027 10:50:42.707             4.275          1710.406
       162   06 Jun 2027 10:51:41.867   06 Jun 2027 10:51:45.519             3.652          1815.219
       163   06 Jun 2027 10:52:44.556   06 Jun 2027 10:52:50.066             5.510          1747.344
       164   07 Jun 2027 03:12:02.103   07 Jun 2027 03:13:13.816            71.713         35856.500
       165   07 Jun 2027 03:13:44.467   07 Jun 2027 03:13:48.320             3.853          1926.500
       166   07 Jun 2027 03:14:21.094   07 Jun 2027 03:14:25.808             4.714          2357.000
       167   07 Jun 2027 04:35:18.852   07 Jun 2027 04:35:44.857            26.005         13002.500
       168   07 Jun 2027 04:37:14.915   07 Jun 2027 04:37:20.901             5.986          2993.000
       169   07 Jun 2027 06:11:47.858   07 Jun 2027 06:13:42.213           114.355         57177.500
       170   07 Jun 2027 06:13:50.533   07 Jun 2027 06:13:54.483             3.950          1975.000
       171   07 Jun 2027 06:14:30.625   07 Jun 2027 06:14:30.676             0.051            25.500
       172   07 Jun 2027 07:46:58.910   07 Jun 2027 07:48:39.242           100.332         47971.344
       173   07 Jun 2027 07:49:28.066   07 Jun 2027 07:49:34.428             6.362          1088.437
       174   07 Jun 2027 07:49:50.430   07 Jun 2027 07:49:53.013             2.583           454.938
       175   07 Jun 2027 07:50:29.756   07 Jun 2027 07:50:29.756             0.000             0.000
       176   07 Jun 2027 07:52:21.450   07 Jun 2027 07:52:32.086            10.636          4637.406
       177   07 Jun 2027 07:53:21.114   07 Jun 2027 07:53:22.743             1.629           814.500
       178   07 Jun 2027 07:53:27.364   07 Jun 2027 07:53:29.792             2.428           683.031
       179   07 Jun 2027 09:23:17.906   07 Jun 2027 09:23:38.893            20.987          9997.156
       180   07 Jun 2027 09:25:13.785   07 Jun 2027 09:25:19.999             6.214          2259.750
       181   07 Jun 2027 09:26:25.125   07 Jun 2027 09:26:30.446             5.321          2032.344
       182   07 Jun 2027 09:27:40.750   07 Jun 2027 09:27:47.938             7.188          2197.000
       183   07 Jun 2027 09:27:57.607   07 Jun 2027 09:28:02.795             5.188           292.219
       184   07 Jun 2027 09:28:29.727   07 Jun 2027 09:28:32.869             3.142           726.469
       185   07 Jun 2027 09:28:40.966   07 Jun 2027 09:28:45.658             4.692           253.031
       186   07 Jun 2027 09:29:15.915   07 Jun 2027 09:29:15.915             0.000             0.000
       187   07 Jun 2027 09:29:28.807   07 Jun 2027 09:29:33.185             4.378          1175.094
       188   07 Jun 2027 11:00:40.980   07 Jun 2027 11:00:57.045            16.065          6937.687
       189   07 Jun 2027 11:01:43.910   07 Jun 2027 11:01:52.800             8.890          1270.594
       190   07 Jun 2027 11:02:41.025   07 Jun 2027 11:02:45.555             4.530          1507.031
       191   07 Jun 2027 11:03:43.023   07 Jun 2027 11:03:47.444             4.421          1795.875
       192   07 Jun 2027 11:03:49.973   07 Jun 2027 11:03:50.523             0.550            79.031
       193   07 Jun 2027 11:04:01.111   07 Jun 2027 11:04:02.027             0.916           330.875
       194   07 Jun 2027 11:04:05.282   07 Jun 2027 11:04:09.082             3.800           101.719
       195   07 Jun 2027 11:04:50.076   07 Jun 2027 11:04:54.006             3.930          1281.062
       196   07 Jun 2027 11:05:05.043   07 Jun 2027 11:05:05.775             0.732           147.938
       197   08 Jun 2027 03:23:53.961   08 Jun 2027 03:24:30.318            36.357         18178.500
       198   08 Jun 2027 03:24:58.899   08 Jun 2027 03:25:57.903            59.004         29502.000
       199   08 Jun 2027 03:26:58.471   08 Jun 2027 03:27:16.183            17.712          8856.000
       200   08 Jun 2027 04:48:01.401   08 Jun 2027 04:48:19.608            18.207          9103.500
       201   08 Jun 2027 04:49:02.386   08 Jun 2027 04:49:12.769            10.383          5191.500
       202   08 Jun 2027 06:23:45.443   08 Jun 2027 06:25:43.219           117.776         58888.000
       203   08 Jun 2027 07:58:49.625   08 Jun 2027 07:59:47.061            57.436         28061.219
       204   08 Jun 2027 08:00:14.809   08 Jun 2027 08:00:15.802             0.993           337.625
       205   08 Jun 2027 08:01:19.378   08 Jun 2027 08:01:26.128             6.750          1687.438
       206   08 Jun 2027 08:01:35.012   08 Jun 2027 08:01:35.391             0.379           138.563
       207   08 Jun 2027 08:02:22.690   08 Jun 2027 08:02:28.514             5.824          1446.750
       208   08 Jun 2027 08:03:25.069   08 Jun 2027 08:03:31.854             6.785          1767.344
       209   08 Jun 2027 08:03:57.611   08 Jun 2027 08:04:01.095             3.484           751.813
       210   08 Jun 2027 08:04:57.189   08 Jun 2027 08:04:59.541             2.352          1176.000
       211   08 Jun 2027 09:34:55.189   08 Jun 2027 09:35:17.701            22.512          8860.656
       212   08 Jun 2027 09:36:22.748   08 Jun 2027 09:36:25.971             3.223           716.656
       213   08 Jun 2027 09:37:36.011   08 Jun 2027 09:37:38.275             2.264          1027.625
       214   08 Jun 2027 09:39:33.200   08 Jun 2027 09:39:41.388             8.188          3591.406
       215   08 Jun 2027 09:40:09.554   08 Jun 2027 09:40:15.291             5.737           880.188
       216   08 Jun 2027 09:40:28.361   08 Jun 2027 09:40:31.654             3.293           353.969
       217   08 Jun 2027 09:41:04.029   08 Jun 2027 09:41:08.556             4.527           915.781
       218   08 Jun 2027 09:41:15.884   08 Jun 2027 09:41:16.344             0.460           229.000
       219   08 Jun 2027 11:12:53.698   08 Jun 2027 11:13:07.619            13.921          6960.500
       220   08 Jun 2027 11:13:38.615   08 Jun 2027 11:13:40.889             2.274          1126.125
       221   08 Jun 2027 11:14:05.205   08 Jun 2027 11:14:07.499             2.294           491.188
       222   08 Jun 2027 11:14:15.041   08 Jun 2027 11:14:22.335             7.294           235.688
       223   08 Jun 2027 11:14:51.946   08 Jun 2027 11:14:55.321             3.375           478.094
       224   08 Jun 2027 11:15:09.255   08 Jun 2027 11:15:14.112             4.857           359.531
       225   08 Jun 2027 11:15:26.543   08 Jun 2027 11:15:28.246             1.703           388.469
       226   08 Jun 2027 11:16:19.741   08 Jun 2027 11:16:23.669             3.928          1584.531
       227   08 Jun 2027 11:16:51.570   08 Jun 2027 11:16:56.566             4.996           815.937
       228   08 Jun 2027 11:17:00.603   08 Jun 2027 11:17:02.016             1.413           126.156
       229   08 Jun 2027 11:17:09.921   08 Jun 2027 11:17:10.429             0.508           247.031
       230   09 Jun 2027 03:24:48.853   09 Jun 2027 03:25:22.770            33.917         16958.500
       231   09 Jun 2027 03:35:49.521   09 Jun 2027 03:37:18.809            89.288         44644.000
       232   09 Jun 2027 03:37:28.120   09 Jun 2027 03:37:28.200             0.080            40.000
       233   09 Jun 2027 04:59:07.569   09 Jun 2027 05:00:02.024            54.455         27227.500
       234   09 Jun 2027 05:00:55.214   09 Jun 2027 05:01:06.986            11.772          5886.000
       235   09 Jun 2027 05:02:23.171   09 Jun 2027 05:02:36.373            13.202          6601.000
       236   09 Jun 2027 06:35:47.553   09 Jun 2027 06:36:40.223            52.670         26335.000
       237   09 Jun 2027 06:36:54.382   09 Jun 2027 06:37:30.680            36.298         18149.000
       238   09 Jun 2027 06:38:44.054   09 Jun 2027 06:38:57.049            12.995          6497.500
       239   09 Jun 2027 08:10:16.002   09 Jun 2027 08:10:53.339            37.337         18668.500
       240   09 Jun 2027 08:11:15.043   09 Jun 2027 08:11:17.851             2.808           890.875
       241   09 Jun 2027 08:11:46.527   09 Jun 2027 08:11:48.033             1.506           369.156
       242   09 Jun 2027 08:12:50.659   09 Jun 2027 08:12:53.404             2.745           803.625
       243   09 Jun 2027 08:14:21.935   09 Jun 2027 08:14:21.935             0.000             0.000
       244   09 Jun 2027 08:15:04.010   09 Jun 2027 08:15:16.105            12.095          3834.750
       245   09 Jun 2027 08:16:08.834   09 Jun 2027 08:16:12.842             4.008          1647.781
       246   09 Jun 2027 08:16:21.437   09 Jun 2027 08:16:21.926             0.489           244.500
       247   09 Jun 2027 08:16:38.572   09 Jun 2027 08:16:38.572             0.000             0.000
       248   09 Jun 2027 08:16:56.200   09 Jun 2027 08:16:56.200             0.000             0.000
       249   09 Jun 2027 08:17:04.161   09 Jun 2027 08:17:07.677             3.516          1328.969
       250   09 Jun 2027 08:17:44.924   09 Jun 2027 08:17:48.281             3.357          1163.969
       251   09 Jun 2027 09:47:05.606   09 Jun 2027 09:47:22.796            17.190          7796.937
       252   09 Jun 2027 09:48:10.969   09 Jun 2027 09:48:14.261             3.292          1327.500
       253   09 Jun 2027 09:49:12.998   09 Jun 2027 09:49:17.004             4.006           755.562
       254   09 Jun 2027 09:49:38.146   09 Jun 2027 09:49:39.029             0.883           216.063
       255   09 Jun 2027 09:50:09.760   09 Jun 2027 09:50:15.931             6.171           807.812
       256   09 Jun 2027 09:50:47.220   09 Jun 2027 09:50:50.334             3.114           542.250
       257   09 Jun 2027 09:50:54.587   09 Jun 2027 09:50:55.458             0.871            93.656
       258   09 Jun 2027 09:51:31.782   09 Jun 2027 09:51:33.198             1.416           708.000
       259   09 Jun 2027 09:52:09.952   09 Jun 2027 09:52:17.828             7.876          1229.469
       260   09 Jun 2027 09:53:03.894   09 Jun 2027 09:53:07.219             3.325          1277.781
       261   09 Jun 2027 09:53:24.244   09 Jun 2027 09:53:24.731             0.487           243.500
       262   09 Jun 2027 11:25:15.982   09 Jun 2027 11:25:34.024            18.042          7170.500
       263   09 Jun 2027 11:26:56.679   09 Jun 2027 11:27:04.538             7.859          2582.969
       264   09 Jun 2027 11:27:28.470   09 Jun 2027 11:27:29.960             1.490           640.969
       265   09 Jun 2027 11:28:38.597   09 Jun 2027 11:28:45.896             7.299          1992.062
       266   09 Jun 2027 11:28:52.566   09 Jun 2027 11:28:54.442             1.876           208.438
       267   09 Jun 2027 11:29:09.768   09 Jun 2027 11:29:11.484             1.716           382.969
       268   10 Jun 2027 03:36:09.317   10 Jun 2027 03:37:03.871            54.554         27277.000
       269   10 Jun 2027 03:47:50.471   10 Jun 2027 03:48:40.744            50.273         25136.500
       270   10 Jun 2027 03:48:56.050   10 Jun 2027 03:49:13.918            17.868          8934.000
       271   10 Jun 2027 05:10:05.746   10 Jun 2027 05:11:15.377            69.631         34815.500
       272   10 Jun 2027 05:12:03.161   10 Jun 2027 05:12:09.262             6.101          3050.500
       273   10 Jun 2027 05:12:40.719   10 Jun 2027 05:12:45.304             4.585          2292.500
       274   10 Jun 2027 05:14:25.632   10 Jun 2027 05:14:37.392            11.760          5880.000
       275   10 Jun 2027 05:14:57.321   10 Jun 2027 05:14:57.321             0.000             0.000
       276   10 Jun 2027 06:45:18.098   10 Jun 2027 06:46:42.945            84.847         42423.500
       277   10 Jun 2027 06:47:14.305   10 Jun 2027 06:47:37.247            22.942         11471.000
       278   10 Jun 2027 06:50:37.118   10 Jun 2027 06:50:46.116             8.998          4499.000
       279   10 Jun 2027 08:22:22.885   10 Jun 2027 08:22:45.726            22.841         10277.375
       280   10 Jun 2027 08:23:16.398   10 Jun 2027 08:23:19.515             3.117           905.875
       281   10 Jun 2027 08:23:53.281   10 Jun 2027 08:24:00.069             6.788           549.938
       282   10 Jun 2027 08:24:39.215   10 Jun 2027 08:24:43.987             4.772           899.500
       283   10 Jun 2027 08:24:54.183   10 Jun 2027 08:24:55.945             1.762            32.938
       284   10 Jun 2027 08:25:43.629   10 Jun 2027 08:25:45.443             1.814           485.031
       285   10 Jun 2027 08:26:28.968   10 Jun 2027 08:26:32.292             3.324          1219.625
       286   10 Jun 2027 08:27:14.185   10 Jun 2027 08:27:18.608             4.423          1309.156
       287   10 Jun 2027 08:28:02.725   10 Jun 2027 08:28:04.852             2.127          1063.500
       288   10 Jun 2027 08:28:53.137   10 Jun 2027 08:28:58.353             5.216          1547.750
       289   10 Jun 2027 08:29:35.897   10 Jun 2027 08:29:41.583             5.686          1173.250
       290   10 Jun 2027 08:29:45.390   10 Jun 2027 08:29:48.652             3.262           118.969
       291   10 Jun 2027 09:59:21.058   10 Jun 2027 09:59:37.631            16.573          7865.875
       292   10 Jun 2027 10:00:47.882   10 Jun 2027 10:00:49.467             1.585           150.469
       293   10 Jun 2027 10:01:07.085   10 Jun 2027 10:01:10.311             3.226           138.531
       294   10 Jun 2027 10:01:39.728   10 Jun 2027 10:01:42.579             2.851           591.688
       295   10 Jun 2027 10:03:07.868   10 Jun 2027 10:03:13.216             5.348          2258.812
       296   10 Jun 2027 10:03:30.494   10 Jun 2027 10:03:30.494             0.000             0.000
       297   10 Jun 2027 10:04:10.613   10 Jun 2027 10:04:17.631             7.018          1545.875
       298   10 Jun 2027 10:04:52.038   10 Jun 2027 10:04:58.210             6.172           725.750
       299   10 Jun 2027 10:05:16.140   10 Jun 2027 10:05:16.804             0.664           321.688
       300   10 Jun 2027 11:37:17.344   10 Jun 2027 11:37:30.116            12.772          6386.000
       301   10 Jun 2027 11:37:39.031   10 Jun 2027 11:37:42.526             3.495           914.125
       302   10 Jun 2027 11:38:22.304   10 Jun 2027 11:38:28.073             5.769          1243.062
       303   10 Jun 2027 11:39:21.611   10 Jun 2027 11:39:26.910             5.299          1616.500
       304   10 Jun 2027 11:39:28.157   10 Jun 2027 11:39:28.471             0.314            38.969
       305   10 Jun 2027 11:39:43.099   10 Jun 2027 11:39:43.099             0.000             0.000
       306   10 Jun 2027 11:40:01.359   10 Jun 2027 11:40:06.905             5.546          1027.750
       307   10 Jun 2027 11:40:26.914   10 Jun 2027 11:40:26.914             0.000             0.000
       308   10 Jun 2027 11:41:05.134   10 Jun 2027 11:41:10.652             5.518          1819.656
       309   11 Jun 2027 03:47:33.501   11 Jun 2027 03:48:25.831            52.330         26165.000
       310   11 Jun 2027 03:59:47.576   11 Jun 2027 04:00:42.131            54.555         27277.500
       311   11 Jun 2027 05:21:48.195   11 Jun 2027 05:22:52.278            64.083         32041.500
       312   11 Jun 2027 05:23:53.234   11 Jun 2027 05:24:14.696            21.462         10731.000
       313   11 Jun 2027 06:56:45.552   11 Jun 2027 06:58:44.575           119.023         59511.500
       314   11 Jun 2027 06:59:13.821   11 Jun 2027 06:59:14.208             0.387           193.500
       315   11 Jun 2027 07:00:51.634   11 Jun 2027 07:01:01.108             9.474          4737.000
       316   11 Jun 2027 07:02:09.318   11 Jun 2027 07:02:09.318             0.000             0.000
       317   11 Jun 2027 07:03:59.728   11 Jun 2027 07:04:20.365            20.637         10318.500
       318   11 Jun 2027 07:04:26.201   11 Jun 2027 07:04:30.197             3.996          1998.000
       319   11 Jun 2027 08:34:25.023   11 Jun 2027 08:34:49.630            24.607         11303.656
       320   11 Jun 2027 08:35:20.279   11 Jun 2027 08:35:27.038             6.759           957.781
       321   11 Jun 2027 08:36:12.480   11 Jun 2027 08:36:15.141             2.661          1293.000
       322   11 Jun 2027 08:37:06.655   11 Jun 2027 08:37:13.735             7.080          1573.063
       323   11 Jun 2027 08:38:15.849   11 Jun 2027 08:38:18.987             3.138          1517.813
       324   11 Jun 2027 08:38:43.910   11 Jun 2027 08:38:46.986             3.076           704.469
       325   11 Jun 2027 08:39:37.166   11 Jun 2027 08:39:40.311             3.145          1568.125
       326   11 Jun 2027 08:40:31.836   11 Jun 2027 08:40:36.778             4.942           926.438
       327   11 Jun 2027 08:40:52.313   11 Jun 2027 08:40:53.544             1.231           145.531
       328   11 Jun 2027 08:41:24.039   11 Jun 2027 08:41:26.859             2.820           721.781
       329   11 Jun 2027 10:11:12.080   11 Jun 2027 10:11:32.382            20.302          8233.500
       330   11 Jun 2027 10:11:47.703   11 Jun 2027 10:11:49.300             1.597           478.781
       331   11 Jun 2027 10:12:28.214   11 Jun 2027 10:12:30.282             2.068          1000.062
       332   11 Jun 2027 10:13:40.699   11 Jun 2027 10:13:45.549             4.850          1994.250
       333   11 Jun 2027 10:14:51.701   11 Jun 2027 10:15:04.828            13.127          1794.344
       334   11 Jun 2027 10:15:39.867   11 Jun 2027 10:15:43.881             4.014          1094.969
       335   11 Jun 2027 10:16:04.402   11 Jun 2027 10:16:08.652             4.250           615.813
       336   11 Jun 2027 10:16:59.258   11 Jun 2027 10:17:04.640             5.382          1492.719
       337   11 Jun 2027 10:17:27.462   11 Jun 2027 10:17:28.865             1.403           414.375
       338   11 Jun 2027 10:17:52.041   11 Jun 2027 10:17:55.057             3.016           675.563
       339   11 Jun 2027 11:49:14.425   11 Jun 2027 11:49:26.841            12.416          6208.000
       340   11 Jun 2027 11:50:00.601   11 Jun 2027 11:50:04.204             3.603          1601.719
       341   11 Jun 2027 11:51:04.692   11 Jun 2027 11:51:06.629             1.937           756.969
       342   11 Jun 2027 11:51:29.384   11 Jun 2027 11:51:33.473             4.089           703.344
       343   11 Jun 2027 11:52:08.568   11 Jun 2027 11:52:12.194             3.626           958.312
       344   11 Jun 2027 11:53:23.612   11 Jun 2027 11:53:24.843             1.231           615.500
       345   12 Jun 2027 03:59:39.078   12 Jun 2027 04:00:27.106            48.028         24014.000
       346   12 Jun 2027 04:00:30.074   12 Jun 2027 04:00:53.746            23.672         11836.000
       347   12 Jun 2027 05:33:27.016   12 Jun 2027 05:35:41.673           134.657         67328.500
       348   12 Jun 2027 07:08:19.633   12 Jun 2027 07:10:30.605           130.972         65486.000
       349   12 Jun 2027 07:11:59.953   12 Jun 2027 07:12:01.125             1.172           586.000
       350   12 Jun 2027 07:13:03.008   12 Jun 2027 07:13:10.064             7.056          3528.000
       351   12 Jun 2027 07:13:34.949   12 Jun 2027 07:13:36.734             1.785           892.500
       352   12 Jun 2027 07:15:44.423   12 Jun 2027 07:15:53.461             9.038          4519.000
       353   12 Jun 2027 07:17:17.197   12 Jun 2027 07:17:17.197             0.000             0.000
       354   12 Jun 2027 07:17:54.366   12 Jun 2027 07:17:54.366             0.000             0.000
       355   12 Jun 2027 08:46:27.413   12 Jun 2027 08:46:51.573            24.160         11669.719
       356   12 Jun 2027 08:47:26.780   12 Jun 2027 08:47:32.477             5.697           728.687
       357   12 Jun 2027 08:49:11.467   12 Jun 2027 08:49:14.412             2.945          1472.500
       358   12 Jun 2027 08:50:38.524   12 Jun 2027 08:50:46.979             8.455          2960.750
       359   12 Jun 2027 08:51:11.340   12 Jun 2027 08:51:13.231             1.891            65.656
       360   12 Jun 2027 08:51:48.829   12 Jun 2027 08:51:51.308             2.479           729.281
       361   12 Jun 2027 08:52:27.356   12 Jun 2027 08:52:35.514             8.158           948.062
       362   12 Jun 2027 08:53:18.841   12 Jun 2027 08:53:21.260             2.419          1072.094
       363   12 Jun 2027 08:53:24.412   12 Jun 2027 08:53:26.207             1.795            98.500
       364   12 Jun 2027 08:53:36.597   12 Jun 2027 08:53:40.234             3.637            62.656
       365   12 Jun 2027 08:53:41.544   12 Jun 2027 08:53:43.073             1.529            40.937
       366   12 Jun 2027 10:23:22.573   12 Jun 2027 10:23:41.041            18.468          8253.000
       367   12 Jun 2027 10:23:51.711   12 Jun 2027 10:23:54.764             3.053           333.437
       368   12 Jun 2027 10:24:46.203   12 Jun 2027 10:24:50.401             4.198           861.188
       369   12 Jun 2027 10:25:45.554   12 Jun 2027 10:25:49.378             3.824           475.875
       370   12 Jun 2027 10:26:27.738   12 Jun 2027 10:26:36.797             9.059          1176.156
       371   12 Jun 2027 10:27:22.067   12 Jun 2027 10:27:24.835             2.768          1384.000
       372   12 Jun 2027 10:27:59.772   12 Jun 2027 10:28:04.319             4.547          1122.469
       373   12 Jun 2027 10:28:42.533   12 Jun 2027 10:28:46.521             3.988          1194.187
       374   12 Jun 2027 10:29:23.393   12 Jun 2027 10:29:26.505             3.112          1152.250
       375   12 Jun 2027 10:29:33.065   12 Jun 2027 10:29:34.955             1.890           184.812
       376   13 Jun 2027 04:11:34.111   13 Jun 2027 04:12:41.145            67.034         33517.000
       377   13 Jun 2027 04:13:29.018   13 Jun 2027 04:13:30.185             1.167           583.500
       378   13 Jun 2027 05:47:49.322   13 Jun 2027 05:49:54.238           124.916         62458.000
       379   13 Jun 2027 05:50:01.875   13 Jun 2027 05:50:21.190            19.315          9657.500
       380   13 Jun 2027 07:21:21.769   13 Jun 2027 07:23:26.659           124.890         62445.000
       381   13 Jun 2027 07:24:29.147   13 Jun 2027 07:24:33.428             4.281          2140.500
       382   13 Jun 2027 07:26:13.187   13 Jun 2027 07:26:18.683             5.496          2748.000
       383   13 Jun 2027 07:27:45.082   13 Jun 2027 07:27:49.711             4.629          2314.500
       384   13 Jun 2027 07:28:02.331   13 Jun 2027 07:28:11.564             9.233          1393.406
       385   13 Jun 2027 07:29:06.474   13 Jun 2027 07:29:09.247             2.773          1386.500
       386   13 Jun 2027 07:29:53.350   13 Jun 2027 07:29:54.204             0.854           427.000
       387   13 Jun 2027 08:58:54.354   13 Jun 2027 08:59:16.637            22.283         11059.625
       388   13 Jun 2027 08:59:37.521   13 Jun 2027 08:59:39.440             1.919           638.937
       389   13 Jun 2027 09:00:14.058   13 Jun 2027 09:00:15.746             1.688           644.344
       390   13 Jun 2027 09:00:45.182   13 Jun 2027 09:00:49.300             4.118           906.906
       391   13 Jun 2027 09:01:06.700   13 Jun 2027 09:01:12.300             5.600           543.750
       392   13 Jun 2027 09:01:25.617   13 Jun 2027 09:01:30.095             4.478           416.156
       393   13 Jun 2027 09:02:09.006   13 Jun 2027 09:02:12.191             3.185           847.625
       394   13 Jun 2027 09:02:35.610   13 Jun 2027 09:02:37.703             2.093           588.375
       395   13 Jun 2027 09:03:41.132   13 Jun 2027 09:03:46.353             5.221          1954.469
       396   13 Jun 2027 09:03:58.237   13 Jun 2027 09:03:59.938             1.701           321.906
       397   13 Jun 2027 09:04:44.253   13 Jun 2027 09:04:48.389             4.136          1222.281
       398   13 Jun 2027 09:05:13.391   13 Jun 2027 09:05:16.573             3.182           557.250
       399   13 Jun 2027 09:05:34.885   13 Jun 2027 09:05:36.189             1.304           572.250
       400   13 Jun 2027 10:35:48.978   13 Jun 2027 10:36:10.908            21.930          8679.469
       401   13 Jun 2027 10:37:15.258   13 Jun 2027 10:37:17.220             1.962           981.000
       402   13 Jun 2027 10:37:38.518   13 Jun 2027 10:37:43.034             4.516          1459.437
       403   13 Jun 2027 10:38:18.131   13 Jun 2027 10:38:21.362             3.231           918.781
       404   13 Jun 2027 10:39:19.226   13 Jun 2027 10:39:24.258             5.032          1803.063
       405   13 Jun 2027 10:39:35.950   13 Jun 2027 10:39:37.412             1.462           365.375
       406   13 Jun 2027 10:39:44.028   13 Jun 2027 10:39:45.519             1.491            92.156
       407   13 Jun 2027 10:40:22.632   13 Jun 2027 10:40:26.747             4.115          1007.094
       408   13 Jun 2027 10:41:11.792   13 Jun 2027 10:41:15.570             3.778          1374.000
