uniorb/output/strategy_1/Camera/Camera_KinoSat_112010.txt

KinoSat_112010
-------------------------
    Access    *     Start Time (UTCG)     *     Stop Time (UTCG)  *   Duration (s) *   Data (Mbytes)
         1   01 Jun 2027 03:44:50.827   01 Jun 2027 03:47:08.155           137.328         68664.000
         2   01 Jun 2027 03:48:06.603   01 Jun 2027 03:48:12.319             5.716          2858.000
         3   01 Jun 2027 03:49:27.077   01 Jun 2027 03:49:35.721             8.644          4322.000
         4   01 Jun 2027 03:50:44.730   01 Jun 2027 03:50:50.910             6.180          3090.000
         5   01 Jun 2027 03:51:24.606   01 Jun 2027 03:51:28.686             4.080          2040.000
         6   01 Jun 2027 03:51:51.442   01 Jun 2027 03:51:55.760             4.318          2159.000
         7   01 Jun 2027 05:22:59.721   01 Jun 2027 05:23:59.456            59.735         29867.500
         8   01 Jun 2027 05:24:08.963   01 Jun 2027 05:25:04.383            55.420         27710.000
         9   01 Jun 2027 05:26:05.204   01 Jun 2027 05:26:22.976            17.772          8886.000
        10   01 Jun 2027 05:29:15.250   01 Jun 2027 05:29:16.148             0.898           449.000
        11   01 Jun 2027 07:01:18.369   01 Jun 2027 07:01:48.205            29.836         14918.000
        12   01 Jun 2027 07:02:07.156   01 Jun 2027 07:03:13.623            66.467         33233.500
        13   01 Jun 2027 07:03:45.937   01 Jun 2027 07:03:49.456             3.519          1759.500
        14   01 Jun 2027 07:04:54.269   01 Jun 2027 07:05:07.933            13.664          6832.000
        15   01 Jun 2027 08:24:41.680   01 Jun 2027 08:26:06.026            84.346         42173.000
        16   01 Jun 2027 08:27:32.339   01 Jun 2027 08:27:39.037             6.698          3349.000
        17   01 Jun 2027 10:01:11.703   01 Jun 2027 10:01:35.624            23.921         11960.500
        18   01 Jun 2027 10:03:45.249   01 Jun 2027 10:04:37.858            52.609         26304.500
        19   01 Jun 2027 11:36:22.071   01 Jun 2027 11:36:51.858            29.787         14893.500
        20   01 Jun 2027 11:38:06.104   01 Jun 2027 11:39:52.182           106.078         53039.000
        21   01 Jun 2027 11:42:51.324   01 Jun 2027 11:43:00.607             9.283          4641.500
        22   02 Jun 2027 03:56:48.911   02 Jun 2027 03:58:07.986            79.075         39537.500
        23   02 Jun 2027 03:59:39.140   02 Jun 2027 04:00:31.489            52.349         26174.500
        24   02 Jun 2027 04:01:44.973   02 Jun 2027 04:01:46.839             1.866           933.000
        25   02 Jun 2027 04:03:03.310   02 Jun 2027 04:03:09.786             6.476          3238.000
        26   02 Jun 2027 04:03:26.571   02 Jun 2027 04:03:31.618             5.047          2523.500
        27   02 Jun 2027 05:35:05.044   02 Jun 2027 05:35:14.507             9.463          4731.500
        28   02 Jun 2027 05:36:06.644   02 Jun 2027 05:37:38.349            91.705         45852.500
        29   02 Jun 2027 05:37:59.926   02 Jun 2027 05:38:03.537             3.611          1805.500
        30   02 Jun 2027 05:38:53.081   02 Jun 2027 05:38:53.865             0.784           392.000
        31   02 Jun 2027 05:39:18.150   02 Jun 2027 05:39:24.103             5.953          2976.500
        32   02 Jun 2027 05:41:07.845   02 Jun 2027 05:41:13.961             6.116          3058.000
        33   02 Jun 2027 05:43:12.041   02 Jun 2027 05:43:41.758            29.717         14858.500
        34   02 Jun 2027 07:13:15.299   02 Jun 2027 07:13:54.035            38.736         19368.000
        35   02 Jun 2027 07:14:21.811   02 Jun 2027 07:15:14.763            52.952         26476.000
        36   02 Jun 2027 07:15:39.257   02 Jun 2027 07:15:59.499            20.242         10121.000
        37   02 Jun 2027 08:37:22.359   02 Jun 2027 08:38:06.761            44.402         22201.000
        38   02 Jun 2027 10:13:07.719   02 Jun 2027 10:13:28.897            21.178         10589.000
        39   02 Jun 2027 10:15:19.330   02 Jun 2027 10:16:40.879            81.549         40774.500
        40   02 Jun 2027 11:48:04.850   02 Jun 2027 11:48:37.889            33.039         16519.500
        41   02 Jun 2027 11:50:51.412   02 Jun 2027 11:51:11.781            20.369         10184.500
        42   02 Jun 2027 11:54:43.367   02 Jun 2027 11:55:04.480            21.113         10556.500
        43   03 Jun 2027 04:09:18.205   03 Jun 2027 04:11:19.843           121.638         60819.000
        44   03 Jun 2027 05:48:10.417   03 Jun 2027 05:50:00.594           110.177         55088.500
        45   03 Jun 2027 05:50:21.506   03 Jun 2027 05:50:22.216             0.710           355.000
        46   03 Jun 2027 05:50:31.622   03 Jun 2027 05:50:43.926            12.304          6152.000
        47   03 Jun 2027 05:51:35.743   03 Jun 2027 05:51:37.603             1.860           930.000
        48   03 Jun 2027 05:53:06.621   03 Jun 2027 05:53:16.403             9.782          4891.000
        49   03 Jun 2027 07:14:11.250   03 Jun 2027 07:14:46.764            35.514         17757.000
        50   03 Jun 2027 07:25:11.902   03 Jun 2027 07:26:53.384           101.482         50741.000
        51   03 Jun 2027 07:27:18.136   03 Jun 2027 07:27:19.132             0.996           498.000
        52   03 Jun 2027 08:48:11.856   03 Jun 2027 08:50:07.094           115.238         57619.000
        53   03 Jun 2027 10:24:53.572   03 Jun 2027 10:25:18.675            25.103         12551.500
        54   03 Jun 2027 10:29:06.073   03 Jun 2027 10:29:17.996            11.923          5961.500
        55   04 Jun 2027 04:21:33.791   04 Jun 2027 04:22:13.141            39.350         19675.000
        56   04 Jun 2027 04:23:03.654   04 Jun 2027 04:23:55.436            51.782         25891.000
        57   04 Jun 2027 04:24:12.988   04 Jun 2027 04:24:28.050            15.062          7531.000
        58   04 Jun 2027 04:25:27.200   04 Jun 2027 04:25:30.692             3.492          1746.000
        59   04 Jun 2027 06:00:40.408   04 Jun 2027 06:02:41.681           121.273         60636.500
        60   04 Jun 2027 06:03:24.757   04 Jun 2027 06:03:24.757             0.000             0.000
        61   04 Jun 2027 06:03:47.585   04 Jun 2027 06:03:49.158             1.573           786.500
        62   04 Jun 2027 06:04:34.925   04 Jun 2027 06:04:41.152             6.227          3113.500
        63   04 Jun 2027 06:05:23.489   04 Jun 2027 06:05:35.608            12.119          6059.500
        64   04 Jun 2027 06:07:45.481   04 Jun 2027 06:07:47.670             2.189          1094.500
        65   04 Jun 2027 07:25:32.602   04 Jun 2027 07:27:01.702            89.100         44550.000
        66   04 Jun 2027 07:37:15.188   04 Jun 2027 07:37:53.865            38.677         19001.406
        67   04 Jun 2027 08:59:27.841   04 Jun 2027 09:00:10.151            42.310         20655.312
        68   04 Jun 2027 09:03:19.413   04 Jun 2027 09:03:31.629            12.216          5698.344
        69   04 Jun 2027 09:04:23.431   04 Jun 2027 09:04:26.465             3.034          1438.094
        70   04 Jun 2027 10:35:14.612   04 Jun 2027 10:35:32.592            17.980          7223.781
        71   04 Jun 2027 10:37:33.904   04 Jun 2027 10:37:41.951             8.047          3681.375
        72   04 Jun 2027 10:40:29.568   04 Jun 2027 10:40:35.028             5.460          2730.000
        73   04 Jun 2027 10:41:16.682   04 Jun 2027 10:41:28.683            12.001          2494.094
        74   05 Jun 2027 03:00:00.000   05 Jun 2027 03:00:41.915            41.915         20957.500
        75   05 Jun 2027 03:01:22.525   05 Jun 2027 03:01:25.806             3.281          1640.500
        76   05 Jun 2027 03:03:05.571   05 Jun 2027 03:03:10.750             5.179          2589.500
        77   05 Jun 2027 04:33:52.844   05 Jun 2027 04:35:09.904            77.060         38530.000
        78   05 Jun 2027 04:35:13.700   05 Jun 2027 04:35:17.534             3.834          1917.000
        79   05 Jun 2027 04:36:06.790   05 Jun 2027 04:36:12.671             5.881          2940.500
        80   05 Jun 2027 04:36:17.117   05 Jun 2027 04:36:42.586            25.469         12734.500
        81   05 Jun 2027 04:39:00.602   05 Jun 2027 04:39:02.320             1.718           859.000
        82   05 Jun 2027 06:12:49.007   05 Jun 2027 06:15:08.472           139.465         69732.500
        83   05 Jun 2027 06:15:31.554   05 Jun 2027 06:15:44.175            12.621          6310.500
        84   05 Jun 2027 06:19:38.223   05 Jun 2027 06:19:49.021            10.798          5399.000
        85   05 Jun 2027 07:36:59.148   05 Jun 2027 07:38:18.282            79.134         39567.000
        86   05 Jun 2027 07:49:16.153   05 Jun 2027 07:49:41.840            25.687         11461.813
        87   05 Jun 2027 09:11:13.135   05 Jun 2027 09:11:48.963            35.828         13596.156
        88   05 Jun 2027 09:14:06.170   05 Jun 2027 09:14:15.816             9.646          4287.719
        89   05 Jun 2027 09:14:34.970   05 Jun 2027 09:14:38.823             3.853           572.156
        90   05 Jun 2027 09:16:25.649   05 Jun 2027 09:16:25.649             0.000             0.000
        91   05 Jun 2027 10:46:04.867   05 Jun 2027 10:46:17.633            12.766          4983.469
        92   05 Jun 2027 10:49:59.357   05 Jun 2027 10:50:10.944            11.587          5485.937
        93   05 Jun 2027 10:50:27.154   05 Jun 2027 10:50:29.194             2.040           506.562
        94   06 Jun 2027 03:08:59.840   06 Jun 2027 03:09:12.353            12.513          6256.500
        95   06 Jun 2027 03:09:23.990   06 Jun 2027 03:09:37.609            13.619          6809.500
        96   06 Jun 2027 03:10:16.202   06 Jun 2027 03:10:27.895            11.693          5846.500
        97   06 Jun 2027 03:11:11.673   06 Jun 2027 03:11:11.673             0.000             0.000
        98   06 Jun 2027 03:11:29.897   06 Jun 2027 03:11:53.463            23.566         11783.000
        99   06 Jun 2027 03:12:44.761   06 Jun 2027 03:13:00.793            16.032          8016.000
       100   06 Jun 2027 03:13:24.253   06 Jun 2027 03:13:27.643             3.390          1695.000
       101   06 Jun 2027 03:13:43.830   06 Jun 2027 03:13:48.481             4.651          2325.500
       102   06 Jun 2027 03:14:50.827   06 Jun 2027 03:15:09.074            18.247          9123.500
       103   06 Jun 2027 04:46:37.559   06 Jun 2027 04:47:00.644            23.085         11542.500
       104   06 Jun 2027 04:47:04.133   06 Jun 2027 04:47:57.171            53.038         26519.000
       105   06 Jun 2027 04:49:41.754   06 Jun 2027 04:49:45.654             3.900          1950.000
       106   06 Jun 2027 04:50:02.518   06 Jun 2027 04:50:10.472             7.954          3977.000
       107   06 Jun 2027 04:51:35.069   06 Jun 2027 04:51:43.808             8.739          4369.500
       108   06 Jun 2027 06:25:00.190   06 Jun 2027 06:26:59.715           119.525         59762.500
       109   06 Jun 2027 06:27:26.497   06 Jun 2027 06:27:26.497             0.000             0.000
       110   06 Jun 2027 06:28:43.223   06 Jun 2027 06:29:06.472            23.249         11624.500
       111   06 Jun 2027 07:49:03.318   06 Jun 2027 07:49:55.013            51.695         25847.500
       112   06 Jun 2027 07:50:31.417   06 Jun 2027 07:50:39.272             7.855          3757.125
       113   06 Jun 2027 09:25:00.529   06 Jun 2027 09:25:35.178            34.649         17324.500
       114   06 Jun 2027 09:25:43.722   06 Jun 2027 09:25:53.677             9.955          3529.031
       115   06 Jun 2027 09:27:33.491   06 Jun 2027 09:27:39.854             6.363          3007.406
       116   06 Jun 2027 10:58:50.263   06 Jun 2027 10:59:06.183            15.920          7524.406
       117   06 Jun 2027 11:01:17.686   06 Jun 2027 11:01:22.155             4.469          1555.688
       118   06 Jun 2027 11:02:12.575   06 Jun 2027 11:02:16.253             3.678          1561.750
       119   06 Jun 2027 11:02:59.686   06 Jun 2027 11:03:03.802             4.116           644.875
       120   06 Jun 2027 11:06:43.098   06 Jun 2027 11:06:53.985            10.887          5443.500
       121   06 Jun 2027 11:07:15.400   06 Jun 2027 11:07:19.714             4.314          1067.469
       122   07 Jun 2027 03:20:59.730   07 Jun 2027 03:22:05.423            65.693         32846.500
       123   07 Jun 2027 03:23:15.704   07 Jun 2027 03:23:15.704             0.000             0.000
       124   07 Jun 2027 03:23:15.889   07 Jun 2027 03:23:49.496            33.607         16803.500
       125   07 Jun 2027 04:59:15.189   07 Jun 2027 04:59:59.147            43.958         21979.000
       126   07 Jun 2027 05:00:06.123   07 Jun 2027 05:00:46.973            40.850         20425.000
       127   07 Jun 2027 05:01:22.106   07 Jun 2027 05:01:40.104            17.998          8999.000
       128   07 Jun 2027 05:02:07.125   07 Jun 2027 05:02:14.014             6.889          3444.500
       129   07 Jun 2027 05:02:57.854   07 Jun 2027 05:03:04.076             6.222          3111.000
       130   07 Jun 2027 06:37:35.193   07 Jun 2027 06:39:19.560           104.367         52183.500
       131   07 Jun 2027 06:39:38.184   07 Jun 2027 06:39:55.413            17.229          8614.500
       132   07 Jun 2027 06:40:43.477   07 Jun 2027 06:40:50.864             7.387          3693.500
       133   07 Jun 2027 08:00:58.243   07 Jun 2027 08:01:41.977            43.734         21867.000
       134   07 Jun 2027 08:01:58.164   07 Jun 2027 08:02:02.094             3.930          1426.937
       135   07 Jun 2027 08:02:53.555   07 Jun 2027 08:02:54.289             0.734           367.000
       136   07 Jun 2027 09:37:18.372   07 Jun 2027 09:37:42.589            24.217         12108.500
       137   07 Jun 2027 09:38:16.117   07 Jun 2027 09:38:26.575            10.458          4145.719
       138   07 Jun 2027 09:39:34.833   07 Jun 2027 09:39:35.937             1.104           552.000
       139   07 Jun 2027 11:13:00.286   07 Jun 2027 11:13:15.625            15.339          7669.500
       140   07 Jun 2027 11:16:49.034   07 Jun 2027 11:17:14.677            25.643         12320.125
       141   07 Jun 2027 11:17:55.900   07 Jun 2027 11:17:59.408             3.508           455.594
       142   07 Jun 2027 11:18:59.475   07 Jun 2027 11:19:02.870             3.395          1556.500
       143   08 Jun 2027 03:33:07.826   08 Jun 2027 03:33:59.973            52.147         26073.500
       144   08 Jun 2027 03:34:20.203   08 Jun 2027 03:34:20.203             0.000             0.000
       145   08 Jun 2027 03:34:43.393   08 Jun 2027 03:35:34.792            51.399         25699.500
       146   08 Jun 2027 03:36:29.362   08 Jun 2027 03:36:41.696            12.334          6167.000
       147   08 Jun 2027 03:37:17.530   08 Jun 2027 03:37:31.777            14.247          7123.500
       148   08 Jun 2027 03:39:13.749   08 Jun 2027 03:39:57.957            44.208         22104.000
       149   08 Jun 2027 05:11:08.803   08 Jun 2027 05:11:14.042             5.239          2619.500
       150   08 Jun 2027 05:11:38.757   08 Jun 2027 05:13:03.511            84.754         42377.000
       151   08 Jun 2027 05:15:06.401   08 Jun 2027 05:15:20.673            14.272          7136.000
       152   08 Jun 2027 06:49:50.027   08 Jun 2027 06:51:27.684            97.657         48828.500
       153   08 Jun 2027 06:51:37.295   08 Jun 2027 06:51:37.295             0.000             0.000
       154   08 Jun 2027 06:52:08.033   08 Jun 2027 06:52:25.615            17.582          8791.000
       155   08 Jun 2027 08:12:49.055   08 Jun 2027 08:13:22.936            33.881         14147.656
       156   08 Jun 2027 09:49:20.697   08 Jun 2027 09:49:44.385            23.688         10574.844
       157   08 Jun 2027 11:25:18.892   08 Jun 2027 11:25:18.892             0.000             0.000
       158   08 Jun 2027 11:25:37.880   08 Jun 2027 11:26:09.388            31.508         13135.719
       159   08 Jun 2027 11:26:23.827   08 Jun 2027 11:26:25.172             1.345            31.938
       160   08 Jun 2027 11:26:42.180   08 Jun 2027 11:26:44.218             2.038           395.656
       161   08 Jun 2027 11:29:16.096   08 Jun 2027 11:29:27.507            11.411          3151.531
       162   08 Jun 2027 11:31:07.613   08 Jun 2027 11:31:14.562             6.949          2882.844
       163   09 Jun 2027 03:45:09.637   09 Jun 2027 03:47:23.238           133.601         66800.500
       164   09 Jun 2027 03:48:10.630   09 Jun 2027 03:48:14.890             4.260          2130.000
       165   09 Jun 2027 03:49:09.767   09 Jun 2027 03:49:22.685            12.918          6459.000
       166   09 Jun 2027 03:51:36.675   09 Jun 2027 03:51:43.665             6.990          3495.000
       167   09 Jun 2027 05:23:17.719   09 Jun 2027 05:24:19.801            62.082         31041.000
       168   09 Jun 2027 05:24:26.740   09 Jun 2027 05:25:08.453            41.713         20856.500
       169   09 Jun 2027 05:26:21.431   09 Jun 2027 05:26:40.876            19.445          9722.500
       170   09 Jun 2027 05:29:32.516   09 Jun 2027 05:29:33.483             0.967           483.500
       171   09 Jun 2027 07:01:36.413   09 Jun 2027 07:02:07.488            31.075         15537.500
       172   09 Jun 2027 07:02:25.929   09 Jun 2027 07:03:35.986            70.057         35028.500
       173   09 Jun 2027 07:04:55.343   09 Jun 2027 07:04:55.343             0.000             0.000
       174   09 Jun 2027 07:04:58.684   09 Jun 2027 07:05:07.250             8.566          2747.688
       175   09 Jun 2027 07:05:24.837   09 Jun 2027 07:05:28.347             3.510           482.969
       176   09 Jun 2027 08:24:59.393   09 Jun 2027 08:25:30.073            30.680         14856.406
       177   09 Jun 2027 08:26:23.782   09 Jun 2027 08:26:23.782             0.000             0.000
       178   09 Jun 2027 08:27:45.530   09 Jun 2027 08:27:54.666             9.136          3228.063
       179   09 Jun 2027 08:28:01.900   09 Jun 2027 08:28:03.412             1.512           226.063
       180   09 Jun 2027 10:01:30.639   09 Jun 2027 10:01:48.180            17.541          8187.625
       181   09 Jun 2027 11:36:40.063   09 Jun 2027 11:36:49.095             9.032          4516.000
       182   09 Jun 2027 11:38:21.831   09 Jun 2027 11:38:46.974            25.143         11831.406
       183   09 Jun 2027 11:39:22.704   09 Jun 2027 11:39:26.150             3.446           809.563
       184   09 Jun 2027 11:40:11.844   09 Jun 2027 11:40:15.996             4.152          1123.250
       185   09 Jun 2027 11:40:49.266   09 Jun 2027 11:40:51.214             1.948           625.594
       186   09 Jun 2027 11:41:05.818   09 Jun 2027 11:41:07.182             1.364           353.906
       187   09 Jun 2027 11:41:15.555   09 Jun 2027 11:41:16.888             1.333            57.156
       188   09 Jun 2027 11:42:10.366   09 Jun 2027 11:42:18.024             7.658           984.094
       189   09 Jun 2027 11:42:57.271   09 Jun 2027 11:43:00.541             3.270          1176.031
       190   09 Jun 2027 11:43:14.726   09 Jun 2027 11:43:14.952             0.226            76.437
       191   10 Jun 2027 03:57:07.349   10 Jun 2027 03:59:53.519           166.170         83085.000
       192   10 Jun 2027 05:36:24.589   10 Jun 2027 05:38:33.609           129.020         64510.000
       193   10 Jun 2027 05:43:25.429   10 Jun 2027 05:43:56.849            31.420         15710.000
       194   10 Jun 2027 07:13:33.490   10 Jun 2027 07:14:12.368            38.878         19439.000
       195   10 Jun 2027 07:14:34.894   10 Jun 2027 07:15:19.365            44.471         21982.750
       196   10 Jun 2027 07:16:41.394   10 Jun 2027 07:16:42.920             1.526           763.000
       197   10 Jun 2027 07:16:57.489   10 Jun 2027 07:17:04.972             7.483          2255.687
       198   10 Jun 2027 08:37:39.550   10 Jun 2027 08:38:11.323            31.773         15297.156
       199   10 Jun 2027 08:38:39.743   10 Jun 2027 08:38:43.169             3.426           888.125
       200   10 Jun 2027 08:39:59.707   10 Jun 2027 08:39:59.707             0.000             0.000
       201   10 Jun 2027 10:15:41.229   10 Jun 2027 10:16:14.580            33.351         16140.437
       202   10 Jun 2027 10:16:19.084   10 Jun 2027 10:16:19.681             0.597           140.750
       203   10 Jun 2027 11:48:22.052   10 Jun 2027 11:48:34.895            12.843          6421.500
       204   10 Jun 2027 11:48:38.261   10 Jun 2027 11:48:40.691             2.430          1073.969
       205   10 Jun 2027 11:55:00.363   10 Jun 2027 11:55:23.777            23.414         11447.063
       206   11 Jun 2027 04:09:46.164   11 Jun 2027 04:11:57.457           131.293         65646.500
       207   11 Jun 2027 04:13:25.266   11 Jun 2027 04:13:27.131             1.865           932.500
       208   11 Jun 2027 04:16:03.402   11 Jun 2027 04:16:04.309             0.907           453.500
       209   11 Jun 2027 05:48:28.445   11 Jun 2027 05:50:24.729           116.284         58142.000
       210   11 Jun 2027 05:51:07.465   11 Jun 2027 05:51:08.997             1.532           766.000
       211   11 Jun 2027 05:52:07.931   11 Jun 2027 05:52:22.781            14.850          7425.000
       212   11 Jun 2027 05:53:16.715   11 Jun 2027 05:53:21.135             4.420          2210.000
       213   11 Jun 2027 05:53:46.204   11 Jun 2027 05:53:47.325             1.121           560.500
       214   11 Jun 2027 05:55:21.886   11 Jun 2027 05:56:06.754            44.868         22434.000
       215   11 Jun 2027 07:14:25.067   11 Jun 2027 07:15:07.048            41.981         20990.500
       216   11 Jun 2027 07:25:29.581   11 Jun 2027 07:26:21.835            52.254         26127.000
       217   11 Jun 2027 08:48:27.340   11 Jun 2027 08:48:54.780            27.440         12057.969
       218   11 Jun 2027 08:49:33.641   11 Jun 2027 08:49:35.928             2.287           865.906
       219   11 Jun 2027 08:50:09.255   11 Jun 2027 08:50:12.776             3.521           871.500
       220   11 Jun 2027 08:51:44.558   11 Jun 2027 08:51:51.512             6.954          2493.375
       221   11 Jun 2027 10:25:09.930   11 Jun 2027 10:25:35.212            25.282          9075.406
       222   11 Jun 2027 10:29:19.657   11 Jun 2027 10:29:34.806            15.149          7013.906
       223   12 Jun 2027 04:21:52.398   12 Jun 2027 04:22:28.066            35.668         17834.000
       224   12 Jun 2027 04:23:18.110   12 Jun 2027 04:23:36.228            18.118          9059.000
       225   12 Jun 2027 04:23:37.841   12 Jun 2027 04:24:26.600            48.759         24379.500
       226   12 Jun 2027 04:24:38.125   12 Jun 2027 04:24:57.203            19.078          9539.000
       227   12 Jun 2027 04:25:13.358   12 Jun 2027 04:25:13.358             0.000             0.000
       228   12 Jun 2027 04:27:59.148   12 Jun 2027 04:28:05.385             6.237          3118.500
       229   12 Jun 2027 06:00:58.088   12 Jun 2027 06:02:48.819           110.731         55365.500
       230   12 Jun 2027 06:03:08.545   12 Jun 2027 06:03:24.651            16.106          8053.000
       231   12 Jun 2027 06:03:45.760   12 Jun 2027 06:04:02.240            16.480          8240.000
       232   12 Jun 2027 06:07:44.002   12 Jun 2027 06:08:00.028            16.026          8013.000
       233   12 Jun 2027 07:25:49.910   12 Jun 2027 07:26:34.341            44.431         22215.500
       234   12 Jun 2027 07:27:17.677   12 Jun 2027 07:27:20.435             2.758          1379.000
       235   12 Jun 2027 07:37:32.333   12 Jun 2027 07:38:27.084            54.751         26737.063
       236   12 Jun 2027 08:59:45.659   12 Jun 2027 09:00:25.048            39.389         18435.344
       237   12 Jun 2027 09:02:24.558   12 Jun 2027 09:02:35.863            11.305          3359.563
       238   12 Jun 2027 09:04:40.890   12 Jun 2027 09:04:50.541             9.651          3589.437
       239   12 Jun 2027 10:34:51.416   12 Jun 2027 10:35:05.093            13.677          4790.969
       240   13 Jun 2027 03:00:00.000   13 Jun 2027 03:00:06.183             6.183          3091.500
       241   13 Jun 2027 03:01:04.190   13 Jun 2027 03:01:37.439            33.249         16624.500
       242   13 Jun 2027 03:03:23.398   13 Jun 2027 03:03:26.419             3.021          1510.500
       243   13 Jun 2027 03:04:15.897   13 Jun 2027 03:04:33.084            17.187          8593.500
       244   13 Jun 2027 04:34:12.042   13 Jun 2027 04:35:05.025            52.983         26491.500
       245   13 Jun 2027 04:37:12.638   13 Jun 2027 04:37:41.430            28.792         14396.000
       246   13 Jun 2027 04:39:17.022   13 Jun 2027 04:39:40.619            23.597         11798.500
       247   13 Jun 2027 06:12:59.471   13 Jun 2027 06:14:32.531            93.060         46530.000
       248   13 Jun 2027 06:15:17.160   13 Jun 2027 06:15:37.557            20.397         10198.500
       249   13 Jun 2027 06:16:21.392   13 Jun 2027 06:16:26.669             5.277          2638.500
       250   13 Jun 2027 06:18:46.546   13 Jun 2027 06:18:58.343            11.797          5898.500
       251   13 Jun 2027 06:19:57.282   13 Jun 2027 06:20:04.539             7.257          3628.500
       252   13 Jun 2027 07:37:18.864   13 Jun 2027 07:37:58.969            40.105         20052.500
       253   13 Jun 2027 07:38:23.452   13 Jun 2027 07:39:22.578            59.126         28597.782
       254   13 Jun 2027 07:49:34.399   13 Jun 2027 07:49:48.141            13.742          6871.000
       255   13 Jun 2027 09:11:31.160   13 Jun 2027 09:12:05.450            34.290         14573.906
       256   13 Jun 2027 09:15:22.600   13 Jun 2027 09:15:36.465            13.865          6156.688
       257   13 Jun 2027 10:46:20.053   13 Jun 2027 10:46:36.207            16.154          7957.750
       258   13 Jun 2027 10:47:56.530   13 Jun 2027 10:47:59.642             3.112          1202.906
       259   13 Jun 2027 10:54:58.398   13 Jun 2027 10:55:11.855            13.457          6728.500
