uniorb/output/strategy_1/Camera/Camera_KinoSat_111901.txt

KinoSat_111901
-------------------------
    Access    *     Start Time (UTCG)     *     Stop Time (UTCG)  *   Duration (s) *   Data (Mbytes)
         1   01 Jun 2027 03:39:08.687   01 Jun 2027 03:41:21.888           133.201         66600.500
         2   01 Jun 2027 03:41:23.210   01 Jun 2027 03:41:25.341             2.131          1065.500
         3   01 Jun 2027 03:42:05.808   01 Jun 2027 03:42:12.838             7.030          3515.000
         4   01 Jun 2027 03:42:23.669   01 Jun 2027 03:42:23.669             0.000             0.000
         5   01 Jun 2027 03:43:26.955   01 Jun 2027 03:43:28.368             1.413           706.500
         6   01 Jun 2027 03:44:20.138   01 Jun 2027 03:44:28.877             8.739          4369.500
         7   01 Jun 2027 05:18:25.780   01 Jun 2027 05:20:09.635           103.855         51927.500
         8   01 Jun 2027 05:21:03.729   01 Jun 2027 05:21:32.171            28.442         14221.000
         9   01 Jun 2027 05:23:18.417   01 Jun 2027 05:23:33.957            15.540          7770.000
        10   01 Jun 2027 05:25:07.053   01 Jun 2027 05:25:11.094             4.041          2020.500
        11   01 Jun 2027 06:44:36.952   01 Jun 2027 06:45:00.559            23.607         11803.500
        12   01 Jun 2027 06:55:29.175   01 Jun 2027 06:56:21.743            52.568         26284.000
        13   01 Jun 2027 06:57:42.069   01 Jun 2027 06:58:09.929            27.860         13930.000
        14   01 Jun 2027 08:19:27.574   01 Jun 2027 08:20:19.849            52.275         26137.500
        15   01 Jun 2027 08:21:37.826   01 Jun 2027 08:22:11.783            33.957         16978.500
        16   01 Jun 2027 09:55:12.228   01 Jun 2027 09:55:34.944            22.716         11358.000
        17   01 Jun 2027 09:58:33.787   01 Jun 2027 09:58:38.426             4.639          2319.500
        18   01 Jun 2027 09:59:22.272   01 Jun 2027 09:59:28.647             6.375          3187.500
        19   01 Jun 2027 11:29:55.926   01 Jun 2027 11:30:37.819            41.893         20946.500
        20   01 Jun 2027 11:32:29.763   01 Jun 2027 11:33:21.865            52.102         26051.000
        21   01 Jun 2027 11:33:46.023   01 Jun 2027 11:36:08.816           142.793         71396.500
        22   01 Jun 2027 11:36:51.858   01 Jun 2027 11:36:55.478             3.620          1810.000
        23   01 Jun 2027 11:37:23.598   01 Jun 2027 11:37:26.442             2.844          1422.000
        24   02 Jun 2027 03:51:48.543   02 Jun 2027 03:53:33.314           104.771         52385.500
        25   02 Jun 2027 03:56:20.864   02 Jun 2027 03:56:40.391            19.527          9763.500
        26   02 Jun 2027 03:56:44.366   02 Jun 2027 03:56:59.903            15.537          7768.500
        27   02 Jun 2027 03:58:10.249   02 Jun 2027 03:58:12.315             2.066          1033.000
        28   02 Jun 2027 05:30:48.958   02 Jun 2027 05:32:24.842            95.884         47942.000
        29   02 Jun 2027 05:34:15.246   02 Jun 2027 05:34:24.220             8.974          4487.000
        30   02 Jun 2027 05:35:35.980   02 Jun 2027 05:35:35.980             0.000             0.000
        31   02 Jun 2027 05:35:45.490   02 Jun 2027 05:35:46.671             1.181           590.500
        32   02 Jun 2027 05:36:26.846   02 Jun 2027 05:36:31.615             4.769          2384.500
        33   02 Jun 2027 05:36:37.124   02 Jun 2027 05:36:46.763             9.639          4819.500
        34   02 Jun 2027 06:55:51.382   02 Jun 2027 06:57:16.071            84.689         42344.500
        35   02 Jun 2027 07:07:30.490   02 Jun 2027 07:08:00.999            30.509         15254.500
        36   02 Jun 2027 08:30:03.114   02 Jun 2027 08:31:03.769            60.655         30327.500
        37   02 Jun 2027 08:31:44.129   02 Jun 2027 08:32:36.042            51.913         25956.500
        38   02 Jun 2027 08:33:44.398   02 Jun 2027 08:34:13.266            28.868         14434.000
        39   02 Jun 2027 10:05:25.976   02 Jun 2027 10:05:25.976             0.000             0.000
        40   02 Jun 2027 10:05:28.044   02 Jun 2027 10:06:24.633            56.589         28294.500
        41   02 Jun 2027 11:42:04.446   02 Jun 2027 11:42:11.366             6.920          3460.000
        42   02 Jun 2027 11:48:37.889   02 Jun 2027 11:49:28.942            51.053         25526.500
        43   03 Jun 2027 04:04:29.918   03 Jun 2027 04:05:20.961            51.043         25521.500
        44   03 Jun 2027 04:08:12.828   03 Jun 2027 04:08:37.930            25.102         12551.000
        45   03 Jun 2027 05:43:07.649   03 Jun 2027 05:45:10.800           123.151         61575.500
        46   03 Jun 2027 05:45:31.454   03 Jun 2027 05:45:39.125             7.671          3835.500
        47   03 Jun 2027 05:46:20.669   03 Jun 2027 05:46:22.750             2.081          1040.500
        48   03 Jun 2027 05:47:38.178   03 Jun 2027 05:47:41.905             3.727          1863.500
        49   03 Jun 2027 05:48:04.166   03 Jun 2027 05:48:12.603             8.437          4218.500
        50   03 Jun 2027 05:49:51.989   03 Jun 2027 05:50:04.428            12.439          6219.500
        51   03 Jun 2027 07:07:12.635   03 Jun 2027 07:09:15.220           122.585         61292.500
        52   03 Jun 2027 07:19:27.785   03 Jun 2027 07:20:04.801            37.016         18508.000
        53   03 Jun 2027 08:41:27.328   03 Jun 2027 08:42:46.284            78.956         39478.000
        54   03 Jun 2027 08:42:48.883   03 Jun 2027 08:42:51.254             2.371          1185.500
        55   03 Jun 2027 08:43:36.047   03 Jun 2027 08:44:19.203            43.156         21578.000
        56   03 Jun 2027 08:46:14.520   03 Jun 2027 08:46:14.520             0.000             0.000
        57   03 Jun 2027 10:16:30.451   03 Jun 2027 10:17:16.481            46.030         23015.000
        58   03 Jun 2027 10:18:04.775   03 Jun 2027 10:18:09.326             4.551          2275.500
        59   03 Jun 2027 10:18:47.533   03 Jun 2027 10:19:01.618            14.085          7042.500
        60   04 Jun 2027 04:16:30.705   04 Jun 2027 04:16:35.272             4.567          2283.500
        61   04 Jun 2027 04:16:51.875   04 Jun 2027 04:17:08.655            16.780          8390.000
        62   04 Jun 2027 04:17:33.786   04 Jun 2027 04:18:37.937            64.151         32075.500
        63   04 Jun 2027 04:19:07.993   04 Jun 2027 04:19:07.993             0.000             0.000
        64   04 Jun 2027 04:21:11.607   04 Jun 2027 04:21:14.319             2.712          1356.000
        65   04 Jun 2027 04:22:05.568   04 Jun 2027 04:22:06.712             1.144           572.000
        66   04 Jun 2027 05:55:12.844   04 Jun 2027 05:57:18.870           126.026         63013.000
        67   04 Jun 2027 05:57:58.072   04 Jun 2027 05:58:11.620            13.548          6774.000
        68   04 Jun 2027 05:59:27.949   04 Jun 2027 05:59:31.610             3.661          1830.500
        69   04 Jun 2027 07:19:20.268   04 Jun 2027 07:21:09.632           109.364         54682.000
        70   04 Jun 2027 08:53:09.753   04 Jun 2027 08:53:52.334            42.581         21290.500
        71   04 Jun 2027 08:55:15.285   04 Jun 2027 08:55:23.106             7.821          2599.938
        72   04 Jun 2027 08:55:39.570   04 Jun 2027 08:55:39.570             0.000             0.000
        73   04 Jun 2027 08:56:09.576   04 Jun 2027 08:56:17.890             8.314          1410.719
        74   04 Jun 2027 10:28:01.795   04 Jun 2027 10:28:17.653            15.858          7474.250
        75   04 Jun 2027 10:29:08.847   04 Jun 2027 10:29:12.730             3.883          1336.312
        76   04 Jun 2027 10:30:23.661   04 Jun 2027 10:30:26.109             2.448          1071.812
        77   04 Jun 2027 10:33:51.043   04 Jun 2027 10:33:51.093             0.050            25.000
        78   04 Jun 2027 10:37:03.772   04 Jun 2027 10:37:12.571             8.799          4399.500
        79   04 Jun 2027 10:37:13.651   04 Jun 2027 10:37:33.430            19.779          7838.844
        80   05 Jun 2027 04:29:24.345   05 Jun 2027 04:30:21.902            57.557         28778.500
        81   05 Jun 2027 04:30:28.074   05 Jun 2027 04:31:03.734            35.660         17830.000
        82   05 Jun 2027 04:31:55.833   05 Jun 2027 04:32:20.082            24.249         12124.500
        83   05 Jun 2027 06:07:49.747   05 Jun 2027 06:09:53.532           123.785         61892.500
        84   05 Jun 2027 06:09:57.041   05 Jun 2027 06:10:13.027            15.986          7993.000
        85   05 Jun 2027 06:10:29.488   05 Jun 2027 06:10:34.785             5.297          2648.500
        86   05 Jun 2027 06:10:47.321   05 Jun 2027 06:10:49.298             1.977           988.500
        87   05 Jun 2027 06:11:37.753   05 Jun 2027 06:11:47.008             9.255          4627.500
        88   05 Jun 2027 07:31:17.051   05 Jun 2027 07:32:43.056            86.005         43002.500
        89   05 Jun 2027 09:07:21.132   05 Jun 2027 09:07:56.621            35.489         17744.500
        90   05 Jun 2027 09:09:16.888   05 Jun 2027 09:09:16.888             0.000             0.000
        91   05 Jun 2027 09:10:16.098   05 Jun 2027 09:10:30.145            14.047          5840.000
        92   05 Jun 2027 10:42:39.225   05 Jun 2027 10:42:58.810            19.585          9705.781
        93   05 Jun 2027 10:45:50.561   05 Jun 2027 10:45:50.776             0.215           107.500
        94   05 Jun 2027 10:48:40.399   05 Jun 2027 10:49:01.612            21.213         10457.219
        95   05 Jun 2027 10:49:13.443   05 Jun 2027 10:49:14.265             0.822           369.719
        96   06 Jun 2027 03:03:21.833   06 Jun 2027 03:03:28.968             7.135          3567.500
        97   06 Jun 2027 03:03:40.605   06 Jun 2027 03:03:47.218             6.613          3306.500
        98   06 Jun 2027 03:03:59.065   06 Jun 2027 03:04:02.872             3.807          1903.500
        99   06 Jun 2027 03:04:52.670   06 Jun 2027 03:04:59.785             7.115          3557.500
       100   06 Jun 2027 03:05:08.048   06 Jun 2027 03:05:18.374            10.326          5163.000
       101   06 Jun 2027 03:05:53.848   06 Jun 2027 03:06:24.134            30.286         15143.000
       102   06 Jun 2027 03:07:59.868   06 Jun 2027 03:08:15.235            15.367          7683.500
       103   06 Jun 2027 04:41:25.819   06 Jun 2027 04:41:53.946            28.127         14063.500
       104   06 Jun 2027 04:41:56.789   06 Jun 2027 04:42:52.147            55.358         27679.000
       105   06 Jun 2027 04:43:34.317   06 Jun 2027 04:43:38.603             4.286          2143.000
       106   06 Jun 2027 04:44:04.062   06 Jun 2027 04:44:10.767             6.705          3352.500
       107   06 Jun 2027 04:45:59.464   06 Jun 2027 04:46:02.643             3.179          1589.500
       108   06 Jun 2027 04:47:05.727   06 Jun 2027 04:47:11.123             5.396          2698.000
       109   06 Jun 2027 04:47:22.187   06 Jun 2027 04:47:25.107             2.920          1460.000
       110   06 Jun 2027 04:47:32.256   06 Jun 2027 04:47:37.288             5.032          2516.000
       111   06 Jun 2027 06:19:28.661   06 Jun 2027 06:21:38.368           129.707         64853.500
       112   06 Jun 2027 06:22:03.874   06 Jun 2027 06:22:06.588             2.714          1357.000
       113   06 Jun 2027 07:43:07.912   06 Jun 2027 07:44:12.098            64.186         31768.282
       114   06 Jun 2027 07:44:28.957   06 Jun 2027 07:44:33.979             5.022           496.469
       115   06 Jun 2027 07:45:15.026   06 Jun 2027 07:45:20.719             5.693          1248.844
       116   06 Jun 2027 09:19:34.786   06 Jun 2027 09:19:49.539            14.753          7376.500
       117   06 Jun 2027 09:22:16.267   06 Jun 2027 09:22:24.875             8.608          4304.000
       118   06 Jun 2027 10:51:42.842   06 Jun 2027 10:51:53.904            11.062          5531.000
       119   06 Jun 2027 10:53:41.712   06 Jun 2027 10:53:46.666             4.954          1264.000
       120   06 Jun 2027 10:58:48.935   06 Jun 2027 10:58:48.935             0.000             0.000
       121   06 Jun 2027 11:00:27.904   06 Jun 2027 11:00:30.351             2.447          1223.500
       122   06 Jun 2027 11:00:33.412   06 Jun 2027 11:00:49.380            15.968          7982.062
       123   06 Jun 2027 11:01:16.726   06 Jun 2027 11:01:17.686             0.960           480.000
       124   06 Jun 2027 11:01:32.204   06 Jun 2027 11:01:34.823             2.619           609.969
       125   07 Jun 2027 03:15:24.692   07 Jun 2027 03:16:03.838            39.146         19573.000
       126   07 Jun 2027 03:16:36.166   07 Jun 2027 03:17:08.777            32.611         16305.500
       127   07 Jun 2027 03:17:15.043   07 Jun 2027 03:17:17.554             2.511          1255.500
       128   07 Jun 2027 03:18:15.284   07 Jun 2027 03:18:21.176             5.892          2946.000
       129   07 Jun 2027 03:18:42.704   07 Jun 2027 03:18:52.247             9.543          4771.500
       130   07 Jun 2027 03:19:46.002   07 Jun 2027 03:19:58.432            12.430          6215.000
       131   07 Jun 2027 03:20:33.272   07 Jun 2027 03:20:39.228             5.956          2978.000
       132   07 Jun 2027 03:20:44.126   07 Jun 2027 03:20:44.126             0.000             0.000
       133   07 Jun 2027 03:21:12.730   07 Jun 2027 03:21:29.323            16.593          8296.500
       134   07 Jun 2027 04:53:33.876   07 Jun 2027 04:54:34.422            60.546         30273.000
       135   07 Jun 2027 04:54:42.941   07 Jun 2027 04:55:18.231            35.290         17645.000
       136   07 Jun 2027 04:55:32.261   07 Jun 2027 04:55:34.296             2.035          1017.500
       137   07 Jun 2027 04:56:24.772   07 Jun 2027 04:56:29.129             4.357          2178.500
       138   07 Jun 2027 04:56:37.019   07 Jun 2027 04:56:54.116            17.097          8548.500
       139   07 Jun 2027 06:32:42.089   07 Jun 2027 06:34:11.766            89.677         44838.500
       140   07 Jun 2027 07:55:16.434   07 Jun 2027 07:56:20.444            64.010         31163.345
       141   07 Jun 2027 09:31:44.855   07 Jun 2027 09:31:59.128            14.273          6437.531
       142   07 Jun 2027 11:06:56.180   07 Jun 2027 11:07:17.969            21.789         10467.719
       143   07 Jun 2027 11:07:55.195   07 Jun 2027 11:07:55.195             0.000             0.000
       144   07 Jun 2027 11:08:19.566   07 Jun 2027 11:08:27.216             7.650          1714.281
       145   07 Jun 2027 11:08:38.631   07 Jun 2027 11:08:40.391             1.760           102.000
       146   07 Jun 2027 11:08:59.816   07 Jun 2027 11:09:00.853             1.037           307.531
       147   07 Jun 2027 11:10:40.803   07 Jun 2027 11:10:46.051             5.248          2327.656
       148   07 Jun 2027 11:11:29.307   07 Jun 2027 11:11:36.162             6.855          1351.750
       149   07 Jun 2027 11:12:16.666   07 Jun 2027 11:12:24.529             7.863           917.625
       150   07 Jun 2027 11:12:43.944   07 Jun 2027 11:12:44.726             0.782           358.344
       151   07 Jun 2027 11:13:00.228   07 Jun 2027 11:13:00.286             0.058            29.000
       152   07 Jun 2027 11:13:26.577   07 Jun 2027 11:13:29.881             3.304          1269.719
       153   07 Jun 2027 11:13:33.938   07 Jun 2027 11:13:36.297             2.359            39.719
       154   08 Jun 2027 03:27:22.097   08 Jun 2027 03:29:35.822           133.725         66862.500
       155   08 Jun 2027 05:05:38.743   08 Jun 2027 05:05:55.508            16.765          8382.500
       156   08 Jun 2027 05:06:41.467   08 Jun 2027 05:07:15.224            33.757         16878.500
       157   08 Jun 2027 05:07:42.518   08 Jun 2027 05:08:25.377            42.859         21429.500
       158   08 Jun 2027 05:08:37.446   08 Jun 2027 05:08:55.870            18.424          9212.000
       159   08 Jun 2027 06:43:50.394   08 Jun 2027 06:44:27.602            37.208         18604.000
       160   08 Jun 2027 06:44:56.707   08 Jun 2027 06:46:05.517            68.810         34405.000
       161   08 Jun 2027 08:07:59.081   08 Jun 2027 08:08:36.900            37.819         18909.500
       162   08 Jun 2027 08:10:20.590   08 Jun 2027 08:10:27.291             6.701          3350.500
       163   08 Jun 2027 09:43:44.528   08 Jun 2027 09:44:00.326            15.798          7237.218
       164   08 Jun 2027 09:45:38.889   08 Jun 2027 09:45:40.976             2.087          1043.500
       165   08 Jun 2027 09:45:53.795   08 Jun 2027 09:46:04.194            10.399          2419.406
       166   08 Jun 2027 11:18:57.391   08 Jun 2027 11:19:11.709            14.318          5613.250
       167   08 Jun 2027 11:25:18.892   08 Jun 2027 11:25:35.207            16.315          8157.500
       168   09 Jun 2027 03:39:52.100   09 Jun 2027 03:42:13.494           141.394         70697.000
       169   09 Jun 2027 03:46:31.644   09 Jun 2027 03:46:32.982             1.338           669.000
       170   09 Jun 2027 05:18:44.234   09 Jun 2027 05:20:14.268            90.034         45017.000
       171   09 Jun 2027 05:20:56.666   09 Jun 2027 05:20:56.666             0.000             0.000
       172   09 Jun 2027 05:21:26.099   09 Jun 2027 05:21:47.373            21.274         10637.000
       173   09 Jun 2027 05:23:35.371   09 Jun 2027 05:23:48.796            13.425          6712.500
       174   09 Jun 2027 05:25:22.257   09 Jun 2027 05:25:27.130             4.873          2436.500
       175   09 Jun 2027 06:44:51.063   09 Jun 2027 06:45:19.602            28.539         14269.500
       176   09 Jun 2027 06:55:46.578   09 Jun 2027 06:56:49.187            62.609         31304.500
       177   09 Jun 2027 06:57:54.364   09 Jun 2027 06:57:58.188             3.824          1912.000
       178   09 Jun 2027 06:58:25.169   09 Jun 2027 06:58:25.169             0.000             0.000
       179   09 Jun 2027 06:58:56.391   09 Jun 2027 06:59:02.457             6.066          3033.000
       180   09 Jun 2027 08:19:06.190   09 Jun 2027 08:19:40.501            34.311         17155.500
       181   09 Jun 2027 08:20:50.195   09 Jun 2027 08:20:58.343             8.148          2295.030
       182   09 Jun 2027 09:55:51.418   09 Jun 2027 09:56:10.563            19.145          9136.094
       183   09 Jun 2027 09:57:09.206   09 Jun 2027 09:57:09.206             0.000             0.000
       184   09 Jun 2027 09:58:07.034   09 Jun 2027 09:58:10.651             3.617          1808.500
       185   09 Jun 2027 09:58:27.873   09 Jun 2027 09:58:37.465             9.592          2344.062
       186   09 Jun 2027 09:58:57.748   09 Jun 2027 09:59:02.309             4.561           417.437
       187   09 Jun 2027 11:32:50.672   09 Jun 2027 11:33:15.394            24.722         12352.000
       188   09 Jun 2027 11:33:30.313   09 Jun 2027 11:33:32.557             2.244           466.219
       189   09 Jun 2027 11:33:40.188   09 Jun 2027 11:33:41.190             1.002           162.906
       190   09 Jun 2027 11:33:49.982   09 Jun 2027 11:33:53.024             3.042           138.969
       191   09 Jun 2027 11:37:08.449   09 Jun 2027 11:37:18.779            10.330          5165.000
       192   09 Jun 2027 11:37:36.970   09 Jun 2027 11:37:40.074             3.104          1011.406
       193   10 Jun 2027 03:52:06.792   10 Jun 2027 03:53:48.499           101.707         50853.500
       194   10 Jun 2027 03:55:22.473   10 Jun 2027 03:56:03.365            40.892         20446.000
       195   10 Jun 2027 03:58:28.766   10 Jun 2027 03:58:31.457             2.691          1345.500
       196   10 Jun 2027 05:31:08.273   10 Jun 2027 05:32:55.721           107.448         53724.000
       197   10 Jun 2027 05:33:09.399   10 Jun 2027 05:33:15.561             6.162          3081.000
       198   10 Jun 2027 05:36:37.480   10 Jun 2027 05:36:39.810             2.330          1165.000
       199   10 Jun 2027 05:37:09.036   10 Jun 2027 05:37:45.161            36.125         18062.500
       200   10 Jun 2027 05:37:57.082   10 Jun 2027 05:38:23.056            25.974         12987.000
       201   10 Jun 2027 06:56:08.657   10 Jun 2027 06:57:20.211            71.554         35759.063
       202   10 Jun 2027 07:07:48.574   10 Jun 2027 07:08:09.702            21.128          6902.812
       203   10 Jun 2027 07:08:54.846   10 Jun 2027 07:08:56.080             1.234           617.000
       204   10 Jun 2027 08:30:04.679   10 Jun 2027 08:30:29.284            24.605         12265.438
       205   10 Jun 2027 08:31:16.949   10 Jun 2027 08:31:19.966             3.017          1359.500
       206   10 Jun 2027 08:32:01.582   10 Jun 2027 08:32:03.636             2.054           567.375
       207   10 Jun 2027 08:32:53.549   10 Jun 2027 08:32:58.033             4.484           940.719
       208   10 Jun 2027 08:33:55.241   10 Jun 2027 08:33:56.330             1.089           292.594
       209   10 Jun 2027 08:34:08.626   10 Jun 2027 08:34:08.626             0.000             0.000
       210   10 Jun 2027 08:34:58.569   10 Jun 2027 08:35:03.887             5.318          1801.719
       211   10 Jun 2027 10:05:16.828   10 Jun 2027 10:05:29.610            12.782          4455.219
       212   10 Jun 2027 10:10:06.525   10 Jun 2027 10:10:10.092             3.567          1783.500
       213   10 Jun 2027 10:11:21.832   10 Jun 2027 10:11:41.661            19.829          9060.781
       214   10 Jun 2027 10:12:03.361   10 Jun 2027 10:12:04.612             1.251           598.438
       215   10 Jun 2027 11:48:54.057   10 Jun 2027 11:49:30.977            36.920         18222.031
       216   10 Jun 2027 11:49:42.771   10 Jun 2027 11:49:42.771             0.000             0.000
       217   11 Jun 2027 04:04:24.719   11 Jun 2027 04:06:22.120           117.401         58700.500
       218   11 Jun 2027 04:10:12.254   11 Jun 2027 04:10:20.485             8.231          4115.500
       219   11 Jun 2027 05:43:27.002   11 Jun 2027 05:45:01.532            94.530         47265.000
       220   11 Jun 2027 05:45:53.769   11 Jun 2027 05:45:57.227             3.458          1729.000
       221   11 Jun 2027 05:46:41.008   11 Jun 2027 05:46:54.146            13.138          6569.000
       222   11 Jun 2027 05:48:18.845   11 Jun 2027 05:48:27.346             8.501          4250.500
       223   11 Jun 2027 05:50:10.793   11 Jun 2027 05:50:24.942            14.149          7074.500
       224   11 Jun 2027 07:07:30.209   11 Jun 2027 07:09:21.258           111.049         54867.562
       225   11 Jun 2027 07:19:45.655   11 Jun 2027 07:19:58.252            12.597          6091.312
       226   11 Jun 2027 08:41:45.892   11 Jun 2027 08:42:15.538            29.646         14028.688
       227   11 Jun 2027 08:44:36.538   11 Jun 2027 08:44:44.465             7.927          3294.688
       228   11 Jun 2027 08:46:51.808   11 Jun 2027 08:47:07.204            15.396          3509.812
       229   11 Jun 2027 10:16:44.560   11 Jun 2027 10:16:59.258            14.698          5834.969
       230   11 Jun 2027 10:18:24.242   11 Jun 2027 10:18:29.184             4.942          1615.000
       231   11 Jun 2027 10:19:06.461   11 Jun 2027 10:19:10.175             3.714          1162.063
       232   11 Jun 2027 10:23:46.427   11 Jun 2027 10:23:46.427             0.000             0.000
       233   11 Jun 2027 11:58:05.541   11 Jun 2027 11:58:45.034            39.493         19739.656
       234   11 Jun 2027 11:59:03.242   11 Jun 2027 11:59:06.515             3.273           480.750
       235   11 Jun 2027 11:59:51.691   11 Jun 2027 11:59:54.019             2.328           906.281
       236   12 Jun 2027 04:17:10.776   12 Jun 2027 04:17:35.839            25.063         12531.500
       237   12 Jun 2027 04:17:38.266   12 Jun 2027 04:18:59.125            80.859         40429.500
       238   12 Jun 2027 04:22:36.943   12 Jun 2027 04:22:36.943             0.000             0.000
       239   12 Jun 2027 05:55:33.000   12 Jun 2027 05:57:57.897           144.897         72448.500
       240   12 Jun 2027 05:58:39.728   12 Jun 2027 05:58:42.487             2.759          1379.500
       241   12 Jun 2027 05:59:06.743   12 Jun 2027 05:59:22.738            15.995          7997.500
       242   12 Jun 2027 07:19:38.011   12 Jun 2027 07:20:56.413            78.402         39201.000
       243   12 Jun 2027 07:21:12.625   12 Jun 2027 07:21:26.078            13.453          6726.500
       244   12 Jun 2027 08:53:26.207   12 Jun 2027 08:53:59.856            33.649         16627.750
       245   12 Jun 2027 08:55:35.040   12 Jun 2027 08:55:41.606             6.566          2700.844
       246   12 Jun 2027 08:55:57.486   12 Jun 2027 08:55:58.571             1.085           476.250
       247   12 Jun 2027 08:56:35.155   12 Jun 2027 08:56:35.155             0.000             0.000
       248   12 Jun 2027 08:59:00.408   12 Jun 2027 08:59:12.172            11.764          5673.906
       249   12 Jun 2027 10:28:23.830   12 Jun 2027 10:28:42.533            18.703          8106.312
       250   12 Jun 2027 10:30:51.096   12 Jun 2027 10:30:58.745             7.649          2867.625
       251   12 Jun 2027 10:35:24.734   12 Jun 2027 10:35:48.508            23.774          7948.406
       252   12 Jun 2027 10:36:54.099   12 Jun 2027 10:36:57.446             3.347          1558.625
       253   12 Jun 2027 10:37:08.829   12 Jun 2027 10:37:10.153             1.324           339.562
       254   12 Jun 2027 10:37:48.089   12 Jun 2027 10:37:50.770             2.681          1185.500
       255   13 Jun 2027 04:29:43.802   13 Jun 2027 04:30:35.319            51.517         25758.500
       256   13 Jun 2027 04:30:45.360   13 Jun 2027 04:31:27.357            41.997         20998.500
       257   13 Jun 2027 04:31:27.913   13 Jun 2027 04:31:35.960             8.047          4023.500
       258   13 Jun 2027 04:34:32.994   13 Jun 2027 04:34:39.136             6.142          3071.000
       259   13 Jun 2027 06:08:07.625   13 Jun 2027 06:10:12.733           125.108         62554.000
       260   13 Jun 2027 06:10:37.091   13 Jun 2027 06:10:37.091             0.000             0.000
       261   13 Jun 2027 06:12:43.957   13 Jun 2027 06:12:45.810             1.853           926.500
       262   13 Jun 2027 07:31:33.824   13 Jun 2027 07:33:17.752           103.928         51964.000
       263   13 Jun 2027 09:07:48.397   13 Jun 2027 09:08:16.280            27.883         13941.500
       264   13 Jun 2027 09:08:54.005   13 Jun 2027 09:09:04.122            10.117          4961.344
       265   13 Jun 2027 09:10:17.133   13 Jun 2027 09:10:21.202             4.069          1797.625
       266   13 Jun 2027 09:10:26.245   13 Jun 2027 09:10:31.235             4.990           111.250
       267   13 Jun 2027 10:41:20.908   13 Jun 2027 10:41:31.582            10.674          4881.094
       268   13 Jun 2027 10:44:21.775   13 Jun 2027 10:44:38.980            17.205          4996.656
       269   13 Jun 2027 10:45:13.674   13 Jun 2027 10:45:14.516             0.842           400.563
       270   13 Jun 2027 10:45:23.929   13 Jun 2027 10:45:24.803             0.874           294.156
       271   13 Jun 2027 10:45:32.901   13 Jun 2027 10:45:33.277             0.376            95.187
       272   13 Jun 2027 10:48:55.248   13 Jun 2027 10:49:10.754            15.506          5754.312
       273   13 Jun 2027 10:49:48.009   13 Jun 2027 10:49:53.617             5.608          1164.219
