uniorb/output/strategy_1/Camera/Camera_KinoSat_111401.txt

KinoSat_111401
-------------------------
    Access    *     Start Time (UTCG)     *     Stop Time (UTCG)  *   Duration (s) *   Data (Mbytes)
         1   01 Jun 2027 04:02:39.466   01 Jun 2027 04:04:57.183           137.717         68858.500
         2   01 Jun 2027 04:05:45.563   01 Jun 2027 04:05:59.554            13.991          6995.500
         3   01 Jun 2027 05:26:10.210   01 Jun 2027 05:27:22.158            71.948         35974.000
         4   01 Jun 2027 05:27:48.740   01 Jun 2027 05:28:24.151            35.411         17705.500
         5   01 Jun 2027 07:02:21.325   01 Jun 2027 07:04:19.687           118.362         59181.000
         6   01 Jun 2027 08:35:54.739   01 Jun 2027 08:37:43.015           108.276         54138.000
         7   01 Jun 2027 08:43:51.324   01 Jun 2027 08:43:51.324             0.000             0.000
         8   01 Jun 2027 08:44:27.937   01 Jun 2027 08:44:28.939             1.002           501.000
         9   01 Jun 2027 10:13:22.481   01 Jun 2027 10:15:06.322           103.841         51920.500
        10   01 Jun 2027 10:15:36.553   01 Jun 2027 10:15:51.688            15.135          7567.500
        11   01 Jun 2027 10:16:01.604   01 Jun 2027 10:16:05.598             3.994          1997.000
        12   01 Jun 2027 10:16:16.838   01 Jun 2027 10:16:23.410             6.572          3286.000
        13   01 Jun 2027 10:18:09.132   01 Jun 2027 10:18:20.949            11.817          5908.500
        14   01 Jun 2027 10:20:04.779   01 Jun 2027 10:20:06.376             1.597           798.500
        15   01 Jun 2027 10:20:07.577   01 Jun 2027 10:20:09.846             2.269          1134.500
        16   01 Jun 2027 11:50:21.954   01 Jun 2027 11:51:47.216            85.262         42631.000
        17   01 Jun 2027 11:52:10.559   01 Jun 2027 11:52:27.163            16.604          8302.000
        18   01 Jun 2027 11:53:36.328   01 Jun 2027 11:53:52.707            16.379          8189.500
        19   01 Jun 2027 11:55:08.602   01 Jun 2027 11:55:08.602             0.000             0.000
        20   01 Jun 2027 11:55:28.969   01 Jun 2027 11:55:36.769             7.800          3900.000
        21   02 Jun 2027 04:14:20.761   02 Jun 2027 04:16:11.518           110.757         55378.500
        22   02 Jun 2027 04:17:02.244   02 Jun 2027 04:17:10.767             8.523          4261.500
        23   02 Jun 2027 05:38:00.164   02 Jun 2027 05:39:06.433            66.269         33134.500
        24   02 Jun 2027 05:39:20.708   02 Jun 2027 05:39:20.708             0.000             0.000
        25   02 Jun 2027 05:39:27.706   02 Jun 2027 05:39:35.209             7.503          3751.500
        26   02 Jun 2027 07:14:27.051   02 Jun 2027 07:16:55.659           148.608         74304.000
        27   02 Jun 2027 08:46:36.711   02 Jun 2027 08:46:46.216             9.505          4752.500
        28   02 Jun 2027 08:48:33.854   02 Jun 2027 08:50:17.534           103.680         51840.000
        29   02 Jun 2027 08:52:50.834   02 Jun 2027 08:53:03.545            12.711          6355.500
        30   02 Jun 2027 08:55:04.439   02 Jun 2027 08:55:18.243            13.804          6902.000
        31   02 Jun 2027 08:55:50.865   02 Jun 2027 08:55:50.865             0.000             0.000
        32   02 Jun 2027 08:56:05.296   02 Jun 2027 08:56:08.953             3.657          1828.500
        33   02 Jun 2027 08:56:23.683   02 Jun 2027 08:56:25.731             2.048          1024.000
        34   02 Jun 2027 10:25:32.063   02 Jun 2027 10:27:34.301           122.238         61119.000
        35   02 Jun 2027 10:31:31.175   02 Jun 2027 10:31:49.073            17.898          8949.000
        36   03 Jun 2027 04:27:34.323   03 Jun 2027 04:28:50.787            76.464         38232.000
        37   03 Jun 2027 04:29:31.100   03 Jun 2027 04:29:38.817             7.717          3858.500
        38   03 Jun 2027 05:50:08.198   03 Jun 2027 05:51:45.117            96.919         48459.500
        39   03 Jun 2027 07:26:36.346   03 Jun 2027 07:29:06.243           149.897         74948.500
        40   03 Jun 2027 09:01:47.223   03 Jun 2027 09:03:18.927            91.704         45852.000
        41   03 Jun 2027 09:04:05.025   03 Jun 2027 09:04:45.352            40.327         20163.500
        42   03 Jun 2027 09:05:51.507   03 Jun 2027 09:06:11.488            19.981          9990.500
        43   03 Jun 2027 10:38:06.206   03 Jun 2027 10:39:10.512            64.306         32034.313
        44   03 Jun 2027 10:39:54.461   03 Jun 2027 10:39:57.381             2.920          1373.406
        45   03 Jun 2027 10:41:19.147   03 Jun 2027 10:41:24.001             4.854          2427.000
        46   03 Jun 2027 10:42:02.121   03 Jun 2027 10:42:03.439             1.318           659.000
        47   03 Jun 2027 10:42:37.144   03 Jun 2027 10:42:45.430             8.286          1695.125
        48   04 Jun 2027 03:00:29.989   04 Jun 2027 03:00:44.340            14.351          7175.500
        49   04 Jun 2027 03:00:53.601   04 Jun 2027 03:00:55.650             2.049          1024.500
        50   04 Jun 2027 03:01:34.045   04 Jun 2027 03:01:49.270            15.225          7612.500
        51   04 Jun 2027 03:02:13.968   04 Jun 2027 03:02:15.818             1.850           925.000
        52   04 Jun 2027 03:02:37.183   04 Jun 2027 03:03:12.566            35.383         17691.500
        53   04 Jun 2027 03:05:36.391   04 Jun 2027 03:05:36.391             0.000             0.000
        54   04 Jun 2027 03:05:58.120   04 Jun 2027 03:06:06.759             8.639          4319.500
        55   04 Jun 2027 04:38:43.354   04 Jun 2027 04:39:19.736            36.382         18191.000
        56   04 Jun 2027 04:39:48.338   04 Jun 2027 04:40:05.490            17.152          8576.000
        57   04 Jun 2027 04:40:15.654   04 Jun 2027 04:40:23.143             7.489          3744.500
        58   04 Jun 2027 04:41:30.350   04 Jun 2027 04:41:30.350             0.000             0.000
        59   04 Jun 2027 04:42:02.913   04 Jun 2027 04:42:14.337            11.424          5712.000
        60   04 Jun 2027 06:02:09.574   04 Jun 2027 06:03:04.636            55.062         27531.000
        61   04 Jun 2027 06:03:12.264   04 Jun 2027 06:03:15.145             2.881          1440.500
        62   04 Jun 2027 06:03:50.353   04 Jun 2027 06:04:15.924            25.571         12785.500
        63   04 Jun 2027 07:38:37.320   04 Jun 2027 07:40:35.085           117.765         58882.500
        64   04 Jun 2027 07:41:43.764   04 Jun 2027 07:41:54.128            10.364          5182.000
        65   04 Jun 2027 09:13:49.897   04 Jun 2027 09:13:54.518             4.621          2310.500
        66   04 Jun 2027 09:13:59.223   04 Jun 2027 09:14:09.528            10.305          4406.719
        67   04 Jun 2027 09:15:27.901   04 Jun 2027 09:15:32.022             4.121           245.656
        68   04 Jun 2027 09:16:17.993   04 Jun 2027 09:16:20.835             2.842          1026.594
        69   04 Jun 2027 09:16:41.196   04 Jun 2027 09:16:42.109             0.913           308.000
        70   04 Jun 2027 09:19:04.673   04 Jun 2027 09:19:04.673             0.000             0.000
        71   04 Jun 2027 09:20:10.044   04 Jun 2027 09:20:21.743            11.699          5849.500
        72   04 Jun 2027 10:49:45.163   04 Jun 2027 10:49:57.834            12.671          6190.438
        73   04 Jun 2027 10:50:40.086   04 Jun 2027 10:50:43.315             3.229           648.500
        74   04 Jun 2027 10:50:58.544   04 Jun 2027 10:51:00.448             1.904           449.250
        75   04 Jun 2027 10:52:11.099   04 Jun 2027 10:52:15.964             4.865          1951.500
        76   04 Jun 2027 10:53:16.550   04 Jun 2027 10:53:20.322             3.772          1671.000
        77   04 Jun 2027 10:53:23.802   04 Jun 2027 10:53:23.910             0.108            37.281
        78   04 Jun 2027 10:53:51.045   04 Jun 2027 10:54:01.042             9.997           847.969
        79   04 Jun 2027 10:54:26.204   04 Jun 2027 10:54:29.368             3.164           723.219
        80   04 Jun 2027 10:54:42.894   04 Jun 2027 10:54:49.240             6.346           382.750
        81   04 Jun 2027 10:55:06.570   04 Jun 2027 10:55:09.491             2.921           508.375
        82   04 Jun 2027 10:55:19.674   04 Jun 2027 10:55:24.201             4.527           318.219
        83   05 Jun 2027 03:13:34.617   05 Jun 2027 03:15:01.840            87.223         43611.500
        84   05 Jun 2027 03:16:02.147   05 Jun 2027 03:16:05.247             3.100          1550.000
        85   05 Jun 2027 03:18:49.330   05 Jun 2027 03:18:57.147             7.817          3908.500
        86   05 Jun 2027 03:20:15.315   05 Jun 2027 03:20:22.850             7.535          3767.500
        87   05 Jun 2027 04:39:43.144   05 Jun 2027 04:40:10.965            27.821         13910.500
        88   05 Jun 2027 04:50:38.985   05 Jun 2027 04:51:24.151            45.166         22583.000
        89   05 Jun 2027 04:51:56.472   05 Jun 2027 04:52:21.028            24.556         12278.000
        90   05 Jun 2027 06:14:36.045   05 Jun 2027 06:15:22.599            46.554         23277.000
        91   05 Jun 2027 06:15:48.587   05 Jun 2027 06:16:16.247            27.660         13830.000
        92   05 Jun 2027 07:50:21.251   05 Jun 2027 07:51:44.239            82.988         41494.000
        93   05 Jun 2027 07:52:41.399   05 Jun 2027 07:52:54.962            13.563          3849.063
        94   05 Jun 2027 07:53:52.787   05 Jun 2027 07:53:54.459             1.672           836.000
        95   05 Jun 2027 09:25:05.127   05 Jun 2027 09:25:21.466            16.339          6229.469
        96   05 Jun 2027 09:25:35.580   05 Jun 2027 09:25:38.610             3.030           174.906
        97   05 Jun 2027 09:25:52.691   05 Jun 2027 09:25:52.691             0.000             0.000
        98   05 Jun 2027 09:27:20.698   05 Jun 2027 09:27:27.297             6.599          3091.219
        99   05 Jun 2027 09:27:58.259   05 Jun 2027 09:28:01.042             2.783           499.969
       100   05 Jun 2027 09:28:46.354   05 Jun 2027 09:28:51.593             5.239          1416.000
       101   05 Jun 2027 09:31:59.504   05 Jun 2027 09:32:10.690            11.186          5261.031
       102   05 Jun 2027 09:32:28.654   05 Jun 2027 09:32:30.173             1.519           561.375
       103   05 Jun 2027 11:01:54.857   05 Jun 2027 11:02:10.181            15.324          7207.656
       104   05 Jun 2027 11:03:41.323   05 Jun 2027 11:03:49.682             8.359          2381.313
       105   05 Jun 2027 11:03:55.224   05 Jun 2027 11:03:57.935             2.711           173.187
       106   05 Jun 2027 11:04:08.301   05 Jun 2027 11:04:10.694             2.393           323.938
       107   05 Jun 2027 11:05:39.963   05 Jun 2027 11:05:45.240             5.277          2429.125
       108   05 Jun 2027 11:06:04.258   05 Jun 2027 11:06:06.994             2.736           479.719
       109   05 Jun 2027 11:06:46.574   05 Jun 2027 11:06:47.695             1.121           560.500
       110   05 Jun 2027 11:07:16.430   05 Jun 2027 11:07:22.547             6.117          1247.562
       111   06 Jun 2027 03:25:56.191   06 Jun 2027 03:27:29.757            93.566         46783.000
       112   06 Jun 2027 03:27:46.734   06 Jun 2027 03:28:06.132            19.398          9699.000
       113   06 Jun 2027 03:31:47.737   06 Jun 2027 03:31:51.181             3.444          1722.000
       114   06 Jun 2027 03:32:27.603   06 Jun 2027 03:32:31.033             3.430          1715.000
       115   06 Jun 2027 04:50:59.981   06 Jun 2027 04:51:31.784            31.803         15901.500
       116   06 Jun 2027 05:02:39.925   06 Jun 2027 05:03:57.885            77.960         38980.000
       117   06 Jun 2027 06:25:11.121   06 Jun 2027 06:26:12.337            61.216         30608.000
       118   06 Jun 2027 06:27:18.673   06 Jun 2027 06:27:22.326             3.653          1826.500
       119   06 Jun 2027 06:28:18.501   06 Jun 2027 06:28:30.316            11.815          5907.500
       120   06 Jun 2027 06:28:30.753   06 Jun 2027 06:28:36.345             5.592          2796.000
       121   06 Jun 2027 08:00:14.352   06 Jun 2027 08:00:46.060            31.708         15854.000
       122   06 Jun 2027 08:02:05.324   06 Jun 2027 08:02:33.304            27.980         10862.063
       123   06 Jun 2027 08:03:09.552   06 Jun 2027 08:03:10.593             1.041           443.531
       124   06 Jun 2027 08:03:58.291   06 Jun 2027 08:04:12.046            13.755          1006.906
       125   06 Jun 2027 08:04:13.210   06 Jun 2027 08:04:19.543             6.333            36.375
       126   06 Jun 2027 08:04:55.280   06 Jun 2027 08:04:59.224             3.944           744.125
       127   06 Jun 2027 08:05:25.750   06 Jun 2027 08:05:25.750             0.000             0.000
       128   06 Jun 2027 08:05:57.437   06 Jun 2027 08:06:01.783             4.346          1505.906
       129   06 Jun 2027 08:06:30.622   06 Jun 2027 08:06:32.381             1.759           704.344
       130   06 Jun 2027 09:37:13.272   06 Jun 2027 09:37:25.387            12.115          4531.344
       131   06 Jun 2027 09:38:21.083   06 Jun 2027 09:38:25.034             3.951          1134.188
       132   06 Jun 2027 09:38:50.586   06 Jun 2027 09:38:53.571             2.985           646.688
       133   06 Jun 2027 09:40:35.611   06 Jun 2027 09:40:43.129             7.518          2948.563
       134   06 Jun 2027 09:40:45.194   06 Jun 2027 09:40:45.394             0.200            13.219
       135   06 Jun 2027 09:41:57.360   06 Jun 2027 09:42:06.564             9.204          2000.812
       136   06 Jun 2027 09:42:25.207   06 Jun 2027 09:42:27.853             2.646           524.750
       137   06 Jun 2027 09:43:03.729   06 Jun 2027 09:43:11.283             7.554           978.250
       138   06 Jun 2027 09:43:49.092   06 Jun 2027 09:43:53.371             4.279          1181.531
       139   06 Jun 2027 09:44:12.111   06 Jun 2027 09:44:13.079             0.968           305.906
       140   06 Jun 2027 09:44:37.767   06 Jun 2027 09:44:37.949             0.182            91.000
       141   06 Jun 2027 11:14:11.328   06 Jun 2027 11:14:26.156            14.828          7412.937
       142   06 Jun 2027 11:15:44.610   06 Jun 2027 11:15:49.822             5.212          2439.813
       143   06 Jun 2027 11:16:13.923   06 Jun 2027 11:16:15.286             1.363           581.344
       144   06 Jun 2027 11:16:55.282   06 Jun 2027 11:16:58.528             3.246          1092.750
       145   06 Jun 2027 11:17:24.130   06 Jun 2027 11:17:26.402             2.272           800.062
       146   06 Jun 2027 11:17:44.993   06 Jun 2027 11:17:47.558             2.565           580.969
       147   06 Jun 2027 11:17:56.073   06 Jun 2027 11:17:58.379             2.306           256.406
       148   06 Jun 2027 11:18:21.466   06 Jun 2027 11:18:23.941             2.475           667.437
       149   06 Jun 2027 11:18:40.694   06 Jun 2027 11:18:42.436             1.742           359.625
       150   06 Jun 2027 11:18:56.515   06 Jun 2027 11:18:57.711             1.196           439.969
       151   06 Jun 2027 11:19:27.087   06 Jun 2027 11:19:30.661             3.574           918.000
       152   06 Jun 2027 11:19:48.279   06 Jun 2027 11:19:48.279             0.000             0.000
       153   06 Jun 2027 11:19:52.390   06 Jun 2027 11:19:54.885             2.495           367.156
       154   06 Jun 2027 11:20:09.522   06 Jun 2027 11:20:10.140             0.618           119.312
       155   06 Jun 2027 11:20:13.215   06 Jun 2027 11:20:13.531             0.316            96.094
       156   07 Jun 2027 03:38:13.164   07 Jun 2027 03:39:45.088            91.924         45962.000
       157   07 Jun 2027 03:39:57.903   07 Jun 2027 03:40:07.695             9.792          4896.000
       158   07 Jun 2027 03:41:29.151   07 Jun 2027 03:41:38.658             9.507          4753.500
       159   07 Jun 2027 03:42:01.729   07 Jun 2027 03:42:12.042            10.313          5156.500
       160   07 Jun 2027 03:43:26.343   07 Jun 2027 03:43:26.343             0.000             0.000
       161   07 Jun 2027 03:44:17.751   07 Jun 2027 03:44:29.050            11.299          5649.500
       162   07 Jun 2027 05:02:21.012   07 Jun 2027 05:03:07.177            46.165         23082.500
       163   07 Jun 2027 05:14:37.152   07 Jun 2027 05:15:32.086            54.934         27467.000
       164   07 Jun 2027 06:36:35.883   07 Jun 2027 06:37:26.522            50.639         25319.500
       165   07 Jun 2027 06:39:21.503   07 Jun 2027 06:39:52.287            30.784         15392.000
       166   07 Jun 2027 06:41:33.841   07 Jun 2027 06:41:33.841             0.000             0.000
       167   07 Jun 2027 08:11:37.577   07 Jun 2027 08:12:14.892            37.315         18657.500
       168   07 Jun 2027 08:12:51.392   07 Jun 2027 08:13:04.568            13.176          2449.656
       169   07 Jun 2027 08:13:15.124   07 Jun 2027 08:13:16.699             1.575           322.344
       170   07 Jun 2027 08:17:05.190   07 Jun 2027 08:17:12.544             7.354          3677.000
       171   07 Jun 2027 08:17:57.475   07 Jun 2027 08:18:07.510            10.035          4612.938
       172   07 Jun 2027 08:18:39.173   07 Jun 2027 08:18:42.314             3.141           968.531
       173   07 Jun 2027 09:49:15.282   07 Jun 2027 09:49:28.506            13.224          5240.844
       174   07 Jun 2027 09:50:28.964   07 Jun 2027 09:50:31.756             2.792          1147.750
       175   07 Jun 2027 09:51:08.742   07 Jun 2027 09:51:10.369             1.627           491.219
       176   07 Jun 2027 09:52:22.735   07 Jun 2027 09:52:22.735             0.000             0.000
       177   07 Jun 2027 09:53:14.578   07 Jun 2027 09:53:22.324             7.746          3570.875
       178   07 Jun 2027 09:53:41.143   07 Jun 2027 09:53:42.433             1.290           221.563
       179   07 Jun 2027 09:53:59.926   07 Jun 2027 09:54:01.305             1.379           229.875
       180   07 Jun 2027 09:54:15.039   07 Jun 2027 09:54:15.875             0.836           375.781
       181   07 Jun 2027 09:54:41.575   07 Jun 2027 09:54:42.409             0.834           417.000
       182   07 Jun 2027 09:54:57.458   07 Jun 2027 09:54:59.546             2.088           487.562
       183   07 Jun 2027 09:55:24.705   07 Jun 2027 09:55:26.502             1.797           785.344
       184   07 Jun 2027 09:55:33.889   07 Jun 2027 09:55:34.636             0.747           230.844
       185   07 Jun 2027 09:55:44.772   07 Jun 2027 09:55:48.110             3.338           123.187
       186   07 Jun 2027 09:56:01.811   07 Jun 2027 09:56:03.838             2.027           365.562
       187   07 Jun 2027 09:56:13.636   07 Jun 2027 09:56:14.652             1.016           306.187
       188   07 Jun 2027 11:26:01.358   07 Jun 2027 11:26:19.115            17.757          7960.437
       189   07 Jun 2027 11:27:06.080   07 Jun 2027 11:27:09.378             3.298          1467.656
       190   07 Jun 2027 11:27:23.069   07 Jun 2027 11:27:29.653             6.584           353.344
       191   07 Jun 2027 11:28:21.115   07 Jun 2027 11:28:24.816             3.701          1608.188
       192   07 Jun 2027 11:29:04.685   07 Jun 2027 11:29:11.396             6.711          1157.125
       193   07 Jun 2027 11:30:10.700   07 Jun 2027 11:30:11.556             0.856           428.000
       194   07 Jun 2027 11:30:35.151   07 Jun 2027 11:30:38.908             3.757          1771.625
       195   07 Jun 2027 11:32:05.602   07 Jun 2027 11:32:08.271             2.669          1334.500
       196   07 Jun 2027 11:32:22.479   07 Jun 2027 11:32:27.980             5.501          1281.469
       197   07 Jun 2027 11:32:38.071   07 Jun 2027 11:32:42.541             4.470           315.344
       198   08 Jun 2027 03:50:19.973   08 Jun 2027 03:52:10.915           110.942         55471.000
       199   08 Jun 2027 03:53:59.484   08 Jun 2027 03:54:03.029             3.545          1772.500
       200   08 Jun 2027 03:54:35.392   08 Jun 2027 03:55:16.315            40.923         20461.500
       201   08 Jun 2027 05:14:28.952   08 Jun 2027 05:15:10.098            41.146         20573.000
       202   08 Jun 2027 06:48:18.419   08 Jun 2027 06:50:34.445           136.026         68013.000
       203   08 Jun 2027 06:52:12.956   08 Jun 2027 06:52:25.615            12.659          6295.625
       204   08 Jun 2027 06:52:42.857   08 Jun 2027 06:52:46.055             3.198           476.500
       205   08 Jun 2027 08:23:10.393   08 Jun 2027 08:23:31.555            21.162          8097.219
       206   08 Jun 2027 08:24:08.751   08 Jun 2027 08:24:15.025             6.274           969.812
       207   08 Jun 2027 08:25:30.537   08 Jun 2027 08:25:35.534             4.997          2359.750
       208   08 Jun 2027 08:26:35.653   08 Jun 2027 08:26:40.248             4.595          1774.312
       209   08 Jun 2027 08:26:48.916   08 Jun 2027 08:26:50.325             1.409           225.844
       210   08 Jun 2027 08:27:31.042   08 Jun 2027 08:27:34.589             3.547          1272.406
       211   08 Jun 2027 08:28:58.405   08 Jun 2027 08:29:02.280             3.875          1937.500
       212   08 Jun 2027 08:29:24.026   08 Jun 2027 08:29:27.504             3.478          1010.531
       213   08 Jun 2027 08:29:39.982   08 Jun 2027 08:29:41.601             1.619           217.406
       214   08 Jun 2027 08:29:59.731   08 Jun 2027 08:30:02.925             3.194           251.562
       215   08 Jun 2027 08:30:16.724   08 Jun 2027 08:30:16.724             0.000             0.000
       216   08 Jun 2027 08:30:44.851   08 Jun 2027 08:30:48.616             3.765          1107.437
       217   08 Jun 2027 08:31:14.007   08 Jun 2027 08:31:14.049             0.042            21.000
       218   08 Jun 2027 08:31:16.647   08 Jun 2027 08:31:19.520             2.873           486.187
       219   08 Jun 2027 10:01:16.198   08 Jun 2027 10:01:31.851            15.653          7080.031
       220   08 Jun 2027 10:03:19.057   08 Jun 2027 10:03:24.970             5.913          2889.781
       221   08 Jun 2027 10:04:14.716   08 Jun 2027 10:04:17.383             2.667           242.281
       222   08 Jun 2027 10:04:55.565   08 Jun 2027 10:04:58.578             3.013           994.937
       223   08 Jun 2027 10:05:17.326   08 Jun 2027 10:05:18.187             0.861           273.750
       224   08 Jun 2027 10:05:35.516   08 Jun 2027 10:05:37.396             1.880           204.406
       225   08 Jun 2027 10:06:20.136   08 Jun 2027 10:06:23.140             3.004          1164.375
       226   08 Jun 2027 10:07:18.087   08 Jun 2027 10:07:23.648             5.561          1701.938
       227   08 Jun 2027 10:07:46.795   08 Jun 2027 10:07:49.949             3.154           702.219
       228   08 Jun 2027 10:08:18.235   08 Jun 2027 10:08:20.812             2.577           835.187
       229   08 Jun 2027 10:08:29.858   08 Jun 2027 10:08:33.454             3.596           282.687
       230   08 Jun 2027 11:38:10.744   08 Jun 2027 11:38:20.365             9.621          4810.500
       231   08 Jun 2027 11:38:42.999   08 Jun 2027 11:38:46.524             3.525          1762.500
       232   08 Jun 2027 11:39:12.467   08 Jun 2027 11:39:16.570             4.103          1595.437
       233   08 Jun 2027 11:40:22.270   08 Jun 2027 11:40:27.453             5.183          2036.656
       234   08 Jun 2027 11:41:17.420   08 Jun 2027 11:41:22.238             4.818          1556.469
       235   08 Jun 2027 11:42:16.721   08 Jun 2027 11:42:21.355             4.634          1008.219
       236   08 Jun 2027 11:42:54.698   08 Jun 2027 11:42:56.930             2.232           834.094
       237   08 Jun 2027 11:43:44.254   08 Jun 2027 11:43:48.055             3.801          1391.219
       238   08 Jun 2027 11:43:56.063   08 Jun 2027 11:43:56.063             0.000             0.000
       239   08 Jun 2027 11:44:12.473   08 Jun 2027 11:44:15.227             2.754           763.062
       240   09 Jun 2027 04:02:56.423   09 Jun 2027 04:04:31.722            95.299         47649.500
       241   09 Jun 2027 04:05:48.825   09 Jun 2027 04:06:20.346            31.521         15760.500
       242   09 Jun 2027 05:26:25.105   09 Jun 2027 05:27:35.958            70.853         35426.500
       243   09 Jun 2027 07:02:37.881   09 Jun 2027 07:04:37.566           119.685         59842.500
       244   09 Jun 2027 08:36:11.165   09 Jun 2027 08:36:33.252            22.087          9159.469
       245   09 Jun 2027 08:38:30.950   09 Jun 2027 08:38:35.263             4.313          1924.531
       246   09 Jun 2027 08:39:33.163   09 Jun 2027 08:39:42.733             9.570          1713.406
       247   09 Jun 2027 08:40:48.916   09 Jun 2027 08:40:53.015             4.099          1984.625
       248   09 Jun 2027 08:41:13.359   09 Jun 2027 08:41:14.729             1.370           635.750
       249   09 Jun 2027 08:41:43.635   09 Jun 2027 08:41:46.629             2.994           868.500
       250   09 Jun 2027 08:41:51.258   09 Jun 2027 08:41:55.120             3.862           144.656
       251   09 Jun 2027 08:42:06.580   09 Jun 2027 08:42:07.523             0.943           197.781
       252   09 Jun 2027 08:42:18.495   09 Jun 2027 08:42:24.102             5.607           342.875
       253   09 Jun 2027 08:42:56.781   09 Jun 2027 08:43:01.290             4.509           626.094
       254   09 Jun 2027 08:43:20.388   09 Jun 2027 08:43:22.258             1.870           596.813
       255   09 Jun 2027 08:43:45.643   09 Jun 2027 08:43:50.266             4.623           640.719
       256   09 Jun 2027 08:44:08.826   09 Jun 2027 08:44:09.058             0.232           116.000
       257   09 Jun 2027 08:44:44.001   09 Jun 2027 08:44:45.047             1.046           523.000
       258   09 Jun 2027 10:13:42.675   09 Jun 2027 10:13:59.134            16.459          6862.656
       259   09 Jun 2027 10:14:30.525   09 Jun 2027 10:14:31.727             1.202            49.875
       260   09 Jun 2027 10:14:33.197   09 Jun 2027 10:14:35.289             2.092            45.937
       261   09 Jun 2027 10:14:44.721   09 Jun 2027 10:14:45.987             1.266           255.813
       262   09 Jun 2027 10:16:08.032   09 Jun 2027 10:16:14.492             6.460          1544.844
       263   09 Jun 2027 10:16:56.815   09 Jun 2027 10:16:59.579             2.764          1322.594
       264   09 Jun 2027 10:17:28.477   09 Jun 2027 10:17:32.579             4.102           903.063
       265   09 Jun 2027 10:17:58.052   09 Jun 2027 10:18:04.942             6.890            53.844
       266   09 Jun 2027 10:18:43.091   09 Jun 2027 10:18:45.858             2.767          1192.156
       267   09 Jun 2027 10:18:59.807   09 Jun 2027 10:19:01.542             1.735           367.844
       268   09 Jun 2027 10:20:06.414   09 Jun 2027 10:20:12.044             5.630          1816.344
       269   09 Jun 2027 10:20:24.403   09 Jun 2027 10:20:27.184             2.781           322.906
       270   09 Jun 2027 11:50:38.790   09 Jun 2027 11:50:59.695            20.905          7655.781
       271   09 Jun 2027 11:52:22.186   09 Jun 2027 11:52:25.756             3.570          1785.000
       272   09 Jun 2027 11:53:15.623   09 Jun 2027 11:53:22.535             6.912          1907.531
       273   09 Jun 2027 11:53:56.177   09 Jun 2027 11:53:58.511             2.334          1051.312
       274   09 Jun 2027 11:54:08.860   09 Jun 2027 11:54:08.860             0.000             0.000
       275   09 Jun 2027 11:54:49.240   09 Jun 2027 11:54:53.387             4.147          1585.281
       276   09 Jun 2027 11:55:24.088   09 Jun 2027 11:55:26.536             2.448           959.406
       277   09 Jun 2027 11:55:52.748   09 Jun 2027 11:55:54.911             2.163           819.125
       278   09 Jun 2027 11:56:07.847   09 Jun 2027 11:56:10.018             2.171           404.250
       279   10 Jun 2027 04:14:37.095   10 Jun 2027 04:16:15.847            98.752         49376.000
       280   10 Jun 2027 04:19:01.869   10 Jun 2027 04:19:06.853             4.984          2492.000
       281   10 Jun 2027 05:38:16.148   10 Jun 2027 05:39:35.508            79.360         39680.000
       282   10 Jun 2027 05:39:43.137   10 Jun 2027 05:39:51.802             8.665          4332.500
       283   10 Jun 2027 07:14:43.076   10 Jun 2027 07:16:48.287           125.211         62605.500
       284   10 Jun 2027 07:17:34.491   10 Jun 2027 07:17:43.830             9.339          4077.874
       285   10 Jun 2027 08:46:51.188   10 Jun 2027 08:47:02.235            11.047          5523.500
       286   10 Jun 2027 08:48:50.012   10 Jun 2027 08:48:56.964             6.952          1808.969
       287   10 Jun 2027 08:49:40.858   10 Jun 2027 08:49:44.224             3.366          1191.688
       288   10 Jun 2027 08:51:04.394   10 Jun 2027 08:51:08.917             4.523          1318.531
       289   10 Jun 2027 08:53:21.730   10 Jun 2027 08:53:26.071             4.341          2154.531
       290   10 Jun 2027 08:54:56.724   10 Jun 2027 08:55:01.720             4.996          2350.063
       291   10 Jun 2027 08:55:36.101   10 Jun 2027 08:55:38.005             1.904           451.719
       292   10 Jun 2027 08:56:38.633   10 Jun 2027 08:56:39.793             1.160           580.000
       293   10 Jun 2027 10:25:48.759   10 Jun 2027 10:26:03.817            15.058          7409.781
       294   10 Jun 2027 10:26:36.108   10 Jun 2027 10:26:39.349             3.241           329.625
       295   10 Jun 2027 10:26:56.205   10 Jun 2027 10:26:57.223             1.018            30.844
       296   10 Jun 2027 10:27:16.004   10 Jun 2027 10:27:19.906             3.902           586.906
       297   10 Jun 2027 10:28:25.705   10 Jun 2027 10:28:28.991             3.286          1025.437
       298   10 Jun 2027 10:28:43.683   10 Jun 2027 10:28:44.762             1.079           323.375
       299   10 Jun 2027 10:29:03.568   10 Jun 2027 10:29:10.958             7.390           460.844
       300   10 Jun 2027 10:30:33.743   10 Jun 2027 10:30:37.887             4.144          1977.125
       301   10 Jun 2027 10:31:00.304   10 Jun 2027 10:31:08.661             8.357           700.531
       302   10 Jun 2027 10:32:04.426   10 Jun 2027 10:32:07.373             2.947          1473.500
       303   10 Jun 2027 10:32:18.555   10 Jun 2027 10:32:18.555             0.000             0.000
       304   11 Jun 2027 04:27:50.415   11 Jun 2027 04:29:26.239            95.824         47912.000
       305   11 Jun 2027 04:30:35.754   11 Jun 2027 04:30:35.754             0.000             0.000
       306   11 Jun 2027 04:30:54.723   11 Jun 2027 04:30:59.047             4.324          2162.000
       307   11 Jun 2027 05:50:24.554   11 Jun 2027 05:51:37.866            73.312         36656.000
       308   11 Jun 2027 05:52:02.698   11 Jun 2027 05:52:30.149            27.451         13725.500
       309   11 Jun 2027 07:26:53.020   11 Jun 2027 07:28:49.799           116.779         58389.500
       310   11 Jun 2027 07:30:23.683   11 Jun 2027 07:30:25.773             2.090          1045.000
       311   11 Jun 2027 09:02:04.269   11 Jun 2027 09:02:16.124            11.855          5927.500
       312   11 Jun 2027 09:02:27.247   11 Jun 2027 09:02:37.663            10.416          3595.750
       313   11 Jun 2027 09:03:02.917   11 Jun 2027 09:03:06.032             3.115           624.031
       314   11 Jun 2027 09:03:19.844   11 Jun 2027 09:03:22.191             2.347           128.188
       315   11 Jun 2027 09:04:23.064   11 Jun 2027 09:04:23.064             0.000             0.000
       316   11 Jun 2027 09:05:24.463   11 Jun 2027 09:05:24.463             0.000             0.000
       317   11 Jun 2027 09:05:30.940   11 Jun 2027 09:05:39.509             8.569          3577.250
       318   11 Jun 2027 09:08:33.763   11 Jun 2027 09:08:41.981             8.218          4109.000
       319   11 Jun 2027 10:38:23.008   11 Jun 2027 10:38:35.958            12.950          6185.594
       320   11 Jun 2027 10:39:08.540   11 Jun 2027 10:39:09.045             0.505           179.688
       321   11 Jun 2027 10:40:04.912   11 Jun 2027 10:40:10.821             5.909          1217.531
       322   11 Jun 2027 10:40:20.257   11 Jun 2027 10:40:22.929             2.672           294.875
       323   11 Jun 2027 10:40:25.352   11 Jun 2027 10:40:26.128             0.776            66.156
       324   11 Jun 2027 10:40:29.135   11 Jun 2027 10:40:29.529             0.394            91.875
       325   11 Jun 2027 10:40:31.834   11 Jun 2027 10:40:35.867             4.033            72.031
       326   11 Jun 2027 10:40:41.941   11 Jun 2027 10:40:43.236             1.295           160.562
       327   11 Jun 2027 10:41:05.267   11 Jun 2027 10:41:10.587             5.320           347.406
       328   11 Jun 2027 10:41:35.791   11 Jun 2027 10:41:40.424             4.633           694.625
       329   11 Jun 2027 10:42:19.059   11 Jun 2027 10:42:19.796             0.737           368.500
       330   11 Jun 2027 10:42:53.085   11 Jun 2027 10:42:59.872             6.787          1256.656
       331   11 Jun 2027 10:43:02.742   11 Jun 2027 10:43:03.000             0.258            31.312
       332   11 Jun 2027 10:43:46.080   11 Jun 2027 10:43:50.866             4.786          1346.250
       333   11 Jun 2027 10:44:06.370   11 Jun 2027 10:44:08.019             1.649           314.437
       334   12 Jun 2027 03:00:46.633   12 Jun 2027 03:01:11.635            25.002         12501.000
       335   12 Jun 2027 03:01:50.204   12 Jun 2027 03:01:51.965             1.761           880.500
       336   12 Jun 2027 03:02:26.281   12 Jun 2027 03:02:39.304            13.023          6511.500
       337   12 Jun 2027 03:02:53.082   12 Jun 2027 03:03:00.694             7.612          3806.000
       338   12 Jun 2027 03:03:03.941   12 Jun 2027 03:03:07.772             3.831          1915.500
       339   12 Jun 2027 03:04:03.668   12 Jun 2027 03:04:24.817            21.149         10574.500
       340   12 Jun 2027 03:05:56.380   12 Jun 2027 03:06:08.433            12.053          6026.500
       341   12 Jun 2027 03:06:46.396   12 Jun 2027 03:06:47.676             1.280           640.000
       342   12 Jun 2027 03:09:07.683   12 Jun 2027 03:09:26.554            18.871          9435.500
       343   12 Jun 2027 04:38:59.386   12 Jun 2027 04:39:35.776            36.390         18195.000
       344   12 Jun 2027 04:40:04.383   12 Jun 2027 04:40:40.474            36.091         18045.500
       345   12 Jun 2027 04:41:47.401   12 Jun 2027 04:41:47.401             0.000             0.000
       346   12 Jun 2027 06:03:07.025   12 Jun 2027 06:04:33.046            86.021         43010.500
       347   12 Jun 2027 07:38:52.174   12 Jun 2027 07:40:22.489            90.315         45157.500
       348   12 Jun 2027 07:40:31.970   12 Jun 2027 07:40:40.139             8.169          3691.625
       349   12 Jun 2027 07:41:24.473   12 Jun 2027 07:41:25.536             1.063           531.500
       350   12 Jun 2027 07:42:16.315   12 Jun 2027 07:42:20.518             4.203          2081.812
       351   12 Jun 2027 09:14:05.280   12 Jun 2027 09:14:12.152             6.872          3436.000
       352   12 Jun 2027 09:15:37.543   12 Jun 2027 09:15:50.751            13.208          5868.313
       353   12 Jun 2027 09:16:59.237   12 Jun 2027 09:17:03.316             4.079          1741.000
       354   12 Jun 2027 09:19:21.786   12 Jun 2027 09:19:28.701             6.915          3457.500
       355   12 Jun 2027 09:20:16.403   12 Jun 2027 09:20:20.800             4.397          1620.625
       356   12 Jun 2027 09:20:39.280   12 Jun 2027 09:20:41.291             2.011           475.719
       357   12 Jun 2027 09:20:44.625   12 Jun 2027 09:20:45.429             0.804            60.094
       358   12 Jun 2027 10:50:01.804   12 Jun 2027 10:50:16.272            14.468          6863.781
       359   12 Jun 2027 10:51:39.826   12 Jun 2027 10:51:44.679             4.853          1974.437
       360   12 Jun 2027 10:52:32.072   12 Jun 2027 10:52:35.201             3.129           598.438
       361   12 Jun 2027 10:52:48.123   12 Jun 2027 10:52:50.867             2.744           251.250
       362   12 Jun 2027 10:53:44.565   12 Jun 2027 10:53:52.225             7.660          1176.906
       363   12 Jun 2027 10:55:07.813   12 Jun 2027 10:55:14.636             6.823          2336.344
       364   12 Jun 2027 10:55:42.277   12 Jun 2027 10:55:44.021             1.744           625.312
       365   12 Jun 2027 10:56:18.858   12 Jun 2027 10:56:20.840             1.982           991.000
       366   13 Jun 2027 03:13:51.165   13 Jun 2027 03:15:18.422            87.257         43628.500
       367   13 Jun 2027 03:20:00.786   13 Jun 2027 03:20:07.204             6.418          3209.000
       368   13 Jun 2027 03:20:08.069   13 Jun 2027 03:20:14.005             5.936          2968.000
       369   13 Jun 2027 03:20:48.112   13 Jun 2027 03:20:57.738             9.626          4813.000
       370   13 Jun 2027 04:39:57.188   13 Jun 2027 04:40:27.628            30.440         15220.000
       371   13 Jun 2027 04:50:55.049   13 Jun 2027 04:51:23.564            28.515         14257.500
       372   13 Jun 2027 04:52:17.320   13 Jun 2027 04:52:30.494            13.174          6587.000
       373   13 Jun 2027 04:53:03.485   13 Jun 2027 04:53:12.104             8.619          4309.500
       374   13 Jun 2027 06:14:13.918   13 Jun 2027 06:15:15.983            62.065         31032.500
       375   13 Jun 2027 06:16:33.511   13 Jun 2027 06:16:47.329            13.818          6909.000
       376   13 Jun 2027 06:16:57.948   13 Jun 2027 06:17:06.025             8.077          4038.500
       377   13 Jun 2027 07:50:36.737   13 Jun 2027 07:52:01.748            85.011         42505.500
       378   13 Jun 2027 07:52:59.882   13 Jun 2027 07:53:09.804             9.922          4138.906
       379   13 Jun 2027 07:53:24.128   13 Jun 2027 07:53:24.128             0.000             0.000
       380   13 Jun 2027 07:53:25.656   13 Jun 2027 07:53:27.376             1.720           328.813
       381   13 Jun 2027 07:53:50.169   13 Jun 2027 07:53:51.316             1.147           573.500
       382   13 Jun 2027 09:25:21.797   13 Jun 2027 09:25:37.504            15.707          6022.937
       383   13 Jun 2027 09:26:05.932   13 Jun 2027 09:26:09.242             3.310           480.625
       384   13 Jun 2027 09:27:53.226   13 Jun 2027 09:27:59.876             6.650          3208.625
       385   13 Jun 2027 09:28:52.526   13 Jun 2027 09:28:52.526             0.000             0.000
       386   13 Jun 2027 09:28:55.453   13 Jun 2027 09:29:00.114             4.661          1206.969
       387   13 Jun 2027 09:29:29.261   13 Jun 2027 09:29:31.129             1.868           864.406
       388   13 Jun 2027 09:30:07.673   13 Jun 2027 09:30:08.388             0.715           357.500
       389   13 Jun 2027 09:32:15.084   13 Jun 2027 09:32:25.347            10.263          4301.531
       390   13 Jun 2027 09:32:43.898   13 Jun 2027 09:32:49.837             5.939           579.719
       391   13 Jun 2027 11:02:11.144   13 Jun 2027 11:02:24.604            13.460          6079.500
       392   13 Jun 2027 11:02:42.388   13 Jun 2027 11:02:44.250             1.862           275.406
       393   13 Jun 2027 11:02:50.002   13 Jun 2027 11:02:53.635             3.633            71.875
       394   13 Jun 2027 11:04:10.507   13 Jun 2027 11:04:14.306             3.799          1672.406
       395   13 Jun 2027 11:04:23.310   13 Jun 2027 11:04:24.074             0.764           281.375
       396   13 Jun 2027 11:04:34.492   13 Jun 2027 11:04:36.967             2.475           325.563
       397   13 Jun 2027 11:04:40.909   13 Jun 2027 11:04:41.126             0.217            65.844
       398   13 Jun 2027 11:05:07.657   13 Jun 2027 11:05:11.543             3.886           829.094
       399   13 Jun 2027 11:05:27.915   13 Jun 2027 11:05:29.859             1.944           405.594
       400   13 Jun 2027 11:06:19.165   13 Jun 2027 11:06:22.671             3.506          1540.813
       401   13 Jun 2027 11:07:00.644   13 Jun 2027 11:07:02.241             1.597           798.500
       402   13 Jun 2027 11:07:32.008   13 Jun 2027 11:07:37.195             5.187           955.125
