uniorb/output/strategy_1/Camera/Camera_KinoSat_110201.txt

KinoSat_110201
-------------------------
    Access    *     Start Time (UTCG)     *     Stop Time (UTCG)  *   Duration (s) *   Data (Mbytes)
         1   01 Jun 2027 03:03:43.318   01 Jun 2027 03:04:28.931            45.613         22806.500
         2   01 Jun 2027 03:04:44.483   01 Jun 2027 03:04:53.043             8.560          4280.000
         3   01 Jun 2027 03:05:37.230   01 Jun 2027 03:06:10.503            33.273         16636.500
         4   01 Jun 2027 03:07:21.090   01 Jun 2027 03:07:42.902            21.812         10906.000
         5   01 Jun 2027 03:08:35.747   01 Jun 2027 03:08:41.671             5.924          2962.000
         6   01 Jun 2027 03:08:56.296   01 Jun 2027 03:09:05.916             9.620          4810.000
         7   01 Jun 2027 03:09:15.695   01 Jun 2027 03:09:22.119             6.424          3212.000
         8   01 Jun 2027 03:10:15.053   01 Jun 2027 03:10:31.949            16.896          8448.000
         9   01 Jun 2027 03:10:34.036   01 Jun 2027 03:10:42.698             8.662          4331.000
        10   01 Jun 2027 04:40:12.244   01 Jun 2027 04:42:42.089           149.845         74922.500
        11   01 Jun 2027 04:43:00.239   01 Jun 2027 04:43:24.698            24.459         12229.500
        12   01 Jun 2027 04:44:20.593   01 Jun 2027 04:44:23.145             2.552          1276.000
        13   01 Jun 2027 04:44:31.014   01 Jun 2027 04:44:36.154             5.140          2570.000
        14   01 Jun 2027 04:45:16.659   01 Jun 2027 04:45:38.035            21.376         10688.000
        15   01 Jun 2027 04:46:01.032   01 Jun 2027 04:46:06.027             4.995          2497.500
        16   01 Jun 2027 06:18:30.020   01 Jun 2027 06:21:32.699           182.679         91339.500
        17   01 Jun 2027 07:53:56.948   01 Jun 2027 07:56:17.008           140.060         70030.000
        18   01 Jun 2027 07:57:02.779   01 Jun 2027 07:57:14.540            11.761          5880.500
        19   01 Jun 2027 07:57:17.928   01 Jun 2027 07:57:29.743            11.815          5907.500
        20   01 Jun 2027 07:58:54.564   01 Jun 2027 07:59:18.244            23.680         11840.000
        21   02 Jun 2027 03:15:25.712   02 Jun 2027 03:20:52.138           326.426        163213.000
        22   02 Jun 2027 03:20:59.045   02 Jun 2027 03:21:22.396            23.351         11675.500
        23   02 Jun 2027 03:22:12.481   02 Jun 2027 03:22:58.355            45.874         22937.000
        24   02 Jun 2027 04:52:32.563   02 Jun 2027 04:55:24.852           172.289         86144.500
        25   02 Jun 2027 04:56:16.654   02 Jun 2027 04:56:18.678             2.024          1012.000
        26   02 Jun 2027 04:56:42.465   02 Jun 2027 04:57:02.650            20.185         10092.500
        27   02 Jun 2027 04:57:20.420   02 Jun 2027 04:57:30.657            10.237          5118.500
        28   02 Jun 2027 04:57:35.277   02 Jun 2027 04:57:49.557            14.280          7140.000
        29   02 Jun 2027 04:57:58.333   02 Jun 2027 04:57:59.003             0.670           335.000
        30   02 Jun 2027 06:30:27.847   02 Jun 2027 06:32:51.006           143.159         71579.500
        31   02 Jun 2027 06:33:45.590   02 Jun 2027 06:34:01.460            15.870          7935.000
        32   02 Jun 2027 08:03:32.905   02 Jun 2027 08:06:04.261           151.356         75678.000
        33   02 Jun 2027 08:08:02.598   02 Jun 2027 08:08:28.350            25.752         12876.000
        34   02 Jun 2027 08:09:06.811   02 Jun 2027 08:09:09.385             2.574          1287.000
        35   02 Jun 2027 08:09:21.727   02 Jun 2027 08:09:24.940             3.213          1606.500
        36   02 Jun 2027 08:10:47.994   02 Jun 2027 08:10:56.254             8.260          4130.000
        37   03 Jun 2027 03:27:43.988   03 Jun 2027 03:34:42.814           418.826        209413.000
        38   03 Jun 2027 03:34:54.582   03 Jun 2027 03:35:02.344             7.762          3881.000
        39   03 Jun 2027 05:04:28.591   03 Jun 2027 05:06:32.583           123.992         61996.000
        40   03 Jun 2027 05:06:50.795   03 Jun 2027 05:07:32.345            41.550         20775.000
        41   03 Jun 2027 05:09:13.529   03 Jun 2027 05:09:31.237            17.708          8854.000
        42   03 Jun 2027 05:09:42.738   03 Jun 2027 05:09:47.921             5.183          2591.500
        43   03 Jun 2027 05:10:07.685   03 Jun 2027 05:10:27.397            19.712          9856.000
        44   03 Jun 2027 06:42:27.090   03 Jun 2027 06:44:59.019           151.929         75964.500
        45   03 Jun 2027 06:45:17.851   03 Jun 2027 06:46:00.586            42.735         21367.500
        46   03 Jun 2027 08:16:04.955   03 Jun 2027 08:18:10.829           125.874         62937.000
        47   03 Jun 2027 08:18:56.249   03 Jun 2027 08:18:59.533             3.284          1642.000
        48   03 Jun 2027 08:19:39.316   03 Jun 2027 08:19:58.281            18.965          9482.500
        49   03 Jun 2027 08:20:52.729   03 Jun 2027 08:20:56.563             3.834          1917.000
        50   03 Jun 2027 08:21:15.517   03 Jun 2027 08:21:41.084            25.567         12783.500
        51   04 Jun 2027 03:39:37.220   04 Jun 2027 03:46:22.626           405.406        202703.000
        52   04 Jun 2027 03:46:36.535   04 Jun 2027 03:46:51.599            15.064          7532.000
        53   04 Jun 2027 05:16:21.238   04 Jun 2027 05:19:15.862           174.624         87312.000
        54   04 Jun 2027 05:19:22.129   04 Jun 2027 05:19:45.439            23.310         11655.000
        55   04 Jun 2027 05:21:15.739   04 Jun 2027 05:21:25.975            10.236          5118.000
        56   04 Jun 2027 05:21:52.955   04 Jun 2027 05:21:57.105             4.150          2075.000
        57   04 Jun 2027 05:22:06.232   04 Jun 2027 05:22:12.051             5.819          2909.500
        58   04 Jun 2027 06:54:27.153   04 Jun 2027 06:57:21.621           174.468         87234.000
        59   04 Jun 2027 06:58:11.752   04 Jun 2027 06:58:28.394            16.642          8321.000
        60   04 Jun 2027 08:30:12.153   04 Jun 2027 08:30:44.983            32.830         16415.000
        61   04 Jun 2027 08:31:47.739   04 Jun 2027 08:31:59.796            12.057          6028.500
        62   04 Jun 2027 08:32:13.418   04 Jun 2027 08:32:30.926            17.508          8754.000
        63   05 Jun 2027 03:51:45.069   05 Jun 2027 03:58:21.346           396.277        198138.500
        64   05 Jun 2027 05:28:59.627   05 Jun 2027 05:31:57.359           177.732         88866.000
        65   05 Jun 2027 05:33:18.781   05 Jun 2027 05:33:30.937            12.156          6078.000
        66   05 Jun 2027 05:33:40.767   05 Jun 2027 05:34:01.384            20.617         10308.500
        67   05 Jun 2027 05:34:35.805   05 Jun 2027 05:34:38.131             2.326          1163.000
        68   05 Jun 2027 07:05:41.177   05 Jun 2027 07:08:13.975           152.798         76399.000
        69   05 Jun 2027 07:08:34.323   05 Jun 2027 07:08:42.482             8.159          4079.500
        70   05 Jun 2027 07:09:36.745   05 Jun 2027 07:09:46.816            10.071          5035.500
        71   05 Jun 2027 07:10:20.844   05 Jun 2027 07:10:33.148            12.304          6152.000
        72   05 Jun 2027 08:40:53.291   05 Jun 2027 08:41:07.240            13.949          6974.500
        73   05 Jun 2027 08:42:28.641   05 Jun 2027 08:42:45.369            16.728          8364.000
        74   05 Jun 2027 08:43:42.539   05 Jun 2027 08:44:01.399            18.860          9430.000
        75   05 Jun 2027 08:44:30.822   05 Jun 2027 08:44:43.371            12.549          6274.500
        76   06 Jun 2027 04:04:10.287   06 Jun 2027 04:10:52.383           402.096        201048.000
        77   06 Jun 2027 05:41:09.128   06 Jun 2027 05:43:49.905           160.777         80388.500
        78   06 Jun 2027 05:45:06.462   06 Jun 2027 05:45:52.902            46.440         23220.000
        79   06 Jun 2027 05:46:02.959   06 Jun 2027 05:46:33.712            30.753         15376.500
        80   06 Jun 2027 07:17:55.983   06 Jun 2027 07:20:03.028           127.045         63522.500
        81   06 Jun 2027 07:20:15.864   06 Jun 2027 07:20:20.774             4.910          2455.000
        82   06 Jun 2027 07:20:27.440   06 Jun 2027 07:20:32.132             4.692          2346.000
        83   06 Jun 2027 07:21:36.519   06 Jun 2027 07:21:49.655            13.136          6568.000
        84   06 Jun 2027 07:22:12.352   06 Jun 2027 07:22:24.306            11.954          5977.000
        85   06 Jun 2027 08:56:06.436   06 Jun 2027 08:56:19.015            12.579          6289.500
        86   06 Jun 2027 08:56:30.811   06 Jun 2027 08:56:59.529            28.718         14359.000
        87   07 Jun 2027 04:16:36.330   07 Jun 2027 04:22:40.619           364.289        182144.500
        88   07 Jun 2027 05:54:10.360   07 Jun 2027 05:57:30.500           200.140        100070.000
        89   07 Jun 2027 05:57:39.202   07 Jun 2027 05:57:51.549            12.347          6173.500
        90   07 Jun 2027 05:57:58.137   07 Jun 2027 05:58:17.420            19.283          9641.500
        91   07 Jun 2027 07:30:13.565   07 Jun 2027 07:32:14.385           120.820         60410.000
        92   07 Jun 2027 07:33:02.112   07 Jun 2027 07:33:30.005            27.893         13946.500
        93   08 Jun 2027 04:28:48.240   08 Jun 2027 04:34:31.459           343.219        171609.500
        94   08 Jun 2027 04:34:34.157   08 Jun 2027 04:34:51.528            17.371          8685.500
        95   08 Jun 2027 06:06:13.792   08 Jun 2027 06:09:31.487           197.695         98847.500
        96   08 Jun 2027 06:10:12.448   08 Jun 2027 06:10:16.504             4.056          2028.000
        97   08 Jun 2027 06:10:41.002   08 Jun 2027 06:10:46.558             5.556          2778.000
        98   08 Jun 2027 07:42:17.678   08 Jun 2027 07:44:42.551           144.873         72436.500
        99   08 Jun 2027 07:45:30.108   08 Jun 2027 07:45:31.762             1.654           827.000
       100   08 Jun 2027 07:46:12.584   08 Jun 2027 07:46:27.865            15.281          7640.500
       101   09 Jun 2027 03:03:57.446   09 Jun 2027 03:07:57.661           240.215        120107.500
       102   09 Jun 2027 03:08:14.062   09 Jun 2027 03:08:21.676             7.614          3807.000
       103   09 Jun 2027 03:08:50.567   09 Jun 2027 03:08:58.008             7.441          3720.500
       104   09 Jun 2027 03:09:11.373   09 Jun 2027 03:09:37.082            25.709         12854.500
       105   09 Jun 2027 03:10:40.017   09 Jun 2027 03:11:12.422            32.405         16202.500
       106   09 Jun 2027 04:40:27.472   09 Jun 2027 04:43:39.438           191.966         95983.000
       107   09 Jun 2027 04:45:06.420   09 Jun 2027 04:45:34.932            28.512         14256.000
       108   09 Jun 2027 04:45:53.660   09 Jun 2027 04:46:20.531            26.871         13435.500
       109   09 Jun 2027 06:18:45.019   09 Jun 2027 06:21:12.114           147.095         73547.500
       110   09 Jun 2027 06:21:38.254   09 Jun 2027 06:21:49.719            11.465          5732.500
       111   09 Jun 2027 06:22:16.813   09 Jun 2027 06:22:24.022             7.209          3604.500
       112   09 Jun 2027 07:54:11.168   09 Jun 2027 07:56:10.467           119.299         59649.500
       113   09 Jun 2027 07:57:53.082   09 Jun 2027 07:57:57.999             4.917          2458.500
       114   09 Jun 2027 07:58:37.905   09 Jun 2027 07:58:42.808             4.903          2451.500
       115   09 Jun 2027 07:59:01.135   09 Jun 2027 07:59:06.393             5.258          2629.000
       116   09 Jun 2027 07:59:20.462   09 Jun 2027 07:59:33.363            12.901          6450.500
       117   10 Jun 2027 03:15:40.853   10 Jun 2027 03:19:52.865           252.012        126006.000
       118   10 Jun 2027 03:20:58.123   10 Jun 2027 03:21:14.118            15.995          7997.500
       119   10 Jun 2027 03:22:27.071   10 Jun 2027 03:23:13.270            46.199         23099.500
       120   10 Jun 2027 04:52:47.196   10 Jun 2027 04:55:48.490           181.294         90647.000
       121   10 Jun 2027 04:57:20.522   10 Jun 2027 04:57:35.005            14.483          7241.500
       122   10 Jun 2027 04:58:15.158   10 Jun 2027 04:58:25.628            10.470          5235.000
       123   10 Jun 2027 04:58:58.566   10 Jun 2027 04:59:06.304             7.738          3869.000
       124   10 Jun 2027 06:30:42.577   10 Jun 2027 06:33:15.406           152.829         76414.500
       125   10 Jun 2027 06:34:16.363   10 Jun 2027 06:34:40.709            24.346         12173.000
       126   10 Jun 2027 08:03:47.812   10 Jun 2027 08:04:55.802            67.990         33995.000
       127   10 Jun 2027 08:05:22.677   10 Jun 2027 08:05:27.273             4.596          2298.000
       128   10 Jun 2027 08:06:19.370   10 Jun 2027 08:06:38.387            19.017          9508.500
       129   10 Jun 2027 08:07:22.583   10 Jun 2027 08:07:28.118             5.535          2767.500
       130   10 Jun 2027 08:07:31.447   10 Jun 2027 08:07:50.711            19.264          9632.000
       131   10 Jun 2027 08:09:12.085   10 Jun 2027 08:09:19.086             7.001          3500.500
       132   10 Jun 2027 08:09:55.607   10 Jun 2027 08:10:04.439             8.832          4416.000
       133   10 Jun 2027 08:11:02.440   10 Jun 2027 08:11:06.331             3.891          1945.500
       134   11 Jun 2027 03:27:58.626   11 Jun 2027 03:32:01.739           243.113        121556.500
       135   11 Jun 2027 03:32:59.104   11 Jun 2027 03:33:16.807            17.703          8851.500
       136   11 Jun 2027 03:34:09.182   11 Jun 2027 03:34:57.571            48.389         24194.500
       137   11 Jun 2027 03:35:13.134   11 Jun 2027 03:35:17.161             4.027          2013.500
       138   11 Jun 2027 05:04:43.234   11 Jun 2027 05:07:47.465           184.231         92115.500
       139   11 Jun 2027 05:09:29.399   11 Jun 2027 05:09:46.760            17.361          8680.500
       140   11 Jun 2027 05:10:47.672   11 Jun 2027 05:10:48.838             1.166           583.000
       141   11 Jun 2027 05:11:03.572   11 Jun 2027 05:11:14.137            10.565          5282.500
       142   11 Jun 2027 06:42:41.859   11 Jun 2027 06:45:32.910           171.051         85525.500
       143   11 Jun 2027 06:46:23.880   11 Jun 2027 06:46:36.944            13.064          6532.000
       144   11 Jun 2027 08:16:19.507   11 Jun 2027 08:17:18.075            58.568         29284.000
       145   11 Jun 2027 08:18:45.455   11 Jun 2027 08:19:10.742            25.287         12643.500
       146   11 Jun 2027 08:20:50.260   11 Jun 2027 08:21:04.220            13.960          6980.000
       147   11 Jun 2027 08:21:59.006   11 Jun 2027 08:22:19.695            20.689         10344.500
       148   12 Jun 2027 03:39:52.157   12 Jun 2027 03:45:19.412           327.255        163627.500
       149   12 Jun 2027 03:45:42.889   12 Jun 2027 03:47:03.269            80.380         40190.000
       150   12 Jun 2027 05:16:36.248   12 Jun 2027 05:18:51.719           135.471         67735.500
       151   12 Jun 2027 05:19:16.012   12 Jun 2027 05:20:00.193            44.181         22090.500
       152   12 Jun 2027 05:20:37.405   12 Jun 2027 05:20:48.887            11.482          5741.000
       153   12 Jun 2027 05:21:19.851   12 Jun 2027 05:21:29.021             9.170          4585.000
       154   12 Jun 2027 05:22:32.372   12 Jun 2027 05:22:34.389             2.017          1008.500
       155   12 Jun 2027 05:22:55.041   12 Jun 2027 05:23:19.859            24.818         12409.000
       156   12 Jun 2027 06:54:29.748   12 Jun 2027 06:56:58.396           148.648         74324.000
       157   12 Jun 2027 06:57:53.313   12 Jun 2027 06:58:08.044            14.731          7365.500
       158   12 Jun 2027 06:58:44.813   12 Jun 2027 06:58:52.039             7.226          3613.000
       159   12 Jun 2027 08:30:27.504   12 Jun 2027 08:30:59.483            31.979         15989.500
       160   12 Jun 2027 08:32:28.062   12 Jun 2027 08:32:33.173             5.111          2555.500
       161   12 Jun 2027 08:32:45.248   12 Jun 2027 08:32:50.617             5.369          2684.500
       162   12 Jun 2027 08:33:19.156   12 Jun 2027 08:33:28.628             9.472          4736.000
       163   12 Jun 2027 08:33:59.900   12 Jun 2027 08:34:07.886             7.986          3993.000
       164   12 Jun 2027 08:34:47.981   12 Jun 2027 08:34:48.379             0.398           199.000
       165   13 Jun 2027 03:52:00.398   13 Jun 2027 03:58:37.276           396.878        198439.000
       166   13 Jun 2027 05:29:14.880   13 Jun 2027 05:32:22.180           187.300         93650.000
       167   13 Jun 2027 05:34:01.377   13 Jun 2027 05:34:22.902            21.525         10762.500
       168   13 Jun 2027 05:34:57.071   13 Jun 2027 05:35:06.545             9.474          4737.000
       169   13 Jun 2027 07:05:55.868   13 Jun 2027 07:08:44.966           169.098         84549.000
       170   13 Jun 2027 07:09:15.589   13 Jun 2027 07:09:39.950            24.361         12180.500
       171   13 Jun 2027 08:41:08.355   13 Jun 2027 08:41:22.220            13.865          6932.500
       172   13 Jun 2027 08:42:55.168   13 Jun 2027 08:43:00.251             5.083          2541.500
       173   13 Jun 2027 08:43:59.907   13 Jun 2027 08:44:16.254            16.347          8173.500
       174   13 Jun 2027 08:44:28.554   13 Jun 2027 08:44:40.210            11.656          5828.000
       175   13 Jun 2027 08:45:10.541   13 Jun 2027 08:45:17.498             6.957          3478.500
