uniorb/output/strategy_1/Camera/Camera_KinoSat_110807.txt

KinoSat_110807
-------------------------
    Access    *     Start Time (UTCG)     *     Stop Time (UTCG)  *   Duration (s) *   Data (Mbytes)
         1   01 Jun 2027 03:15:54.016   01 Jun 2027 03:17:09.075            75.059         37529.500
         2   01 Jun 2027 04:52:29.373   01 Jun 2027 04:54:30.482           121.109         60554.500
         3   01 Jun 2027 04:55:29.141   01 Jun 2027 04:55:29.141             0.000             0.000
         4   01 Jun 2027 04:55:38.655   01 Jun 2027 04:55:56.995            18.340          9170.000
         5   01 Jun 2027 06:27:39.527   01 Jun 2027 06:29:15.673            96.146         48073.000
         6   01 Jun 2027 06:29:35.995   01 Jun 2027 06:29:45.024             9.029          4514.500
         7   01 Jun 2027 06:29:49.743   01 Jun 2027 06:29:55.202             5.459          2729.500
         8   01 Jun 2027 06:31:48.512   01 Jun 2027 06:31:51.133             2.621          1310.500
         9   01 Jun 2027 06:33:20.536   01 Jun 2027 06:33:23.210             2.674          1337.000
        10   01 Jun 2027 06:33:30.428   01 Jun 2027 06:33:31.191             0.763           381.500
        11   01 Jun 2027 06:33:54.215   01 Jun 2027 06:33:54.507             0.292           146.000
        12   01 Jun 2027 06:34:01.864   01 Jun 2027 06:34:13.749            11.885          5942.500
        13   01 Jun 2027 08:04:00.358   01 Jun 2027 08:06:18.198           137.840         68920.000
        14   01 Jun 2027 08:08:46.465   01 Jun 2027 08:08:51.503             5.038          2519.000
        15   01 Jun 2027 08:09:24.004   01 Jun 2027 08:09:38.466            14.462          7231.000
        16   01 Jun 2027 09:41:17.099   01 Jun 2027 09:43:10.631           113.532         56766.000
        17   01 Jun 2027 09:44:02.065   01 Jun 2027 09:44:02.065             0.000             0.000
        18   01 Jun 2027 09:44:24.328   01 Jun 2027 09:44:26.934             2.606          1303.000
        19   01 Jun 2027 11:17:29.576   01 Jun 2027 11:20:02.926           153.350         76675.000
        20   02 Jun 2027 03:28:27.119   02 Jun 2027 03:28:30.062             2.943          1471.500
        21   02 Jun 2027 03:28:35.712   02 Jun 2027 03:28:50.678            14.966          7483.000
        22   02 Jun 2027 03:29:21.143   02 Jun 2027 03:29:21.143             0.000             0.000
        23   02 Jun 2027 03:29:57.860   02 Jun 2027 03:30:16.802            18.942          9471.000
        24   02 Jun 2027 03:30:42.111   02 Jun 2027 03:30:42.111             0.000             0.000
        25   02 Jun 2027 05:04:16.914   02 Jun 2027 05:06:37.077           140.163         70081.500
        26   02 Jun 2027 05:07:38.395   02 Jun 2027 05:08:02.206            23.811         11905.500
        27   02 Jun 2027 06:39:10.152   02 Jun 2027 06:40:32.715            82.563         41281.500
        28   02 Jun 2027 06:41:11.413   02 Jun 2027 06:41:39.471            28.058         14029.000
        29   02 Jun 2027 06:44:58.803   02 Jun 2027 06:45:00.185             1.382           691.000
        30   02 Jun 2027 06:46:04.325   02 Jun 2027 06:46:24.238            19.913          9956.500
        31   02 Jun 2027 08:15:38.920   02 Jun 2027 08:16:44.417            65.497         32748.500
        32   02 Jun 2027 08:17:08.399   02 Jun 2027 08:18:19.506            71.107         35553.500
        33   02 Jun 2027 08:19:23.037   02 Jun 2027 08:19:37.352            14.315          7157.500
        34   02 Jun 2027 09:53:56.725   02 Jun 2027 09:55:36.737           100.012         50006.000
        35   02 Jun 2027 09:56:38.022   02 Jun 2027 09:57:02.435            24.413         12206.500
        36   02 Jun 2027 11:29:23.735   02 Jun 2027 11:31:14.136           110.401         55200.500
        37   02 Jun 2027 11:31:30.760   02 Jun 2027 11:31:34.399             3.639          1819.500
        38   02 Jun 2027 11:32:06.889   02 Jun 2027 11:32:13.438             6.549          3274.500
        39   02 Jun 2027 11:32:56.374   02 Jun 2027 11:32:56.374             0.000             0.000
        40   02 Jun 2027 11:34:42.066   02 Jun 2027 11:34:44.925             2.859          1429.500
        41   03 Jun 2027 03:39:01.522   03 Jun 2027 03:39:28.892            27.370         13685.000
        42   03 Jun 2027 03:40:55.217   03 Jun 2027 03:40:55.217             0.000             0.000
        43   03 Jun 2027 03:42:18.278   03 Jun 2027 03:42:25.243             6.965          3482.500
        44   03 Jun 2027 03:42:38.323   03 Jun 2027 03:42:55.607            17.284          8642.000
        45   03 Jun 2027 05:14:33.211   03 Jun 2027 05:15:23.953            50.742         25371.000
        46   03 Jun 2027 05:16:02.094   03 Jun 2027 05:17:08.020            65.926         32963.000
        47   03 Jun 2027 05:17:48.257   03 Jun 2027 05:18:07.266            19.009          9504.500
        48   03 Jun 2027 05:20:19.380   03 Jun 2027 05:20:21.428             2.048          1024.000
        49   03 Jun 2027 06:50:52.383   03 Jun 2027 06:52:42.031           109.648         54824.000
        50   03 Jun 2027 06:53:45.401   03 Jun 2027 06:53:53.927             8.526          4263.000
        51   03 Jun 2027 06:54:55.687   03 Jun 2027 06:54:55.687             0.000             0.000
        52   03 Jun 2027 06:56:50.022   03 Jun 2027 06:57:08.754            18.732          9366.000
        53   03 Jun 2027 06:57:39.231   03 Jun 2027 06:57:40.051             0.820           410.000
        54   03 Jun 2027 08:27:59.326   03 Jun 2027 08:30:19.945           140.619         70309.500
        55   03 Jun 2027 08:30:32.788   03 Jun 2027 08:30:34.107             1.319           659.500
        56   03 Jun 2027 08:32:22.126   03 Jun 2027 08:32:34.450            12.324          6162.000
        57   03 Jun 2027 08:34:16.654   03 Jun 2027 08:34:18.302             1.648           824.000
        58   03 Jun 2027 10:05:54.595   03 Jun 2027 10:07:18.159            83.564         41349.968
        59   03 Jun 2027 10:07:30.857   03 Jun 2027 10:07:34.798             3.941           388.594
        60   03 Jun 2027 10:08:07.713   03 Jun 2027 10:08:12.275             4.562          1028.594
        61   03 Jun 2027 10:08:50.776   03 Jun 2027 10:08:55.180             4.404           531.281
        62   03 Jun 2027 10:09:11.798   03 Jun 2027 10:09:13.144             1.346           519.312
        63   03 Jun 2027 11:38:59.624   03 Jun 2027 11:39:15.091            15.467          7573.906
        64   03 Jun 2027 11:39:33.536   03 Jun 2027 11:39:36.396             2.860           576.406
        65   03 Jun 2027 11:40:26.098   03 Jun 2027 11:40:29.908             3.810          1014.563
        66   03 Jun 2027 11:41:31.243   03 Jun 2027 11:41:36.597             5.354          1323.094
        67   03 Jun 2027 11:41:52.418   03 Jun 2027 11:41:52.418             0.000             0.000
        68   03 Jun 2027 11:42:09.287   03 Jun 2027 11:42:13.839             4.552           931.156
        69   03 Jun 2027 11:43:14.385   03 Jun 2027 11:43:15.404             1.019           509.500
        70   03 Jun 2027 11:43:20.037   03 Jun 2027 11:43:23.604             3.567          1395.969
        71   03 Jun 2027 11:44:03.274   03 Jun 2027 11:44:05.696             2.422          1211.000
        72   03 Jun 2027 11:44:10.290   03 Jun 2027 11:44:13.544             3.254           172.250
        73   03 Jun 2027 11:44:57.029   03 Jun 2027 11:45:01.529             4.500          1358.906
        74   03 Jun 2027 11:46:23.738   03 Jun 2027 11:46:29.388             5.650          2446.938
        75   04 Jun 2027 03:50:44.357   04 Jun 2027 03:51:03.071            18.714          9357.000
        76   04 Jun 2027 03:52:39.249   04 Jun 2027 03:53:23.542            44.293         22146.500
        77   04 Jun 2027 05:25:42.062   04 Jun 2027 05:27:37.260           115.198         57599.000
        78   04 Jun 2027 05:27:46.083   04 Jun 2027 05:28:07.723            21.640         10820.000
        79   04 Jun 2027 05:29:16.653   04 Jun 2027 05:29:20.026             3.373          1686.500
        80   04 Jun 2027 05:32:05.581   04 Jun 2027 05:32:08.937             3.356          1678.000
        81   04 Jun 2027 05:32:10.869   04 Jun 2027 05:32:11.949             1.080           540.000
        82   04 Jun 2027 05:32:58.636   04 Jun 2027 05:33:03.453             4.817          2408.500
        83   04 Jun 2027 05:33:48.356   04 Jun 2027 05:34:03.860            15.504          7752.000
        84   04 Jun 2027 07:03:10.738   04 Jun 2027 07:05:06.766           116.028         58014.000
        85   04 Jun 2027 07:07:25.555   04 Jun 2027 07:07:34.685             9.130          4565.000
        86   04 Jun 2027 07:07:38.223   04 Jun 2027 07:07:40.835             2.612          1306.000
        87   04 Jun 2027 07:10:12.343   04 Jun 2027 07:10:16.430             4.087          2043.500
        88   04 Jun 2027 08:39:55.351   04 Jun 2027 08:40:36.198            40.847         19282.937
        89   04 Jun 2027 08:41:47.854   04 Jun 2027 08:41:51.375             3.521          1711.781
        90   04 Jun 2027 08:42:40.822   04 Jun 2027 08:42:42.737             1.915           921.375
        91   04 Jun 2027 08:43:50.942   04 Jun 2027 08:43:55.305             4.363          2131.406
        92   04 Jun 2027 08:43:57.232   04 Jun 2027 08:43:58.231             0.999            60.219
        93   04 Jun 2027 08:44:26.559   04 Jun 2027 08:44:29.632             3.073           885.250
        94   04 Jun 2027 08:45:47.511   04 Jun 2027 08:45:51.730             4.219          2086.969
        95   04 Jun 2027 08:46:12.674   04 Jun 2027 08:46:13.494             0.820           410.000
        96   04 Jun 2027 08:46:25.559   04 Jun 2027 08:46:28.133             2.574           621.531
        97   04 Jun 2027 10:17:53.835   04 Jun 2027 10:18:12.340            18.505          8271.187
        98   04 Jun 2027 10:18:18.995   04 Jun 2027 10:18:20.916             1.921           207.969
        99   04 Jun 2027 10:19:05.784   04 Jun 2027 10:19:08.614             2.830          1352.563
       100   04 Jun 2027 10:19:50.056   04 Jun 2027 10:20:00.546            10.490           753.500
       101   04 Jun 2027 10:20:54.050   04 Jun 2027 10:20:56.629             2.579           630.531
       102   04 Jun 2027 10:21:07.048   04 Jun 2027 10:21:15.631             8.583           325.594
       103   04 Jun 2027 10:21:16.997   04 Jun 2027 10:21:18.271             1.274            35.187
       104   04 Jun 2027 10:21:44.954   04 Jun 2027 10:21:48.212             3.258           833.844
       105   04 Jun 2027 11:51:31.736   04 Jun 2027 11:51:34.858             3.122          1214.500
       106   04 Jun 2027 11:52:15.753   04 Jun 2027 11:52:15.753             0.000             0.000
       107   04 Jun 2027 11:52:52.942   04 Jun 2027 11:53:04.965            12.023          1542.125
       108   04 Jun 2027 11:53:12.033   04 Jun 2027 11:53:13.710             1.677           193.625
       109   04 Jun 2027 11:53:40.348   04 Jun 2027 11:53:43.519             3.171           832.437
       110   04 Jun 2027 11:54:19.704   04 Jun 2027 11:54:22.210             2.506          1008.500
       111   04 Jun 2027 11:54:50.979   04 Jun 2027 11:54:57.983             7.004           861.563
       112   04 Jun 2027 11:55:25.856   04 Jun 2027 11:55:26.843             0.987           417.437
       113   04 Jun 2027 11:56:12.997   04 Jun 2027 11:56:18.147             5.150          1128.438
       114   04 Jun 2027 11:57:24.237   04 Jun 2027 11:57:28.275             4.038          1889.344
       115   04 Jun 2027 11:58:13.935   04 Jun 2027 11:58:17.862             3.927          1244.562
       116   04 Jun 2027 11:58:53.837   04 Jun 2027 11:58:56.002             2.165           769.656
       117   05 Jun 2027 04:02:16.721   05 Jun 2027 04:03:04.271            47.550         23775.000
       118   05 Jun 2027 04:04:25.044   05 Jun 2027 04:04:32.539             7.495          3747.500
       119   05 Jun 2027 04:06:53.247   05 Jun 2027 04:06:57.941             4.694          2347.000
       120   05 Jun 2027 05:37:10.145   05 Jun 2027 05:39:24.266           134.121         67060.500
       121   05 Jun 2027 05:40:17.723   05 Jun 2027 05:40:39.303            21.580         10790.000
       122   05 Jun 2027 05:46:03.717   05 Jun 2027 05:46:17.979            14.262          7131.000
       123   05 Jun 2027 07:15:03.946   05 Jun 2027 07:17:08.020           124.074         62037.000
       124   05 Jun 2027 07:18:45.007   05 Jun 2027 07:18:46.636             1.629           814.500
       125   05 Jun 2027 07:20:06.304   05 Jun 2027 07:20:16.967            10.663          5289.126
       126   05 Jun 2027 07:20:55.349   05 Jun 2027 07:21:00.545             5.196          1184.625
       127   05 Jun 2027 07:21:58.930   05 Jun 2027 07:22:03.902             4.972          1824.531
       128   05 Jun 2027 08:51:47.957   05 Jun 2027 08:52:00.238            12.281          6140.500
       129   05 Jun 2027 08:52:22.479   05 Jun 2027 08:52:47.137            24.658         10173.969
       130   05 Jun 2027 08:54:35.374   05 Jun 2027 08:54:43.868             8.494          3378.344
       131   05 Jun 2027 08:55:38.076   05 Jun 2027 08:55:41.321             3.245          1326.094
       132   05 Jun 2027 08:55:45.383   05 Jun 2027 08:55:46.279             0.896           126.938
       133   05 Jun 2027 08:55:54.749   05 Jun 2027 08:55:54.749             0.000             0.000
       134   05 Jun 2027 08:56:02.713   05 Jun 2027 08:56:05.309             2.596           438.750
       135   05 Jun 2027 08:56:17.891   05 Jun 2027 08:56:19.731             1.840           393.187
       136   05 Jun 2027 08:57:53.388   05 Jun 2027 08:58:00.068             6.680          2526.094
       137   05 Jun 2027 08:58:07.751   05 Jun 2027 08:58:08.602             0.851           122.156
       138   05 Jun 2027 10:29:53.922   05 Jun 2027 10:30:13.846            19.924          7828.719
       139   05 Jun 2027 10:30:15.528   05 Jun 2027 10:30:18.095             2.567            25.406
       140   05 Jun 2027 10:30:53.041   05 Jun 2027 10:30:58.045             5.004           919.531
       141   05 Jun 2027 10:31:15.760   05 Jun 2027 10:31:16.929             1.169           528.312
       142   05 Jun 2027 10:32:05.851   05 Jun 2027 10:32:14.068             8.217          1453.219
       143   05 Jun 2027 10:33:16.094   05 Jun 2027 10:33:18.346             2.252          1126.000
       144   06 Jun 2027 04:16:15.126   06 Jun 2027 04:17:23.827            68.701         34350.500
       145   06 Jun 2027 04:19:27.030   06 Jun 2027 04:19:32.004             4.974          2487.000
       146   06 Jun 2027 05:50:02.828   06 Jun 2027 05:51:40.046            97.218         48609.000
       147   06 Jun 2027 05:52:20.065   06 Jun 2027 05:52:57.652            37.587         18793.500
       148   06 Jun 2027 05:54:32.375   06 Jun 2027 05:54:55.252            22.877         11438.500
       149   06 Jun 2027 05:55:57.667   06 Jun 2027 05:55:57.667             0.000             0.000
       150   06 Jun 2027 05:57:43.483   06 Jun 2027 05:57:54.187            10.704          5352.000
       151   06 Jun 2027 07:27:11.768   06 Jun 2027 07:27:47.769            36.001         18000.500
       152   06 Jun 2027 07:27:57.465   06 Jun 2027 07:28:26.470            29.005         14502.500
       153   06 Jun 2027 07:29:08.400   06 Jun 2027 07:29:55.877            47.477         23738.500
       154   06 Jun 2027 07:30:15.038   06 Jun 2027 07:30:19.843             4.805          2391.845
       155   06 Jun 2027 07:30:34.657   06 Jun 2027 07:30:35.007             0.350           175.000
       156   06 Jun 2027 07:31:35.497   06 Jun 2027 07:31:40.794             5.297          2029.063
       157   06 Jun 2027 07:32:54.240   06 Jun 2027 07:32:58.823             4.583          2122.000
       158   06 Jun 2027 09:04:26.327   06 Jun 2027 09:04:48.829            22.502         10994.437
       159   06 Jun 2027 09:05:43.960   06 Jun 2027 09:05:49.830             5.870          1722.844
       160   06 Jun 2027 09:06:01.958   06 Jun 2027 09:06:02.411             0.453           226.500
       161   06 Jun 2027 09:06:27.146   06 Jun 2027 09:06:29.727             2.581           825.469
       162   06 Jun 2027 09:07:22.741   06 Jun 2027 09:07:26.834             4.093          1656.688
       163   06 Jun 2027 09:07:48.896   06 Jun 2027 09:07:51.942             3.046           689.438
       164   06 Jun 2027 09:08:24.995   06 Jun 2027 09:08:28.267             3.272          1016.469
       165   06 Jun 2027 09:08:56.179   06 Jun 2027 09:08:57.675             1.496           734.062
       166   06 Jun 2027 09:09:43.617   06 Jun 2027 09:09:49.293             5.676          1179.531
       167   06 Jun 2027 10:41:07.931   06 Jun 2027 10:41:21.180            13.249          6624.500
       168   06 Jun 2027 10:42:01.718   06 Jun 2027 10:42:04.624             2.906          1436.250
       169   06 Jun 2027 10:42:24.884   06 Jun 2027 10:42:28.534             3.650           111.062
       170   06 Jun 2027 10:43:20.031   06 Jun 2027 10:43:25.094             5.063          1552.812
       171   06 Jun 2027 10:44:15.424   06 Jun 2027 10:44:19.851             4.427          1289.969
       172   06 Jun 2027 10:45:34.053   06 Jun 2027 10:45:44.283            10.230          2159.594
       173   07 Jun 2027 04:28:27.988   07 Jun 2027 04:30:02.358            94.370         47185.000
       174   07 Jun 2027 04:30:47.516   07 Jun 2027 04:30:53.107             5.591          2795.500
       175   07 Jun 2027 04:31:21.541   07 Jun 2027 04:31:26.160             4.619          2309.500
       176   07 Jun 2027 06:02:27.899   07 Jun 2027 06:04:04.541            96.642         48321.000
       177   07 Jun 2027 06:04:07.618   07 Jun 2027 06:04:21.612            13.994          6997.000
       178   07 Jun 2027 06:07:29.521   07 Jun 2027 06:07:47.252            17.731          8865.500
       179   07 Jun 2027 06:09:08.571   07 Jun 2027 06:09:11.075             2.504          1252.000
       180   07 Jun 2027 06:10:29.017   07 Jun 2027 06:10:31.856             2.839          1419.500
       181   07 Jun 2027 07:39:37.010   07 Jun 2027 07:41:37.695           120.685         57005.187
       182   07 Jun 2027 07:42:39.468   07 Jun 2027 07:42:43.062             3.594          1567.500
       183   07 Jun 2027 07:42:58.672   07 Jun 2027 07:43:02.071             3.399           487.250
       184   07 Jun 2027 07:43:17.164   07 Jun 2027 07:43:23.334             6.170           459.812
       185   07 Jun 2027 07:43:42.664   07 Jun 2027 07:43:43.689             1.025           319.125
       186   07 Jun 2027 07:44:55.846   07 Jun 2027 07:45:02.728             6.882          2254.906
       187   07 Jun 2027 09:16:35.905   07 Jun 2027 09:17:01.037            25.132         11601.406
       188   07 Jun 2027 09:17:02.445   07 Jun 2027 09:17:02.752             0.307            44.000
       189   07 Jun 2027 09:18:09.528   07 Jun 2027 09:18:13.950             4.422          1200.656
       190   07 Jun 2027 09:18:35.037   07 Jun 2027 09:18:37.990             2.953           493.719
       191   07 Jun 2027 09:19:00.605   07 Jun 2027 09:19:04.255             3.650           706.719
       192   07 Jun 2027 09:19:28.079   07 Jun 2027 09:19:30.106             2.027           744.500
       193   07 Jun 2027 09:19:56.235   07 Jun 2027 09:19:58.467             2.232           375.437
       194   07 Jun 2027 09:20:14.960   07 Jun 2027 09:20:16.485             1.525           500.844
       195   07 Jun 2027 09:20:46.143   07 Jun 2027 09:20:49.263             3.120           926.813
       196   07 Jun 2027 09:20:56.771   07 Jun 2027 09:20:57.172             0.401           200.500
       197   07 Jun 2027 10:53:22.730   07 Jun 2027 10:53:37.407            14.677          7310.250
       198   07 Jun 2027 10:53:46.769   07 Jun 2027 10:53:48.716             1.947           125.031
       199   07 Jun 2027 10:54:08.495   07 Jun 2027 10:54:14.113             5.618           618.094
       200   07 Jun 2027 10:54:22.570   07 Jun 2027 10:54:26.264             3.694           122.906
       201   07 Jun 2027 10:54:56.133   07 Jun 2027 10:54:59.035             2.902           932.563
       202   07 Jun 2027 10:55:50.700   07 Jun 2027 10:55:52.332             1.632           816.000
       203   07 Jun 2027 10:56:30.562   07 Jun 2027 10:56:34.199             3.637          1337.188
       204   07 Jun 2027 10:57:13.209   07 Jun 2027 10:57:17.540             4.331          1213.781
       205   07 Jun 2027 10:57:25.928   07 Jun 2027 10:57:26.746             0.818           241.750
       206   07 Jun 2027 10:57:40.060   07 Jun 2027 10:57:43.529             3.469           158.562
       207   08 Jun 2027 03:04:03.316   08 Jun 2027 03:04:28.272            24.956         12478.000
       208   08 Jun 2027 03:05:52.476   08 Jun 2027 03:05:52.476             0.000             0.000
       209   08 Jun 2027 03:06:22.175   08 Jun 2027 03:06:22.175             0.000             0.000
       210   08 Jun 2027 03:06:32.483   08 Jun 2027 03:06:42.960            10.477          5238.500
       211   08 Jun 2027 04:40:33.862   08 Jun 2027 04:42:14.567           100.705         50352.500
       212   08 Jun 2027 06:15:42.726   08 Jun 2027 06:17:08.723            85.997         42998.500
       213   08 Jun 2027 06:17:41.565   08 Jun 2027 06:18:00.075            18.510          9255.000
       214   08 Jun 2027 06:18:19.314   08 Jun 2027 06:18:34.501            15.187          7593.500
       215   08 Jun 2027 06:21:32.518   08 Jun 2027 06:21:33.281             0.763           381.500
       216   08 Jun 2027 06:22:22.090   08 Jun 2027 06:22:31.400             9.310          4655.000
       217   08 Jun 2027 07:52:03.053   08 Jun 2027 07:53:06.185            63.132         31566.000
       218   08 Jun 2027 07:53:15.370   08 Jun 2027 07:53:44.745            29.375         13134.406
       219   08 Jun 2027 07:54:15.630   08 Jun 2027 07:54:22.609             6.979           827.594
       220   08 Jun 2027 07:55:43.566   08 Jun 2027 07:55:44.204             0.638           319.000
       221   08 Jun 2027 07:56:01.306   08 Jun 2027 07:56:06.867             5.561          2121.406
       222   08 Jun 2027 07:56:12.885   08 Jun 2027 07:56:16.993             4.108           157.531
       223   08 Jun 2027 07:56:36.903   08 Jun 2027 07:56:42.124             5.221           587.031
       224   08 Jun 2027 07:56:53.438   08 Jun 2027 07:56:53.438             0.000             0.000
       225   08 Jun 2027 07:57:33.072   08 Jun 2027 07:57:35.520             2.448          1224.000
       226   08 Jun 2027 09:29:37.100   08 Jun 2027 09:30:03.374            26.274         11801.688
       227   08 Jun 2027 09:31:17.980   08 Jun 2027 09:31:22.101             4.121          2059.031
       228   08 Jun 2027 09:31:23.821   08 Jun 2027 09:31:23.915             0.094            47.000
       229   08 Jun 2027 09:31:54.623   08 Jun 2027 09:31:58.187             3.564           966.375
       230   08 Jun 2027 09:32:56.522   08 Jun 2027 09:33:03.205             6.683          1749.375
       231   08 Jun 2027 11:05:40.288   08 Jun 2027 11:05:56.219            15.931          7798.375
       232   08 Jun 2027 11:06:31.832   08 Jun 2027 11:06:36.015             4.183           611.031
       233   08 Jun 2027 11:07:18.179   08 Jun 2027 11:07:21.466             3.287          1287.312
       234   08 Jun 2027 11:07:44.957   08 Jun 2027 11:07:47.868             2.911           509.125
       235   08 Jun 2027 11:08:24.111   08 Jun 2027 11:08:35.954            11.843          1032.625
       236   08 Jun 2027 11:09:08.958   08 Jun 2027 11:09:10.110             1.152           450.656
       237   08 Jun 2027 11:09:12.423   08 Jun 2027 11:09:13.035             0.612            72.281
       238   08 Jun 2027 11:09:37.452   08 Jun 2027 11:09:45.277             7.825           700.500
       239   09 Jun 2027 03:16:08.540   09 Jun 2027 03:16:30.440            21.900         10950.000
       240   09 Jun 2027 03:16:52.278   09 Jun 2027 03:16:52.278             0.000             0.000
       241   09 Jun 2027 03:16:53.169   09 Jun 2027 03:16:58.153             4.984          2492.000
       242   09 Jun 2027 03:19:10.532   09 Jun 2027 03:19:13.303             2.771          1385.500
       243   09 Jun 2027 04:52:44.203   09 Jun 2027 04:55:00.551           136.348         68174.000
       244   09 Jun 2027 06:27:54.453   09 Jun 2027 06:29:50.331           115.878         57939.000
       245   09 Jun 2027 06:31:05.303   09 Jun 2027 06:31:07.945             2.642          1321.000
       246   09 Jun 2027 06:33:39.218   09 Jun 2027 06:33:43.987             4.769          2384.500
       247   09 Jun 2027 08:04:15.014   09 Jun 2027 08:05:08.242            53.228         26239.188
       248   09 Jun 2027 08:05:37.566   09 Jun 2027 08:05:39.548             1.982           198.281
       249   09 Jun 2027 08:06:45.187   09 Jun 2027 08:06:48.219             3.032          1516.000
       250   09 Jun 2027 08:06:53.025   09 Jun 2027 08:06:55.246             2.221           685.406
       251   09 Jun 2027 08:07:19.376   09 Jun 2027 08:07:20.763             1.387           693.500
       252   09 Jun 2027 08:08:38.277   09 Jun 2027 08:08:42.901             4.624          2312.000
       253   09 Jun 2027 08:10:13.193   09 Jun 2027 08:10:18.231             5.038          2519.000
       254   09 Jun 2027 09:41:40.514   09 Jun 2027 09:42:01.143            20.629          9311.312
       255   09 Jun 2027 09:42:20.639   09 Jun 2027 09:42:21.127             0.488            68.812
       256   09 Jun 2027 09:42:39.394   09 Jun 2027 09:42:43.081             3.687           355.375
       257   09 Jun 2027 09:42:55.019   09 Jun 2027 09:42:56.400             1.381           373.062
       258   09 Jun 2027 09:43:01.416   09 Jun 2027 09:43:02.112             0.696            14.531
       259   09 Jun 2027 09:43:38.667   09 Jun 2027 09:43:38.678             0.011             5.500
       260   09 Jun 2027 09:43:51.985   09 Jun 2027 09:43:54.555             2.570           823.125
       261   09 Jun 2027 09:44:01.881   09 Jun 2027 09:44:06.094             4.213            72.688
       262   09 Jun 2027 09:44:09.680   09 Jun 2027 09:44:14.789             5.109            82.781
       263   09 Jun 2027 09:44:21.337   09 Jun 2027 09:44:22.075             0.738           204.625
       264   09 Jun 2027 09:44:32.301   09 Jun 2027 09:44:35.981             3.680            20.688
       265   09 Jun 2027 09:44:59.586   09 Jun 2027 09:44:59.586             0.000             0.000
       266   09 Jun 2027 09:45:07.090   09 Jun 2027 09:45:09.315             2.225           848.969
       267   09 Jun 2027 09:45:40.868   09 Jun 2027 09:45:43.363             2.495           986.031
       268   09 Jun 2027 11:17:44.413   09 Jun 2027 11:17:58.587            14.174          6748.500
       269   09 Jun 2027 11:18:02.967   09 Jun 2027 11:18:03.403             0.436           136.875
       270   09 Jun 2027 11:18:20.806   09 Jun 2027 11:18:22.969             2.163           543.844
       271   09 Jun 2027 11:18:39.422   09 Jun 2027 11:18:42.744             3.322           313.406
       272   09 Jun 2027 11:19:20.146   09 Jun 2027 11:19:26.493             6.347           868.500
       273   09 Jun 2027 11:19:32.809   09 Jun 2027 11:19:35.677             2.868           154.625
       274   09 Jun 2027 11:20:01.615   09 Jun 2027 11:20:01.615             0.000             0.000
       275   09 Jun 2027 11:20:58.640   09 Jun 2027 11:21:04.437             5.797          2592.594
       276   09 Jun 2027 11:21:18.942   09 Jun 2027 11:21:18.942             0.000             0.000
       277   09 Jun 2027 11:21:23.117   09 Jun 2027 11:21:26.362             3.245           346.688
       278   09 Jun 2027 11:22:15.095   09 Jun 2027 11:22:24.440             9.345          1468.156
       279   10 Jun 2027 03:28:42.135   10 Jun 2027 03:29:35.895            53.760         26880.000
       280   10 Jun 2027 03:30:33.212   10 Jun 2027 03:30:45.668            12.456          6228.000
       281   10 Jun 2027 03:30:57.010   10 Jun 2027 03:30:57.010             0.000             0.000
       282   10 Jun 2027 05:04:31.115   10 Jun 2027 05:06:46.806           135.691         67845.500
       283   10 Jun 2027 05:07:53.422   10 Jun 2027 05:07:59.704             6.282          3141.000
       284   10 Jun 2027 06:39:24.209   10 Jun 2027 06:40:47.467            83.258         41629.000
       285   10 Jun 2027 06:41:16.980   10 Jun 2027 06:41:27.380            10.400          5200.000
       286   10 Jun 2027 06:41:55.696   10 Jun 2027 06:42:09.569            13.873          6936.500
       287   10 Jun 2027 06:45:02.155   10 Jun 2027 06:45:14.879            12.724          6362.000
       288   10 Jun 2027 06:46:05.005   10 Jun 2027 06:46:17.007            12.002          6001.000
       289   10 Jun 2027 08:15:54.188   10 Jun 2027 08:16:31.046            36.858         18403.156
       290   10 Jun 2027 08:17:48.469   10 Jun 2027 08:17:53.815             5.346          1631.875
       291   10 Jun 2027 08:18:43.216   10 Jun 2027 08:18:45.551             2.335           271.562
       292   10 Jun 2027 08:19:52.085   10 Jun 2027 08:19:57.694             5.609          2024.906
       293   10 Jun 2027 08:20:32.020   10 Jun 2027 08:20:33.121             1.101           550.500
       294   10 Jun 2027 08:21:22.804   10 Jun 2027 08:21:29.481             6.677          2074.781
       295   10 Jun 2027 08:21:45.143   10 Jun 2027 08:21:49.031             3.888           479.875
       296   10 Jun 2027 09:54:11.753   10 Jun 2027 09:54:35.233            23.480         10848.188
       297   10 Jun 2027 09:55:34.693   10 Jun 2027 09:55:37.633             2.940          1470.000
       298   10 Jun 2027 09:56:01.891   10 Jun 2027 09:56:04.893             3.002          1136.938
       299   10 Jun 2027 09:56:31.273   10 Jun 2027 09:56:35.309             4.036           793.187
       300   10 Jun 2027 09:56:43.283   10 Jun 2027 09:56:43.559             0.276            25.500
       301   10 Jun 2027 09:57:22.788   10 Jun 2027 09:57:24.792             2.004           727.469
       302   10 Jun 2027 11:29:37.928   10 Jun 2027 11:29:51.881            13.953          6976.500
       303   10 Jun 2027 11:30:13.591   10 Jun 2027 11:30:19.048             5.457           689.844
       304   10 Jun 2027 11:30:31.035   10 Jun 2027 11:30:32.218             1.183           255.594
       305   10 Jun 2027 11:31:32.693   10 Jun 2027 11:31:37.207             4.514          1889.844
       306   10 Jun 2027 11:32:14.018   10 Jun 2027 11:32:18.079             4.061          1150.344
       307   10 Jun 2027 11:33:29.644   10 Jun 2027 11:33:34.555             4.911          2196.906
       308   10 Jun 2027 11:34:00.815   10 Jun 2027 11:34:01.779             0.964           481.625
       309   10 Jun 2027 11:34:33.776   10 Jun 2027 11:34:36.026             2.250           661.062
       310   10 Jun 2027 11:34:57.561   10 Jun 2027 11:35:00.111             2.550           328.750
       311   11 Jun 2027 03:39:16.593   11 Jun 2027 03:39:43.489            26.896         13448.000
       312   11 Jun 2027 03:40:51.343   11 Jun 2027 03:41:07.943            16.600          8300.000
       313   11 Jun 2027 05:14:47.792   11 Jun 2027 05:15:38.517            50.725         25362.500
       314   11 Jun 2027 05:16:16.466   11 Jun 2027 05:17:44.913            88.447         44223.500
       315   11 Jun 2027 05:18:36.014   11 Jun 2027 05:18:39.985             3.971          1985.500
       316   11 Jun 2027 05:20:05.568   11 Jun 2027 05:20:07.404             1.836           918.000
       317   11 Jun 2027 05:20:34.886   11 Jun 2027 05:20:38.028             3.142          1571.000
       318   11 Jun 2027 06:51:07.583   11 Jun 2027 06:52:18.500            70.917         35458.500
       319   11 Jun 2027 06:52:29.722   11 Jun 2027 06:52:52.337            22.615         11307.500
       320   11 Jun 2027 06:53:19.462   11 Jun 2027 06:53:28.879             9.417          4708.500
       321   11 Jun 2027 06:53:40.845   11 Jun 2027 06:53:45.722             4.877          2438.500
       322   11 Jun 2027 06:54:01.589   11 Jun 2027 06:54:09.587             7.998          3999.000
       323   11 Jun 2027 06:54:49.321   11 Jun 2027 06:55:01.182            11.861          5930.500
       324   11 Jun 2027 06:55:51.443   11 Jun 2027 06:56:04.763            13.320          6660.000
       325   11 Jun 2027 06:56:35.104   11 Jun 2027 06:56:45.029             9.925          4538.062
       326   11 Jun 2027 06:57:53.778   11 Jun 2027 06:57:54.773             0.995           497.500
       327   11 Jun 2027 06:58:30.826   11 Jun 2027 06:58:38.166             7.340          2777.563
       328   11 Jun 2027 08:28:13.939   11 Jun 2027 08:28:53.080            39.141         19038.938
       329   11 Jun 2027 08:29:34.328   11 Jun 2027 08:29:37.143             2.815          1289.000
       330   11 Jun 2027 08:30:34.937   11 Jun 2027 08:30:38.571             3.634          1242.062
       331   11 Jun 2027 08:31:10.557   11 Jun 2027 08:31:12.576             2.019           682.469
       332   11 Jun 2027 08:31:40.339   11 Jun 2027 08:31:49.030             8.691           654.094
       333   11 Jun 2027 08:32:14.962   11 Jun 2027 08:32:17.608             2.646           708.781
       334   11 Jun 2027 08:32:31.549   11 Jun 2027 08:32:32.757             1.208           423.438
       335   11 Jun 2027 08:33:01.905   11 Jun 2027 08:33:05.170             3.265           785.719
       336   11 Jun 2027 08:33:57.069   11 Jun 2027 08:33:57.974             0.905           452.500
       337   11 Jun 2027 08:34:15.658   11 Jun 2027 08:34:17.697             2.039          1019.500
       338   11 Jun 2027 08:34:19.924   11 Jun 2027 08:34:24.443             4.519           432.125
       339   11 Jun 2027 10:06:09.318   11 Jun 2027 10:06:25.297            15.979          7927.719
       340   11 Jun 2027 10:06:55.194   11 Jun 2027 10:06:58.064             2.870           898.531
       341   11 Jun 2027 10:07:35.027   11 Jun 2027 10:07:36.970             1.943           633.219
       342   11 Jun 2027 10:08:07.898   11 Jun 2027 10:08:11.842             3.944           812.313
       343   11 Jun 2027 10:08:52.997   11 Jun 2027 10:08:56.707             3.710           925.625
       344   11 Jun 2027 10:09:11.638   11 Jun 2027 10:09:12.925             1.287           184.375
       345   11 Jun 2027 10:09:53.958   11 Jun 2027 10:09:57.155             3.197          1029.063
       346   11 Jun 2027 11:39:14.545   11 Jun 2027 11:39:29.819            15.274          6819.344
       347   11 Jun 2027 11:39:52.791   11 Jun 2027 11:39:55.023             2.232           717.875
       348   11 Jun 2027 11:41:21.484   11 Jun 2027 11:41:29.431             7.947          1398.094
       349   11 Jun 2027 11:41:40.897   11 Jun 2027 11:41:45.177             4.280           321.500
       350   11 Jun 2027 11:42:06.864   11 Jun 2027 11:42:07.469             0.605           302.500
       351   11 Jun 2027 11:42:25.779   11 Jun 2027 11:42:29.724             3.945           894.500
       352   11 Jun 2027 11:43:00.220   11 Jun 2027 11:43:05.145             4.925           859.875
       353   11 Jun 2027 11:43:21.400   11 Jun 2027 11:43:27.387             5.987           507.969
       354   11 Jun 2027 11:43:45.252   11 Jun 2027 11:43:48.294             3.042           502.344
       355   11 Jun 2027 11:44:17.679   11 Jun 2027 11:44:18.700             1.021           510.500
       356   11 Jun 2027 11:45:22.980   11 Jun 2027 11:45:32.061             9.081          2416.531
       357   11 Jun 2027 11:46:29.514   11 Jun 2027 11:46:34.660             5.146          1670.531
       358   12 Jun 2027 03:50:58.985   12 Jun 2027 03:51:18.302            19.317          9658.500
       359   12 Jun 2027 03:52:52.876   12 Jun 2027 03:53:09.427            16.551          8275.500
       360   12 Jun 2027 03:53:39.042   12 Jun 2027 03:53:48.660             9.618          4809.000
       361   12 Jun 2027 03:54:37.523   12 Jun 2027 03:55:07.121            29.598         14799.000
       362   12 Jun 2027 03:55:45.953   12 Jun 2027 03:55:49.879             3.926          1963.000
       363   12 Jun 2027 05:25:56.086   12 Jun 2027 05:27:51.519           115.433         57716.500
       364   12 Jun 2027 05:29:07.476   12 Jun 2027 05:29:16.455             8.979          4489.500
       365   12 Jun 2027 05:29:45.969   12 Jun 2027 05:29:58.633            12.664          6332.000
       366   12 Jun 2027 07:03:25.370   12 Jun 2027 07:05:21.507           116.137         58068.500
       367   12 Jun 2027 07:05:23.826   12 Jun 2027 07:05:25.321             1.495           747.500
       368   12 Jun 2027 07:10:26.956   12 Jun 2027 07:10:43.893            16.937          8468.500
       369   12 Jun 2027 08:40:09.984   12 Jun 2027 08:40:39.141            29.157         13873.971
       370   12 Jun 2027 08:41:46.300   12 Jun 2027 08:41:49.661             3.361          1447.031
       371   12 Jun 2027 08:42:57.777   12 Jun 2027 08:43:01.468             3.691          1674.719
       372   12 Jun 2027 08:43:37.206   12 Jun 2027 08:43:44.267             7.061           215.750
       373   12 Jun 2027 08:44:03.973   12 Jun 2027 08:44:06.021             2.048           500.250
       374   12 Jun 2027 08:44:11.564   12 Jun 2027 08:44:13.117             1.553            33.094
       375   12 Jun 2027 08:44:13.690   12 Jun 2027 08:44:16.229             2.539            17.906
       376   12 Jun 2027 08:44:56.011   12 Jun 2027 08:44:58.642             2.631          1179.313
       377   12 Jun 2027 08:46:10.026   12 Jun 2027 08:46:16.306             6.280          1936.594
       378   12 Jun 2027 08:46:28.917   12 Jun 2027 08:46:36.607             7.690           382.625
       379   12 Jun 2027 10:18:08.599   12 Jun 2027 10:18:24.286            15.687          7843.500
       380   12 Jun 2027 10:19:48.900   12 Jun 2027 10:19:55.839             6.939          2829.563
       381   12 Jun 2027 10:20:57.831   12 Jun 2027 10:21:02.050             4.219          1799.500
       382   12 Jun 2027 10:21:14.022   12 Jun 2027 10:21:20.424             6.402           374.125
       383   12 Jun 2027 10:21:39.124   12 Jun 2027 10:21:44.866             5.742           584.375
       384   12 Jun 2027 10:22:13.756   12 Jun 2027 10:22:16.532             2.776           798.969
       385   12 Jun 2027 11:51:46.259   12 Jun 2027 11:51:51.879             5.620          2236.906
       386   12 Jun 2027 11:53:07.142   12 Jun 2027 11:53:10.989             3.847          1762.938
       387   12 Jun 2027 11:53:26.800   12 Jun 2027 11:53:28.916             2.116           172.437
       388   12 Jun 2027 11:53:54.996   12 Jun 2027 11:53:56.824             1.828           764.250
       389   12 Jun 2027 11:54:20.098   12 Jun 2027 11:54:20.098             0.000             0.000
       390   12 Jun 2027 11:54:34.364   12 Jun 2027 11:54:38.073             3.709           995.312
       391   12 Jun 2027 11:56:20.853   12 Jun 2027 11:56:27.931             7.078          3211.875
       392   12 Jun 2027 11:56:38.625   12 Jun 2027 11:56:38.625             0.000             0.000
       393   12 Jun 2027 11:57:27.029   12 Jun 2027 11:57:28.030             1.001           500.500
       394   12 Jun 2027 11:57:56.011   12 Jun 2027 11:58:02.196             6.185          2207.844
       395   13 Jun 2027 04:02:30.962   13 Jun 2027 04:03:19.496            48.534         24267.000
       396   13 Jun 2027 04:07:45.531   13 Jun 2027 04:07:45.531             0.000             0.000
       397   13 Jun 2027 05:37:24.683   13 Jun 2027 05:39:38.209           133.526         66763.000
       398   13 Jun 2027 05:40:56.030   13 Jun 2027 05:41:04.264             8.234          4117.000
       399   13 Jun 2027 05:41:57.510   13 Jun 2027 05:42:31.149            33.639         16819.500
       400   13 Jun 2027 05:42:59.829   13 Jun 2027 05:43:06.451             6.622          3311.000
       401   13 Jun 2027 07:15:18.896   13 Jun 2027 07:17:27.755           128.859         64429.500
       402   13 Jun 2027 07:17:46.037   13 Jun 2027 07:17:53.465             7.428          3327.155
       403   13 Jun 2027 07:19:43.680   13 Jun 2027 07:19:48.727             5.047          2523.500
       404   13 Jun 2027 07:20:13.548   13 Jun 2027 07:20:18.145             4.597          1423.125
       405   13 Jun 2027 07:21:09.568   13 Jun 2027 07:21:17.951             8.383          1498.188
       406   13 Jun 2027 08:52:02.985   13 Jun 2027 08:52:14.883            11.898          5949.000
       407   13 Jun 2027 08:52:37.698   13 Jun 2027 08:53:01.796            24.098         11555.468
       408   13 Jun 2027 08:53:38.210   13 Jun 2027 08:53:38.304             0.094            47.000
       409   13 Jun 2027 08:54:50.087   13 Jun 2027 08:55:01.757            11.670          3241.781
       410   13 Jun 2027 08:55:45.869   13 Jun 2027 08:55:47.926             2.057            81.594
       411   13 Jun 2027 08:55:59.430   13 Jun 2027 08:56:01.863             2.433           192.000
       412   13 Jun 2027 08:56:59.213   13 Jun 2027 08:57:07.383             8.170          1727.344
       413   13 Jun 2027 08:57:50.557   13 Jun 2027 08:57:58.956             8.399          1180.813
       414   13 Jun 2027 08:58:21.026   13 Jun 2027 08:58:21.026             0.000             0.000
       415   13 Jun 2027 08:58:41.645   13 Jun 2027 08:58:45.058             3.413          1275.156
       416   13 Jun 2027 10:29:56.488   13 Jun 2027 10:30:12.550            16.062          7858.219
       417   13 Jun 2027 10:31:33.976   13 Jun 2027 10:31:41.695             7.719          2364.469
       418   13 Jun 2027 10:32:05.947   13 Jun 2027 10:32:07.767             1.820           700.969
       419   13 Jun 2027 10:32:43.439   13 Jun 2027 10:32:45.614             2.175           935.437
       420   13 Jun 2027 10:32:59.094   13 Jun 2027 10:33:03.855             4.761           352.031
       421   13 Jun 2027 10:33:44.793   13 Jun 2027 10:33:47.690             2.897          1269.750
