uniorb/output/strategy_1/Camera/Camera_KinoSat_110904.txt

KinoSat_110904
-------------------------
    Access    *     Start Time (UTCG)     *     Stop Time (UTCG)  *   Duration (s) *   Data (Mbytes)
         1   01 Jun 2027 03:40:39.538   01 Jun 2027 03:41:48.622            69.084         34542.000
         2   01 Jun 2027 03:42:28.074   01 Jun 2027 03:42:48.276            20.202         10101.000
         3   01 Jun 2027 03:43:19.873   01 Jun 2027 03:43:44.602            24.729         12364.500
         4   01 Jun 2027 05:17:09.634   01 Jun 2027 05:18:56.787           107.153         53576.500
         5   01 Jun 2027 06:52:19.927   01 Jun 2027 06:54:15.642           115.715         57857.500
         6   01 Jun 2027 06:54:37.938   01 Jun 2027 06:54:49.992            12.054          6027.000
         7   01 Jun 2027 06:57:46.877   01 Jun 2027 06:58:05.536            18.659          9329.500
         8   01 Jun 2027 06:58:28.109   01 Jun 2027 06:58:28.189             0.080            40.000
         9   01 Jun 2027 06:58:47.529   01 Jun 2027 06:58:53.664             6.135          3067.500
        10   01 Jun 2027 08:28:40.777   01 Jun 2027 08:30:33.921           113.144         56572.000
        11   01 Jun 2027 08:31:05.452   01 Jun 2027 08:31:13.803             8.351          4175.500
        12   01 Jun 2027 08:32:09.899   01 Jun 2027 08:32:14.467             4.568          2284.000
        13   01 Jun 2027 08:34:31.637   01 Jun 2027 08:34:31.637             0.000             0.000
        14   01 Jun 2027 08:34:34.926   01 Jun 2027 08:34:49.884            14.958          7479.000
        15   01 Jun 2027 10:06:00.164   01 Jun 2027 10:07:22.978            82.814         41407.000
        16   01 Jun 2027 10:07:36.050   01 Jun 2027 10:07:37.505             1.455           727.500
        17   01 Jun 2027 10:08:18.936   01 Jun 2027 10:08:48.173            29.237         14618.500
        18   01 Jun 2027 10:08:53.071   01 Jun 2027 10:08:53.815             0.744           372.000
        19   01 Jun 2027 11:42:11.923   01 Jun 2027 11:44:18.168           126.245         63122.500
        20   01 Jun 2027 11:46:00.678   01 Jun 2027 11:46:13.851            13.173          6586.500
        21   02 Jun 2027 03:53:19.611   02 Jun 2027 03:53:56.443            36.832         18416.000
        22   02 Jun 2027 03:54:38.837   02 Jun 2027 03:54:48.696             9.859          4929.500
        23   02 Jun 2027 03:55:18.445   02 Jun 2027 03:55:22.641             4.196          2098.000
        24   02 Jun 2027 03:55:31.776   02 Jun 2027 03:55:46.998            15.222          7611.000
        25   02 Jun 2027 05:29:05.300   02 Jun 2027 05:31:14.094           128.794         64397.000
        26   02 Jun 2027 05:32:29.460   02 Jun 2027 05:32:41.072            11.612          5806.000
        27   02 Jun 2027 07:04:03.263   02 Jun 2027 07:06:01.155           117.892         58946.000
        28   02 Jun 2027 07:07:26.672   02 Jun 2027 07:07:28.342             1.670           835.000
        29   02 Jun 2027 07:10:39.090   02 Jun 2027 07:10:52.000            12.910          6455.000
        30   02 Jun 2027 08:40:15.051   02 Jun 2027 08:42:50.749           155.698         77849.000
        31   02 Jun 2027 10:18:15.047   02 Jun 2027 10:20:18.664           123.617         61808.500
        32   02 Jun 2027 11:53:56.713   02 Jun 2027 11:55:34.872            98.159         49079.500
        33   02 Jun 2027 11:56:21.751   02 Jun 2027 11:56:34.391            12.640          6320.000
        34   02 Jun 2027 11:58:03.794   02 Jun 2027 11:58:11.334             7.540          3770.000
        35   02 Jun 2027 11:58:51.554   02 Jun 2027 11:59:03.961            12.407          6203.500
        36   03 Jun 2027 04:04:09.548   03 Jun 2027 04:04:39.899            30.351         15175.500
        37   03 Jun 2027 04:04:44.234   03 Jun 2027 04:04:49.449             5.215          2607.500
        38   03 Jun 2027 04:05:58.356   03 Jun 2027 04:06:12.046            13.690          6845.000
        39   03 Jun 2027 05:39:41.445   03 Jun 2027 05:39:46.973             5.528          2764.000
        40   03 Jun 2027 05:40:50.747   03 Jun 2027 05:43:08.861           138.114         69057.000
        41   03 Jun 2027 07:15:36.850   03 Jun 2027 07:17:23.732           106.882         53441.000
        42   03 Jun 2027 07:17:40.506   03 Jun 2027 07:17:40.506             0.000             0.000
        43   03 Jun 2027 07:18:08.363   03 Jun 2027 07:18:27.488            19.125          9562.500
        44   03 Jun 2027 07:18:50.087   03 Jun 2027 07:18:54.827             4.740          2370.000
        45   03 Jun 2027 07:18:55.991   03 Jun 2027 07:18:56.571             0.580           290.000
        46   03 Jun 2027 07:19:22.163   03 Jun 2027 07:19:46.603            24.440         12220.000
        47   03 Jun 2027 08:52:29.695   03 Jun 2027 08:54:02.925            93.230         46615.000
        48   03 Jun 2027 08:54:06.041   03 Jun 2027 08:54:20.151            14.110          7055.000
        49   03 Jun 2027 08:54:40.844   03 Jun 2027 08:55:07.787            26.943         13471.500
        50   03 Jun 2027 08:55:53.079   03 Jun 2027 08:56:06.416            13.337          6668.500
        51   03 Jun 2027 08:58:01.051   03 Jun 2027 08:58:08.179             7.128          3564.000
        52   03 Jun 2027 10:30:36.919   03 Jun 2027 10:31:12.301            35.382         17691.000
        53   03 Jun 2027 10:31:40.422   03 Jun 2027 10:32:16.926            36.504         16652.906
        54   03 Jun 2027 10:33:08.482   03 Jun 2027 10:33:12.346             3.864          1591.781
        55   03 Jun 2027 10:33:22.025   03 Jun 2027 10:33:22.992             0.967           264.656
        56   03 Jun 2027 10:34:04.587   03 Jun 2027 10:34:09.404             4.817          1234.187
        57   04 Jun 2027 04:15:25.544   04 Jun 2027 04:16:15.427            49.883         24941.500
        58   04 Jun 2027 04:18:22.995   04 Jun 2027 04:18:27.158             4.163          2081.500
        59   04 Jun 2027 04:18:57.014   04 Jun 2027 04:19:15.042            18.028          9014.000
        60   04 Jun 2027 04:20:03.885   04 Jun 2027 04:20:07.302             3.417          1708.500
        61   04 Jun 2027 05:50:35.852   04 Jun 2027 05:52:01.291            85.439         42719.500
        62   04 Jun 2027 05:52:34.394   04 Jun 2027 05:53:01.786            27.392         13696.000
        63   04 Jun 2027 05:56:36.558   04 Jun 2027 05:56:40.146             3.588          1794.000
        64   04 Jun 2027 05:57:01.827   04 Jun 2027 05:57:04.388             2.561          1280.500
        65   04 Jun 2027 05:57:13.275   04 Jun 2027 05:57:17.634             4.359          2179.500
        66   04 Jun 2027 05:57:27.414   04 Jun 2027 05:57:27.414             0.000             0.000
        67   04 Jun 2027 05:58:29.306   04 Jun 2027 05:58:33.567             4.261          2130.500
        68   04 Jun 2027 07:27:43.979   04 Jun 2027 07:30:07.128           143.149         70330.594
        69   04 Jun 2027 07:32:56.775   04 Jun 2027 07:33:05.465             8.690          4345.000
        70   04 Jun 2027 07:34:12.417   04 Jun 2027 07:34:15.840             3.423          1711.500
        71   04 Jun 2027 09:04:41.633   04 Jun 2027 09:05:10.843            29.210         14550.625
        72   04 Jun 2027 09:05:49.982   04 Jun 2027 09:05:52.868             2.886          1192.656
        73   04 Jun 2027 09:06:50.352   04 Jun 2027 09:06:57.849             7.497          1786.469
        74   04 Jun 2027 09:07:09.117   04 Jun 2027 09:07:10.112             0.995            47.500
        75   04 Jun 2027 09:07:35.669   04 Jun 2027 09:07:38.353             2.684           776.781
        76   04 Jun 2027 09:07:50.762   04 Jun 2027 09:08:01.206            10.444           387.781
        77   04 Jun 2027 09:08:24.888   04 Jun 2027 09:08:27.912             3.024           365.000
        78   04 Jun 2027 09:08:42.318   04 Jun 2027 09:08:44.320             2.002           399.531
        79   04 Jun 2027 09:08:58.885   04 Jun 2027 09:09:08.895            10.010           455.156
        80   04 Jun 2027 09:09:51.122   04 Jun 2027 09:09:53.765             2.643           868.313
        81   04 Jun 2027 09:10:09.311   04 Jun 2027 09:10:10.963             1.652           324.937
        82   04 Jun 2027 09:10:48.893   04 Jun 2027 09:10:50.296             1.403           701.500
        83   04 Jun 2027 10:42:34.726   04 Jun 2027 10:42:51.820            17.094          8412.281
        84   04 Jun 2027 10:43:38.255   04 Jun 2027 10:43:46.237             7.982          1451.094
        85   04 Jun 2027 10:44:16.836   04 Jun 2027 10:44:25.710             8.874           916.781
        86   04 Jun 2027 10:45:01.379   04 Jun 2027 10:45:12.228            10.849          1078.969
        87   04 Jun 2027 10:45:17.073   04 Jun 2027 10:45:18.943             1.870           147.063
        88   04 Jun 2027 10:45:37.757   04 Jun 2027 10:45:39.803             2.046           551.187
        89   04 Jun 2027 10:46:06.414   04 Jun 2027 10:46:11.183             4.769           831.594
        90   04 Jun 2027 10:46:18.749   04 Jun 2027 10:46:20.584             1.835           236.438
        91   04 Jun 2027 10:46:20.893   04 Jun 2027 10:46:23.085             2.192             0.562
        92   05 Jun 2027 03:05:08.324   05 Jun 2027 03:06:02.165            53.841         26920.500
        93   05 Jun 2027 04:27:10.457   05 Jun 2027 04:27:38.052            27.595         13797.500
        94   05 Jun 2027 04:29:13.479   05 Jun 2027 04:29:24.468            10.989          5494.500
        95   05 Jun 2027 04:31:05.098   05 Jun 2027 04:31:24.578            19.480          9740.000
        96   05 Jun 2027 06:02:03.249   05 Jun 2027 06:03:33.260            90.011         45005.500
        97   05 Jun 2027 06:04:24.026   05 Jun 2027 06:04:34.599            10.573          5286.500
        98   05 Jun 2027 06:04:43.869   05 Jun 2027 06:04:43.869             0.000             0.000
        99   05 Jun 2027 06:05:33.152   05 Jun 2027 06:05:48.080            14.928          7464.000
       100   05 Jun 2027 06:08:02.609   05 Jun 2027 06:08:11.043             8.434          4217.000
       101   05 Jun 2027 06:08:14.146   05 Jun 2027 06:08:14.446             0.300           150.000
       102   05 Jun 2027 06:08:32.308   05 Jun 2027 06:08:33.542             1.234           617.000
       103   05 Jun 2027 06:09:27.959   05 Jun 2027 06:09:31.150             3.191          1595.500
       104   05 Jun 2027 06:10:52.797   05 Jun 2027 06:11:06.337            13.540          6770.000
       105   05 Jun 2027 07:39:45.495   05 Jun 2027 07:41:22.412            96.917         48458.500
       106   05 Jun 2027 07:41:47.841   05 Jun 2027 07:41:57.930            10.089          3221.187
       107   05 Jun 2027 07:45:03.151   05 Jun 2027 07:45:14.172            11.021          5497.812
       108   05 Jun 2027 07:45:50.541   05 Jun 2027 07:45:50.896             0.355           177.500
       109   05 Jun 2027 07:46:48.029   05 Jun 2027 07:46:56.236             8.207          2734.906
       110   05 Jun 2027 09:16:33.569   05 Jun 2027 09:16:53.889            20.320         10160.000
       111   05 Jun 2027 09:16:55.150   05 Jun 2027 09:17:02.756             7.606          1890.812
       112   05 Jun 2027 09:17:10.738   05 Jun 2027 09:17:13.028             2.290           207.281
       113   05 Jun 2027 09:18:31.092   05 Jun 2027 09:18:36.067             4.975          2350.062
       114   05 Jun 2027 09:19:05.588   05 Jun 2027 09:19:06.380             0.792           307.750
       115   05 Jun 2027 09:19:30.141   05 Jun 2027 09:19:32.837             2.696           742.531
       116   05 Jun 2027 09:20:24.160   05 Jun 2027 09:20:27.072             2.912          1456.000
       117   05 Jun 2027 09:20:28.237   05 Jun 2027 09:20:29.025             0.788           184.250
       118   05 Jun 2027 09:21:36.796   05 Jun 2027 09:21:39.769             2.973          1486.500
       119   05 Jun 2027 09:22:01.201   05 Jun 2027 09:22:06.896             5.695          1301.094
       120   05 Jun 2027 09:22:22.098   05 Jun 2027 09:22:22.098             0.000             0.000
       121   05 Jun 2027 09:22:47.186   05 Jun 2027 09:22:52.214             5.028          1186.281
       122   05 Jun 2027 10:54:35.143   05 Jun 2027 10:54:50.921            15.778          7889.000
       123   05 Jun 2027 10:55:02.988   05 Jun 2027 10:55:11.795             8.807           829.625
       124   05 Jun 2027 10:55:14.222   05 Jun 2027 10:55:16.154             1.932            75.844
       125   05 Jun 2027 10:56:31.829   05 Jun 2027 10:56:39.580             7.751          2272.406
       126   05 Jun 2027 10:57:33.283   05 Jun 2027 10:57:39.598             6.315          1678.219
       127   05 Jun 2027 10:57:49.202   05 Jun 2027 10:57:50.811             1.609           300.125
       128   05 Jun 2027 10:58:37.041   05 Jun 2027 10:58:45.510             8.469          1388.438
       129   06 Jun 2027 03:04:59.458   06 Jun 2027 03:05:12.648            13.190          6595.000
       130   06 Jun 2027 03:06:24.925   06 Jun 2027 03:06:43.918            18.993          9496.500
       131   06 Jun 2027 04:38:46.165   06 Jun 2027 04:40:14.782            88.617         44308.500
       132   06 Jun 2027 04:40:29.393   06 Jun 2027 04:40:45.959            16.566          8283.000
       133   06 Jun 2027 04:40:56.275   06 Jun 2027 04:41:15.781            19.506          9753.000
       134   06 Jun 2027 06:13:38.659   06 Jun 2027 06:15:08.213            89.554         44777.000
       135   06 Jun 2027 06:15:35.165   06 Jun 2027 06:15:46.689            11.524          5762.000
       136   06 Jun 2027 06:17:03.212   06 Jun 2027 06:17:22.742            19.530          9765.000
       137   06 Jun 2027 06:19:15.048   06 Jun 2027 06:19:25.082            10.034          5017.000
       138   06 Jun 2027 06:22:00.500   06 Jun 2027 06:22:03.874             3.374          1687.000
       139   06 Jun 2027 06:22:33.520   06 Jun 2027 06:22:37.091             3.571          1785.500
       140   06 Jun 2027 07:51:48.723   06 Jun 2027 07:52:57.388            68.665         32298.250
       141   06 Jun 2027 07:54:11.062   06 Jun 2027 07:54:16.741             5.679          1878.625
       142   06 Jun 2027 07:54:28.145   06 Jun 2027 07:54:29.391             1.246            71.625
       143   06 Jun 2027 07:54:38.028   06 Jun 2027 07:54:38.899             0.871           246.094
       144   06 Jun 2027 07:55:10.071   06 Jun 2027 07:55:11.291             1.220           610.000
       145   06 Jun 2027 07:55:33.230   06 Jun 2027 07:55:34.883             1.653           710.125
       146   06 Jun 2027 07:56:08.064   06 Jun 2027 07:56:16.256             8.192          1036.906
       147   06 Jun 2027 07:57:01.095   06 Jun 2027 07:57:01.095             0.000             0.000
       148   06 Jun 2027 07:57:16.194   06 Jun 2027 07:57:20.797             4.603          1673.531
       149   06 Jun 2027 07:57:39.437   06 Jun 2027 07:57:39.494             0.057            28.500
       150   06 Jun 2027 07:58:34.780   06 Jun 2027 07:58:41.175             6.395          2008.813
       151   06 Jun 2027 09:28:43.481   06 Jun 2027 09:29:07.984            24.503          9576.469
       152   06 Jun 2027 09:29:09.370   06 Jun 2027 09:29:10.488             1.118            30.625
       153   06 Jun 2027 09:29:45.258   06 Jun 2027 09:29:51.274             6.016           986.375
       154   06 Jun 2027 09:30:31.038   06 Jun 2027 09:30:34.764             3.726           539.844
       155   06 Jun 2027 09:31:03.996   06 Jun 2027 09:31:05.434             1.438           633.500
       156   06 Jun 2027 09:31:49.135   06 Jun 2027 09:31:54.172             5.037          1354.000
       157   06 Jun 2027 09:32:29.687   06 Jun 2027 09:32:32.740             3.053           586.625
       158   06 Jun 2027 09:32:58.569   06 Jun 2027 09:33:00.658             2.089           807.156
       159   06 Jun 2027 09:33:24.239   06 Jun 2027 09:33:25.281             1.042           521.000
       160   06 Jun 2027 09:33:25.724   06 Jun 2027 09:33:26.230             0.506           141.938
       161   06 Jun 2027 09:34:36.430   06 Jun 2027 09:34:39.345             2.915          1457.500
       162   06 Jun 2027 09:34:55.544   06 Jun 2027 09:34:59.907             4.363          1242.469
       163   06 Jun 2027 11:05:49.929   06 Jun 2027 11:06:04.114            14.185          7092.500
       164   06 Jun 2027 11:06:29.720   06 Jun 2027 11:06:31.845             2.125           884.156
       165   06 Jun 2027 11:06:43.399   06 Jun 2027 11:06:44.444             1.045           312.406
       166   06 Jun 2027 11:07:00.259   06 Jun 2027 11:07:07.172             6.913           416.344
       167   06 Jun 2027 11:07:34.307   06 Jun 2027 11:07:39.729             5.422           590.844
       168   06 Jun 2027 11:08:28.890   06 Jun 2027 11:08:38.099             9.209          1536.281
       169   06 Jun 2027 11:09:26.325   06 Jun 2027 11:09:34.571             8.246          1324.219
       170   06 Jun 2027 11:09:58.396   06 Jun 2027 11:10:03.646             5.250           351.781
       171   06 Jun 2027 11:10:10.386   06 Jun 2027 11:10:13.220             2.834           210.625
       172   06 Jun 2027 11:10:18.601   06 Jun 2027 11:10:21.826             3.225           168.156
       173   06 Jun 2027 11:10:34.133   06 Jun 2027 11:10:34.133             0.000             0.000
       174   06 Jun 2027 11:10:34.471   06 Jun 2027 11:10:35.010             0.539           269.500
       175   07 Jun 2027 03:16:54.172   07 Jun 2027 03:17:25.494            31.322         15661.000
       176   07 Jun 2027 03:19:09.167   07 Jun 2027 03:19:17.509             8.342          4171.000
       177   07 Jun 2027 04:53:13.346   07 Jun 2027 04:54:34.612            81.266         40633.000
       178   07 Jun 2027 04:55:17.724   07 Jun 2027 04:55:30.700            12.976          6488.000
       179   07 Jun 2027 04:56:20.254   07 Jun 2027 04:56:41.996            21.742         10871.000
       180   07 Jun 2027 06:26:42.616   07 Jun 2027 06:28:23.843           101.227         50613.500
       181   07 Jun 2027 06:29:21.113   07 Jun 2027 06:29:25.558             4.445          2222.500
       182   07 Jun 2027 06:29:49.471   07 Jun 2027 06:29:59.305             9.834          4917.000
       183   07 Jun 2027 06:30:33.599   07 Jun 2027 06:30:42.035             8.436          4218.000
       184   07 Jun 2027 06:31:06.319   07 Jun 2027 06:31:10.210             3.891          1945.500
       185   07 Jun 2027 06:34:55.345   07 Jun 2027 06:35:03.529             8.184          4092.000
       186   07 Jun 2027 06:35:13.481   07 Jun 2027 06:35:15.206             1.725           862.500
       187   07 Jun 2027 08:04:14.944   07 Jun 2027 08:05:15.156            60.212         30018.000
       188   07 Jun 2027 08:06:38.906   07 Jun 2027 08:06:44.611             5.705          2210.344
       189   07 Jun 2027 08:07:40.915   07 Jun 2027 08:07:43.720             2.805           942.531
       190   07 Jun 2027 08:07:59.160   07 Jun 2027 08:08:00.497             1.337           482.500
       191   07 Jun 2027 08:09:51.152   07 Jun 2027 08:09:54.789             3.637          1818.500
       192   07 Jun 2027 08:10:31.184   07 Jun 2027 08:10:32.704             1.520           760.000
       193   07 Jun 2027 08:10:43.447   07 Jun 2027 08:10:46.044             2.597          1298.500
       194   07 Jun 2027 09:41:10.594   07 Jun 2027 09:41:30.632            20.038          9884.312
       195   07 Jun 2027 09:41:33.488   07 Jun 2027 09:41:36.750             3.262            89.250
       196   07 Jun 2027 09:42:56.526   07 Jun 2027 09:43:03.796             7.270          2492.937
       197   07 Jun 2027 09:43:16.210   07 Jun 2027 09:43:17.155             0.945           338.625
       198   07 Jun 2027 09:44:11.615   07 Jun 2027 09:44:16.730             5.115           581.500
       199   07 Jun 2027 09:44:19.532   07 Jun 2027 09:44:22.554             3.022            55.844
       200   07 Jun 2027 09:44:39.854   07 Jun 2027 09:44:39.854             0.000             0.000
       201   07 Jun 2027 09:45:15.975   07 Jun 2027 09:45:22.649             6.674          1669.406
       202   07 Jun 2027 09:45:43.716   07 Jun 2027 09:45:46.442             2.726           658.344
       203   07 Jun 2027 09:45:53.619   07 Jun 2027 09:45:55.010             1.391           224.281
       204   07 Jun 2027 09:46:36.549   07 Jun 2027 09:46:37.879             1.330           665.000
       205   07 Jun 2027 09:46:46.762   07 Jun 2027 09:46:52.344             5.582           910.688
       206   07 Jun 2027 11:18:01.752   07 Jun 2027 11:18:15.488            13.736          6573.156
       207   07 Jun 2027 11:18:35.203   07 Jun 2027 11:18:39.859             4.656           290.281
       208   07 Jun 2027 11:18:46.229   07 Jun 2027 11:18:47.592             1.363           156.219
       209   07 Jun 2027 11:18:57.467   07 Jun 2027 11:18:59.475             2.008            67.531
       210   07 Jun 2027 11:19:43.391   07 Jun 2027 11:19:46.290             2.899           811.188
       211   07 Jun 2027 11:19:51.239   07 Jun 2027 11:19:52.009             0.770           154.656
       212   07 Jun 2027 11:20:24.647   07 Jun 2027 11:20:27.757             3.110           922.156
       213   07 Jun 2027 11:20:55.474   07 Jun 2027 11:20:59.298             3.824           743.187
       214   07 Jun 2027 11:22:05.972   07 Jun 2027 11:22:10.939             4.967          2014.281
       215   08 Jun 2027 03:28:45.823   08 Jun 2027 03:29:09.929            24.106         12053.000
       216   08 Jun 2027 03:30:13.358   08 Jun 2027 03:30:26.605            13.247          6623.500
       217   08 Jun 2027 03:31:09.861   08 Jun 2027 03:31:26.934            17.073          8536.500
       218   08 Jun 2027 05:05:14.669   08 Jun 2027 05:06:03.105            48.436         24218.000
       219   08 Jun 2027 05:06:28.873   08 Jun 2027 05:07:43.281            74.408         37204.000
       220   08 Jun 2027 05:08:18.052   08 Jun 2027 05:08:18.052             0.000             0.000
       221   08 Jun 2027 05:08:34.454   08 Jun 2027 05:08:34.636             0.182            91.000
       222   08 Jun 2027 06:39:22.226   08 Jun 2027 06:41:19.990           117.764         58882.000
       223   08 Jun 2027 06:41:36.652   08 Jun 2027 06:41:36.652             0.000             0.000
       224   08 Jun 2027 06:43:23.260   08 Jun 2027 06:43:25.060             1.800           900.000
       225   08 Jun 2027 06:43:59.650   08 Jun 2027 06:44:02.314             2.664          1332.000
       226   08 Jun 2027 06:44:30.896   08 Jun 2027 06:44:38.490             7.594          3797.000
       227   08 Jun 2027 06:46:22.674   08 Jun 2027 06:46:27.080             4.406          2203.000
       228   08 Jun 2027 06:46:49.491   08 Jun 2027 06:46:54.749             5.258          2629.000
       229   08 Jun 2027 06:47:03.584   08 Jun 2027 06:47:06.888             3.304          1652.000
       230   08 Jun 2027 06:47:08.727   08 Jun 2027 06:47:09.669             0.942           471.000
       231   08 Jun 2027 08:16:20.770   08 Jun 2027 08:16:54.659            33.889         16944.500
       232   08 Jun 2027 08:18:18.395   08 Jun 2027 08:18:31.512            13.117          5131.656
       233   08 Jun 2027 08:18:50.619   08 Jun 2027 08:18:51.494             0.875           331.687
       234   08 Jun 2027 08:19:56.003   08 Jun 2027 08:20:01.366             5.363          1207.625
       235   08 Jun 2027 08:20:18.354   08 Jun 2027 08:20:19.606             1.252           530.875
       236   08 Jun 2027 08:20:28.293   08 Jun 2027 08:20:29.072             0.779           217.688
       237   08 Jun 2027 08:21:00.918   08 Jun 2027 08:21:01.662             0.744           372.000
       238   08 Jun 2027 08:21:03.309   08 Jun 2027 08:21:07.805             4.496           494.250
       239   08 Jun 2027 08:21:40.607   08 Jun 2027 08:21:43.963             3.356           649.313
       240   08 Jun 2027 08:22:17.557   08 Jun 2027 08:22:25.559             8.002           515.062
       241   08 Jun 2027 09:53:58.098   08 Jun 2027 09:54:26.241            28.143          9631.437
       242   08 Jun 2027 09:55:17.493   08 Jun 2027 09:55:18.353             0.860           430.000
       243   08 Jun 2027 09:55:32.257   08 Jun 2027 09:55:40.958             8.701           710.625
       244   08 Jun 2027 09:56:01.638   08 Jun 2027 09:56:04.316             2.678            97.062
       245   08 Jun 2027 09:56:37.264   08 Jun 2027 09:56:37.264             0.000             0.000
       246   08 Jun 2027 09:57:05.023   08 Jun 2027 09:57:09.770             4.747          1810.719
       247   08 Jun 2027 09:57:37.634   08 Jun 2027 09:57:45.037             7.403           490.375
       248   08 Jun 2027 11:30:05.181   08 Jun 2027 11:30:21.066            15.885          7942.500
       249   08 Jun 2027 11:30:45.917   08 Jun 2027 11:30:47.660             1.743           871.500
       250   08 Jun 2027 11:31:17.657   08 Jun 2027 11:31:23.319             5.662          1131.094
       251   08 Jun 2027 11:31:47.888   08 Jun 2027 11:31:54.720             6.832           767.781
       252   08 Jun 2027 11:32:24.447   08 Jun 2027 11:32:33.345             8.898           865.781
       253   08 Jun 2027 11:32:52.181   08 Jun 2027 11:32:54.087             1.906           588.625
       254   08 Jun 2027 11:33:19.681   08 Jun 2027 11:33:26.374             6.693           718.313
       255   08 Jun 2027 11:34:09.830   08 Jun 2027 11:34:12.522             2.692           791.656
       256   09 Jun 2027 03:40:54.457   09 Jun 2027 03:41:29.607            35.150         17575.000
       257   09 Jun 2027 03:41:45.278   09 Jun 2027 03:41:59.759            14.481          7240.500
       258   09 Jun 2027 05:17:24.845   09 Jun 2027 05:19:49.072           144.227         72113.500
       259   09 Jun 2027 06:52:34.973   09 Jun 2027 06:54:18.466           103.493         51746.500
       260   09 Jun 2027 06:54:31.743   09 Jun 2027 06:54:31.743             0.000             0.000
       261   09 Jun 2027 06:55:55.413   09 Jun 2027 06:56:03.954             8.541          4270.500
       262   09 Jun 2027 06:58:38.218   09 Jun 2027 06:58:56.391            18.173          9086.500
       263   09 Jun 2027 08:28:56.967   09 Jun 2027 08:29:28.030            31.063         15435.187
       264   09 Jun 2027 08:30:12.413   09 Jun 2027 08:30:14.648             2.235           306.438
       265   09 Jun 2027 08:30:34.861   09 Jun 2027 08:30:35.371             0.510            22.031
       266   09 Jun 2027 08:30:57.262   09 Jun 2027 08:30:59.403             2.141           684.094
       267   09 Jun 2027 08:31:28.729   09 Jun 2027 08:31:31.551             2.822           789.125
       268   09 Jun 2027 08:32:04.016   09 Jun 2027 08:32:06.868             2.852           761.750
       269   09 Jun 2027 08:33:02.118   09 Jun 2027 08:33:08.147             6.029          1726.563
       270   09 Jun 2027 08:34:21.271   09 Jun 2027 08:34:25.490             4.219          2055.094
       271   09 Jun 2027 08:34:30.292   09 Jun 2027 08:34:31.467             1.175           150.063
       272   09 Jun 2027 08:34:46.281   09 Jun 2027 08:34:46.281             0.000             0.000
       273   09 Jun 2027 08:35:07.570   09 Jun 2027 08:35:10.705             3.135          1079.625
       274   09 Jun 2027 10:06:15.195   09 Jun 2027 10:06:32.790            17.595          8797.500
       275   09 Jun 2027 10:06:40.606   09 Jun 2027 10:06:43.923             3.317           484.281
       276   09 Jun 2027 10:07:06.673   09 Jun 2027 10:07:10.855             4.182           710.937
       277   09 Jun 2027 10:08:20.333   09 Jun 2027 10:08:26.227             5.894          2075.500
       278   09 Jun 2027 10:08:53.485   09 Jun 2027 10:08:56.949             3.464           851.813
       279   09 Jun 2027 10:09:18.512   09 Jun 2027 10:09:20.526             2.014           673.844
       280   09 Jun 2027 10:10:07.229   09 Jun 2027 10:10:10.364             3.135          1153.937
       281   09 Jun 2027 10:10:34.205   09 Jun 2027 10:10:36.098             1.893           745.031
       282   09 Jun 2027 11:42:26.947   09 Jun 2027 11:42:44.388            17.441          8563.937
       283   09 Jun 2027 11:42:58.304   09 Jun 2027 11:42:58.388             0.084            32.281
       284   09 Jun 2027 11:43:39.977   09 Jun 2027 11:43:41.841             1.864           782.031
       285   09 Jun 2027 11:44:06.572   09 Jun 2027 11:44:11.017             4.445           772.844
       286   09 Jun 2027 11:44:18.191   09 Jun 2027 11:44:18.256             0.065            32.500
       287   09 Jun 2027 11:44:36.854   09 Jun 2027 11:44:39.284             2.430           772.750
       288   09 Jun 2027 11:44:53.004   09 Jun 2027 11:44:54.227             1.223           120.312
       289   09 Jun 2027 11:45:20.793   09 Jun 2027 11:45:23.105             2.312           830.188
       290   09 Jun 2027 11:45:47.479   09 Jun 2027 11:45:50.407             2.928           137.406
       291   09 Jun 2027 11:46:12.838   09 Jun 2027 11:46:14.725             1.887           452.437
       292   10 Jun 2027 03:53:34.316   10 Jun 2027 03:54:35.388            61.072         30536.000
       293   10 Jun 2027 05:29:20.029   10 Jun 2027 05:31:28.620           128.591         64295.500
       294   10 Jun 2027 05:32:36.297   10 Jun 2027 05:32:36.836             0.539           269.500
       295   10 Jun 2027 07:04:17.606   10 Jun 2027 07:06:21.228           123.622         61811.000
       296   10 Jun 2027 07:06:52.285   10 Jun 2027 07:06:56.199             3.914          1957.000
       297   10 Jun 2027 07:07:35.293   10 Jun 2027 07:07:37.060             1.767           883.500
       298   10 Jun 2027 07:07:45.058   10 Jun 2027 07:07:45.058             0.000             0.000
       299   10 Jun 2027 07:08:10.253   10 Jun 2027 07:08:12.689             2.436          1218.000
       300   10 Jun 2027 07:09:52.933   10 Jun 2027 07:10:04.397            11.464          3670.781
       301   10 Jun 2027 07:11:15.790   10 Jun 2027 07:11:19.217             3.427          1713.500
       302   10 Jun 2027 08:40:29.871   10 Jun 2027 08:40:54.066            24.195         12045.062
       303   10 Jun 2027 08:41:38.253   10 Jun 2027 08:41:40.713             2.460           884.250
       304   10 Jun 2027 08:42:13.270   10 Jun 2027 08:42:19.071             5.801            59.750
       305   10 Jun 2027 08:42:47.115   10 Jun 2027 08:42:49.799             2.684           774.250
       306   10 Jun 2027 08:43:18.156   10 Jun 2027 08:43:22.276             4.120           886.156
       307   10 Jun 2027 08:43:44.841   10 Jun 2027 08:43:47.679             2.838           705.156
       308   10 Jun 2027 08:44:02.948   10 Jun 2027 08:44:03.784             0.836           216.750
       309   10 Jun 2027 08:44:37.962   10 Jun 2027 08:44:42.564             4.602          1068.062
       310   10 Jun 2027 08:45:54.439   10 Jun 2027 08:45:58.842             4.403          2171.656
       311   10 Jun 2027 08:46:17.322   10 Jun 2027 08:46:20.700             3.378           494.875
       312   10 Jun 2027 10:18:30.536   10 Jun 2027 10:18:48.223            17.687          7034.656
       313   10 Jun 2027 10:19:02.739   10 Jun 2027 10:19:05.230             2.491           453.625
       314   10 Jun 2027 10:20:01.852   10 Jun 2027 10:20:09.393             7.541          1769.438
       315   10 Jun 2027 10:20:21.811   10 Jun 2027 10:20:22.271             0.460            36.000
       316   10 Jun 2027 10:20:43.744   10 Jun 2027 10:20:45.664             1.920           671.031
       317   10 Jun 2027 10:21:59.007   10 Jun 2027 10:22:11.467            12.460          2158.937
       318   10 Jun 2027 10:22:39.632   10 Jun 2027 10:22:42.054             2.422           806.031
       319   10 Jun 2027 11:54:11.079   10 Jun 2027 11:54:28.850            17.771          6417.250
       320   10 Jun 2027 11:54:59.924   10 Jun 2027 11:55:00.389             0.465           232.500
       321   10 Jun 2027 11:55:40.648   10 Jun 2027 11:55:43.137             2.489          1244.500
       322   10 Jun 2027 11:56:22.022   10 Jun 2027 11:56:26.289             4.267          1441.656
       323   10 Jun 2027 11:56:33.943   10 Jun 2027 11:56:35.250             1.307           239.188
       324   10 Jun 2027 11:56:47.967   10 Jun 2027 11:56:54.607             6.640           366.344
       325   10 Jun 2027 11:57:13.368   10 Jun 2027 11:57:19.256             5.888           573.906
       326   10 Jun 2027 11:58:04.663   10 Jun 2027 11:58:08.372             3.709          1281.437
       327   10 Jun 2027 11:58:44.341   10 Jun 2027 11:58:47.665             3.324          1124.031
       328   10 Jun 2027 11:59:18.622   10 Jun 2027 11:59:23.680             5.058           774.094
       329   11 Jun 2027 04:04:23.914   11 Jun 2027 04:05:14.679            50.765         25382.500
       330   11 Jun 2027 04:06:10.088   11 Jun 2027 04:06:13.231             3.143          1571.500
       331   11 Jun 2027 04:07:36.804   11 Jun 2027 04:07:57.728            20.924         10462.000
       332   11 Jun 2027 05:39:56.040   11 Jun 2027 05:40:02.265             6.225          3112.500
       333   11 Jun 2027 05:41:05.718   11 Jun 2027 05:43:00.188           114.470         57235.000
       334   11 Jun 2027 05:44:13.678   11 Jun 2027 05:44:18.903             5.225          2612.500
       335   11 Jun 2027 07:15:51.366   11 Jun 2027 07:17:58.224           126.858         63429.000
       336   11 Jun 2027 07:18:43.795   11 Jun 2027 07:18:49.667             5.872          2862.032
       337   11 Jun 2027 07:19:07.530   11 Jun 2027 07:19:09.181             1.651           558.219
       338   11 Jun 2027 07:19:10.224   11 Jun 2027 07:19:10.414             0.190            14.563
       339   11 Jun 2027 08:52:51.122   11 Jun 2027 08:53:20.736            29.614         13394.687
       340   11 Jun 2027 08:53:55.364   11 Jun 2027 08:53:58.015             2.651           689.438
       341   11 Jun 2027 08:54:17.767   11 Jun 2027 08:54:18.891             1.124           262.156
       342   11 Jun 2027 08:55:22.994   11 Jun 2027 08:55:24.587             1.593           778.938
       343   11 Jun 2027 08:55:46.747   11 Jun 2027 08:55:49.499             2.752           692.500
       344   11 Jun 2027 08:56:55.373   11 Jun 2027 08:56:58.856             3.483          1741.500
       345   11 Jun 2027 08:57:05.396   11 Jun 2027 08:57:05.551             0.155            77.500
       346   11 Jun 2027 08:57:35.470   11 Jun 2027 08:57:46.077            10.607          1359.031
       347   11 Jun 2027 08:58:58.764   11 Jun 2027 08:58:59.253             0.489           244.500
       348   11 Jun 2027 10:30:52.172   11 Jun 2027 10:31:06.689            14.517          7258.500
       349   11 Jun 2027 10:31:52.060   11 Jun 2027 10:31:56.923             4.863          1785.594
       350   11 Jun 2027 10:32:12.979   11 Jun 2027 10:32:13.943             0.964           405.906
       351   11 Jun 2027 10:32:44.182   11 Jun 2027 10:32:45.487             1.305           622.344
       352   11 Jun 2027 10:32:59.902   11 Jun 2027 10:33:01.420             1.518           450.469
       353   11 Jun 2027 10:33:51.210   11 Jun 2027 10:33:59.196             7.986          1459.250
       354   11 Jun 2027 10:34:15.749   11 Jun 2027 10:34:16.998             1.249           132.312
       355   12 Jun 2027 04:15:40.205   12 Jun 2027 04:16:44.747            64.542         32271.000
       356   12 Jun 2027 04:20:04.318   12 Jun 2027 04:20:15.495            11.177          5588.500
       357   12 Jun 2027 05:50:48.288   12 Jun 2027 05:52:26.639            98.351         49175.500
       358   12 Jun 2027 05:52:49.157   12 Jun 2027 05:52:49.242             0.085            42.500
       359   12 Jun 2027 05:53:29.210   12 Jun 2027 05:53:47.643            18.433          9216.500
       360   12 Jun 2027 05:53:53.331   12 Jun 2027 05:54:01.703             8.372          4186.000
       361   12 Jun 2027 05:54:28.786   12 Jun 2027 05:54:28.786             0.000             0.000
       362   12 Jun 2027 05:55:40.087   12 Jun 2027 05:55:41.569             1.482           741.000
       363   12 Jun 2027 05:56:11.504   12 Jun 2027 05:56:19.619             8.115          4057.500
       364   12 Jun 2027 05:56:53.388   12 Jun 2027 05:56:56.570             3.182          1591.000
       365   12 Jun 2027 05:57:17.198   12 Jun 2027 05:57:25.342             8.144          4072.000
       366   12 Jun 2027 07:27:59.344   12 Jun 2027 07:29:39.855           100.511         50255.500
       367   12 Jun 2027 07:30:01.365   12 Jun 2027 07:30:21.804            20.439          7553.687
       368   12 Jun 2027 07:31:15.793   12 Jun 2027 07:31:16.526             0.733           366.500
       369   12 Jun 2027 07:32:39.078   12 Jun 2027 07:32:42.829             3.751          1875.500
       370   12 Jun 2027 07:33:20.793   12 Jun 2027 07:33:21.075             0.282           141.000
       371   12 Jun 2027 07:34:23.551   12 Jun 2027 07:34:38.282            14.731          5022.656
       372   12 Jun 2027 07:35:02.928   12 Jun 2027 07:35:02.928             0.000             0.000
       373   12 Jun 2027 09:04:56.647   12 Jun 2027 09:05:21.495            24.848         11522.125
       374   12 Jun 2027 09:06:05.469   12 Jun 2027 09:06:08.035             2.566          1217.656
       375   12 Jun 2027 09:07:07.491   12 Jun 2027 09:07:12.855             5.364          1851.812
       376   12 Jun 2027 09:07:25.291   12 Jun 2027 09:07:25.910             0.619            78.656
       377   12 Jun 2027 09:08:02.733   12 Jun 2027 09:08:05.280             2.547          1150.719
       378   12 Jun 2027 09:08:53.053   12 Jun 2027 09:08:54.860             1.807           592.750
       379   12 Jun 2027 09:08:59.659   12 Jun 2027 09:09:00.609             0.950            90.969
       380   12 Jun 2027 09:10:01.432   12 Jun 2027 09:10:05.615             4.183          1728.000
       381   12 Jun 2027 09:10:28.998   12 Jun 2027 09:10:32.973             3.975           666.469
       382   12 Jun 2027 10:42:49.665   12 Jun 2027 10:43:06.552            16.887          8359.313
       383   12 Jun 2027 10:43:53.039   12 Jun 2027 10:43:58.709             5.670          1452.719
       384   12 Jun 2027 10:44:16.496   12 Jun 2027 10:44:20.015             3.519           447.937
       385   12 Jun 2027 10:44:43.213   12 Jun 2027 10:44:44.919             1.706           355.625
       386   12 Jun 2027 10:44:51.587   12 Jun 2027 10:44:53.674             2.087            85.937
       387   12 Jun 2027 10:45:59.699   12 Jun 2027 10:46:06.512             6.813          1718.938
       388   12 Jun 2027 10:46:17.153   12 Jun 2027 10:46:17.881             0.728            55.812
       389   12 Jun 2027 10:46:31.020   12 Jun 2027 10:46:33.591             2.571           410.594
       390   12 Jun 2027 10:46:46.006   12 Jun 2027 10:46:50.770             4.764           387.969
       391   13 Jun 2027 03:06:12.538   13 Jun 2027 03:06:16.225             3.687          1843.500
       392   13 Jun 2027 04:27:25.133   13 Jun 2027 04:28:33.262            68.129         34064.500
       393   13 Jun 2027 04:31:06.660   13 Jun 2027 04:31:41.357            34.697         17348.500
       394   13 Jun 2027 06:02:17.634   13 Jun 2027 06:03:47.623            89.989         44994.500
       395   13 Jun 2027 06:06:07.924   13 Jun 2027 06:06:07.924             0.000             0.000
       396   13 Jun 2027 06:06:16.233   13 Jun 2027 06:06:30.500            14.267          7133.500
       397   13 Jun 2027 06:08:05.734   13 Jun 2027 06:08:12.975             7.241          3620.500
       398   13 Jun 2027 06:08:16.255   13 Jun 2027 06:08:20.637             4.382          2191.000
       399   13 Jun 2027 06:09:17.406   13 Jun 2027 06:09:35.230            17.824          8912.000
       400   13 Jun 2027 07:40:16.196   13 Jun 2027 07:42:14.144           117.948         58885.719
       401   13 Jun 2027 07:43:20.640   13 Jun 2027 07:43:21.687             1.047           523.500
       402   13 Jun 2027 07:45:18.720   13 Jun 2027 07:45:30.299            11.579          5183.625
       403   13 Jun 2027 07:46:55.667   13 Jun 2027 07:47:01.777             6.110          2667.750
       404   13 Jun 2027 09:16:48.849   13 Jun 2027 09:17:07.513            18.664          9332.000
       405   13 Jun 2027 09:17:10.688   13 Jun 2027 09:17:17.393             6.705          1921.750
       406   13 Jun 2027 09:17:44.889   13 Jun 2027 09:17:51.492             6.603           588.844
       407   13 Jun 2027 09:18:37.730   13 Jun 2027 09:18:40.026             2.296          1120.719
       408   13 Jun 2027 09:18:47.908   13 Jun 2027 09:18:49.304             1.396            16.969
       409   13 Jun 2027 09:19:21.525   13 Jun 2027 09:19:21.997             0.472           182.938
       410   13 Jun 2027 09:20:15.460   13 Jun 2027 09:20:22.538             7.078          1526.687
       411   13 Jun 2027 09:20:47.288   13 Jun 2027 09:20:48.659             1.371           387.844
       412   13 Jun 2027 09:20:56.384   13 Jun 2027 09:20:59.321             2.937           150.406
       413   13 Jun 2027 09:21:39.996   13 Jun 2027 09:21:44.978             4.982          1209.375
       414   13 Jun 2027 09:22:09.810   13 Jun 2027 09:22:14.901             5.091           776.000
       415   13 Jun 2027 09:22:17.506   13 Jun 2027 09:22:18.273             0.767            63.375
       416   13 Jun 2027 09:23:14.949   13 Jun 2027 09:23:19.442             4.493          1546.344
       417   13 Jun 2027 10:54:50.852   13 Jun 2027 10:55:05.518            14.666          7333.000
       418   13 Jun 2027 10:55:17.276   13 Jun 2027 10:55:27.145             9.869          1271.563
       419   13 Jun 2027 10:56:46.955   13 Jun 2027 10:56:54.893             7.938          2436.094
       420   13 Jun 2027 10:57:12.561   13 Jun 2027 10:57:18.984             6.423           552.125
       421   13 Jun 2027 10:57:59.129   13 Jun 2027 10:58:04.456             5.327          1152.469
       422   13 Jun 2027 10:58:46.041   13 Jun 2027 10:58:51.389             5.348          1299.531
       423   13 Jun 2027 10:58:52.129   13 Jun 2027 10:58:52.261             0.132            16.250
