uniorb/output/strategy_1/Camera/Camera_KinoSat_111406.txt

KinoSat_111406
-------------------------
    Access    *     Start Time (UTCG)     *     Stop Time (UTCG)  *   Duration (s) *   Data (Mbytes)
         1   01 Jun 2027 03:13:26.374   01 Jun 2027 03:15:07.808           101.434         50717.000
         2   01 Jun 2027 03:15:36.266   01 Jun 2027 03:15:36.266             0.000             0.000
         3   01 Jun 2027 03:15:46.102   01 Jun 2027 03:15:46.826             0.724           362.000
         4   01 Jun 2027 03:15:56.264   01 Jun 2027 03:15:56.727             0.463           231.500
         5   01 Jun 2027 03:16:23.561   01 Jun 2027 03:16:30.126             6.565          3282.500
         6   01 Jun 2027 03:18:00.797   01 Jun 2027 03:18:09.326             8.529          4264.500
         7   01 Jun 2027 03:19:36.555   01 Jun 2027 03:19:50.757            14.202          7101.000
         8   01 Jun 2027 03:20:22.396   01 Jun 2027 03:20:32.304             9.908          4954.000
         9   01 Jun 2027 03:20:51.323   01 Jun 2027 03:21:13.625            22.302         11151.000
        10   01 Jun 2027 04:39:36.088   01 Jun 2027 04:39:52.917            16.829          8414.500
        11   01 Jun 2027 04:50:30.951   01 Jun 2027 04:51:15.365            44.414         22207.000
        12   01 Jun 2027 04:51:55.037   01 Jun 2027 04:52:08.529            13.492          6746.000
        13   01 Jun 2027 04:52:39.951   01 Jun 2027 04:52:49.608             9.657          4828.500
        14   01 Jun 2027 06:14:28.283   01 Jun 2027 06:15:27.437            59.154         29577.000
        15   01 Jun 2027 07:50:13.141   01 Jun 2027 07:52:32.162           139.021         69510.500
        16   01 Jun 2027 09:24:56.984   01 Jun 2027 09:26:10.610            73.626         36813.000
        17   01 Jun 2027 09:26:54.336   01 Jun 2027 09:27:11.738            17.402          8701.000
        18   01 Jun 2027 09:28:20.231   01 Jun 2027 09:28:31.183            10.952          5476.000
        19   01 Jun 2027 09:29:02.093   01 Jun 2027 09:29:24.013            21.920         10960.000
        20   01 Jun 2027 09:29:44.224   01 Jun 2027 09:30:04.738            20.514         10257.000
        21   01 Jun 2027 09:32:25.022   01 Jun 2027 09:32:29.118             4.096          2048.000
        22   01 Jun 2027 11:01:45.281   01 Jun 2027 11:03:47.594           122.313         61156.500
        23   01 Jun 2027 11:04:12.775   01 Jun 2027 11:04:41.089            28.314         14157.000
        24   01 Jun 2027 11:07:57.876   01 Jun 2027 11:08:00.318             2.442          1221.000
        25   02 Jun 2027 03:25:47.605   02 Jun 2027 03:27:03.812            76.207         38103.500
        26   02 Jun 2027 03:27:57.122   02 Jun 2027 03:28:15.404            18.282          9141.000
        27   02 Jun 2027 03:28:34.490   02 Jun 2027 03:28:40.644             6.154          3077.000
        28   02 Jun 2027 03:29:03.902   02 Jun 2027 03:29:17.382            13.480          6740.000
        29   02 Jun 2027 03:31:14.565   02 Jun 2027 03:31:28.247            13.682          6841.000
        30   02 Jun 2027 03:32:38.160   02 Jun 2027 03:32:43.849             5.689          2844.500
        31   02 Jun 2027 04:50:51.892   02 Jun 2027 04:51:12.421            20.529         10264.500
        32   02 Jun 2027 05:02:31.711   02 Jun 2027 05:03:49.208            77.497         38748.500
        33   02 Jun 2027 06:25:03.799   02 Jun 2027 06:26:04.487            60.688         30344.000
        34   02 Jun 2027 06:26:45.141   02 Jun 2027 06:26:54.177             9.036          4518.000
        35   02 Jun 2027 06:29:24.595   02 Jun 2027 06:29:24.595             0.000             0.000
        36   02 Jun 2027 08:00:06.967   02 Jun 2027 08:01:25.553            78.586         39293.000
        37   02 Jun 2027 08:01:57.600   02 Jun 2027 08:02:46.282            48.682         24341.000
        38   02 Jun 2027 08:04:04.660   02 Jun 2027 08:04:41.292            36.632         18316.000
        39   02 Jun 2027 09:37:05.338   02 Jun 2027 09:37:08.898             3.560          1780.000
        40   02 Jun 2027 09:39:12.111   02 Jun 2027 09:40:24.061            71.950         35975.000
        41   02 Jun 2027 09:43:37.437   02 Jun 2027 09:44:29.866            52.429         26214.500
        42   02 Jun 2027 11:14:03.475   02 Jun 2027 11:16:04.874           121.399         60699.500
        43   02 Jun 2027 11:17:52.574   02 Jun 2027 11:18:11.852            19.278          9639.000
        44   03 Jun 2027 03:38:04.049   03 Jun 2027 03:39:32.284            88.235         44117.500
        45   03 Jun 2027 03:39:52.204   03 Jun 2027 03:40:02.842            10.638          5319.000
        46   03 Jun 2027 03:41:53.299   03 Jun 2027 03:42:03.846            10.547          5273.500
        47   03 Jun 2027 03:44:09.250   03 Jun 2027 03:44:20.279            11.029          5514.500
        48   03 Jun 2027 05:02:13.026   03 Jun 2027 05:02:59.107            46.081         23040.500
        49   03 Jun 2027 05:04:13.552   03 Jun 2027 05:04:13.552             0.000             0.000
        50   03 Jun 2027 05:14:29.037   03 Jun 2027 05:15:05.856            36.819         18409.500
        51   03 Jun 2027 06:36:28.068   03 Jun 2027 06:37:17.973            49.905         24952.500
        52   03 Jun 2027 06:38:36.196   03 Jun 2027 06:39:13.098            36.902         18451.000
        53   03 Jun 2027 08:11:31.708   03 Jun 2027 08:12:43.588            71.880         35940.000
        54   03 Jun 2027 08:13:29.728   03 Jun 2027 08:14:16.792            47.064         23532.000
        55   03 Jun 2027 08:18:35.705   03 Jun 2027 08:19:08.838            33.133         16566.500
        56   03 Jun 2027 08:19:58.281   03 Jun 2027 08:20:09.852            11.571          5785.500
        57   03 Jun 2027 09:49:07.645   03 Jun 2027 09:49:47.254            39.609         19804.500
        58   03 Jun 2027 09:52:14.796   03 Jun 2027 09:52:42.328            27.532         13766.000
        59   03 Jun 2027 09:53:26.072   03 Jun 2027 09:53:44.823            18.751          9375.500
        60   03 Jun 2027 09:54:08.254   03 Jun 2027 09:54:14.653             6.399          3199.500
        61   03 Jun 2027 09:54:55.750   03 Jun 2027 09:55:04.739             8.989          4494.500
        62   03 Jun 2027 09:55:42.175   03 Jun 2027 09:55:51.551             9.376          4177.407
        63   03 Jun 2027 09:56:33.237   03 Jun 2027 09:56:33.618             0.381           190.500
        64   03 Jun 2027 11:25:53.226   03 Jun 2027 11:26:21.281            28.055         12421.687
        65   03 Jun 2027 11:27:34.118   03 Jun 2027 11:27:39.833             5.715          1069.406
        66   03 Jun 2027 11:28:02.889   03 Jun 2027 11:28:10.353             7.464           286.594
        67   03 Jun 2027 11:28:19.686   03 Jun 2027 11:28:20.174             0.488           237.063
        68   03 Jun 2027 11:28:37.699   03 Jun 2027 11:28:39.538             1.839           365.188
        69   03 Jun 2027 11:29:25.323   03 Jun 2027 11:29:29.850             4.527          1370.063
        70   03 Jun 2027 11:30:15.415   03 Jun 2027 11:30:16.977             1.562           781.000
        71   03 Jun 2027 11:31:04.643   03 Jun 2027 11:31:11.412             6.769          2132.469
        72   03 Jun 2027 11:31:35.574   03 Jun 2027 11:31:38.914             3.340           755.062
        73   03 Jun 2027 11:32:20.063   03 Jun 2027 11:32:22.753             2.690          1235.125
        74   04 Jun 2027 03:50:10.535   04 Jun 2027 03:51:39.043            88.508         44254.000
        75   04 Jun 2027 03:51:42.163   04 Jun 2027 03:52:00.791            18.628          9314.000
        76   04 Jun 2027 03:54:31.947   04 Jun 2027 03:55:09.029            37.082         18541.000
        77   04 Jun 2027 05:14:20.788   04 Jun 2027 05:15:08.914            48.126         24063.000
        78   04 Jun 2027 05:15:30.323   04 Jun 2027 05:15:36.078             5.755          2877.500
        79   04 Jun 2027 05:26:53.918   04 Jun 2027 05:26:55.636             1.718           859.000
        80   04 Jun 2027 06:48:10.273   04 Jun 2027 06:50:03.386           113.113         56556.500
        81   04 Jun 2027 06:51:16.414   04 Jun 2027 06:51:41.630            25.216         12608.000
        82   04 Jun 2027 06:53:43.034   04 Jun 2027 06:54:09.662            26.628         12500.437
        83   04 Jun 2027 08:23:02.629   04 Jun 2027 08:23:39.075            36.446         16020.969
        84   04 Jun 2027 08:24:06.401   04 Jun 2027 08:24:09.462             3.061           159.437
        85   04 Jun 2027 08:24:48.143   04 Jun 2027 08:24:55.543             7.400           903.156
        86   04 Jun 2027 08:25:17.344   04 Jun 2027 08:25:20.366             3.022           319.406
        87   04 Jun 2027 08:26:13.861   04 Jun 2027 08:26:19.529             5.668          1671.719
        88   04 Jun 2027 08:26:41.038   04 Jun 2027 08:26:43.402             2.364           242.063
        89   04 Jun 2027 08:27:51.701   04 Jun 2027 08:27:56.752             5.051          2134.344
        90   04 Jun 2027 08:28:05.284   04 Jun 2027 08:28:08.007             2.723           189.938
        91   04 Jun 2027 08:29:37.923   04 Jun 2027 08:29:40.890             2.967          1483.500
        92   04 Jun 2027 08:30:10.729   04 Jun 2027 08:30:17.215             6.486          1046.531
        93   04 Jun 2027 08:31:07.137   04 Jun 2027 08:31:10.882             3.745          1559.937
        94   04 Jun 2027 08:31:49.069   04 Jun 2027 08:31:53.536             4.467          1193.344
        95   04 Jun 2027 08:32:13.413   04 Jun 2027 08:32:13.418             0.005             2.500
        96   04 Jun 2027 08:32:32.924   04 Jun 2027 08:32:36.482             3.558          1132.219
        97   04 Jun 2027 10:01:08.175   04 Jun 2027 10:01:24.206            16.031          7422.187
        98   04 Jun 2027 10:01:52.836   04 Jun 2027 10:01:55.193             2.357           515.000
        99   04 Jun 2027 10:02:05.771   04 Jun 2027 10:02:07.191             1.420           247.687
       100   04 Jun 2027 10:02:30.326   04 Jun 2027 10:02:31.036             0.710            46.750
       101   04 Jun 2027 10:04:16.239   04 Jun 2027 10:04:22.174             5.935          2701.625
       102   04 Jun 2027 10:05:00.370   04 Jun 2027 10:05:07.158             6.788           413.500
       103   04 Jun 2027 10:05:53.174   04 Jun 2027 10:05:57.666             4.492          1438.000
       104   04 Jun 2027 10:06:09.534   04 Jun 2027 10:06:10.660             1.126           252.125
       105   04 Jun 2027 10:06:46.186   04 Jun 2027 10:06:47.233             1.047           523.500
       106   04 Jun 2027 10:07:09.122   04 Jun 2027 10:07:13.523             4.401          1270.719
       107   04 Jun 2027 10:07:57.794   04 Jun 2027 10:08:02.502             4.708          1265.187
       108   04 Jun 2027 10:08:15.398   04 Jun 2027 10:08:20.288             4.890           388.438
       109   04 Jun 2027 11:38:01.974   04 Jun 2027 11:38:26.011            24.037          6917.719
       110   04 Jun 2027 11:39:55.126   04 Jun 2027 11:40:02.070             6.944          2729.844
       111   04 Jun 2027 11:40:25.144   04 Jun 2027 11:40:25.555             0.411           205.500
       112   04 Jun 2027 11:40:43.447   04 Jun 2027 11:40:45.059             1.612           717.844
       113   04 Jun 2027 11:41:39.791   04 Jun 2027 11:41:40.731             0.940           470.000
       114   04 Jun 2027 11:41:45.062   04 Jun 2027 11:41:46.823             1.761           880.500
       115   04 Jun 2027 11:42:00.594   04 Jun 2027 11:42:03.632             3.038           776.625
       116   04 Jun 2027 11:42:29.546   04 Jun 2027 11:42:32.578             3.032           809.813
       117   04 Jun 2027 11:43:36.407   04 Jun 2027 11:43:40.582             4.175           921.562
       118   05 Jun 2027 04:02:47.871   05 Jun 2027 04:04:24.409            96.538         48269.000
       119   05 Jun 2027 04:05:26.145   05 Jun 2027 04:05:28.276             2.131          1065.500
       120   05 Jun 2027 04:05:56.031   05 Jun 2027 04:06:07.751            11.720          5860.000
       121   05 Jun 2027 05:26:17.259   05 Jun 2027 05:27:27.945            70.686         35343.000
       122   05 Jun 2027 05:27:50.946   05 Jun 2027 05:27:58.015             7.069          3534.500
       123   05 Jun 2027 07:02:29.607   05 Jun 2027 07:04:28.623           119.016         59508.000
       124   05 Jun 2027 08:36:02.951   05 Jun 2027 08:36:25.505            22.554          8883.000
       125   05 Jun 2027 08:38:22.452   05 Jun 2027 08:38:27.595             5.143          1922.844
       126   05 Jun 2027 08:38:40.327   05 Jun 2027 08:38:41.155             0.828           395.750
       127   05 Jun 2027 08:42:29.560   05 Jun 2027 08:42:43.272            13.712          6821.188
       128   05 Jun 2027 08:43:12.378   05 Jun 2027 08:43:15.868             3.490           792.969
       129   05 Jun 2027 08:43:38.378   05 Jun 2027 08:43:42.257             3.879           678.125
       130   05 Jun 2027 08:44:01.399   05 Jun 2027 08:44:07.978             6.579           589.375
       131   05 Jun 2027 08:44:35.755   05 Jun 2027 08:44:36.993             1.238           619.000
       132   05 Jun 2027 10:13:33.162   05 Jun 2027 10:13:46.937            13.775          6621.938
       133   05 Jun 2027 10:14:22.773   05 Jun 2027 10:14:24.313             1.540            32.063
       134   05 Jun 2027 10:14:25.585   05 Jun 2027 10:14:27.480             1.895            39.750
       135   05 Jun 2027 10:14:36.883   05 Jun 2027 10:14:37.903             1.020           278.563
       136   05 Jun 2027 10:15:21.243   05 Jun 2027 10:15:24.368             3.125          1350.531
       137   05 Jun 2027 10:16:13.695   05 Jun 2027 10:16:16.890             3.195          1405.594
       138   05 Jun 2027 10:17:01.032   05 Jun 2027 10:17:03.225             2.193           945.219
       139   05 Jun 2027 10:18:04.792   05 Jun 2027 10:18:08.763             3.971          1923.969
       140   05 Jun 2027 10:19:00.360   05 Jun 2027 10:19:04.960             4.600          1612.406
       141   05 Jun 2027 10:19:44.988   05 Jun 2027 10:19:50.525             5.537          1250.875
       142   05 Jun 2027 10:20:06.284   05 Jun 2027 10:20:08.395             2.111           353.625
       143   05 Jun 2027 11:50:30.090   05 Jun 2027 11:50:51.172            21.082          7449.063
       144   05 Jun 2027 11:52:14.210   05 Jun 2027 11:52:18.158             3.948          1974.000
       145   05 Jun 2027 11:53:08.316   05 Jun 2027 11:53:15.649             7.333          1735.625
       146   05 Jun 2027 11:54:10.031   05 Jun 2027 11:54:20.018             9.987          1699.438
       147   05 Jun 2027 11:54:49.876   05 Jun 2027 11:54:54.154             4.278           866.500
       148   05 Jun 2027 11:55:59.977   05 Jun 2027 11:56:03.875             3.898          1949.000
       149   06 Jun 2027 04:14:28.930   06 Jun 2027 04:16:05.514            96.584         48292.000
       150   06 Jun 2027 04:17:29.935   06 Jun 2027 04:17:38.538             8.603          4301.500
       151   06 Jun 2027 04:19:15.552   06 Jun 2027 04:19:21.770             6.218          3109.000
       152   06 Jun 2027 05:38:08.082   06 Jun 2027 05:40:28.417           140.335         70167.500
       153   06 Jun 2027 07:14:34.965   06 Jun 2027 07:15:48.841            73.876         36938.000
       154   06 Jun 2027 07:16:39.259   06 Jun 2027 07:17:04.790            25.531         12765.500
       155   06 Jun 2027 07:17:12.714   06 Jun 2027 07:17:12.714             0.000             0.000
       156   06 Jun 2027 07:17:38.837   06 Jun 2027 07:17:42.976             4.139          1761.625
       157   06 Jun 2027 08:46:43.712   06 Jun 2027 08:46:54.258            10.546          5273.000
       158   06 Jun 2027 08:49:20.939   06 Jun 2027 08:49:29.831             8.892          3887.219
       159   06 Jun 2027 08:50:02.588   06 Jun 2027 08:50:04.936             2.348           176.969
       160   06 Jun 2027 08:50:37.179   06 Jun 2027 08:50:41.220             4.041          1007.594
       161   06 Jun 2027 08:51:26.204   06 Jun 2027 08:51:35.701             9.497          1180.562
       162   06 Jun 2027 08:52:59.051   06 Jun 2027 08:52:59.051             0.000             0.000
       163   06 Jun 2027 08:53:44.007   06 Jun 2027 08:53:50.551             6.544          3129.250
       164   06 Jun 2027 08:54:25.544   06 Jun 2027 08:54:29.055             3.511          1093.531
       165   06 Jun 2027 08:54:36.984   06 Jun 2027 08:54:39.402             2.418           192.469
       166   06 Jun 2027 08:54:49.846   06 Jun 2027 08:54:50.845             0.999           222.969
       167   06 Jun 2027 08:55:55.408   06 Jun 2027 08:55:58.608             3.200          1326.750
       168   06 Jun 2027 08:56:31.678   06 Jun 2027 08:56:32.587             0.909           454.500
       169   06 Jun 2027 10:25:40.778   06 Jun 2027 10:25:54.323            13.545          6485.250
       170   06 Jun 2027 10:25:58.943   06 Jun 2027 10:25:59.688             0.745           144.375
       171   06 Jun 2027 10:28:01.156   06 Jun 2027 10:28:06.791             5.635          1762.156
       172   06 Jun 2027 10:28:25.282   06 Jun 2027 10:28:25.705             0.423           211.500
       173   06 Jun 2027 10:28:41.162   06 Jun 2027 10:28:47.053             5.891           718.375
       174   06 Jun 2027 10:29:22.242   06 Jun 2027 10:29:28.503             6.261           868.844
       175   06 Jun 2027 10:29:40.654   06 Jun 2027 10:29:42.710             2.056           247.875
       176   06 Jun 2027 10:30:25.971   06 Jun 2027 10:30:30.285             4.314          1299.875
       177   06 Jun 2027 10:30:52.354   06 Jun 2027 10:31:00.942             8.588           689.656
       178   06 Jun 2027 10:31:56.751   06 Jun 2027 10:31:59.949             3.198          1599.000
       179   07 Jun 2027 04:27:42.367   07 Jun 2027 04:29:30.042           107.675         53837.500
       180   07 Jun 2027 04:30:11.236   07 Jun 2027 04:30:11.236             0.000             0.000
       181   07 Jun 2027 04:30:26.858   07 Jun 2027 04:30:34.957             8.099          4049.500
       182   07 Jun 2027 05:50:16.415   07 Jun 2027 05:51:17.622            61.207         30603.500
       183   07 Jun 2027 05:51:25.818   07 Jun 2027 05:51:29.867             4.049          2024.500
       184   07 Jun 2027 05:51:53.908   07 Jun 2027 05:52:23.236            29.328         14664.000
       185   07 Jun 2027 07:26:44.829   07 Jun 2027 07:28:42.113           117.284         58642.000
       186   07 Jun 2027 09:01:55.968   07 Jun 2027 09:02:15.400            19.432          7287.813
       187   07 Jun 2027 09:03:34.259   07 Jun 2027 09:03:39.885             5.626          2407.563
       188   07 Jun 2027 09:04:29.609   07 Jun 2027 09:04:42.139            12.530          1540.875
       189   07 Jun 2027 09:05:15.756   07 Jun 2027 09:05:20.993             5.237           671.625
       190   07 Jun 2027 09:07:13.425   07 Jun 2027 09:07:20.672             7.247          3432.063
       191   07 Jun 2027 09:08:04.765   07 Jun 2027 09:08:04.765             0.000             0.000
       192   07 Jun 2027 09:08:31.787   07 Jun 2027 09:08:35.388             3.601          1800.500
       193   07 Jun 2027 10:38:14.603   07 Jun 2027 10:38:27.440            12.837          6384.687
       194   07 Jun 2027 10:38:51.580   07 Jun 2027 10:38:52.880             1.300           149.344
       195   07 Jun 2027 10:39:00.239   07 Jun 2027 10:39:01.197             0.958           166.906
       196   07 Jun 2027 10:39:55.721   07 Jun 2027 10:40:02.642             6.921          1164.094
       197   07 Jun 2027 10:40:14.951   07 Jun 2027 10:40:17.247             2.296           229.063
       198   07 Jun 2027 10:40:45.856   07 Jun 2027 10:40:49.749             3.893           894.031
       199   07 Jun 2027 10:41:32.395   07 Jun 2027 10:41:36.618             4.223          1332.687
       200   07 Jun 2027 10:42:16.002   07 Jun 2027 10:42:21.497             5.495          1216.406
       201   07 Jun 2027 10:42:54.221   07 Jun 2027 10:42:57.983             3.762          1022.625
       202   07 Jun 2027 10:43:14.850   07 Jun 2027 10:43:17.013             2.163           388.094
       203   07 Jun 2027 10:43:48.464   07 Jun 2027 10:43:50.586             2.122           922.125
       204   07 Jun 2027 10:44:00.598   07 Jun 2027 10:44:02.431             1.833           210.937
       205   07 Jun 2027 10:44:03.668   07 Jun 2027 10:44:06.046             2.378            38.656
       206   08 Jun 2027 03:00:38.307   08 Jun 2027 03:00:51.765            13.458          6729.000
       207   08 Jun 2027 03:01:02.195   08 Jun 2027 03:01:02.195             0.000             0.000
       208   08 Jun 2027 03:01:42.128   08 Jun 2027 03:01:58.086            15.958          7979.000
       209   08 Jun 2027 03:02:24.455   08 Jun 2027 03:02:30.973             6.518          3259.000
       210   08 Jun 2027 03:02:45.697   08 Jun 2027 03:03:08.211            22.514         11257.000
       211   08 Jun 2027 03:03:19.041   08 Jun 2027 03:03:23.687             4.646          2323.000
       212   08 Jun 2027 03:04:11.549   08 Jun 2027 03:04:11.549             0.000             0.000
       213   08 Jun 2027 03:09:00.304   08 Jun 2027 03:09:17.108            16.804          8402.000
       214   08 Jun 2027 04:38:51.375   08 Jun 2027 04:39:27.761            36.386         18193.000
       215   08 Jun 2027 04:39:56.361   08 Jun 2027 04:40:43.390            47.029         23514.500
       216   08 Jun 2027 04:41:07.168   08 Jun 2027 04:41:10.362             3.194          1597.000
       217   08 Jun 2027 06:02:17.465   08 Jun 2027 06:03:18.140            60.675         30337.500
       218   08 Jun 2027 07:38:44.691   08 Jun 2027 07:40:25.996           101.305         50652.500
       219   08 Jun 2027 07:41:07.634   08 Jun 2027 07:41:23.996            16.362          5165.250
       220   08 Jun 2027 09:13:57.595   08 Jun 2027 09:14:14.368            16.773          6956.406
       221   08 Jun 2027 09:15:28.822   08 Jun 2027 09:15:29.985             1.163           395.500
       222   08 Jun 2027 09:15:54.332   08 Jun 2027 09:15:58.635             4.303           540.156
       223   08 Jun 2027 09:17:17.920   08 Jun 2027 09:17:17.920             0.000             0.000
       224   08 Jun 2027 09:20:17.925   08 Jun 2027 09:20:30.513            12.588          6294.000
       225   08 Jun 2027 10:49:53.382   08 Jun 2027 10:50:08.363            14.981          6616.906
       226   08 Jun 2027 10:50:47.071   08 Jun 2027 10:50:50.640             3.569           596.250
       227   08 Jun 2027 10:50:56.852   08 Jun 2027 10:51:02.002             5.150           166.750
       228   08 Jun 2027 10:52:06.081   08 Jun 2027 10:52:09.754             3.673          1568.531
       229   08 Jun 2027 10:52:31.885   08 Jun 2027 10:52:33.404             1.519           547.344
       230   08 Jun 2027 10:52:58.581   08 Jun 2027 10:53:01.715             3.134           588.688
       231   08 Jun 2027 10:54:14.337   08 Jun 2027 10:54:21.089             6.752          2240.562
       232   08 Jun 2027 10:55:17.384   08 Jun 2027 10:55:20.390             3.006          1503.000
       233   08 Jun 2027 10:55:51.507   08 Jun 2027 10:55:58.113             6.606          1219.125
       234   09 Jun 2027 03:13:42.870   09 Jun 2027 03:15:24.300           101.430         50715.000
       235   09 Jun 2027 03:16:00.623   09 Jun 2027 03:16:13.008            12.385          6192.500
       236   09 Jun 2027 03:16:44.537   09 Jun 2027 03:16:46.842             2.305          1152.500
       237   09 Jun 2027 03:17:16.403   09 Jun 2027 03:17:27.722            11.319          5659.500
       238   09 Jun 2027 03:17:34.935   09 Jun 2027 03:17:41.960             7.025          3512.500
       239   09 Jun 2027 03:17:46.715   09 Jun 2027 03:17:46.835             0.120            60.000
       240   09 Jun 2027 03:19:52.489   09 Jun 2027 03:19:55.901             3.412          1706.000
       241   09 Jun 2027 03:20:39.544   09 Jun 2027 03:20:48.408             8.864          4432.000
       242   09 Jun 2027 04:39:50.165   09 Jun 2027 04:40:08.835            18.670          9335.000
       243   09 Jun 2027 04:50:47.018   09 Jun 2027 04:51:43.791            56.773         28386.500
       244   09 Jun 2027 04:54:09.518   09 Jun 2027 04:54:09.967             0.449           224.500
       245   09 Jun 2027 06:14:43.710   09 Jun 2027 06:15:30.580            46.870         23435.000
       246   09 Jun 2027 07:50:29.435   09 Jun 2027 07:51:52.995            83.560         41756.344
       247   09 Jun 2027 07:53:21.653   09 Jun 2027 07:53:25.605             3.952          1976.000
       248   09 Jun 2027 07:53:44.133   09 Jun 2027 07:53:44.133             0.000             0.000
       249   09 Jun 2027 07:54:31.185   09 Jun 2027 07:54:37.158             5.973          2843.938
       250   09 Jun 2027 09:25:13.354   09 Jun 2027 09:25:27.157            13.803          5358.844
       251   09 Jun 2027 09:25:43.066   09 Jun 2027 09:25:46.382             3.316           126.594
       252   09 Jun 2027 09:27:29.429   09 Jun 2027 09:27:42.328            12.899          3129.906
       253   09 Jun 2027 09:28:07.543   09 Jun 2027 09:28:07.543             0.000             0.000
       254   09 Jun 2027 09:28:43.275   09 Jun 2027 09:28:47.250             3.975          1733.500
       255   09 Jun 2027 09:29:38.196   09 Jun 2027 09:29:42.878             4.682          1592.063
       256   09 Jun 2027 09:32:07.297   09 Jun 2027 09:32:17.331            10.034          4000.500
       257   09 Jun 2027 09:32:28.722   09 Jun 2027 09:32:30.741             2.019           334.500
       258   09 Jun 2027 11:02:03.069   09 Jun 2027 11:02:25.346            22.277          8121.562
       259   09 Jun 2027 11:02:33.756   09 Jun 2027 11:02:34.925             1.169           246.344
       260   09 Jun 2027 11:02:42.972   09 Jun 2027 11:02:44.737             1.765            98.313
       261   09 Jun 2027 11:03:58.018   09 Jun 2027 11:04:02.863             4.845          1561.875
       262   09 Jun 2027 11:04:15.807   09 Jun 2027 11:04:17.880             2.073           302.688
       263   09 Jun 2027 11:04:33.095   09 Jun 2027 11:04:35.631             2.536           207.562
       264   09 Jun 2027 11:06:11.615   09 Jun 2027 11:06:16.328             4.713          2332.594
       265   09 Jun 2027 11:06:53.612   09 Jun 2027 11:06:54.971             1.359           679.500
       266   09 Jun 2027 11:07:24.212   09 Jun 2027 11:07:29.871             5.659          1101.094
       267   10 Jun 2027 03:26:04.781   10 Jun 2027 03:28:02.603           117.822         58911.000
       268   10 Jun 2027 03:29:16.873   10 Jun 2027 03:29:19.017             2.144          1072.000
       269   10 Jun 2027 03:29:28.475   10 Jun 2027 03:29:39.094            10.619          5309.500
       270   10 Jun 2027 03:30:27.168   10 Jun 2027 03:30:47.993            20.825         10412.500
       271   10 Jun 2027 03:32:55.202   10 Jun 2027 03:32:58.678             3.476          1738.000
       272   10 Jun 2027 04:51:08.105   10 Jun 2027 04:51:25.777            17.672          8836.000
       273   10 Jun 2027 04:51:44.997   10 Jun 2027 04:51:46.985             1.988           994.000
       274   10 Jun 2027 05:02:48.107   10 Jun 2027 05:03:45.385            57.278         28639.000
       275   10 Jun 2027 06:25:04.933   10 Jun 2027 06:25:57.513            52.580         26290.000
       276   10 Jun 2027 06:27:30.294   10 Jun 2027 06:27:59.222            28.928         14464.000
       277   10 Jun 2027 08:00:19.685   10 Jun 2027 08:01:15.833            56.148         27173.407
       278   10 Jun 2027 08:02:29.595   10 Jun 2027 08:02:32.082             2.487          1243.500
       279   10 Jun 2027 08:03:53.883   10 Jun 2027 08:04:04.042            10.159          3571.406
       280   10 Jun 2027 08:05:18.126   10 Jun 2027 08:05:18.193             0.067            33.500
       281   10 Jun 2027 08:05:44.908   10 Jun 2027 08:05:53.153             8.245          3029.594
       282   10 Jun 2027 08:06:09.869   10 Jun 2027 08:06:14.943             5.074           285.094
       283   10 Jun 2027 09:37:21.197   10 Jun 2027 09:37:32.698            11.501          4341.531
       284   10 Jun 2027 09:38:28.614   10 Jun 2027 09:38:30.944             2.330          1097.000
       285   10 Jun 2027 09:38:58.643   10 Jun 2027 09:39:00.936             2.293           654.750
       286   10 Jun 2027 09:39:52.580   10 Jun 2027 09:39:58.658             6.078           728.562
       287   10 Jun 2027 09:40:18.324   10 Jun 2027 09:40:21.944             3.620           142.375
       288   10 Jun 2027 09:41:22.210   10 Jun 2027 09:41:25.844             3.634          1311.094
       289   10 Jun 2027 09:42:15.903   10 Jun 2027 09:42:21.359             5.456           828.125
       290   10 Jun 2027 09:42:27.263   10 Jun 2027 09:42:27.984             0.721           126.844
       291   10 Jun 2027 09:42:40.698   10 Jun 2027 09:42:45.174             4.476           397.313
       292   10 Jun 2027 09:43:32.646   10 Jun 2027 09:43:34.869             2.223          1111.500
       293   10 Jun 2027 09:44:20.465   10 Jun 2027 09:44:24.646             4.181          1749.875
       294   10 Jun 2027 09:44:43.132   10 Jun 2027 09:44:45.950             2.818           577.688
       295   10 Jun 2027 11:14:19.176   10 Jun 2027 11:14:38.975            19.799          7891.281
       296   10 Jun 2027 11:15:39.761   10 Jun 2027 11:15:44.838             5.077          1685.031
       297   10 Jun 2027 11:16:17.000   10 Jun 2027 11:16:21.801             4.801           279.250
       298   10 Jun 2027 11:17:46.265   10 Jun 2027 11:17:51.596             5.331          1471.250
       299   10 Jun 2027 11:18:07.639   10 Jun 2027 11:18:14.175             6.536           501.344
       300   10 Jun 2027 11:18:37.561   10 Jun 2027 11:18:39.577             2.016           730.813
       301   10 Jun 2027 11:19:48.347   10 Jun 2027 11:19:54.482             6.135          2017.250
       302   11 Jun 2027 03:38:22.381   11 Jun 2027 03:40:05.147           102.766         51383.000
       303   11 Jun 2027 03:42:10.156   11 Jun 2027 03:42:20.236            10.080          5040.000
       304   11 Jun 2027 03:43:35.122   11 Jun 2027 03:44:09.535            34.413         17206.500
       305   11 Jun 2027 03:45:08.879   11 Jun 2027 03:45:17.373             8.494          4247.000
       306   11 Jun 2027 05:02:29.254   11 Jun 2027 05:03:15.244            45.990         22995.000
       307   11 Jun 2027 05:04:29.166   11 Jun 2027 05:04:29.166             0.000             0.000
       308   11 Jun 2027 05:14:45.329   11 Jun 2027 05:15:23.224            37.895         18947.500
       309   11 Jun 2027 06:36:44.161   11 Jun 2027 06:37:35.069            50.908         25454.000
       310   11 Jun 2027 06:38:51.662   11 Jun 2027 06:39:29.454            37.792         18896.000
       311   11 Jun 2027 06:41:49.872   11 Jun 2027 06:41:49.872             0.000             0.000
       312   11 Jun 2027 08:11:44.674   11 Jun 2027 08:12:29.460            44.786         22393.000
       313   11 Jun 2027 08:13:13.346   11 Jun 2027 08:13:14.523             1.177           588.500
       314   11 Jun 2027 08:13:42.006   11 Jun 2027 08:13:48.571             6.565          2807.969
       315   11 Jun 2027 08:15:54.419   11 Jun 2027 08:16:02.599             8.180          3195.688
       316   11 Jun 2027 08:17:18.424   11 Jun 2027 08:17:21.657             3.233          1616.500
       317   11 Jun 2027 08:18:05.992   11 Jun 2027 08:18:09.845             3.853          1926.500
       318   11 Jun 2027 09:49:23.251   11 Jun 2027 09:49:35.432            12.181          5698.875
       319   11 Jun 2027 09:50:23.185   11 Jun 2027 09:50:25.672             2.487           742.406
       320   11 Jun 2027 09:51:16.042   11 Jun 2027 09:51:18.337             2.295           468.219
       321   11 Jun 2027 09:52:30.669   11 Jun 2027 09:52:35.418             4.749          1927.625
       322   11 Jun 2027 09:52:59.230   11 Jun 2027 09:53:00.905             1.675           659.594
       323   11 Jun 2027 09:55:08.025   11 Jun 2027 09:55:16.040             8.015          3254.438
       324   11 Jun 2027 09:55:26.477   11 Jun 2027 09:55:28.403             1.926           221.781
       325   11 Jun 2027 09:56:15.146   11 Jun 2027 09:56:20.964             5.818          1162.094
       326   11 Jun 2027 11:26:09.537   11 Jun 2027 11:26:22.726            13.189          6573.500
       327   11 Jun 2027 11:26:43.680   11 Jun 2027 11:26:45.881             2.201           654.813
       328   11 Jun 2027 11:27:44.931   11 Jun 2027 11:27:51.258             6.327          1585.437
       329   11 Jun 2027 11:28:17.883   11 Jun 2027 11:28:28.897            11.014           804.875
       330   11 Jun 2027 11:29:12.749   11 Jun 2027 11:29:18.733             5.984          1332.063
       331   11 Jun 2027 11:29:59.294   11 Jun 2027 11:30:00.518             1.224           612.000
       332   11 Jun 2027 11:30:15.794   11 Jun 2027 11:30:18.139             2.345           712.500
       333   11 Jun 2027 11:31:47.451   11 Jun 2027 11:31:54.343             6.892          2791.000
       334   11 Jun 2027 11:32:37.784   11 Jun 2027 11:32:40.940             3.156          1357.531
       335   12 Jun 2027 03:50:28.629   12 Jun 2027 03:52:23.914           115.285         57642.500
       336   12 Jun 2027 03:53:40.441   12 Jun 2027 03:53:45.105             4.664          2332.000
       337   12 Jun 2027 03:54:07.353   12 Jun 2027 03:54:13.384             6.031          3015.500
       338   12 Jun 2027 03:55:23.600   12 Jun 2027 03:55:25.753             2.153          1076.500
       339   12 Jun 2027 05:14:37.117   12 Jun 2027 05:15:42.709            65.592         32796.000
       340   12 Jun 2027 05:15:51.900   12 Jun 2027 05:16:07.297            15.397          7698.500
       341   12 Jun 2027 06:48:26.273   12 Jun 2027 06:50:19.582           113.309         56654.500
       342   12 Jun 2027 06:53:11.729   12 Jun 2027 06:53:24.556            12.827          6319.345
       343   12 Jun 2027 08:23:18.296   12 Jun 2027 08:23:38.925            20.629          7723.031
       344   12 Jun 2027 08:24:16.198   12 Jun 2027 08:24:18.537             2.339           922.188
       345   12 Jun 2027 08:26:12.040   12 Jun 2027 08:26:12.040             0.000             0.000
       346   12 Jun 2027 08:26:31.298   12 Jun 2027 08:26:34.699             3.401          1687.844
       347   12 Jun 2027 08:27:54.516   12 Jun 2027 08:28:00.187             5.671          2178.937
       348   12 Jun 2027 08:29:18.153   12 Jun 2027 08:29:23.214             5.061          2156.906
       349   12 Jun 2027 08:30:17.984   12 Jun 2027 08:30:21.279             3.295          1647.500
       350   12 Jun 2027 08:31:52.843   12 Jun 2027 08:32:00.588             7.745          2752.156
       351   12 Jun 2027 10:01:24.480   12 Jun 2027 10:01:39.495            15.015          6941.094
       352   12 Jun 2027 10:02:03.762   12 Jun 2027 10:02:10.452             6.690           663.625
       353   12 Jun 2027 10:02:15.404   12 Jun 2027 10:02:16.194             0.790           154.750
       354   12 Jun 2027 10:02:53.948   12 Jun 2027 10:02:57.758             3.810           560.594
       355   12 Jun 2027 10:03:42.954   12 Jun 2027 10:03:47.477             4.523          1258.969
       356   12 Jun 2027 10:05:52.545   12 Jun 2027 10:06:02.150             9.605          2966.188
       357   12 Jun 2027 10:06:15.944   12 Jun 2027 10:06:17.568             1.624           431.063
       358   12 Jun 2027 10:06:38.565   12 Jun 2027 10:06:41.458             2.893           442.625
       359   12 Jun 2027 10:06:52.389   12 Jun 2027 10:06:56.735             4.346           189.469
       360   12 Jun 2027 10:07:00.341   12 Jun 2027 10:07:03.495             3.154           112.688
       361   12 Jun 2027 10:08:12.648   12 Jun 2027 10:08:18.806             6.158          2161.031
       362   12 Jun 2027 10:08:30.617   12 Jun 2027 10:08:35.121             4.504           369.094
       363   12 Jun 2027 11:38:19.380   12 Jun 2027 11:38:31.976            12.596          6298.000
       364   12 Jun 2027 11:38:51.651   12 Jun 2027 11:38:54.084             2.433          1123.313
       365   12 Jun 2027 11:41:19.645   12 Jun 2027 11:41:31.511            11.866          4531.500
       366   12 Jun 2027 11:42:26.130   12 Jun 2027 11:42:30.170             4.040          1071.938
       367   12 Jun 2027 11:43:02.887   12 Jun 2027 11:43:05.124             2.237           828.375
       368   12 Jun 2027 11:44:24.214   12 Jun 2027 11:44:31.891             7.677          2388.000
       369   13 Jun 2027 04:03:05.097   13 Jun 2027 04:04:48.581           103.484         51742.000
       370   13 Jun 2027 04:06:06.794   13 Jun 2027 04:06:24.138            17.344          8672.000
       371   13 Jun 2027 05:26:33.171   13 Jun 2027 05:27:43.969            70.798         35399.000
       372   13 Jun 2027 07:02:46.308   13 Jun 2027 07:04:04.712            78.404         39202.000
       373   13 Jun 2027 07:04:46.509   13 Jun 2027 07:05:27.299            40.790         20395.000
       374   13 Jun 2027 08:36:19.384   13 Jun 2027 08:36:50.092            30.708         12902.969
       375   13 Jun 2027 08:38:39.451   13 Jun 2027 08:38:47.073             7.622          1926.437
       376   13 Jun 2027 08:40:14.083   13 Jun 2027 08:40:23.466             9.383          2716.719
       377   13 Jun 2027 08:40:32.587   13 Jun 2027 08:40:33.548             0.961           253.656
       378   13 Jun 2027 08:41:21.832   13 Jun 2027 08:41:23.651             1.819           878.875
       379   13 Jun 2027 08:42:07.984   13 Jun 2027 08:42:10.234             2.250          1125.000
       380   13 Jun 2027 08:43:08.569   13 Jun 2027 08:43:13.174             4.605          2083.375
       381   13 Jun 2027 08:44:17.929   13 Jun 2027 08:44:22.337             4.408          1894.344
       382   13 Jun 2027 08:44:51.230   13 Jun 2027 08:44:53.109             1.879           662.469
       383   13 Jun 2027 10:13:51.781   13 Jun 2027 10:14:03.454            11.673          5836.500
       384   13 Jun 2027 10:14:15.152   13 Jun 2027 10:14:19.195             4.043           727.500
       385   13 Jun 2027 10:14:36.108   13 Jun 2027 10:14:37.570             1.462           372.656
       386   13 Jun 2027 10:15:05.023   13 Jun 2027 10:15:09.913             4.890           389.500
       387   13 Jun 2027 10:16:29.873   13 Jun 2027 10:16:34.511             4.638          2288.563
       388   13 Jun 2027 10:16:54.692   13 Jun 2027 10:17:04.686             9.994           480.000
       389   13 Jun 2027 10:17:07.977   13 Jun 2027 10:17:08.292             0.315           102.844
       390   13 Jun 2027 10:17:18.378   13 Jun 2027 10:17:23.877             5.499            59.531
       391   13 Jun 2027 10:18:44.553   13 Jun 2027 10:18:51.232             6.679          2122.781
       392   13 Jun 2027 10:19:16.220   13 Jun 2027 10:19:17.889             1.669           780.875
       393   13 Jun 2027 10:20:01.040   13 Jun 2027 10:20:09.189             8.149          1295.563
       394   13 Jun 2027 10:20:25.121   13 Jun 2027 10:20:29.133             4.012           439.563
       395   13 Jun 2027 11:50:47.160   13 Jun 2027 11:51:08.047            20.887          7453.500
       396   13 Jun 2027 11:52:30.159   13 Jun 2027 11:52:40.177            10.018          2126.062
       397   13 Jun 2027 11:52:51.044   13 Jun 2027 11:52:51.044             0.000             0.000
       398   13 Jun 2027 11:53:16.873   13 Jun 2027 11:53:20.175             3.302          1105.687
       399   13 Jun 2027 11:54:01.314   13 Jun 2027 11:54:01.952             0.638           319.000
       400   13 Jun 2027 11:55:11.338   13 Jun 2027 11:55:16.402             5.064          2456.219
       401   13 Jun 2027 11:56:15.711   13 Jun 2027 11:56:20.452             4.741          1714.219
       402   13 Jun 2027 11:56:27.176   13 Jun 2027 11:56:29.308             2.132           210.125
