uniorb/output/strategy_1/Camera/Camera_KinoSat_111603.txt

KinoSat_111603
-------------------------
    Access    *     Start Time (UTCG)     *     Stop Time (UTCG)  *   Duration (s) *   Data (Mbytes)
         1   01 Jun 2027 03:33:44.241   01 Jun 2027 03:34:45.080            60.839         30419.500
         2   01 Jun 2027 03:34:50.756   01 Jun 2027 03:35:04.107            13.351          6675.500
         3   01 Jun 2027 03:35:21.319   01 Jun 2027 03:36:20.440            59.121         29560.500
         4   01 Jun 2027 03:36:41.932   01 Jun 2027 03:36:41.932             0.000             0.000
         5   01 Jun 2027 03:37:11.808   01 Jun 2027 03:37:16.565             4.757          2378.500
         6   01 Jun 2027 03:39:03.334   01 Jun 2027 03:39:07.148             3.814          1907.000
         7   01 Jun 2027 03:39:36.291   01 Jun 2027 03:39:50.379            14.088          7044.000
         8   01 Jun 2027 05:13:01.377   01 Jun 2027 05:14:29.664            88.287         44143.500
         9   01 Jun 2027 05:14:53.571   01 Jun 2027 05:15:11.946            18.375          9187.500
        10   01 Jun 2027 06:35:17.069   01 Jun 2027 06:36:13.232            56.163         28081.500
        11   01 Jun 2027 06:37:15.501   01 Jun 2027 06:37:21.746             6.245          3122.500
        12   01 Jun 2027 08:11:42.767   01 Jun 2027 08:13:57.513           134.746         67373.000
        13   01 Jun 2027 09:47:27.708   01 Jun 2027 09:48:05.352            37.644         18822.000
        14   01 Jun 2027 09:48:13.583   01 Jun 2027 09:49:01.971            48.388         24194.000
        15   01 Jun 2027 09:50:01.406   01 Jun 2027 09:50:34.944            33.538         16769.000
        16   01 Jun 2027 09:51:40.544   01 Jun 2027 09:51:44.240             3.696          1848.000
        17   01 Jun 2027 09:52:51.769   01 Jun 2027 09:52:52.622             0.853           426.500
        18   01 Jun 2027 09:53:22.967   01 Jun 2027 09:53:22.967             0.000             0.000
        19   01 Jun 2027 09:53:33.005   01 Jun 2027 09:53:38.951             5.946          2973.000
        20   01 Jun 2027 11:23:11.938   01 Jun 2027 11:25:02.824           110.886         55443.000
        21   01 Jun 2027 11:25:19.191   01 Jun 2027 11:25:55.461            36.270         18135.000
        22   02 Jun 2027 03:45:40.625   02 Jun 2027 03:46:34.736            54.111         27055.500
        23   02 Jun 2027 03:46:47.428   02 Jun 2027 03:47:53.627            66.199         33099.500
        24   02 Jun 2027 03:48:44.815   02 Jun 2027 03:48:46.233             1.418           709.000
        25   02 Jun 2027 03:49:13.723   02 Jun 2027 03:49:20.392             6.669          3334.500
        26   02 Jun 2027 03:49:35.486   02 Jun 2027 03:49:55.782            20.296         10148.000
        27   02 Jun 2027 05:23:55.845   02 Jun 2027 05:24:32.182            36.337         18168.500
        28   02 Jun 2027 05:24:44.972   02 Jun 2027 05:25:16.025            31.053         15526.500
        29   02 Jun 2027 05:25:53.077   02 Jun 2027 05:26:06.606            13.529          6764.500
        30   02 Jun 2027 06:47:16.412   02 Jun 2027 06:48:41.212            84.800         42400.000
        31   02 Jun 2027 08:23:53.115   02 Jun 2027 08:25:52.658           119.543         59771.500
        32   02 Jun 2027 09:59:03.148   02 Jun 2027 10:00:15.071            71.923         35961.500
        33   02 Jun 2027 10:00:30.262   02 Jun 2027 10:00:30.262             0.000             0.000
        34   02 Jun 2027 10:00:40.939   02 Jun 2027 10:01:13.451            32.512         16256.000
        35   02 Jun 2027 10:05:25.976   02 Jun 2027 10:05:39.125            13.149          6574.500
        36   02 Jun 2027 11:35:20.365   02 Jun 2027 11:37:21.709           121.344         60672.000
        37   02 Jun 2027 11:39:37.713   02 Jun 2027 11:39:44.877             7.164          3582.000
        38   03 Jun 2027 03:58:46.277   03 Jun 2027 04:00:18.290            92.013         46006.500
        39   03 Jun 2027 04:03:43.358   03 Jun 2027 04:03:59.872            16.514          8257.000
        40   03 Jun 2027 04:05:39.117   03 Jun 2027 04:06:25.058            45.941         22970.500
        41   03 Jun 2027 05:25:08.593   03 Jun 2027 05:25:13.998             5.405          2702.500
        42   03 Jun 2027 05:35:52.504   03 Jun 2027 05:37:11.960            79.456         39728.000
        43   03 Jun 2027 05:38:03.701   03 Jun 2027 05:38:09.421             5.720          2860.000
        44   03 Jun 2027 06:59:52.695   03 Jun 2027 07:01:53.880           121.185         60592.500
        45   03 Jun 2027 08:35:37.344   03 Jun 2027 08:36:39.339            61.995         30997.500
        46   03 Jun 2027 08:38:09.228   03 Jun 2027 08:38:58.450            49.222         24611.000
        47   03 Jun 2027 10:10:30.908   03 Jun 2027 10:11:00.991            30.083         15041.500
        48   03 Jun 2027 10:12:16.151   03 Jun 2027 10:12:59.269            43.118         21559.000
        49   03 Jun 2027 10:13:34.765   03 Jun 2027 10:13:53.091            18.326          9163.000
        50   03 Jun 2027 10:17:16.481   03 Jun 2027 10:17:36.350            19.869          9934.500
        51   03 Jun 2027 11:47:03.984   03 Jun 2027 11:47:22.128            18.144          8565.377
        52   03 Jun 2027 11:47:55.205   03 Jun 2027 11:47:57.919             2.714          1033.656
        53   03 Jun 2027 11:48:56.498   03 Jun 2027 11:49:05.357             8.859          1830.594
        54   03 Jun 2027 11:49:41.974   03 Jun 2027 11:49:45.175             3.201           988.656
        55   03 Jun 2027 11:51:04.095   03 Jun 2027 11:51:10.153             6.058          2100.594
        56   03 Jun 2027 11:51:11.817   03 Jun 2027 11:51:11.988             0.171            52.000
        57   03 Jun 2027 11:51:55.051   03 Jun 2027 11:51:57.719             2.668          1330.875
        58   03 Jun 2027 11:53:06.858   03 Jun 2027 11:53:12.880             6.022          2160.594
        59   04 Jun 2027 04:10:54.801   04 Jun 2027 04:12:23.163            88.362         44181.000
        60   04 Jun 2027 04:12:57.767   04 Jun 2027 04:13:08.815            11.048          5524.000
        61   04 Jun 2027 04:15:34.675   04 Jun 2027 04:15:59.187            24.512         12256.000
        62   04 Jun 2027 05:36:26.138   04 Jun 2027 05:37:36.982            70.844         35422.000
        63   04 Jun 2027 05:47:50.662   04 Jun 2027 05:48:43.247            52.585         26292.500
        64   04 Jun 2027 07:10:28.375   04 Jun 2027 07:11:29.103            60.728         30364.000
        65   04 Jun 2027 07:12:01.652   04 Jun 2027 07:12:44.916            43.264         21632.000
        66   04 Jun 2027 08:45:51.636   04 Jun 2027 08:46:12.674            21.038         10519.000
        67   04 Jun 2027 08:47:23.002   04 Jun 2027 08:47:39.269            16.267          3974.875
        68   04 Jun 2027 08:50:14.682   04 Jun 2027 08:50:21.304             6.622          3311.000
        69   04 Jun 2027 08:50:24.118   04 Jun 2027 08:50:24.622             0.504           252.000
        70   04 Jun 2027 10:22:18.479   04 Jun 2027 10:22:36.721            18.242          7774.031
        71   04 Jun 2027 10:24:16.750   04 Jun 2027 10:24:26.668             9.918          3062.844
        72   04 Jun 2027 10:25:18.351   04 Jun 2027 10:25:25.805             7.454           615.063
        73   04 Jun 2027 10:25:45.539   04 Jun 2027 10:25:45.539             0.000             0.000
        74   04 Jun 2027 10:29:03.543   04 Jun 2027 10:29:18.130            14.587          6581.250
        75   04 Jun 2027 11:59:25.122   04 Jun 2027 11:59:38.467            13.345          5986.156
        76   04 Jun 2027 11:59:56.427   04 Jun 2027 11:59:58.551             2.124           481.969
        77   05 Jun 2027 04:23:20.696   05 Jun 2027 04:24:52.080            91.384         45692.000
        78   05 Jun 2027 04:26:08.186   05 Jun 2027 04:26:13.392             5.206          2603.000
        79   05 Jun 2027 04:26:50.510   05 Jun 2027 04:27:10.154            19.644          9822.000
        80   05 Jun 2027 04:27:25.295   05 Jun 2027 04:28:05.061            39.766         19883.000
        81   05 Jun 2027 05:47:44.892   05 Jun 2027 05:48:45.230            60.338         30169.000
        82   05 Jun 2027 05:49:22.091   05 Jun 2027 05:49:38.655            16.564          8282.000
        83   05 Jun 2027 05:59:50.039   05 Jun 2027 06:00:48.509            58.470         29235.000
        84   05 Jun 2027 07:22:07.128   05 Jun 2027 07:23:13.731            66.603         33301.500
        85   05 Jun 2027 07:24:01.777   05 Jun 2027 07:24:29.135            27.358         12797.219
        86   05 Jun 2027 07:24:46.850   05 Jun 2027 07:24:46.850             0.000             0.000
        87   05 Jun 2027 08:57:00.960   05 Jun 2027 08:57:18.234            17.274          8637.000
        88   05 Jun 2027 08:58:35.634   05 Jun 2027 08:58:43.252             7.618          2926.156
        89   05 Jun 2027 09:00:41.436   05 Jun 2027 09:00:52.088            10.652          3693.250
        90   05 Jun 2027 09:01:02.803   05 Jun 2027 09:01:03.951             1.148           334.844
        91   05 Jun 2027 09:05:04.417   05 Jun 2027 09:05:18.383            13.966          6380.125
        92   05 Jun 2027 10:34:33.734   05 Jun 2027 10:34:42.916             9.182          4448.125
        93   05 Jun 2027 10:35:21.051   05 Jun 2027 10:35:25.731             4.680           321.844
        94   05 Jun 2027 10:35:38.131   05 Jun 2027 10:35:42.276             4.145           226.188
        95   05 Jun 2027 10:36:12.566   05 Jun 2027 10:36:15.072             2.506           946.156
        96   05 Jun 2027 10:40:04.323   05 Jun 2027 10:40:22.277            17.954          7110.531
        97   05 Jun 2027 10:41:15.044   05 Jun 2027 10:41:23.971             8.927          1648.969
        98   05 Jun 2027 10:41:29.324   05 Jun 2027 10:41:37.676             8.352           145.312
        99   06 Jun 2027 03:00:00.000   06 Jun 2027 03:00:08.366             8.366          4183.000
       100   06 Jun 2027 03:00:45.425   06 Jun 2027 03:00:51.422             5.997          2998.500
       101   06 Jun 2027 03:01:19.001   06 Jun 2027 03:01:26.617             7.616          3808.000
       102   06 Jun 2027 03:02:12.804   06 Jun 2027 03:02:21.743             8.939          4469.500
       103   06 Jun 2027 04:35:25.297   06 Jun 2027 04:36:56.982            91.685         45842.500
       104   06 Jun 2027 04:37:57.026   06 Jun 2027 04:38:02.114             5.088          2544.000
       105   06 Jun 2027 04:38:27.252   06 Jun 2027 04:38:30.324             3.072          1536.000
       106   06 Jun 2027 04:39:24.679   06 Jun 2027 04:39:58.023            33.344         16672.000
       107   06 Jun 2027 04:41:26.705   06 Jun 2027 04:41:50.138            23.433         11716.500
       108   06 Jun 2027 05:59:43.756   06 Jun 2027 06:00:46.781            63.025         31512.500
       109   06 Jun 2027 06:00:53.580   06 Jun 2027 06:00:53.580             0.000             0.000
       110   06 Jun 2027 06:01:32.259   06 Jun 2027 06:01:38.953             6.694          3347.000
       111   06 Jun 2027 06:12:05.169   06 Jun 2027 06:12:19.904            14.735          7367.500
       112   06 Jun 2027 07:33:37.509   06 Jun 2027 07:34:59.632            82.123         41061.500
       113   06 Jun 2027 07:35:47.971   06 Jun 2027 07:35:57.566             9.595          4436.625
       114   06 Jun 2027 07:38:46.273   06 Jun 2027 07:38:46.273             0.000             0.000
       115   06 Jun 2027 09:08:31.902   06 Jun 2027 09:08:52.333            20.431          8111.844
       116   06 Jun 2027 09:09:21.329   06 Jun 2027 09:09:21.329             0.000             0.000
       117   06 Jun 2027 09:10:34.433   06 Jun 2027 09:10:36.901             2.468          1234.000
       118   06 Jun 2027 09:10:42.648   06 Jun 2027 09:10:53.568            10.920          1484.938
       119   06 Jun 2027 09:12:41.962   06 Jun 2027 09:12:52.287            10.325          3376.312
       120   06 Jun 2027 09:14:13.269   06 Jun 2027 09:14:19.891             6.622          2380.906
       121   06 Jun 2027 09:15:29.039   06 Jun 2027 09:15:33.918             4.879          2096.188
       122   06 Jun 2027 09:16:00.330   06 Jun 2027 09:16:04.169             3.839           825.375
       123   06 Jun 2027 09:17:02.478   06 Jun 2027 09:17:02.478             0.000             0.000
       124   06 Jun 2027 10:46:28.554   06 Jun 2027 10:46:37.462             8.908          4454.000
       125   06 Jun 2027 10:46:55.136   06 Jun 2027 10:47:02.218             7.082          2147.531
       126   06 Jun 2027 10:47:20.339   06 Jun 2027 10:47:21.698             1.359           310.094
       127   06 Jun 2027 10:47:40.261   06 Jun 2027 10:47:43.139             2.878           547.656
       128   06 Jun 2027 10:48:06.679   06 Jun 2027 10:48:11.665             4.986           376.312
       129   06 Jun 2027 10:49:26.827   06 Jun 2027 10:49:41.188            14.361          2208.281
       130   06 Jun 2027 10:50:32.568   06 Jun 2027 10:50:37.343             4.775           839.219
       131   06 Jun 2027 10:50:58.397   06 Jun 2027 10:51:00.712             2.315           602.000
       132   06 Jun 2027 10:51:20.895   06 Jun 2027 10:51:21.352             0.457           168.219
       133   06 Jun 2027 10:51:59.447   06 Jun 2027 10:52:00.533             1.086           543.000
       134   06 Jun 2027 10:52:04.570   06 Jun 2027 10:52:04.570             0.000             0.000
       135   06 Jun 2027 10:52:14.600   06 Jun 2027 10:52:18.155             3.555          1087.062
       136   06 Jun 2027 10:53:08.960   06 Jun 2027 10:53:10.631             1.671           835.500
       137   06 Jun 2027 10:53:42.111   06 Jun 2027 10:53:46.666             4.555          1292.687
       138   07 Jun 2027 03:09:19.721   07 Jun 2027 03:10:24.274            64.553         32276.500
       139   07 Jun 2027 03:11:01.720   07 Jun 2027 03:11:13.182            11.462          5731.000
       140   07 Jun 2027 03:11:14.798   07 Jun 2027 03:11:16.271             1.473           736.500
       141   07 Jun 2027 04:47:51.238   07 Jun 2027 04:48:45.294            54.056         27028.000
       142   07 Jun 2027 04:49:36.393   07 Jun 2027 04:49:50.869            14.476          7238.000
       143   07 Jun 2027 04:49:57.334   07 Jun 2027 04:50:21.691            24.357         12178.500
       144   07 Jun 2027 04:51:04.813   07 Jun 2027 04:51:08.811             3.998          1999.000
       145   07 Jun 2027 04:52:44.288   07 Jun 2027 04:52:51.910             7.622          3811.000
       146   07 Jun 2027 06:11:39.998   07 Jun 2027 06:12:48.205            68.207         34103.500
       147   07 Jun 2027 07:47:39.311   07 Jun 2027 07:49:16.972            97.661         48733.312
       148   07 Jun 2027 07:49:35.872   07 Jun 2027 07:49:35.906             0.034            17.000
       149   07 Jun 2027 09:21:26.139   07 Jun 2027 09:21:43.756            17.617          6515.531
       150   07 Jun 2027 09:23:53.016   07 Jun 2027 09:23:53.639             0.623           311.500
       151   07 Jun 2027 09:25:44.633   07 Jun 2027 09:26:00.831            16.198          5548.625
       152   07 Jun 2027 09:28:29.982   07 Jun 2027 09:28:40.966            10.984          4532.688
       153   07 Jun 2027 09:29:33.918   07 Jun 2027 09:29:42.560             8.642          1654.750
       154   07 Jun 2027 10:58:42.562   07 Jun 2027 10:59:02.752            20.190          7286.594
       155   07 Jun 2027 10:59:19.897   07 Jun 2027 10:59:23.284             3.387           458.531
       156   07 Jun 2027 10:59:34.325   07 Jun 2027 10:59:35.458             1.133           297.625
       157   07 Jun 2027 11:01:04.753   07 Jun 2027 11:01:10.872             6.119          2457.313
       158   07 Jun 2027 11:03:00.045   07 Jun 2027 11:03:08.162             8.117          3411.656
       159   07 Jun 2027 11:03:24.502   07 Jun 2027 11:03:26.055             1.553            81.531
       160   07 Jun 2027 11:03:50.523   07 Jun 2027 11:03:52.168             1.645           704.344
       161   07 Jun 2027 11:04:02.027   07 Jun 2027 11:04:03.785             1.758           308.094
       162   07 Jun 2027 11:04:23.449   07 Jun 2027 11:04:27.014             3.565           567.719
       163   07 Jun 2027 11:05:29.430   07 Jun 2027 11:05:35.139             5.709          1714.000
       164   08 Jun 2027 03:21:53.301   08 Jun 2027 03:22:20.419            27.118         13559.000
       165   08 Jun 2027 03:22:31.045   08 Jun 2027 03:23:45.913            74.868         37434.000
       166   08 Jun 2027 03:24:24.774   08 Jun 2027 03:24:35.699            10.925          5462.500
       167   08 Jun 2027 03:27:20.211   08 Jun 2027 03:27:32.632            12.421          6210.500
       168   08 Jun 2027 03:27:49.132   08 Jun 2027 03:27:57.766             8.634          4317.000
       169   08 Jun 2027 05:00:09.740   08 Jun 2027 05:01:17.169            67.429         33714.500
       170   08 Jun 2027 05:01:25.051   08 Jun 2027 05:01:35.539            10.488          5244.000
       171   08 Jun 2027 05:02:41.129   08 Jun 2027 05:02:49.898             8.769          4384.500
       172   08 Jun 2027 06:23:31.717   08 Jun 2027 06:24:27.219            55.502         27751.000
       173   08 Jun 2027 06:25:09.528   08 Jun 2027 06:25:09.528             0.000             0.000
       174   08 Jun 2027 06:26:00.084   08 Jun 2027 06:26:01.254             1.170           585.000
       175   08 Jun 2027 07:59:53.939   08 Jun 2027 08:01:13.645            79.706         37799.094
       176   08 Jun 2027 08:01:20.449   08 Jun 2027 08:01:20.449             0.000             0.000
       177   08 Jun 2027 08:01:47.672   08 Jun 2027 08:01:49.192             1.520           760.000
       178   08 Jun 2027 09:32:11.020   08 Jun 2027 09:32:21.080            10.060          4980.031
       179   08 Jun 2027 09:33:58.086   08 Jun 2027 09:34:04.553             6.467          1855.656
       180   08 Jun 2027 09:35:52.135   08 Jun 2027 09:35:58.811             6.676          2314.375
       181   08 Jun 2027 09:37:11.669   08 Jun 2027 09:37:12.180             0.511           255.500
       182   08 Jun 2027 09:40:15.291   08 Jun 2027 09:40:27.287            11.996          5998.000
       183   08 Jun 2027 09:40:31.654   08 Jun 2027 09:40:35.582             3.928          1757.406
       184   08 Jun 2027 09:40:57.616   08 Jun 2027 09:40:58.342             0.726           363.000
       185   08 Jun 2027 09:41:13.533   08 Jun 2027 09:41:15.410             1.877           633.312
       186   08 Jun 2027 09:41:26.838   08 Jun 2027 09:41:31.002             4.164           357.125
       187   08 Jun 2027 09:41:41.779   08 Jun 2027 09:41:45.509             3.730           336.781
       188   08 Jun 2027 09:41:50.128   08 Jun 2027 09:41:51.858             1.730           144.344
       189   08 Jun 2027 11:11:02.301   08 Jun 2027 11:11:15.517            13.216          6254.656
       190   08 Jun 2027 11:11:25.556   08 Jun 2027 11:11:26.925             1.369           298.594
       191   08 Jun 2027 11:11:53.575   08 Jun 2027 11:11:55.404             1.829           447.219
       192   08 Jun 2027 11:13:09.328   08 Jun 2027 11:13:13.372             4.044          1914.437
       193   08 Jun 2027 11:13:45.150   08 Jun 2027 11:13:49.487             4.337           717.687
       194   08 Jun 2027 11:14:13.704   08 Jun 2027 11:14:15.041             1.337           668.500
       195   08 Jun 2027 11:15:22.726   08 Jun 2027 11:15:28.246             5.520          2144.218
       196   08 Jun 2027 11:15:29.328   08 Jun 2027 11:15:31.257             1.929            33.812
       197   08 Jun 2027 11:15:57.055   08 Jun 2027 11:15:59.577             2.522           679.875
       198   08 Jun 2027 11:17:02.016   08 Jun 2027 11:17:05.101             3.085          1542.500
       199   08 Jun 2027 11:17:38.958   08 Jun 2027 11:17:44.390             5.432          1391.562
       200   09 Jun 2027 03:34:00.136   09 Jun 2027 03:35:01.402            61.266         30633.000
       201   09 Jun 2027 03:35:07.139   09 Jun 2027 03:36:17.263            70.124         35062.000
       202   09 Jun 2027 03:37:18.809   09 Jun 2027 03:37:28.120             9.311          4655.500
       203   09 Jun 2027 05:13:02.427   09 Jun 2027 05:14:19.398            76.971         38485.500
       204   09 Jun 2027 05:14:42.706   09 Jun 2027 05:14:47.598             4.892          2446.000
       205   09 Jun 2027 05:15:26.713   09 Jun 2027 05:15:26.713             0.000             0.000
       206   09 Jun 2027 06:35:35.310   09 Jun 2027 06:36:50.488            75.178         37589.000
       207   09 Jun 2027 06:38:17.033   09 Jun 2027 06:38:17.823             0.790           395.000
       208   09 Jun 2027 08:12:04.682   09 Jun 2027 08:12:40.130            35.448         17430.281
       209   09 Jun 2027 08:14:46.349   09 Jun 2027 08:14:57.252            10.903          3513.062
       210   09 Jun 2027 09:47:43.663   09 Jun 2027 09:47:56.128            12.465          6089.844
       211   09 Jun 2027 09:48:53.429   09 Jun 2027 09:49:00.572             7.143          1490.906
       212   09 Jun 2027 09:49:09.976   09 Jun 2027 09:49:11.109             1.133            45.719
       213   09 Jun 2027 09:50:24.276   09 Jun 2027 09:50:29.868             5.592          1991.156
       214   09 Jun 2027 09:52:25.233   09 Jun 2027 09:52:25.233             0.000             0.000
       215   09 Jun 2027 09:52:49.647   09 Jun 2027 09:52:53.922             4.275          2137.500
       216   09 Jun 2027 09:52:54.009   09 Jun 2027 09:52:58.905             4.896          1591.031
       217   09 Jun 2027 09:53:07.219   09 Jun 2027 09:53:07.219             0.000             0.000
       218   09 Jun 2027 09:53:24.244   09 Jun 2027 09:53:26.283             2.039           639.687
       219   09 Jun 2027 11:23:30.967   09 Jun 2027 11:23:47.290            16.323          7928.781
       220   09 Jun 2027 11:25:06.449   09 Jun 2027 11:25:08.677             2.228          1114.000
       221   09 Jun 2027 11:25:48.241   09 Jun 2027 11:25:51.066             2.825          1412.500
       222   09 Jun 2027 11:27:04.538   09 Jun 2027 11:27:17.006            12.468          2539.875
       223   09 Jun 2027 11:27:34.851   09 Jun 2027 11:27:35.554             0.703           351.500
       224   09 Jun 2027 11:28:15.230   09 Jun 2027 11:28:18.726             3.496          1271.813
       225   09 Jun 2027 11:28:45.896   09 Jun 2027 11:28:47.849             1.953           228.094
       226   09 Jun 2027 11:28:57.513   09 Jun 2027 11:29:03.552             6.039           154.594
       227   09 Jun 2027 11:29:08.648   09 Jun 2027 11:29:09.768             1.120           159.250
       228   09 Jun 2027 11:29:28.002   09 Jun 2027 11:29:29.916             1.914           569.813
       229   10 Jun 2027 03:45:57.967   10 Jun 2027 03:46:45.440            47.473         23736.500
       230   10 Jun 2027 03:47:04.446   10 Jun 2027 03:48:18.363            73.917         36958.500
       231   10 Jun 2027 03:49:39.306   10 Jun 2027 03:49:46.449             7.143          3571.500
       232   10 Jun 2027 05:24:11.775   10 Jun 2027 05:24:49.370            37.595         18797.500
       233   10 Jun 2027 05:25:01.837   10 Jun 2027 05:26:07.961            66.124         33062.000
       234   10 Jun 2027 05:26:31.308   10 Jun 2027 05:26:56.998            25.690         12845.000
       235   10 Jun 2027 06:47:32.199   10 Jun 2027 06:48:23.534            51.335         25667.500
       236   10 Jun 2027 06:48:26.487   10 Jun 2027 06:48:32.608             6.121          3060.500
       237   10 Jun 2027 06:49:01.296   10 Jun 2027 06:49:01.296             0.000             0.000
       238   10 Jun 2027 06:50:33.081   10 Jun 2027 06:50:33.081             0.000             0.000
       239   10 Jun 2027 08:24:09.937   10 Jun 2027 08:24:27.027            17.090          8545.000
       240   10 Jun 2027 08:24:31.938   10 Jun 2027 08:24:38.382             6.444          1107.249
       241   10 Jun 2027 08:26:11.707   10 Jun 2027 08:26:18.857             7.150          2367.563
       242   10 Jun 2027 08:27:11.389   10 Jun 2027 08:27:11.389             0.000             0.000
       243   10 Jun 2027 09:59:19.901   10 Jun 2027 09:59:30.446            10.545          4161.750
       244   10 Jun 2027 10:00:49.467   10 Jun 2027 10:00:56.535             7.068          2414.625
       245   10 Jun 2027 10:04:25.429   10 Jun 2027 10:04:45.622            20.193          6403.687
       246   10 Jun 2027 10:05:36.706   10 Jun 2027 10:05:42.259             5.553          1395.875
       247   10 Jun 2027 11:35:36.163   10 Jun 2027 11:35:55.812            19.649          6741.500
       248   10 Jun 2027 11:36:37.770   10 Jun 2027 11:36:45.230             7.460          1013.375
       249   10 Jun 2027 11:37:25.458   10 Jun 2027 11:37:29.947             4.489           467.188
       250   10 Jun 2027 11:38:11.039   10 Jun 2027 11:38:17.870             6.831           848.375
       251   10 Jun 2027 11:38:52.611   10 Jun 2027 11:38:55.161             2.550          1064.688
       252   10 Jun 2027 11:39:35.771   10 Jun 2027 11:39:40.118             4.347          1269.062
       253   10 Jun 2027 11:40:31.654   10 Jun 2027 11:40:38.571             6.917          1610.500
       254   10 Jun 2027 11:40:58.985   10 Jun 2027 11:41:01.255             2.270           548.656
       255   10 Jun 2027 11:41:10.652   10 Jun 2027 11:41:12.718             2.066           180.875
       256   11 Jun 2027 03:59:03.392   11 Jun 2027 04:00:34.999            91.607         45803.500
       257   11 Jun 2027 04:00:51.495   11 Jun 2027 04:00:58.664             7.169          3584.500
       258   11 Jun 2027 04:03:59.683   11 Jun 2027 04:04:06.233             6.550          3275.000
       259   11 Jun 2027 04:05:42.513   11 Jun 2027 04:06:07.216            24.703         12351.500
       260   11 Jun 2027 05:25:22.891   11 Jun 2027 05:25:34.635            11.744          5872.000
       261   11 Jun 2027 05:36:09.298   11 Jun 2027 05:37:29.332            80.034         40017.000
       262   11 Jun 2027 07:00:08.513   11 Jun 2027 07:02:09.318           120.805         60070.187
       263   11 Jun 2027 08:35:53.634   11 Jun 2027 08:36:09.848            16.214          8076.969
       264   11 Jun 2027 08:38:02.225   11 Jun 2027 08:38:02.225             0.000             0.000
       265   11 Jun 2027 08:38:28.509   11 Jun 2027 08:38:37.504             8.995          4332.063
       266   11 Jun 2027 08:40:02.190   11 Jun 2027 08:40:07.190             5.000          2500.000
       267   11 Jun 2027 10:10:44.899   11 Jun 2027 10:10:50.528             5.629          2814.500
       268   11 Jun 2027 10:10:58.585   11 Jun 2027 10:11:00.704             2.119          1059.500
       269   11 Jun 2027 10:11:24.476   11 Jun 2027 10:11:26.508             2.032           770.156
       270   11 Jun 2027 10:12:15.113   11 Jun 2027 10:12:18.041             2.928          1254.000
       271   11 Jun 2027 10:12:45.453   11 Jun 2027 10:12:53.784             8.331           754.063
       272   11 Jun 2027 10:17:32.562   11 Jun 2027 10:17:48.660            16.098          7930.000
       273   11 Jun 2027 11:47:20.490   11 Jun 2027 11:47:34.074            13.584          6435.875
       274   11 Jun 2027 11:47:48.596   11 Jun 2027 11:47:49.892             1.296           296.750
       275   11 Jun 2027 11:48:09.014   11 Jun 2027 11:48:09.482             0.468           217.000
       276   11 Jun 2027 11:49:13.466   11 Jun 2027 11:49:19.725             6.259          1908.156
       277   11 Jun 2027 11:49:58.970   11 Jun 2027 11:50:03.196             4.226           988.344
       278   11 Jun 2027 11:51:19.691   11 Jun 2027 11:51:24.917             5.226          2073.187
       279   11 Jun 2027 11:51:29.368   11 Jun 2027 11:51:29.384             0.016             8.000
       280   11 Jun 2027 11:51:37.902   11 Jun 2027 11:51:44.869             6.967           397.281
       281   11 Jun 2027 11:52:12.194   11 Jun 2027 11:52:13.116             0.922           461.000
       282   11 Jun 2027 11:52:50.216   11 Jun 2027 11:52:58.735             8.519          1552.281
       283   11 Jun 2027 11:53:07.273   11 Jun 2027 11:53:07.273             0.000             0.000
       284   12 Jun 2027 04:11:23.977   12 Jun 2027 04:12:49.991            86.014         43007.000
       285   12 Jun 2027 04:13:12.391   12 Jun 2027 04:13:12.391             0.000             0.000
       286   12 Jun 2027 04:13:50.469   12 Jun 2027 04:13:51.443             0.974           487.000
       287   12 Jun 2027 04:14:31.261   12 Jun 2027 04:14:37.910             6.649          3324.500
       288   12 Jun 2027 04:17:23.946   12 Jun 2027 04:17:35.059            11.113          5556.500
       289   12 Jun 2027 04:17:52.784   12 Jun 2027 04:18:45.179            52.395         26197.500
       290   12 Jun 2027 05:36:39.605   12 Jun 2027 05:37:54.281            74.676         37338.000
       291   12 Jun 2027 05:48:07.790   12 Jun 2027 05:49:02.223            54.433         27216.500
       292   12 Jun 2027 07:10:46.989   12 Jun 2027 07:11:46.019            59.030         29515.000
       293   12 Jun 2027 07:12:22.771   12 Jun 2027 07:13:02.578            39.807         19870.844
       294   12 Jun 2027 08:46:06.906   12 Jun 2027 08:46:22.557            15.651          7639.062
       295   12 Jun 2027 08:47:03.462   12 Jun 2027 08:47:05.658             2.196           371.531
       296   12 Jun 2027 08:48:58.532   12 Jun 2027 08:48:58.532             0.000             0.000
       297   12 Jun 2027 08:49:39.359   12 Jun 2027 08:49:49.247             9.888          4722.719
       298   12 Jun 2027 08:50:35.978   12 Jun 2027 08:50:38.157             2.179          1070.156
       299   12 Jun 2027 08:51:13.231   12 Jun 2027 08:51:16.124             2.893          1096.063
       300   12 Jun 2027 08:51:58.374   12 Jun 2027 08:51:58.374             0.000             0.000
       301   12 Jun 2027 10:22:37.188   12 Jun 2027 10:22:51.500            14.312          5287.000
       302   12 Jun 2027 10:24:34.678   12 Jun 2027 10:24:34.678             0.000             0.000
       303   12 Jun 2027 10:26:04.942   12 Jun 2027 10:26:20.173            15.231          5980.000
       304   12 Jun 2027 10:27:10.819   12 Jun 2027 10:27:16.594             5.775          1469.469
       305   12 Jun 2027 10:27:32.476   12 Jun 2027 10:27:33.976             1.500           496.312
       306   12 Jun 2027 10:27:42.188   12 Jun 2027 10:27:42.349             0.161            75.469
       307   12 Jun 2027 10:28:34.287   12 Jun 2027 10:28:37.766             3.479          1545.875
       308   12 Jun 2027 10:29:25.461   12 Jun 2027 10:29:33.065             7.604          1341.500
       309   12 Jun 2027 11:59:41.794   12 Jun 2027 11:59:57.219            15.425          7712.500
       310   13 Jun 2027 04:23:39.465   13 Jun 2027 04:24:59.881            80.416         40208.000
       311   13 Jun 2027 04:25:35.983   13 Jun 2027 04:25:52.760            16.777          8388.500
       312   13 Jun 2027 04:26:13.904   13 Jun 2027 04:26:20.307             6.403          3201.500
       313   13 Jun 2027 04:27:16.927   13 Jun 2027 04:27:36.486            19.559          9779.500
       314   13 Jun 2027 04:28:02.217   13 Jun 2027 04:28:02.217             0.000             0.000
       315   13 Jun 2027 04:30:27.616   13 Jun 2027 04:30:43.855            16.239          8119.500
       316   13 Jun 2027 05:47:54.760   13 Jun 2027 05:49:01.901            67.141         33570.500
       317   13 Jun 2027 06:00:07.072   13 Jun 2027 06:00:47.304            40.232         20116.000
       318   13 Jun 2027 07:22:23.028   13 Jun 2027 07:23:29.726            66.698         33349.000
       319   13 Jun 2027 07:24:18.700   13 Jun 2027 07:25:04.942            46.242         22223.656
       320   13 Jun 2027 08:57:16.456   13 Jun 2027 08:57:35.567            19.111          8763.938
       321   13 Jun 2027 08:57:48.005   13 Jun 2027 08:57:50.557             2.552           388.688
       322   13 Jun 2027 08:58:21.767   13 Jun 2027 08:58:23.736             1.969           379.219
       323   13 Jun 2027 09:02:35.954   13 Jun 2027 09:02:35.954             0.000             0.000
       324   13 Jun 2027 09:03:10.192   13 Jun 2027 09:03:31.396            21.204          8947.094
       325   13 Jun 2027 09:03:52.687   13 Jun 2027 09:03:53.115             0.428           214.000
       326   13 Jun 2027 09:04:02.550   13 Jun 2027 09:04:02.550             0.000             0.000
       327   13 Jun 2027 10:34:50.442   13 Jun 2027 10:35:06.194            15.752          7101.250
       328   13 Jun 2027 10:35:53.546   13 Jun 2027 10:35:57.006             3.460           248.594
       329   13 Jun 2027 10:37:54.727   13 Jun 2027 10:37:59.906             5.179          2502.344
       330   13 Jun 2027 10:39:05.403   13 Jun 2027 10:39:12.444             7.041          1477.250
       331   13 Jun 2027 10:39:41.079   13 Jun 2027 10:39:44.028             2.949           890.844
       332   13 Jun 2027 10:39:48.701   13 Jun 2027 10:39:51.165             2.464           146.031
       333   13 Jun 2027 10:40:05.074   13 Jun 2027 10:40:08.565             3.491           434.656
       334   13 Jun 2027 10:40:31.052   13 Jun 2027 10:40:33.788             2.736           702.719
       335   13 Jun 2027 10:40:58.183   13 Jun 2027 10:40:58.183             0.000             0.000
       336   13 Jun 2027 10:41:23.301   13 Jun 2027 10:41:28.649             5.348          1547.281
       337   13 Jun 2027 10:41:51.379   13 Jun 2027 10:41:58.135             6.756           618.656
