uniorb/output/strategy_1/Camera/Camera_KinoSat_111807.txt

KinoSat_111807
-------------------------
    Access    *     Start Time (UTCG)     *     Stop Time (UTCG)  *   Duration (s) *   Data (Mbytes)
         1   01 Jun 2027 04:23:42.737   01 Jun 2027 04:24:44.086            61.349         30674.500
         2   01 Jun 2027 04:24:49.706   01 Jun 2027 04:25:19.003            29.297         14648.500
         3   01 Jun 2027 04:25:20.262   01 Jun 2027 04:25:58.548            38.286         19143.000
         4   01 Jun 2027 04:27:01.433   01 Jun 2027 04:27:10.351             8.918          4459.000
         5   01 Jun 2027 04:28:14.098   01 Jun 2027 04:28:26.191            12.093          6046.500
         6   01 Jun 2027 06:02:44.657   01 Jun 2027 06:04:57.432           132.775         66387.500
         7   01 Jun 2027 06:06:04.995   01 Jun 2027 06:06:14.444             9.449          4724.500
         8   01 Jun 2027 07:25:16.135   01 Jun 2027 07:27:28.458           132.323         66161.500
         9   01 Jun 2027 09:01:42.040   01 Jun 2027 09:02:10.837            28.797         14398.500
        10   01 Jun 2027 09:02:40.535   01 Jun 2027 09:04:10.886            90.351         45175.500
        11   01 Jun 2027 10:36:50.354   01 Jun 2027 10:37:30.150            39.796         19898.000
        12   01 Jun 2027 10:43:05.173   01 Jun 2027 10:43:37.683            32.510         16255.000
        13   02 Jun 2027 03:01:06.103   02 Jun 2027 03:01:39.095            32.992         16496.000
        14   02 Jun 2027 03:02:01.732   02 Jun 2027 03:02:07.023             5.291          2645.500
        15   02 Jun 2027 03:03:02.802   02 Jun 2027 03:03:11.076             8.274          4137.000
        16   02 Jun 2027 03:03:28.688   02 Jun 2027 03:03:29.098             0.410           205.000
        17   02 Jun 2027 03:04:03.427   02 Jun 2027 03:04:11.552             8.125          4062.500
        18   02 Jun 2027 04:35:40.363   02 Jun 2027 04:36:29.051            48.688         24344.000
        19   02 Jun 2027 04:36:46.906   02 Jun 2027 04:37:29.414            42.508         21254.000
        20   02 Jun 2027 04:38:30.177   02 Jun 2027 04:38:38.254             8.077          4038.500
        21   02 Jun 2027 04:39:00.543   02 Jun 2027 04:39:03.439             2.896          1448.000
        22   02 Jun 2027 04:39:17.829   02 Jun 2027 04:39:27.833            10.004          5002.000
        23   02 Jun 2027 04:40:55.275   02 Jun 2027 04:40:59.352             4.077          2038.500
        24   02 Jun 2027 06:13:54.397   02 Jun 2027 06:15:45.272           110.875         55437.500
        25   02 Jun 2027 06:16:14.173   02 Jun 2027 06:16:32.467            18.294          9147.000
        26   02 Jun 2027 07:37:16.011   02 Jun 2027 07:38:37.671            81.660         40830.000
        27   02 Jun 2027 09:14:04.971   02 Jun 2027 09:15:05.368            60.397         30198.500
        28   02 Jun 2027 09:15:20.927   02 Jun 2027 09:15:22.295             1.368           684.000
        29   02 Jun 2027 09:15:42.592   02 Jun 2027 09:16:12.822            30.230         15115.000
        30   02 Jun 2027 10:49:02.627   02 Jun 2027 10:50:21.237            78.610         39305.000
        31   02 Jun 2027 10:55:23.427   02 Jun 2027 10:55:23.427             0.000             0.000
        32   02 Jun 2027 10:55:25.840   02 Jun 2027 10:55:38.576            12.736          6368.000
        33   03 Jun 2027 03:09:28.256   03 Jun 2027 03:09:45.208            16.952          8476.000
        34   03 Jun 2027 03:09:52.309   03 Jun 2027 03:10:43.395            51.086         25543.000
        35   03 Jun 2027 03:15:16.543   03 Jun 2027 03:15:37.636            21.093         10546.500
        36   03 Jun 2027 03:15:49.332   03 Jun 2027 03:15:55.244             5.912          2956.000
        37   03 Jun 2027 04:48:45.866   03 Jun 2027 04:49:39.166            53.300         26650.000
        38   03 Jun 2027 04:50:14.140   03 Jun 2027 04:50:14.913             0.773           386.500
        39   03 Jun 2027 04:51:16.518   03 Jun 2027 04:51:58.109            41.591         20795.500
        40   03 Jun 2027 04:53:42.563   03 Jun 2027 04:53:54.021            11.458          5729.000
        41   03 Jun 2027 04:56:20.580   03 Jun 2027 04:56:36.633            16.053          8026.500
        42   03 Jun 2027 06:15:08.840   03 Jun 2027 06:15:12.508             3.668          1834.000
        43   03 Jun 2027 06:25:51.826   03 Jun 2027 06:26:33.942            42.116         21058.000
        44   03 Jun 2027 06:26:39.611   03 Jun 2027 06:26:50.258            10.647          5323.500
        45   03 Jun 2027 06:27:59.237   03 Jun 2027 06:28:00.323             1.086           543.000
        46   03 Jun 2027 06:28:34.070   03 Jun 2027 06:28:34.070             0.000             0.000
        47   03 Jun 2027 06:28:48.356   03 Jun 2027 06:28:56.251             7.895          3947.500
        48   03 Jun 2027 07:49:52.105   03 Jun 2027 07:51:54.953           122.848         61424.000
        49   03 Jun 2027 09:25:36.925   03 Jun 2027 09:25:56.747            19.822          9911.000
        50   03 Jun 2027 09:28:06.927   03 Jun 2027 09:28:21.246            14.319          7159.500
        51   03 Jun 2027 09:29:01.068   03 Jun 2027 09:29:49.553            48.485         24242.500
        52   03 Jun 2027 11:00:30.470   03 Jun 2027 11:01:03.020            32.550         16275.000
        53   03 Jun 2027 11:02:49.834   03 Jun 2027 11:03:23.934            34.100         17050.000
        54   03 Jun 2027 11:07:16.458   03 Jun 2027 11:07:47.931            31.473         15736.500
        55   04 Jun 2027 03:22:08.918   04 Jun 2027 03:23:29.505            80.587         40293.500
        56   04 Jun 2027 03:24:54.750   04 Jun 2027 03:25:05.040            10.290          5145.000
        57   04 Jun 2027 03:28:32.713   04 Jun 2027 03:28:35.768             3.055          1527.500
        58   04 Jun 2027 05:01:06.524   04 Jun 2027 05:01:58.379            51.855         25927.500
        59   04 Jun 2027 05:02:09.547   04 Jun 2027 05:02:24.921            15.374          7687.000
        60   04 Jun 2027 05:02:42.641   04 Jun 2027 05:03:00.058            17.417          8708.500
        61   04 Jun 2027 05:04:57.131   04 Jun 2027 05:04:58.247             1.116           558.000
        62   04 Jun 2027 05:05:41.250   04 Jun 2027 05:05:58.444            17.194          8597.000
        63   04 Jun 2027 05:07:55.449   04 Jun 2027 05:08:25.201            29.752         14876.000
        64   04 Jun 2027 06:26:26.346   04 Jun 2027 06:27:36.412            70.066         35033.000
        65   04 Jun 2027 06:37:50.345   04 Jun 2027 06:38:34.724            44.379         22189.500
        66   04 Jun 2027 08:00:27.880   04 Jun 2027 08:01:28.700            60.820         30410.000
        67   04 Jun 2027 08:01:48.395   04 Jun 2027 08:01:59.800            11.405          5456.311
        68   04 Jun 2027 08:05:04.620   04 Jun 2027 08:05:08.057             3.437          1718.500
        69   04 Jun 2027 09:36:35.563   04 Jun 2027 09:36:47.279            11.716          5858.000
        70   04 Jun 2027 09:37:22.642   04 Jun 2027 09:37:29.254             6.612          3306.000
        71   04 Jun 2027 09:37:47.275   04 Jun 2027 09:37:50.716             3.441           893.250
        72   04 Jun 2027 09:38:19.376   04 Jun 2027 09:38:19.933             0.557           276.000
        73   04 Jun 2027 09:38:57.513   04 Jun 2027 09:39:00.343             2.830          1173.844
        74   04 Jun 2027 09:40:31.514   04 Jun 2027 09:40:40.708             9.194          2849.094
        75   04 Jun 2027 09:41:16.394   04 Jun 2027 09:41:19.429             3.035           884.875
        76   04 Jun 2027 11:15:23.017   04 Jun 2027 11:15:30.315             7.298          3649.000
        77   04 Jun 2027 11:19:03.632   04 Jun 2027 11:19:36.605            32.973         16445.813
        78   05 Jun 2027 03:34:16.772   05 Jun 2027 03:35:51.226            94.454         47227.000
        79   05 Jun 2027 03:35:52.012   05 Jun 2027 03:36:18.704            26.692         13346.000
        80   05 Jun 2027 03:37:20.005   05 Jun 2027 03:37:20.005             0.000             0.000
        81   05 Jun 2027 03:39:25.775   05 Jun 2027 03:39:50.461            24.686         12343.000
        82   05 Jun 2027 05:13:21.323   05 Jun 2027 05:14:06.928            45.605         22802.500
        83   05 Jun 2027 05:15:33.937   05 Jun 2027 05:16:25.042            51.105         25552.500
        84   05 Jun 2027 05:18:03.544   05 Jun 2027 05:18:08.445             4.901          2450.500
        85   05 Jun 2027 06:37:59.583   05 Jun 2027 06:38:58.059            58.476         29238.000
        86   05 Jun 2027 06:39:41.516   05 Jun 2027 06:39:45.823             4.307          2153.500
        87   05 Jun 2027 06:49:49.720   05 Jun 2027 06:50:10.425            20.705         10352.500
        88   05 Jun 2027 08:12:06.775   05 Jun 2027 08:12:45.301            38.526         19263.000
        89   05 Jun 2027 08:14:01.423   05 Jun 2027 08:14:13.394            11.971          5203.343
        90   05 Jun 2027 08:14:55.368   05 Jun 2027 08:14:58.060             2.692          1311.687
        91   05 Jun 2027 08:15:27.593   05 Jun 2027 08:15:29.602             2.009           338.688
        92   05 Jun 2027 08:16:08.490   05 Jun 2027 08:16:13.710             5.220           942.656
        93   05 Jun 2027 08:16:59.687   05 Jun 2027 08:17:02.687             3.000          1284.094
        94   05 Jun 2027 09:47:00.496   05 Jun 2027 09:47:14.634            14.138          5067.594
        95   05 Jun 2027 09:48:05.548   05 Jun 2027 09:48:14.805             9.257           933.156
        96   05 Jun 2027 09:48:22.615   05 Jun 2027 09:48:23.187             0.572           244.063
        97   05 Jun 2027 09:49:27.769   05 Jun 2027 09:49:27.769             0.000             0.000
        98   05 Jun 2027 09:50:36.563   05 Jun 2027 09:50:42.780             6.217          3108.500
        99   05 Jun 2027 09:53:32.409   05 Jun 2027 09:53:39.325             6.916          3458.000
       100   05 Jun 2027 11:26:07.773   05 Jun 2027 11:26:34.078            26.305         10416.313
       101   05 Jun 2027 11:27:20.539   05 Jun 2027 11:27:21.415             0.876            65.313
       102   05 Jun 2027 11:30:45.633   05 Jun 2027 11:30:58.460            12.827          6381.813
       103   05 Jun 2027 11:31:31.944   05 Jun 2027 11:31:40.209             8.265          1035.375
       104   05 Jun 2027 11:31:53.027   05 Jun 2027 11:31:53.502             0.475           237.500
       105   06 Jun 2027 03:46:43.882   06 Jun 2027 03:47:01.171            17.289          8644.500
       106   06 Jun 2027 03:47:09.592   06 Jun 2027 03:47:38.975            29.383         14691.500
       107   06 Jun 2027 03:47:43.773   06 Jun 2027 03:48:37.823            54.050         27025.000
       108   06 Jun 2027 03:48:40.032   06 Jun 2027 03:49:10.214            30.182         15091.000
       109   06 Jun 2027 03:51:17.092   06 Jun 2027 03:51:24.151             7.059          3529.500
       110   06 Jun 2027 03:51:34.202   06 Jun 2027 03:51:36.151             1.949           974.500
       111   06 Jun 2027 03:52:10.199   06 Jun 2027 03:52:16.345             6.146          3073.000
       112   06 Jun 2027 05:25:26.632   06 Jun 2027 05:27:04.849            98.217         49108.500
       113   06 Jun 2027 05:27:36.599   06 Jun 2027 05:27:42.683             6.084          3042.000
       114   06 Jun 2027 05:28:09.335   06 Jun 2027 05:28:12.825             3.490          1745.000
       115   06 Jun 2027 05:28:38.710   06 Jun 2027 05:28:57.708            18.998          9499.000
       116   06 Jun 2027 05:29:14.587   06 Jun 2027 05:29:25.913            11.326          5663.000
       117   06 Jun 2027 06:49:43.504   06 Jun 2027 06:50:50.056            66.552         33276.000
       118   06 Jun 2027 06:51:37.962   06 Jun 2027 06:51:39.623             1.661           830.500
       119   06 Jun 2027 07:02:05.872   06 Jun 2027 07:02:22.138            16.266          8133.000
       120   06 Jun 2027 08:23:36.885   06 Jun 2027 08:24:01.542            24.657         12186.343
       121   06 Jun 2027 08:24:46.923   06 Jun 2027 08:24:50.805             3.882          1148.531
       122   06 Jun 2027 08:26:27.447   06 Jun 2027 08:26:33.685             6.238          1541.500
       123   06 Jun 2027 08:26:52.345   06 Jun 2027 08:26:54.173             1.828           488.656
       124   06 Jun 2027 08:27:56.779   06 Jun 2027 08:28:01.126             4.347          1691.344
       125   06 Jun 2027 08:28:45.724   06 Jun 2027 08:28:48.050             2.326           758.469
       126   06 Jun 2027 09:58:31.433   06 Jun 2027 09:58:39.880             8.447          3719.438
       127   06 Jun 2027 10:00:24.085   06 Jun 2027 10:00:24.085             0.000             0.000
       128   06 Jun 2027 10:00:39.863   06 Jun 2027 10:00:49.236             9.373          2360.313
       129   06 Jun 2027 10:01:22.871   06 Jun 2027 10:01:22.871             0.000             0.000
       130   06 Jun 2027 10:04:16.595   06 Jun 2027 10:04:17.475             0.880           440.000
       131   06 Jun 2027 10:05:20.508   06 Jun 2027 10:05:30.816            10.308          5154.000
       132   06 Jun 2027 10:06:33.510   06 Jun 2027 10:06:38.213             4.703          2351.500
       133   06 Jun 2027 11:36:28.190   06 Jun 2027 11:36:37.600             9.410          4705.000
       134   06 Jun 2027 11:40:55.116   06 Jun 2027 11:41:15.827            20.711         10336.062
       135   06 Jun 2027 11:41:34.839   06 Jun 2027 11:41:36.126             1.287           409.219
       136   06 Jun 2027 11:42:47.343   06 Jun 2027 11:42:53.109             5.766          2048.906
       137   06 Jun 2027 11:43:41.644   06 Jun 2027 11:43:45.899             4.255          1499.406
       138   07 Jun 2027 03:59:20.189   07 Jun 2027 03:59:31.917            11.728          5864.000
       139   07 Jun 2027 03:59:43.091   07 Jun 2027 04:00:30.060            46.969         23484.500
       140   07 Jun 2027 04:00:40.816   07 Jun 2027 04:00:43.884             3.068          1534.000
       141   07 Jun 2027 04:00:51.040   07 Jun 2027 04:01:21.176            30.136         15068.000
       142   07 Jun 2027 04:01:28.737   07 Jun 2027 04:02:07.662            38.925         19462.500
       143   07 Jun 2027 05:37:50.546   07 Jun 2027 05:39:30.767           100.221         50110.500
       144   07 Jun 2027 05:39:57.459   07 Jun 2027 05:40:01.042             3.583          1791.500
       145   07 Jun 2027 05:40:36.727   07 Jun 2027 05:40:46.848            10.121          5060.500
       146   07 Jun 2027 05:41:19.297   07 Jun 2027 05:41:28.096             8.799          4399.500
       147   07 Jun 2027 07:01:39.774   07 Jun 2027 07:03:18.486            98.712         49356.000
       148   07 Jun 2027 07:03:28.519   07 Jun 2027 07:03:34.044             5.525          2633.470
       149   07 Jun 2027 08:37:39.125   07 Jun 2027 08:38:07.072            27.947         13192.812
       150   07 Jun 2027 08:38:28.882   07 Jun 2027 08:38:28.882             0.000             0.000
       151   07 Jun 2027 08:39:12.693   07 Jun 2027 08:39:17.205             4.512          2050.656
       152   07 Jun 2027 08:40:24.115   07 Jun 2027 08:40:29.207             5.092           936.500
       153   07 Jun 2027 10:11:25.811   07 Jun 2027 10:11:35.265             9.454          4301.250
       154   07 Jun 2027 10:16:16.199   07 Jun 2027 10:16:31.555            15.356          7220.531
       155   07 Jun 2027 10:19:09.243   07 Jun 2027 10:19:19.174             9.931          4135.500
       156   07 Jun 2027 10:19:31.095   07 Jun 2027 10:19:33.466             2.371           372.531
       157   07 Jun 2027 11:48:47.819   07 Jun 2027 11:49:03.178            15.359          7404.656
       158   07 Jun 2027 11:49:38.229   07 Jun 2027 11:49:42.710             4.481          1057.969
       159   07 Jun 2027 11:53:30.286   07 Jun 2027 11:53:47.996            17.710          6427.437
       160   07 Jun 2027 11:54:49.297   07 Jun 2027 11:54:53.103             3.806          1801.969
       161   07 Jun 2027 11:55:17.426   07 Jun 2027 11:55:17.426             0.000             0.000
       162   08 Jun 2027 04:11:52.496   08 Jun 2027 04:12:18.741            26.245         13122.500
       163   08 Jun 2027 04:12:26.344   08 Jun 2027 04:14:02.935            96.591         48295.500
       164   08 Jun 2027 04:16:35.986   08 Jun 2027 04:16:35.986             0.000             0.000
       165   08 Jun 2027 04:17:32.483   08 Jun 2027 04:17:35.646             3.163          1581.500
       166   08 Jun 2027 05:50:09.325   08 Jun 2027 05:52:01.538           112.213         56106.500
       167   08 Jun 2027 05:52:38.983   08 Jun 2027 05:52:40.367             1.384           692.000
       168   08 Jun 2027 05:53:05.249   08 Jun 2027 05:53:05.249             0.000             0.000
       169   08 Jun 2027 07:13:31.596   08 Jun 2027 07:15:27.139           115.543         57771.500
       170   08 Jun 2027 08:49:53.824   08 Jun 2027 08:50:23.234            29.410         14646.406
       171   08 Jun 2027 08:52:41.705   08 Jun 2027 08:52:41.705             0.000             0.000
       172   08 Jun 2027 10:22:10.672   08 Jun 2027 10:22:23.669            12.997          6498.500
       173   08 Jun 2027 10:23:57.885   08 Jun 2027 10:24:02.798             4.913          2224.063
       174   08 Jun 2027 10:24:38.005   08 Jun 2027 10:24:42.140             4.135           867.000
       175   08 Jun 2027 10:25:06.416   08 Jun 2027 10:25:07.924             1.508           163.562
       176   08 Jun 2027 10:25:54.813   08 Jun 2027 10:25:55.122             0.309           154.500
       177   08 Jun 2027 10:28:15.065   08 Jun 2027 10:28:25.970            10.905          5093.875
       178   08 Jun 2027 10:29:02.202   08 Jun 2027 10:29:09.323             7.121          1132.250
       179   08 Jun 2027 10:29:32.143   08 Jun 2027 10:29:37.417             5.274           713.125
       180   08 Jun 2027 10:30:32.255   08 Jun 2027 10:30:36.207             3.952          1599.313
       181   08 Jun 2027 10:31:08.958   08 Jun 2027 10:31:09.313             0.355           177.500
       182   08 Jun 2027 10:31:54.874   08 Jun 2027 10:31:57.417             2.543          1271.500
       183   09 Jun 2027 04:23:58.614   09 Jun 2027 04:25:00.301            61.687         30843.500
       184   09 Jun 2027 04:25:06.687   09 Jun 2027 04:25:56.149            49.462         24731.000
       185   09 Jun 2027 04:26:06.555   09 Jun 2027 04:26:12.828             6.273          3136.500
       186   09 Jun 2027 04:27:28.460   09 Jun 2027 04:27:32.824             4.364          2182.000
       187   09 Jun 2027 04:27:54.931   09 Jun 2027 04:28:13.163            18.232          9116.000
       188   09 Jun 2027 06:03:03.418   09 Jun 2027 06:04:58.544           115.126         57563.000
       189   09 Jun 2027 06:05:29.131   09 Jun 2027 06:05:54.173            25.042         12521.000
       190   09 Jun 2027 07:25:35.288   09 Jun 2027 07:27:08.378            93.090         46545.000
       191   09 Jun 2027 07:27:20.493   09 Jun 2027 07:27:22.692             2.199          1054.282
       192   09 Jun 2027 09:02:04.659   09 Jun 2027 09:02:19.929            15.270          7384.000
       193   09 Jun 2027 09:03:00.304   09 Jun 2027 09:03:00.304             0.000             0.000
       194   09 Jun 2027 09:04:41.404   09 Jun 2027 09:04:54.935            13.531          4181.844
       195   09 Jun 2027 10:38:16.408   09 Jun 2027 10:38:38.159            21.751          8699.500
       196   09 Jun 2027 10:39:35.328   09 Jun 2027 10:39:37.434             2.106            52.094
       197   09 Jun 2027 10:39:56.932   09 Jun 2027 10:40:00.768             3.836           470.531
       198   09 Jun 2027 10:40:53.102   09 Jun 2027 10:40:56.407             3.305          1251.688
       199   09 Jun 2027 10:41:10.460   09 Jun 2027 10:41:11.680             1.220           196.437
       200   09 Jun 2027 10:41:44.534   09 Jun 2027 10:41:50.749             6.215           662.687
       201   09 Jun 2027 10:42:30.890   09 Jun 2027 10:42:33.518             2.628           903.250
       202   09 Jun 2027 10:43:41.943   09 Jun 2027 10:43:49.561             7.618          2016.937
       203   10 Jun 2027 03:00:00.000   10 Jun 2027 03:00:36.750            36.750         18375.000
       204   10 Jun 2027 03:03:09.744   10 Jun 2027 03:03:17.432             7.688          3844.000
       205   10 Jun 2027 03:03:31.347   10 Jun 2027 03:03:40.019             8.672          4336.000
       206   10 Jun 2027 03:04:04.602   10 Jun 2027 03:04:18.436            13.834          6917.000
       207   10 Jun 2027 04:35:58.661   10 Jun 2027 04:36:42.743            44.082         22041.000
       208   10 Jun 2027 04:37:04.330   10 Jun 2027 04:37:27.274            22.944         11472.000
       209   10 Jun 2027 04:37:43.960   10 Jun 2027 04:37:57.451            13.491          6745.500
       210   10 Jun 2027 04:39:33.757   10 Jun 2027 04:40:01.710            27.953         13976.500
       211   10 Jun 2027 04:42:02.370   10 Jun 2027 04:42:05.776             3.406          1703.000
       212   10 Jun 2027 06:14:11.375   10 Jun 2027 06:14:49.410            38.035         19017.500
       213   10 Jun 2027 06:15:01.831   10 Jun 2027 06:16:00.512            58.681         29340.500
       214   10 Jun 2027 06:16:30.700   10 Jun 2027 06:16:50.926            20.226         10113.000
       215   10 Jun 2027 07:37:32.157   10 Jun 2027 07:38:36.086            63.929         31964.500
       216   10 Jun 2027 07:39:02.808   10 Jun 2027 07:39:02.808             0.000             0.000
       217   10 Jun 2027 07:40:15.623   10 Jun 2027 07:40:27.216            11.593          5796.500
       218   10 Jun 2027 09:14:09.927   10 Jun 2027 09:14:21.565            11.638          5819.000
       219   10 Jun 2027 10:49:19.951   10 Jun 2027 10:49:34.880            14.929          7464.500
       220   10 Jun 2027 10:50:41.286   10 Jun 2027 10:50:48.249             6.963          3411.125
       221   10 Jun 2027 10:51:51.103   10 Jun 2027 10:51:56.758             5.655          1844.000
       222   10 Jun 2027 10:52:52.932   10 Jun 2027 10:52:57.556             4.624          1755.438
       223   10 Jun 2027 10:53:02.447   10 Jun 2027 10:53:06.094             3.647           152.844
       224   10 Jun 2027 10:53:11.825   10 Jun 2027 10:53:14.510             2.685           179.094
       225   10 Jun 2027 10:53:19.066   10 Jun 2027 10:53:22.651             3.585            31.187
       226   10 Jun 2027 10:53:49.848   10 Jun 2027 10:53:54.048             4.200           704.813
       227   10 Jun 2027 10:54:54.852   10 Jun 2027 10:54:55.489             0.637           318.500
       228   10 Jun 2027 10:55:06.608   10 Jun 2027 10:55:10.931             4.323          1271.094
       229   10 Jun 2027 10:55:21.824   10 Jun 2027 10:55:26.353             4.529           144.219
       230   10 Jun 2027 10:55:42.250   10 Jun 2027 10:55:43.229             0.979           324.906
       231   11 Jun 2027 03:09:46.076   11 Jun 2027 03:10:00.506            14.430          7215.000
       232   11 Jun 2027 03:10:07.618   11 Jun 2027 03:10:08.237             0.619           309.500
       233   11 Jun 2027 03:10:10.938   11 Jun 2027 03:11:00.508            49.570         24785.000
       234   11 Jun 2027 03:11:31.449   11 Jun 2027 03:11:33.357             1.908           954.000
       235   11 Jun 2027 03:14:28.210   11 Jun 2027 03:14:33.842             5.632          2816.000
       236   11 Jun 2027 03:15:10.558   11 Jun 2027 03:15:16.743             6.185          3092.500
       237   11 Jun 2027 03:15:40.552   11 Jun 2027 03:15:48.948             8.396          4198.000
       238   11 Jun 2027 03:16:01.513   11 Jun 2027 03:16:03.722             2.209          1104.500
       239   11 Jun 2027 03:16:12.152   11 Jun 2027 03:16:20.268             8.116          4058.000
       240   11 Jun 2027 04:49:03.722   11 Jun 2027 04:50:04.082            60.360         30180.000
       241   11 Jun 2027 04:50:30.269   11 Jun 2027 04:50:53.445            23.176         11588.000
       242   11 Jun 2027 04:51:06.986   11 Jun 2027 04:51:07.223             0.237           118.500
       243   11 Jun 2027 04:54:19.998   11 Jun 2027 04:54:19.998             0.000             0.000
       244   11 Jun 2027 04:55:18.462   11 Jun 2027 04:55:25.550             7.088          3544.000
       245   11 Jun 2027 04:55:39.514   11 Jun 2027 04:55:45.577             6.063          3031.500
       246   11 Jun 2027 04:56:36.745   11 Jun 2027 04:56:53.251            16.506          8253.000
       247   11 Jun 2027 06:15:23.145   11 Jun 2027 06:15:34.555            11.410          5705.000
       248   11 Jun 2027 06:26:09.234   11 Jun 2027 06:27:07.736            58.502         29251.000
       249   11 Jun 2027 06:27:28.708   11 Jun 2027 06:27:34.309             5.601          2800.500
       250   11 Jun 2027 06:29:30.065   11 Jun 2027 06:29:41.637            11.572          5786.000
       251   11 Jun 2027 07:50:08.517   11 Jun 2027 07:51:22.238            73.721         36258.499
       252   11 Jun 2027 09:26:13.120   11 Jun 2027 09:26:26.795            13.675          6263.594
       253   11 Jun 2027 09:28:18.991   11 Jun 2027 09:28:27.853             8.862          3408.438
       254   11 Jun 2027 09:29:21.835   11 Jun 2027 09:29:21.835             0.000             0.000
       255   11 Jun 2027 09:30:06.860   11 Jun 2027 09:30:07.328             0.468           234.000
       256   11 Jun 2027 11:00:44.755   11 Jun 2027 11:00:57.375            12.620          6260.844
       257   11 Jun 2027 11:01:27.055   11 Jun 2027 11:01:29.321             2.266           839.937
       258   11 Jun 2027 11:02:18.276   11 Jun 2027 11:02:21.540             3.264           997.406
       259   11 Jun 2027 11:03:14.255   11 Jun 2027 11:03:15.650             1.395           182.781
       260   11 Jun 2027 11:03:31.463   11 Jun 2027 11:03:31.830             0.367            45.656
       261   11 Jun 2027 11:07:32.953   11 Jun 2027 11:07:47.868            14.915          7413.063
       262   11 Jun 2027 11:07:56.507   11 Jun 2027 11:08:01.798             5.291           269.969
       263   12 Jun 2027 03:22:26.632   12 Jun 2027 03:24:20.756           114.124         57062.000
       264   12 Jun 2027 03:26:06.605   12 Jun 2027 03:26:08.494             1.889           944.500
       265   12 Jun 2027 03:27:37.332   12 Jun 2027 03:27:57.277            19.945          9972.500
       266   12 Jun 2027 03:28:11.653   12 Jun 2027 03:28:17.522             5.869          2934.500
       267   12 Jun 2027 05:01:24.529   12 Jun 2027 05:02:38.047            73.518         36759.000
       268   12 Jun 2027 05:04:17.038   12 Jun 2027 05:04:31.006            13.968          6984.000
       269   12 Jun 2027 05:05:15.089   12 Jun 2027 05:05:18.209             3.120          1560.000
       270   12 Jun 2027 05:05:39.315   12 Jun 2027 05:05:39.809             0.494           247.000
       271   12 Jun 2027 05:06:20.492   12 Jun 2027 05:06:20.665             0.173            86.500
       272   12 Jun 2027 05:07:00.624   12 Jun 2027 05:07:06.315             5.691          2845.500
       273   12 Jun 2027 05:07:13.433   12 Jun 2027 05:07:24.290            10.857          5428.500
       274   12 Jun 2027 05:08:14.130   12 Jun 2027 05:08:41.386            27.256         13628.000
       275   12 Jun 2027 06:26:39.745   12 Jun 2027 06:27:36.518            56.773         28386.500
       276   12 Jun 2027 06:38:08.309   12 Jun 2027 06:38:48.624            40.315         20157.500
       277   12 Jun 2027 08:00:47.128   12 Jun 2027 08:01:20.957            33.829         16593.719
       278   12 Jun 2027 08:02:40.922   12 Jun 2027 08:02:45.876             4.954          2282.344
       279   12 Jun 2027 08:04:04.098   12 Jun 2027 08:04:08.737             4.639          2147.313
       280   12 Jun 2027 08:04:33.563   12 Jun 2027 08:04:35.977             2.414           561.062
       281   12 Jun 2027 09:36:06.298   12 Jun 2027 09:36:22.745            16.447          6928.781
       282   12 Jun 2027 09:40:25.626   12 Jun 2027 09:40:38.141            12.515          6257.500
       283   12 Jun 2027 09:42:05.759   12 Jun 2027 09:42:16.398            10.639          3896.562
       284   12 Jun 2027 11:12:37.928   12 Jun 2027 11:12:47.854             9.926          3732.031
       285   12 Jun 2027 11:13:25.915   12 Jun 2027 11:13:30.670             4.755          1186.594
       286   12 Jun 2027 11:19:19.776   12 Jun 2027 11:19:41.625            21.849         10824.562
       287   12 Jun 2027 11:19:48.495   12 Jun 2027 11:19:48.495             0.000             0.000
       288   12 Jun 2027 11:19:51.496   12 Jun 2027 11:19:58.315             6.819           287.656
       289   13 Jun 2027 03:34:35.153   13 Jun 2027 03:36:07.502            92.349         46174.500
       290   13 Jun 2027 03:36:09.786   13 Jun 2027 03:36:35.953            26.167         13083.500
       291   13 Jun 2027 03:39:08.860   13 Jun 2027 03:39:11.056             2.196          1098.000
       292   13 Jun 2027 03:40:09.063   13 Jun 2027 03:40:20.442            11.379          5689.500
       293   13 Jun 2027 05:13:40.396   13 Jun 2027 05:14:47.786            67.390         33695.000
       294   13 Jun 2027 05:14:56.560   13 Jun 2027 05:14:57.405             0.845           422.500
       295   13 Jun 2027 05:16:53.792   13 Jun 2027 05:17:12.843            19.051          9525.500
       296   13 Jun 2027 06:37:54.961   13 Jun 2027 06:39:44.959           109.998         54999.000
       297   13 Jun 2027 06:50:07.464   13 Jun 2027 06:50:21.350            13.886          6943.000
       298   13 Jun 2027 06:50:25.482   13 Jun 2027 06:50:44.591            19.109          9443.125
       299   13 Jun 2027 08:12:23.155   13 Jun 2027 08:12:54.893            31.738         13696.438
       300   13 Jun 2027 08:14:18.884   13 Jun 2027 08:14:24.252             5.368          1983.656
       301   13 Jun 2027 08:14:42.974   13 Jun 2027 08:14:44.453             1.479           390.406
       302   13 Jun 2027 08:15:54.632   13 Jun 2027 08:15:54.632             0.000             0.000
       303   13 Jun 2027 08:16:57.647   13 Jun 2027 08:17:05.363             7.716          3836.125
       304   13 Jun 2027 09:47:16.155   13 Jun 2027 09:47:30.950            14.795          5934.906
       305   13 Jun 2027 09:48:24.667   13 Jun 2027 09:48:24.667             0.000             0.000
       306   13 Jun 2027 09:48:33.722   13 Jun 2027 09:48:37.889             4.167          1315.281
       307   13 Jun 2027 09:50:57.878   13 Jun 2027 09:51:11.858            13.980          4287.625
       308   13 Jun 2027 09:51:42.214   13 Jun 2027 09:51:43.221             1.007            80.000
       309   13 Jun 2027 11:26:23.738   13 Jun 2027 11:26:50.365            26.627         11839.937
       310   13 Jun 2027 11:27:49.247   13 Jun 2027 11:27:51.141             1.894           947.000
       311   13 Jun 2027 11:31:01.219   13 Jun 2027 11:31:17.514            16.295          6658.781
       312   13 Jun 2027 11:31:35.931   13 Jun 2027 11:31:36.858             0.927           421.219
       313   13 Jun 2027 11:31:58.088   13 Jun 2027 11:31:59.515             1.427           663.438
