uniorb/output/strategy_1/Camera/Camera_KinoSat_110307.txt

KinoSat_110307
-------------------------
    Access    *     Start Time (UTCG)     *     Stop Time (UTCG)  *   Duration (s) *   Data (Mbytes)
         1   01 Jun 2027 03:37:49.638   01 Jun 2027 03:39:21.527            91.889         45944.500
         2   01 Jun 2027 03:41:13.471   01 Jun 2027 03:41:28.664            15.193          7596.500
         3   01 Jun 2027 03:42:08.333   01 Jun 2027 03:42:16.178             7.845          3922.500
         4   01 Jun 2027 03:43:17.507   01 Jun 2027 03:44:04.111            46.604         23302.000
         5   01 Jun 2027 03:44:08.954   01 Jun 2027 03:44:31.693            22.739         11369.500
         6   01 Jun 2027 05:13:45.442   01 Jun 2027 05:16:18.481           153.039         76519.500
         7   01 Jun 2027 05:16:35.288   01 Jun 2027 05:17:11.727            36.439         18219.500
         8   01 Jun 2027 05:18:39.007   01 Jun 2027 05:18:52.484            13.477          6738.500
         9   01 Jun 2027 06:51:43.828   01 Jun 2027 06:54:05.934           142.106         71053.000
        10   01 Jun 2027 06:55:21.199   01 Jun 2027 06:56:08.648            47.449         23724.500
        11   01 Jun 2027 08:27:35.412   01 Jun 2027 08:29:32.957           117.545         58772.500
        12   01 Jun 2027 08:30:04.991   01 Jun 2027 08:30:23.261            18.270          9135.000
        13   01 Jun 2027 08:31:05.391   01 Jun 2027 08:31:16.875            11.484          5742.000
        14   01 Jun 2027 08:31:37.554   01 Jun 2027 08:31:37.554             0.000             0.000
        15   01 Jun 2027 08:31:59.870   01 Jun 2027 08:32:09.899            10.029          5014.500
        16   01 Jun 2027 08:32:44.283   01 Jun 2027 08:32:47.143             2.860          1430.000
        17   02 Jun 2027 03:49:05.226   02 Jun 2027 03:54:38.837           333.611        166805.500
        18   02 Jun 2027 03:54:48.696   02 Jun 2027 03:55:18.445            29.749         14874.500
        19   02 Jun 2027 03:55:58.047   02 Jun 2027 03:56:38.273            40.226         20113.000
        20   02 Jun 2027 05:25:55.004   02 Jun 2027 05:29:06.276           191.272         95636.000
        21   02 Jun 2027 05:29:17.507   02 Jun 2027 05:29:18.626             1.119           559.500
        22   02 Jun 2027 05:29:30.858   02 Jun 2027 05:29:35.129             4.271          2135.500
        23   02 Jun 2027 05:29:54.379   02 Jun 2027 05:29:54.504             0.125            62.500
        24   02 Jun 2027 05:31:14.094   02 Jun 2027 05:31:39.566            25.472         12736.000
        25   02 Jun 2027 07:04:06.401   02 Jun 2027 07:06:42.342           155.941         77970.500
        26   02 Jun 2027 07:06:54.177   02 Jun 2027 07:07:03.473             9.296          4648.000
        27   02 Jun 2027 08:37:24.248   02 Jun 2027 08:39:59.541           155.293         77646.500
        28   02 Jun 2027 08:40:27.934   02 Jun 2027 08:40:33.548             5.614          2807.000
        29   02 Jun 2027 08:41:00.179   02 Jun 2027 08:41:25.707            25.528         12764.000
        30   02 Jun 2027 08:42:58.219   02 Jun 2027 08:43:06.255             8.036          4018.000
        31   02 Jun 2027 08:43:17.462   02 Jun 2027 08:43:25.351             7.889          3944.500
        32   02 Jun 2027 08:44:28.026   02 Jun 2027 08:44:41.856            13.830          6915.000
        33   02 Jun 2027 08:45:02.163   02 Jun 2027 08:45:09.797             7.634          3817.000
        34   03 Jun 2027 04:01:12.995   03 Jun 2027 04:08:12.828           419.833        209916.500
        35   03 Jun 2027 05:38:10.989   03 Jun 2027 05:41:38.884           207.895        103947.500
        36   03 Jun 2027 05:43:56.800   03 Jun 2027 05:44:05.222             8.422          4211.000
        37   03 Jun 2027 07:16:07.283   03 Jun 2027 07:19:05.612           178.329         89164.500
        38   03 Jun 2027 07:20:04.801   03 Jun 2027 07:20:05.801             1.000           500.000
        39   03 Jun 2027 08:49:27.290   03 Jun 2027 08:51:52.064           144.774         72387.000
        40   03 Jun 2027 08:53:24.166   03 Jun 2027 08:53:38.370            14.204          7102.000
        41   03 Jun 2027 08:54:04.273   03 Jun 2027 08:54:06.041             1.768           884.000
        42   03 Jun 2027 08:54:44.247   03 Jun 2027 08:54:56.737            12.490          6245.000
        43   03 Jun 2027 08:55:52.142   03 Jun 2027 08:56:40.851            48.709         24354.500
        44   04 Jun 2027 04:13:14.870   04 Jun 2027 04:19:45.542           390.672        195336.000
        45   04 Jun 2027 04:20:17.929   04 Jun 2027 04:20:21.215             3.286          1643.000
        46   04 Jun 2027 05:50:01.083   04 Jun 2027 05:53:40.962           219.879        109939.500
        47   04 Jun 2027 05:54:03.783   04 Jun 2027 05:54:15.826            12.043          6021.500
        48   04 Jun 2027 05:56:21.586   04 Jun 2027 05:56:43.716            22.130         11065.000
        49   04 Jun 2027 07:28:06.137   04 Jun 2027 07:30:42.429           156.292         78146.000
        50   04 Jun 2027 07:31:07.651   04 Jun 2027 07:31:40.317            32.666         16333.000
        51   04 Jun 2027 09:01:54.532   04 Jun 2027 09:02:15.847            21.315         10657.500
        52   04 Jun 2027 09:02:37.423   04 Jun 2027 09:02:45.117             7.694          3847.000
        53   04 Jun 2027 09:03:24.400   04 Jun 2027 09:03:45.275            20.875         10437.500
        54   04 Jun 2027 09:04:48.730   04 Jun 2027 09:04:48.730             0.000             0.000
        55   04 Jun 2027 09:04:58.695   04 Jun 2027 09:05:10.843            12.148          6074.000
        56   04 Jun 2027 09:06:04.408   04 Jun 2027 09:06:10.795             6.387          3193.500
        57   04 Jun 2027 09:06:31.054   04 Jun 2027 09:06:49.983            18.929          9464.500
        58   04 Jun 2027 09:08:24.609   04 Jun 2027 09:08:32.029             7.420          3710.000
        59   05 Jun 2027 04:25:15.645   05 Jun 2027 04:31:40.896           385.251        192625.500
        60   05 Jun 2027 04:31:48.206   05 Jun 2027 04:32:06.634            18.428          9214.000
        61   05 Jun 2027 04:32:20.082   05 Jun 2027 04:32:22.607             2.525          1262.500
        62   05 Jun 2027 06:02:10.264   05 Jun 2027 06:05:22.431           192.167         96083.500
        63   05 Jun 2027 06:05:46.657   05 Jun 2027 06:05:47.697             1.040           520.000
        64   05 Jun 2027 06:07:28.160   05 Jun 2027 06:07:50.675            22.515         11257.500
        65   05 Jun 2027 06:08:14.446   05 Jun 2027 06:08:25.497            11.051          5525.500
        66   05 Jun 2027 07:39:18.889   05 Jun 2027 07:41:43.301           144.412         72206.000
        67   05 Jun 2027 07:42:12.281   05 Jun 2027 07:42:22.418            10.137          5068.500
        68   05 Jun 2027 07:43:03.702   05 Jun 2027 07:43:09.561             5.859          2929.500
        69   05 Jun 2027 07:43:50.858   05 Jun 2027 07:43:57.465             6.607          3303.500
        70   05 Jun 2027 09:14:09.523   05 Jun 2027 09:14:44.564            35.041         17520.500
        71   05 Jun 2027 09:16:31.644   05 Jun 2027 09:16:56.404            24.760         12380.000
        72   05 Jun 2027 09:18:04.823   05 Jun 2027 09:18:07.691             2.868          1434.000
        73   05 Jun 2027 09:18:48.708   05 Jun 2027 09:18:58.822            10.114          5057.000
        74   05 Jun 2027 09:19:07.294   05 Jun 2027 09:19:08.978             1.684           842.000
        75   05 Jun 2027 09:19:14.123   05 Jun 2027 09:19:18.660             4.537          2268.500
        76   06 Jun 2027 03:00:10.421   06 Jun 2027 03:03:59.065           228.644        114322.000
        77   06 Jun 2027 03:04:59.785   06 Jun 2027 03:05:12.648            12.863          6431.500
        78   06 Jun 2027 03:06:01.682   06 Jun 2027 03:06:24.925            23.243         11621.500
        79   06 Jun 2027 03:06:43.918   06 Jun 2027 03:06:45.615             1.697           848.500
        80   06 Jun 2027 03:07:15.676   06 Jun 2027 03:07:26.775            11.099          5549.500
        81   06 Jun 2027 03:08:42.539   06 Jun 2027 03:08:43.927             1.388           694.000
        82   06 Jun 2027 04:37:41.923   06 Jun 2027 04:39:51.862           129.939         64969.500
        83   06 Jun 2027 04:40:00.827   06 Jun 2027 04:40:29.393            28.566         14283.000
        84   06 Jun 2027 04:40:45.959   06 Jun 2027 04:40:56.275            10.316          5158.000
        85   06 Jun 2027 04:41:43.065   06 Jun 2027 04:41:55.036            11.971          5985.500
        86   06 Jun 2027 04:42:31.343   06 Jun 2027 04:42:43.886            12.543          6271.500
        87   06 Jun 2027 04:43:45.360   06 Jun 2027 04:44:04.062            18.702          9351.000
        88   06 Jun 2027 04:44:10.767   06 Jun 2027 04:44:17.684             6.917          3458.500
        89   06 Jun 2027 06:14:38.041   06 Jun 2027 06:17:20.291           162.250         81125.000
        90   06 Jun 2027 06:18:31.991   06 Jun 2027 06:19:07.464            35.473         17736.500
        91   06 Jun 2027 06:19:39.289   06 Jun 2027 06:19:46.228             6.939          3469.500
        92   06 Jun 2027 06:20:06.449   06 Jun 2027 06:20:12.953             6.504          3252.000
        93   06 Jun 2027 07:51:31.912   06 Jun 2027 07:53:35.301           123.389         61694.500
        94   06 Jun 2027 07:54:04.358   06 Jun 2027 07:54:11.062             6.704          3352.000
        95   06 Jun 2027 07:54:49.766   06 Jun 2027 07:54:57.688             7.922          3961.000
        96   06 Jun 2027 09:28:42.011   06 Jun 2027 09:29:39.995            57.984         28992.000
        97   07 Jun 2027 03:10:50.522   07 Jun 2027 03:11:01.423            10.901          5450.500
        98   07 Jun 2027 03:12:49.081   07 Jun 2027 03:16:34.120           225.039        112519.500
        99   07 Jun 2027 03:18:02.459   07 Jun 2027 03:18:15.709            13.250          6625.000
       100   07 Jun 2027 03:18:46.649   07 Jun 2027 03:19:09.167            22.518         11259.000
       101   07 Jun 2027 03:19:29.557   07 Jun 2027 03:19:34.663             5.106          2553.000
       102   07 Jun 2027 03:20:37.930   07 Jun 2027 03:20:38.230             0.300           150.000
       103   07 Jun 2027 04:49:47.857   07 Jun 2027 04:52:05.590           137.733         68866.500
       104   07 Jun 2027 04:52:11.657   07 Jun 2027 04:52:17.893             6.236          3118.000
       105   07 Jun 2027 04:53:29.466   07 Jun 2027 04:53:50.951            21.485         10742.500
       106   07 Jun 2027 04:54:06.988   07 Jun 2027 04:54:12.370             5.382          2691.000
       107   07 Jun 2027 04:54:32.849   07 Jun 2027 04:54:42.024             9.175          4587.500
       108   07 Jun 2027 04:55:24.534   07 Jun 2027 04:55:41.704            17.170          8585.000
       109   07 Jun 2027 04:55:56.573   07 Jun 2027 04:56:03.813             7.240          3620.000
       110   07 Jun 2027 06:27:12.203   07 Jun 2027 06:29:27.750           135.547         67773.500
       111   07 Jun 2027 06:29:52.066   07 Jun 2027 06:30:04.797            12.731          6365.500
       112   07 Jun 2027 06:30:40.354   07 Jun 2027 06:30:52.314            11.960          5980.000
       113   07 Jun 2027 06:31:17.990   07 Jun 2027 06:31:30.123            12.133          6066.500
       114   07 Jun 2027 08:03:34.171   07 Jun 2027 08:05:06.023            91.852         45926.000
       115   07 Jun 2027 08:06:03.646   07 Jun 2027 08:06:08.502             4.856          2428.000
       116   07 Jun 2027 08:06:21.877   07 Jun 2027 08:06:38.906            17.029          8514.500
       117   07 Jun 2027 08:07:45.470   07 Jun 2027 08:07:47.327             1.857           928.500
       118   07 Jun 2027 09:41:51.946   07 Jun 2027 09:42:06.390            14.444          7222.000
       119   08 Jun 2027 03:26:03.169   08 Jun 2027 03:30:03.529           240.360        120180.000
       120   08 Jun 2027 03:30:25.398   08 Jun 2027 03:30:50.603            25.205         12602.500
       121   08 Jun 2027 03:32:31.752   08 Jun 2027 03:32:40.397             8.645          4322.500
       122   08 Jun 2027 05:02:21.777   08 Jun 2027 05:05:06.111           164.334         82167.000
       123   08 Jun 2027 05:06:48.463   08 Jun 2027 05:06:53.321             4.858          2429.000
       124   08 Jun 2027 05:07:15.945   08 Jun 2027 05:07:35.645            19.700          9850.000
       125   08 Jun 2027 06:39:44.656   08 Jun 2027 06:42:04.143           139.487         69743.500
       126   08 Jun 2027 06:42:37.331   08 Jun 2027 06:42:44.937             7.606          3803.000
       127   08 Jun 2027 06:43:30.389   08 Jun 2027 06:43:47.304            16.915          8457.500
       128   08 Jun 2027 08:15:54.847   08 Jun 2027 08:16:43.742            48.895         24447.500
       129   08 Jun 2027 08:17:15.865   08 Jun 2027 08:17:20.196             4.331          2165.500
       130   08 Jun 2027 08:17:27.433   08 Jun 2027 08:17:45.944            18.511          9255.500
       131   08 Jun 2027 08:18:42.712   08 Jun 2027 08:18:50.619             7.907          3953.500
       132   08 Jun 2027 08:19:24.540   08 Jun 2027 08:19:33.977             9.437          4718.500
       133   08 Jun 2027 08:20:24.273   08 Jun 2027 08:20:28.293             4.020          2010.000
       134   09 Jun 2027 03:38:04.114   09 Jun 2027 03:42:24.356           260.242        130121.000
       135   09 Jun 2027 03:42:32.465   09 Jun 2027 03:42:38.017             5.552          2776.000
       136   09 Jun 2027 03:43:34.191   09 Jun 2027 03:44:18.730            44.539         22269.500
       137   09 Jun 2027 03:44:23.544   09 Jun 2027 03:44:46.521            22.977         11488.500
       138   09 Jun 2027 05:14:00.299   09 Jun 2027 05:16:48.924           168.625         84312.500
       139   09 Jun 2027 05:18:33.651   09 Jun 2027 05:18:40.966             7.315          3657.500
       140   09 Jun 2027 05:19:07.292   09 Jun 2027 05:19:48.649            41.357         20678.500
       141   09 Jun 2027 06:51:58.298   09 Jun 2027 06:54:09.924           131.626         65813.000
       142   09 Jun 2027 06:54:25.167   09 Jun 2027 06:54:32.525             7.358          3679.000
       143   09 Jun 2027 06:54:52.930   09 Jun 2027 06:54:54.615             1.685           842.500
       144   09 Jun 2027 06:55:18.704   09 Jun 2027 06:55:25.469             6.765          3382.500
       145   09 Jun 2027 06:55:48.803   09 Jun 2027 06:55:55.271             6.468          3234.000
       146   09 Jun 2027 06:55:56.998   09 Jun 2027 06:56:23.288            26.290         13145.000
       147   09 Jun 2027 08:27:49.822   09 Jun 2027 08:28:38.391            48.569         24284.500
       148   09 Jun 2027 08:29:16.849   09 Jun 2027 08:29:18.670             1.821           910.500
       149   09 Jun 2027 08:29:20.652   09 Jun 2027 08:29:44.655            24.003         12001.500
       150   09 Jun 2027 08:31:03.477   09 Jun 2027 08:31:03.985             0.508           254.000
       151   09 Jun 2027 08:31:46.028   09 Jun 2027 08:31:54.250             8.222          4111.000
       152   09 Jun 2027 08:32:15.704   09 Jun 2027 08:32:25.358             9.654          4827.000
       153   09 Jun 2027 08:32:36.720   09 Jun 2027 08:32:48.487            11.767          5883.500
       154   09 Jun 2027 08:32:58.521   09 Jun 2027 08:32:59.446             0.925           462.500
       155   10 Jun 2027 03:49:20.001   10 Jun 2027 03:54:05.270           285.269        142634.500
       156   10 Jun 2027 03:54:11.316   10 Jun 2027 03:54:19.127             7.811          3905.500
       157   10 Jun 2027 03:54:53.662   10 Jun 2027 03:55:03.438             9.776          4888.000
       158   10 Jun 2027 03:55:35.170   10 Jun 2027 03:55:37.930             2.760          1380.000
       159   10 Jun 2027 03:55:54.841   10 Jun 2027 03:56:52.976            58.135         29067.500
       160   10 Jun 2027 05:26:09.619   10 Jun 2027 05:29:43.919           214.300        107150.000
       161   10 Jun 2027 05:30:12.879   10 Jun 2027 05:30:33.517            20.638         10319.000
       162   10 Jun 2027 05:32:02.559   10 Jun 2027 05:32:12.240             9.681          4840.500
       163   10 Jun 2027 07:04:20.814   10 Jun 2027 07:06:57.241           156.427         78213.500
       164   10 Jun 2027 07:07:29.518   10 Jun 2027 07:07:41.636            12.118          6059.000
       165   10 Jun 2027 07:08:02.105   10 Jun 2027 07:08:15.188            13.083          6541.500
       166   10 Jun 2027 08:37:38.690   10 Jun 2027 08:38:28.088            49.398         24699.000
       167   10 Jun 2027 08:38:55.595   10 Jun 2027 08:39:13.609            18.014          9007.000
       168   10 Jun 2027 08:40:08.403   10 Jun 2027 08:40:18.111             9.708          4854.000
       169   10 Jun 2027 08:41:14.299   10 Jun 2027 08:41:24.965            10.666          5333.000
       170   10 Jun 2027 08:42:42.763   10 Jun 2027 08:43:04.946            22.183         11091.500
       171   10 Jun 2027 08:43:39.609   10 Jun 2027 08:43:44.492             4.883          2441.500
       172   10 Jun 2027 08:43:56.012   10 Jun 2027 08:44:02.368             6.356          3178.000
       173   10 Jun 2027 08:44:58.832   10 Jun 2027 08:45:03.371             4.539          2269.500
       174   10 Jun 2027 08:45:13.554   10 Jun 2027 08:45:17.048             3.494          1747.000
       175   11 Jun 2027 04:01:27.592   11 Jun 2027 04:07:06.361           338.769        169384.500
       176   11 Jun 2027 04:07:57.728   11 Jun 2027 04:08:21.134            23.406         11703.000
       177   11 Jun 2027 05:38:25.544   11 Jun 2027 05:40:44.712           139.168         69584.000
       178   11 Jun 2027 05:41:19.223   11 Jun 2027 05:41:53.633            34.410         17205.000
       179   11 Jun 2027 05:42:02.692   11 Jun 2027 05:42:03.599             0.907           453.500
       180   11 Jun 2027 05:43:11.038   11 Jun 2027 05:43:46.380            35.342         17671.000
       181   11 Jun 2027 07:16:22.066   11 Jun 2027 07:19:08.403           166.337         83168.500
       182   11 Jun 2027 07:19:23.718   11 Jun 2027 07:19:30.906             7.188          3594.000
       183   11 Jun 2027 07:20:19.418   11 Jun 2027 07:20:20.513             1.095           547.500
       184   11 Jun 2027 08:49:42.372   11 Jun 2027 08:50:12.776            30.404         15202.000
       185   11 Jun 2027 08:50:50.337   11 Jun 2027 08:51:07.565            17.228          8614.000
       186   11 Jun 2027 08:52:11.474   11 Jun 2027 08:52:11.474             0.000             0.000
       187   11 Jun 2027 08:52:38.817   11 Jun 2027 08:52:50.470            11.653          5826.500
       188   11 Jun 2027 08:53:14.490   11 Jun 2027 08:53:17.738             3.248          1624.000
       189   11 Jun 2027 08:53:32.924   11 Jun 2027 08:53:39.086             6.162          3081.000
       190   11 Jun 2027 08:54:25.942   11 Jun 2027 08:54:44.365            18.423          9211.500
       191   11 Jun 2027 08:55:32.721   11 Jun 2027 08:55:34.719             1.998           999.000
       192   11 Jun 2027 08:55:41.741   11 Jun 2027 08:55:49.499             7.758          3879.000
       193   11 Jun 2027 08:56:39.602   11 Jun 2027 08:56:55.373            15.771          7885.500
       194   12 Jun 2027 04:13:29.487   12 Jun 2027 04:19:11.831           342.344        171172.000
       195   12 Jun 2027 04:19:34.909   12 Jun 2027 04:19:59.850            24.941         12470.500
       196   12 Jun 2027 04:20:55.337   12 Jun 2027 04:20:55.796             0.459           229.500
       197   12 Jun 2027 05:50:15.739   12 Jun 2027 05:54:00.739           225.000        112500.000
       198   12 Jun 2027 05:54:19.241   12 Jun 2027 05:54:30.851            11.610          5805.000
       199   12 Jun 2027 05:55:54.248   12 Jun 2027 05:56:12.760            18.512          9256.000
       200   12 Jun 2027 05:56:31.640   12 Jun 2027 05:56:39.899             8.259          4129.500
       201   12 Jun 2027 05:56:52.259   12 Jun 2027 05:56:58.700             6.441          3220.500
       202   12 Jun 2027 07:28:20.966   12 Jun 2027 07:30:43.477           142.511         71255.500
       203   12 Jun 2027 07:31:25.741   12 Jun 2027 07:31:36.779            11.038          5519.000
       204   12 Jun 2027 09:02:09.600   12 Jun 2027 09:02:30.596            20.996         10498.000
       205   12 Jun 2027 09:03:14.737   12 Jun 2027 09:03:21.446             6.709          3354.500
       206   12 Jun 2027 09:04:02.117   12 Jun 2027 09:04:19.482            17.365          8682.500
       207   12 Jun 2027 09:05:38.919   12 Jun 2027 09:05:50.501            11.582          5791.000
       208   12 Jun 2027 09:06:27.308   12 Jun 2027 09:06:45.193            17.885          8942.500
       209   12 Jun 2027 09:07:36.627   12 Jun 2027 09:07:50.679            14.052          7026.000
       210   12 Jun 2027 09:08:27.856   12 Jun 2027 09:08:39.335            11.479          5739.500
       211   13 Jun 2027 04:25:30.428   13 Jun 2027 04:32:10.683           400.255        200127.500
       212   13 Jun 2027 06:02:25.224   13 Jun 2027 06:05:20.066           174.842         87421.000
       213   13 Jun 2027 06:06:02.300   13 Jun 2027 06:06:02.344             0.044            22.000
       214   13 Jun 2027 06:06:55.588   13 Jun 2027 06:07:14.820            19.232          9616.000
       215   13 Jun 2027 06:07:42.902   13 Jun 2027 06:08:03.161            20.259         10129.500
       216   13 Jun 2027 07:39:33.583   13 Jun 2027 07:42:02.864           149.281         74640.500
       217   13 Jun 2027 07:42:21.270   13 Jun 2027 07:42:28.852             7.582          3791.000
       218   13 Jun 2027 07:42:37.150   13 Jun 2027 07:42:37.426             0.276           138.000
       219   13 Jun 2027 07:42:57.147   13 Jun 2027 07:43:05.737             8.590          4295.000
       220   13 Jun 2027 07:44:05.496   13 Jun 2027 07:44:23.441            17.945          8972.500
       221   13 Jun 2027 09:14:24.901   13 Jun 2027 09:14:58.611            33.710         16855.000
       222   13 Jun 2027 09:16:15.490   13 Jun 2027 09:16:28.018            12.528          6264.000
       223   13 Jun 2027 09:17:19.604   13 Jun 2027 09:17:53.114            33.510         16755.000
