uniorb/output/strategy_1/Camera/Camera_KinoSat_111806.txt

KinoSat_111806
-------------------------
    Access    *     Start Time (UTCG)     *     Stop Time (UTCG)  *   Duration (s) *   Data (Mbytes)
         1   01 Jun 2027 03:00:00.000   01 Jun 2027 03:00:12.057            12.057          6028.500
         2   01 Jun 2027 03:00:44.932   01 Jun 2027 03:00:47.489             2.557          1278.500
         3   01 Jun 2027 03:01:08.841   01 Jun 2027 03:01:21.229            12.388          6194.000
         4   01 Jun 2027 03:01:36.061   01 Jun 2027 03:01:48.740            12.679          6339.500
         5   01 Jun 2027 04:33:12.984   01 Jun 2027 04:34:14.264            61.280         30640.000
         6   01 Jun 2027 04:34:20.949   01 Jun 2027 04:35:10.012            49.063         24531.500
         7   01 Jun 2027 04:37:36.696   01 Jun 2027 04:37:58.037            21.341         10670.500
         8   01 Jun 2027 04:38:55.919   01 Jun 2027 04:38:58.142             2.223          1111.500
         9   01 Jun 2027 04:39:23.027   01 Jun 2027 04:39:25.186             2.159          1079.500
        10   01 Jun 2027 06:11:30.407   01 Jun 2027 06:13:22.027           111.620         55810.000
        11   01 Jun 2027 06:13:50.802   01 Jun 2027 06:14:04.801            13.999          6999.500
        12   01 Jun 2027 07:34:53.523   01 Jun 2027 07:37:22.756           149.233         74616.500
        13   01 Jun 2027 09:11:26.061   01 Jun 2027 09:12:34.158            68.097         34048.500
        14   01 Jun 2027 10:46:36.653   01 Jun 2027 10:48:11.727            95.074         47537.000
        15   01 Jun 2027 10:52:53.540   01 Jun 2027 10:52:53.540             0.000             0.000
        16   01 Jun 2027 10:53:01.719   01 Jun 2027 10:53:12.559            10.840          5420.000
        17   02 Jun 2027 03:07:02.009   02 Jun 2027 03:07:19.124            17.115          8557.500
        18   02 Jun 2027 03:07:32.391   02 Jun 2027 03:08:14.529            42.138         21069.000
        19   02 Jun 2027 03:08:28.812   02 Jun 2027 03:08:41.088            12.276          6138.000
        20   02 Jun 2027 03:09:15.262   02 Jun 2027 03:09:15.262             0.000             0.000
        21   02 Jun 2027 03:09:36.351   02 Jun 2027 03:09:54.784            18.433          9216.500
        22   02 Jun 2027 03:12:14.750   02 Jun 2027 03:12:15.888             1.138           569.000
        23   02 Jun 2027 03:12:31.938   02 Jun 2027 03:12:38.920             6.982          3491.000
        24   02 Jun 2027 03:12:40.810   02 Jun 2027 03:12:41.181             0.371           185.500
        25   02 Jun 2027 03:13:16.699   02 Jun 2027 03:13:20.193             3.494          1747.000
        26   02 Jun 2027 04:46:19.696   02 Jun 2027 04:47:45.439            85.743         42871.500
        27   02 Jun 2027 04:48:29.359   02 Jun 2027 04:48:33.241             3.882          1941.000
        28   02 Jun 2027 04:48:53.173   02 Jun 2027 04:48:53.787             0.614           307.000
        29   02 Jun 2027 04:49:17.449   02 Jun 2027 04:49:34.166            16.717          8358.500
        30   02 Jun 2027 04:53:09.618   02 Jun 2027 04:53:54.098            44.480         22240.000
        31   02 Jun 2027 06:23:27.390   02 Jun 2027 06:24:07.793            40.403         20201.500
        32   02 Jun 2027 06:24:25.501   02 Jun 2027 06:24:51.404            25.903         12951.500
        33   02 Jun 2027 07:46:55.098   02 Jun 2027 07:48:12.388            77.290         38645.000
        34   02 Jun 2027 07:49:30.442   02 Jun 2027 07:49:33.982             3.540          1770.000
        35   02 Jun 2027 09:23:18.068   02 Jun 2027 09:25:01.501           103.433         51716.500
        36   02 Jun 2027 09:26:40.416   02 Jun 2027 09:26:57.553            17.137          8568.500
        37   02 Jun 2027 09:27:09.334   02 Jun 2027 09:27:21.255            11.921          5960.500
        38   02 Jun 2027 10:58:11.568   02 Jun 2027 10:58:41.032            29.464         14732.000
        39   02 Jun 2027 11:00:17.734   02 Jun 2027 11:01:11.262            53.528         26764.000
        40   02 Jun 2027 11:04:52.915   02 Jun 2027 11:05:20.247            27.332         13666.000
        41   03 Jun 2027 03:19:43.221   03 Jun 2027 03:20:56.846            73.625         36812.500
        42   03 Jun 2027 03:21:01.949   03 Jun 2027 03:21:02.350             0.401           200.500
        43   03 Jun 2027 03:21:56.838   03 Jun 2027 03:22:09.208            12.370          6185.000
        44   03 Jun 2027 03:24:02.964   03 Jun 2027 03:24:18.335            15.371          7685.500
        45   03 Jun 2027 03:25:41.814   03 Jun 2027 03:25:45.016             3.202          1601.000
        46   03 Jun 2027 03:26:01.216   03 Jun 2027 03:26:07.310             6.094          3047.000
        47   03 Jun 2027 04:58:23.843   03 Jun 2027 04:59:04.969            41.126         20563.000
        48   03 Jun 2027 04:59:30.481   03 Jun 2027 05:00:00.125            29.644         14822.000
        49   03 Jun 2027 05:00:19.149   03 Jun 2027 05:00:22.426             3.277          1638.500
        50   03 Jun 2027 05:00:34.531   03 Jun 2027 05:00:53.969            19.438          9719.000
        51   03 Jun 2027 05:03:34.269   03 Jun 2027 05:03:34.269             0.000             0.000
        52   03 Jun 2027 05:03:40.754   03 Jun 2027 05:03:42.170             1.416           708.000
        53   03 Jun 2027 05:04:48.288   03 Jun 2027 05:04:56.978             8.690          4345.000
        54   03 Jun 2027 06:24:10.481   03 Jun 2027 06:24:49.879            39.398         19699.000
        55   03 Jun 2027 06:35:24.111   03 Jun 2027 06:36:10.132            46.021         23010.500
        56   03 Jun 2027 06:36:52.579   03 Jun 2027 06:36:52.579             0.000             0.000
        57   03 Jun 2027 07:58:00.807   03 Jun 2027 07:59:57.409           116.602         58301.000
        58   03 Jun 2027 09:33:35.409   03 Jun 2027 09:34:06.992            31.583         15791.500
        59   03 Jun 2027 09:35:22.140   03 Jun 2027 09:35:22.140             0.000             0.000
        60   03 Jun 2027 09:36:03.057   03 Jun 2027 09:36:37.649            34.592         17296.000
        61   03 Jun 2027 09:37:49.633   03 Jun 2027 09:37:53.483             3.850          1925.000
        62   03 Jun 2027 11:09:48.224   03 Jun 2027 11:10:20.034            31.810         15905.000
        63   03 Jun 2027 11:12:49.903   03 Jun 2027 11:13:18.030            28.127         14063.500
        64   03 Jun 2027 11:14:10.016   03 Jun 2027 11:14:59.289            49.273         24636.500
        65   03 Jun 2027 11:15:26.413   03 Jun 2027 11:15:35.426             9.013          2908.813
        66   03 Jun 2027 11:16:34.617   03 Jun 2027 11:16:37.982             3.365          1682.500
        67   03 Jun 2027 11:16:59.590   03 Jun 2027 11:17:02.445             2.855           842.469
        68   04 Jun 2027 03:31:49.227   04 Jun 2027 03:33:15.256            86.029         43014.500
        69   04 Jun 2027 03:34:24.042   04 Jun 2027 03:34:31.994             7.952          3976.000
        70   04 Jun 2027 03:34:55.956   04 Jun 2027 03:35:01.637             5.681          2840.500
        71   04 Jun 2027 03:36:07.014   04 Jun 2027 03:36:07.014             0.000             0.000
        72   04 Jun 2027 03:36:32.924   04 Jun 2027 03:36:34.548             1.624           812.000
        73   04 Jun 2027 03:37:10.154   04 Jun 2027 03:37:22.491            12.337          6168.500
        74   04 Jun 2027 05:10:53.937   04 Jun 2027 05:12:09.626            75.689         37844.500
        75   04 Jun 2027 05:13:13.968   04 Jun 2027 05:13:13.968             0.000             0.000
        76   04 Jun 2027 05:14:02.079   04 Jun 2027 05:14:06.724             4.645          2322.500
        77   04 Jun 2027 05:14:31.739   04 Jun 2027 05:14:35.221             3.482          1741.000
        78   04 Jun 2027 05:14:37.500   04 Jun 2027 05:14:56.654            19.154          9577.000
        79   04 Jun 2027 05:16:16.862   04 Jun 2027 05:16:23.382             6.520          3260.000
        80   04 Jun 2027 05:17:41.278   04 Jun 2027 05:18:01.663            20.385         10192.500
        81   04 Jun 2027 06:35:44.287   04 Jun 2027 06:36:59.857            75.570         37785.000
        82   04 Jun 2027 06:47:25.175   04 Jun 2027 06:48:04.645            39.470         19735.000
        83   04 Jun 2027 08:09:43.135   04 Jun 2027 08:10:28.215            45.080         22540.000
        84   04 Jun 2027 08:12:12.235   04 Jun 2027 08:12:12.235             0.000             0.000
        85   04 Jun 2027 08:13:15.546   04 Jun 2027 08:13:30.672            15.126          6392.938
        86   04 Jun 2027 09:44:42.169   04 Jun 2027 09:44:54.651            12.482          5844.875
        87   04 Jun 2027 09:45:31.457   04 Jun 2027 09:45:33.417             1.960           608.875
        88   04 Jun 2027 09:45:56.469   04 Jun 2027 09:45:56.469             0.000             0.000
        89   04 Jun 2027 09:46:45.908   04 Jun 2027 09:46:49.656             3.748          1845.937
        90   04 Jun 2027 09:48:31.945   04 Jun 2027 09:48:42.512            10.567          2676.844
        91   04 Jun 2027 09:49:49.862   04 Jun 2027 09:49:49.862             0.000             0.000
        92   04 Jun 2027 11:23:32.786   04 Jun 2027 11:24:00.161            27.375         13043.719
        93   04 Jun 2027 11:25:08.506   04 Jun 2027 11:25:10.455             1.949           974.500
        94   04 Jun 2027 11:28:24.201   04 Jun 2027 11:28:39.184            14.983          6852.375
        95   04 Jun 2027 11:29:19.519   04 Jun 2027 11:29:24.465             4.946           962.531
        96   05 Jun 2027 03:44:09.370   05 Jun 2027 03:44:36.009            26.639         13319.500
        97   05 Jun 2027 03:44:41.465   05 Jun 2027 03:45:15.240            33.775         16887.500
        98   05 Jun 2027 03:45:19.121   05 Jun 2027 03:46:14.506            55.385         27692.500
        99   05 Jun 2027 03:46:15.289   05 Jun 2027 03:46:34.599            19.310          9655.000
       100   05 Jun 2027 03:48:42.534   05 Jun 2027 03:48:50.396             7.862          3931.000
       101   05 Jun 2027 05:22:56.178   05 Jun 2027 05:24:20.565            84.387         42193.500
       102   05 Jun 2027 05:24:59.945   05 Jun 2027 05:24:59.945             0.000             0.000
       103   05 Jun 2027 05:25:11.765   05 Jun 2027 05:25:12.340             0.575           287.500
       104   05 Jun 2027 05:26:06.837   05 Jun 2027 05:26:13.318             6.481          3240.500
       105   05 Jun 2027 05:27:18.939   05 Jun 2027 05:27:33.409            14.470          7235.000
       106   05 Jun 2027 05:27:35.750   05 Jun 2027 05:27:36.657             0.907           453.500
       107   05 Jun 2027 05:29:54.140   05 Jun 2027 05:29:55.916             1.776           888.000
       108   05 Jun 2027 06:47:16.697   05 Jun 2027 06:48:24.006            67.309         33654.500
       109   05 Jun 2027 06:49:09.911   05 Jun 2027 06:49:19.917            10.006          5003.000
       110   05 Jun 2027 06:59:32.909   05 Jun 2027 07:00:00.102            27.193         13596.500
       111   05 Jun 2027 08:21:21.777   05 Jun 2027 08:21:45.898            24.121         12060.500
       112   05 Jun 2027 08:22:20.808   05 Jun 2027 08:22:28.133             7.325          3641.719
       113   05 Jun 2027 08:23:33.246   05 Jun 2027 08:23:33.246             0.000             0.000
       114   05 Jun 2027 08:24:11.280   05 Jun 2027 08:24:19.962             8.682          2533.781
       115   05 Jun 2027 08:25:31.573   05 Jun 2027 08:25:31.573             0.000             0.000
       116   05 Jun 2027 08:25:55.102   05 Jun 2027 08:26:01.952             6.850          2495.688
       117   05 Jun 2027 08:26:21.712   05 Jun 2027 08:26:23.418             1.706           450.969
       118   05 Jun 2027 08:26:31.698   05 Jun 2027 08:26:31.698             0.000             0.000
       119   05 Jun 2027 09:56:10.184   05 Jun 2027 09:56:20.119             9.935          3916.313
       120   05 Jun 2027 09:57:58.018   05 Jun 2027 09:58:01.865             3.847          1772.000
       121   05 Jun 2027 09:58:15.120   05 Jun 2027 09:58:16.978             1.858           203.188
       122   05 Jun 2027 10:01:43.414   05 Jun 2027 10:01:44.668             1.254           627.000
       123   05 Jun 2027 10:02:45.961   05 Jun 2027 10:03:03.258            17.297          7739.531
       124   05 Jun 2027 10:03:20.595   05 Jun 2027 10:03:21.655             1.060           510.187
       125   05 Jun 2027 11:36:41.716   05 Jun 2027 11:37:00.157            18.441          9220.500
       126   05 Jun 2027 11:39:59.635   05 Jun 2027 11:40:13.454            13.819          6909.500
       127   05 Jun 2027 11:40:54.880   05 Jun 2027 11:40:56.960             2.080          1040.000
       128   06 Jun 2027 03:56:52.283   06 Jun 2027 03:57:07.056            14.773          7386.500
       129   06 Jun 2027 03:57:16.059   06 Jun 2027 03:58:27.959            71.900         35950.000
       130   06 Jun 2027 03:58:57.069   06 Jun 2027 03:59:46.330            49.261         24630.500
       131   06 Jun 2027 05:35:21.689   06 Jun 2027 05:37:10.784           109.095         54547.500
       132   06 Jun 2027 05:39:01.284   06 Jun 2027 05:39:35.335            34.051         17025.500
       133   06 Jun 2027 06:59:14.448   06 Jun 2027 07:00:25.559            71.111         35555.500
       134   06 Jun 2027 07:01:22.271   06 Jun 2027 07:01:31.166             8.895          4447.500
       135   06 Jun 2027 08:35:12.564   06 Jun 2027 08:35:39.578            27.014         13507.000
       136   06 Jun 2027 08:36:45.131   06 Jun 2027 08:36:45.131             0.000             0.000
       137   06 Jun 2027 08:38:15.621   06 Jun 2027 08:38:31.002            15.381          4944.625
       138   06 Jun 2027 10:09:01.169   06 Jun 2027 10:09:14.717            13.548          6478.594
       139   06 Jun 2027 10:11:18.465   06 Jun 2027 10:11:21.258             2.793          1298.844
       140   06 Jun 2027 10:11:29.261   06 Jun 2027 10:11:30.303             1.042           250.094
       141   06 Jun 2027 10:15:01.070   06 Jun 2027 10:15:01.070             0.000             0.000
       142   06 Jun 2027 10:15:43.706   06 Jun 2027 10:16:01.886            18.180          7714.812
       143   06 Jun 2027 10:16:11.800   06 Jun 2027 10:16:12.287             0.487           152.781
       144   06 Jun 2027 10:17:05.775   06 Jun 2027 10:17:10.350             4.575          1426.750
       145   06 Jun 2027 11:46:10.211   06 Jun 2027 11:46:27.206            16.995          8263.687
       146   06 Jun 2027 11:47:35.554   06 Jun 2027 11:47:39.092             3.538          1705.813
       147   06 Jun 2027 11:48:29.400   06 Jun 2027 11:48:30.168             0.768           116.313
       148   06 Jun 2027 11:51:18.096   06 Jun 2027 11:51:27.878             9.782          4891.000
       149   06 Jun 2027 11:53:00.512   06 Jun 2027 11:53:08.666             8.154          3154.188
       150   07 Jun 2027 04:09:36.273   07 Jun 2027 04:09:41.629             5.356          2678.000
       151   07 Jun 2027 04:10:16.370   07 Jun 2027 04:11:04.423            48.053         24026.500
       152   07 Jun 2027 04:11:04.728   07 Jun 2027 04:11:27.053            22.325         11162.500
       153   07 Jun 2027 04:13:17.196   07 Jun 2027 04:13:43.127            25.931         12965.500
       154   07 Jun 2027 04:14:16.781   07 Jun 2027 04:14:26.234             9.453          4726.500
       155   07 Jun 2027 05:47:43.885   07 Jun 2027 05:49:47.659           123.774         61887.000
       156   07 Jun 2027 05:50:29.788   07 Jun 2027 05:50:39.602             9.814          4907.000
       157   07 Jun 2027 07:11:07.260   07 Jun 2027 07:12:45.964            98.704         49352.000
       158   07 Jun 2027 07:12:52.641   07 Jun 2027 07:13:03.330            10.689          4680.594
       159   07 Jun 2027 08:47:29.724   07 Jun 2027 08:47:51.865            22.141         11070.500
       160   07 Jun 2027 08:48:06.848   07 Jun 2027 08:48:15.017             8.169          4084.500
       161   07 Jun 2027 08:50:15.933   07 Jun 2027 08:50:15.933             0.000             0.000
       162   07 Jun 2027 10:21:24.140   07 Jun 2027 10:21:40.200            16.060          6842.062
       163   07 Jun 2027 10:23:25.483   07 Jun 2027 10:23:25.483             0.000             0.000
       164   07 Jun 2027 10:25:49.602   07 Jun 2027 10:26:05.709            16.107          7179.750
       165   07 Jun 2027 10:26:43.461   07 Jun 2027 10:26:44.651             1.190           224.344
       166   07 Jun 2027 10:28:09.551   07 Jun 2027 10:28:15.796             6.245          2522.875
       167   07 Jun 2027 10:28:41.782   07 Jun 2027 10:28:44.429             2.647           812.062
       168   07 Jun 2027 10:28:53.204   07 Jun 2027 10:28:53.882             0.678           129.063
       169   07 Jun 2027 10:29:16.737   07 Jun 2027 10:29:17.646             0.909           133.437
       170   07 Jun 2027 11:58:36.321   07 Jun 2027 11:58:50.967            14.646          7072.781
       171   07 Jun 2027 11:59:30.792   07 Jun 2027 11:59:34.055             3.263          1126.719
       172   08 Jun 2027 04:22:20.603   08 Jun 2027 04:22:36.283            15.680          7840.000
       173   08 Jun 2027 04:22:41.990   08 Jun 2027 04:23:10.883            28.893         14446.500
       174   08 Jun 2027 04:24:19.635   08 Jun 2027 04:25:31.586            71.951         35975.500
       175   08 Jun 2027 04:26:45.888   08 Jun 2027 04:26:46.240             0.352           176.000
       176   08 Jun 2027 06:00:06.356   08 Jun 2027 06:02:08.819           122.463         61231.500
       177   08 Jun 2027 06:02:18.667   08 Jun 2027 06:02:27.791             9.124          4562.000
       178   08 Jun 2027 06:03:37.430   08 Jun 2027 06:03:54.910            17.480          8740.000
       179   08 Jun 2027 07:22:57.453   08 Jun 2027 07:24:28.118            90.665         45332.500
       180   08 Jun 2027 08:59:33.271   08 Jun 2027 08:59:54.370            21.099          9662.813
       181   08 Jun 2027 09:00:27.058   08 Jun 2027 09:00:29.673             2.615           755.406
       182   08 Jun 2027 10:35:45.923   08 Jun 2027 10:36:10.890            24.967          9304.687
       183   08 Jun 2027 10:36:37.388   08 Jun 2027 10:36:38.576             1.188           338.156
       184   08 Jun 2027 10:37:09.717   08 Jun 2027 10:37:10.237             0.520            55.812
       185   08 Jun 2027 10:37:31.219   08 Jun 2027 10:37:34.272             3.053           538.031
       186   08 Jun 2027 10:38:18.054   08 Jun 2027 10:38:26.452             8.398          1071.500
       187   08 Jun 2027 10:40:39.615   08 Jun 2027 10:40:48.682             9.067          3994.875
       188   08 Jun 2027 10:41:17.080   08 Jun 2027 10:41:18.722             1.642           745.625
       189   09 Jun 2027 03:00:00.000   09 Jun 2027 03:00:02.901             2.901          1450.500
       190   09 Jun 2027 03:00:53.155   09 Jun 2027 03:01:05.152            11.997          5998.500
       191   09 Jun 2027 03:01:14.279   09 Jun 2027 03:01:23.640             9.361          4680.500
       192   09 Jun 2027 03:02:05.680   09 Jun 2027 03:02:27.958            22.278         11139.000
       193   09 Jun 2027 04:33:30.910   09 Jun 2027 04:34:29.547            58.637         29318.500
       194   09 Jun 2027 04:34:38.156   09 Jun 2027 04:35:03.680            25.524         12762.000
       195   09 Jun 2027 04:35:18.809   09 Jun 2027 04:35:20.973             2.164          1082.000
       196   09 Jun 2027 04:35:35.660   09 Jun 2027 04:35:40.527             4.867          2433.500
       197   09 Jun 2027 04:36:11.146   09 Jun 2027 04:36:20.502             9.356          4678.000
       198   09 Jun 2027 04:36:50.313   09 Jun 2027 04:36:54.705             4.392          2196.000
       199   09 Jun 2027 04:37:08.743   09 Jun 2027 04:37:20.061            11.318          5659.000
       200   09 Jun 2027 04:38:47.248   09 Jun 2027 04:38:49.486             2.238          1119.000
       201   09 Jun 2027 04:38:54.902   09 Jun 2027 04:38:58.822             3.920          1960.000
       202   09 Jun 2027 06:11:47.654   09 Jun 2027 06:13:37.274           109.620         54810.000
       203   09 Jun 2027 06:14:07.331   09 Jun 2027 06:14:23.293            15.962          7981.000
       204   09 Jun 2027 07:35:09.824   09 Jun 2027 07:36:26.173            76.349         37866.531
       205   09 Jun 2027 09:11:44.466   09 Jun 2027 09:11:57.279            12.813          6406.500
       206   09 Jun 2027 09:14:14.951   09 Jun 2027 09:14:24.563             9.612          4431.969
       207   09 Jun 2027 10:47:11.894   09 Jun 2027 10:47:11.894             0.000             0.000
       208   09 Jun 2027 10:48:09.997   09 Jun 2027 10:48:27.206            17.209          8604.500
       209   09 Jun 2027 10:49:23.513   09 Jun 2027 10:49:28.529             5.016          1945.406
       210   09 Jun 2027 10:50:19.296   09 Jun 2027 10:50:24.049             4.753          1501.469
       211   09 Jun 2027 10:51:16.292   09 Jun 2027 10:51:22.439             6.147          1301.094
       212   09 Jun 2027 10:52:06.747   09 Jun 2027 10:52:16.996            10.249           869.031
       213   09 Jun 2027 10:52:53.589   09 Jun 2027 10:53:00.201             6.612           772.594
       214   09 Jun 2027 10:53:16.895   09 Jun 2027 10:53:18.501             1.606           465.969
       215   10 Jun 2027 03:07:19.421   10 Jun 2027 03:07:34.423            15.002          7501.000
       216   10 Jun 2027 03:07:47.650   10 Jun 2027 03:08:45.977            58.327         29163.500
       217   10 Jun 2027 03:08:47.772   10 Jun 2027 03:08:52.750             4.978          2489.000
       218   10 Jun 2027 03:08:59.156   10 Jun 2027 03:09:05.055             5.899          2949.500
       219   10 Jun 2027 03:12:40.007   10 Jun 2027 03:12:46.556             6.549          3274.500
       220   10 Jun 2027 03:12:53.541   10 Jun 2027 03:12:56.309             2.768          1384.000
       221   10 Jun 2027 03:13:14.715   10 Jun 2027 03:13:20.611             5.896          2948.000
       222   10 Jun 2027 03:14:02.430   10 Jun 2027 03:14:02.430             0.000             0.000
       223   10 Jun 2027 03:14:08.644   10 Jun 2027 03:14:09.410             0.766           383.000
       224   10 Jun 2027 04:46:37.235   10 Jun 2027 04:47:36.274            59.039         29519.500
       225   10 Jun 2027 04:47:38.615   10 Jun 2027 04:47:39.635             1.020           510.000
       226   10 Jun 2027 04:48:05.760   10 Jun 2027 04:48:43.865            38.105         19052.500
       227   10 Jun 2027 04:49:32.245   10 Jun 2027 04:49:32.245             0.000             0.000
       228   10 Jun 2027 04:53:02.454   10 Jun 2027 04:53:15.969            13.515          6757.500
       229   10 Jun 2027 04:53:32.016   10 Jun 2027 04:54:10.256            38.240         19120.000
       230   10 Jun 2027 06:23:44.091   10 Jun 2027 06:24:25.586            41.495         20747.500
       231   10 Jun 2027 06:24:33.711   10 Jun 2027 06:24:56.109            22.398         11199.000
       232   10 Jun 2027 06:26:38.865   10 Jun 2027 06:26:41.051             2.186          1093.000
       233   10 Jun 2027 06:26:45.662   10 Jun 2027 06:27:07.034            21.372         10686.000
       234   10 Jun 2027 07:47:40.616   10 Jun 2027 07:48:39.727            59.111         29263.532
       235   10 Jun 2027 07:50:04.005   10 Jun 2027 07:50:10.752             6.747          2633.687
       236   10 Jun 2027 09:23:33.459   10 Jun 2027 09:23:45.834            12.375          5677.031
       237   10 Jun 2027 09:24:07.665   10 Jun 2027 09:24:09.750             2.085           682.219
       238   10 Jun 2027 09:25:12.568   10 Jun 2027 09:25:14.464             1.896           797.031
       239   10 Jun 2027 09:25:51.938   10 Jun 2027 09:26:00.812             8.874           942.625
       240   10 Jun 2027 10:58:56.829   10 Jun 2027 10:59:14.616            17.787          8478.562
       241   10 Jun 2027 10:59:48.858   10 Jun 2027 10:59:52.018             3.160           485.156
       242   10 Jun 2027 10:59:56.846   10 Jun 2027 10:59:59.327             2.481           142.875
       243   10 Jun 2027 11:00:17.359   10 Jun 2027 11:00:22.676             5.317           350.094
       244   10 Jun 2027 11:05:09.468   10 Jun 2027 11:05:26.523            17.055          8480.844
       245   10 Jun 2027 11:05:31.796   10 Jun 2027 11:05:34.558             2.762            36.969
       246   11 Jun 2027 03:20:00.869   11 Jun 2027 03:21:32.163            91.294         45647.000
       247   11 Jun 2027 03:24:15.478   11 Jun 2027 03:24:18.972             3.494          1747.000
       248   11 Jun 2027 03:25:15.013   11 Jun 2027 03:25:34.149            19.136          9568.000
       249   11 Jun 2027 03:25:44.509   11 Jun 2027 03:25:56.819            12.310          6155.000
       250   11 Jun 2027 04:58:42.260   11 Jun 2027 04:59:34.744            52.484         26242.000
       251   11 Jun 2027 04:59:59.359   11 Jun 2027 05:00:15.686            16.327          8163.500
       252   11 Jun 2027 05:00:51.208   11 Jun 2027 05:00:51.872             0.664           332.000
       253   11 Jun 2027 05:01:41.305   11 Jun 2027 05:01:47.370             6.065          3032.500
       254   11 Jun 2027 05:02:21.850   11 Jun 2027 05:02:28.830             6.980          3490.000
       255   11 Jun 2027 05:05:02.347   11 Jun 2027 05:06:14.800            72.453         36226.500
       256   11 Jun 2027 06:24:24.002   11 Jun 2027 06:25:09.357            45.355         22677.500
       257   11 Jun 2027 06:35:41.746   11 Jun 2027 06:36:25.021            43.275         21637.500
       258   11 Jun 2027 06:37:09.520   11 Jun 2027 06:37:09.520             0.000             0.000
       259   11 Jun 2027 07:58:16.975   11 Jun 2027 07:59:15.279            58.304         26636.063
       260   11 Jun 2027 08:02:30.360   11 Jun 2027 08:02:42.225            11.865          5734.562
       261   11 Jun 2027 09:33:48.943   11 Jun 2027 09:33:55.349             6.406          3203.000
       262   11 Jun 2027 09:38:10.872   11 Jun 2027 09:38:22.958            12.086          6043.000
       263   11 Jun 2027 11:10:07.840   11 Jun 2027 11:10:31.555            23.715         11067.187
       264   11 Jun 2027 11:13:10.676   11 Jun 2027 11:13:10.676             0.000             0.000
       265   11 Jun 2027 11:13:22.915   11 Jun 2027 11:13:34.680            11.765          5241.531
       266   11 Jun 2027 11:16:57.145   11 Jun 2027 11:17:14.247            17.102          6313.469
       267   12 Jun 2027 03:32:07.157   12 Jun 2027 03:34:17.811           130.654         65327.000
       268   12 Jun 2027 03:35:10.379   12 Jun 2027 03:35:11.446             1.067           533.500
       269   12 Jun 2027 05:11:11.675   12 Jun 2027 05:12:27.414            75.739         37869.500
       270   12 Jun 2027 05:12:50.597   12 Jun 2027 05:12:51.675             1.078           539.000
       271   12 Jun 2027 05:13:25.839   12 Jun 2027 05:13:34.015             8.176          4088.000
       272   12 Jun 2027 05:13:52.670   12 Jun 2027 05:13:57.078             4.408          2204.000
       273   12 Jun 2027 05:14:49.671   12 Jun 2027 05:15:11.357            21.686         10843.000
       274   12 Jun 2027 05:16:31.635   12 Jun 2027 05:16:38.010             6.375          3187.500
       275   12 Jun 2027 05:17:59.825   12 Jun 2027 05:18:19.456            19.631          9815.500
       276   12 Jun 2027 06:36:01.312   12 Jun 2027 06:37:17.346            76.034         38017.000
       277   12 Jun 2027 06:47:41.318   12 Jun 2027 06:47:59.205            17.887          8943.500
       278   12 Jun 2027 06:48:02.119   12 Jun 2027 06:48:10.687             8.568          2871.657
       279   12 Jun 2027 08:10:00.323   12 Jun 2027 08:10:23.372            23.049         11050.656
       280   12 Jun 2027 08:10:37.216   12 Jun 2027 08:10:37.715             0.499           225.437
       281   12 Jun 2027 08:13:31.222   12 Jun 2027 08:13:41.200             9.978          4839.281
       282   12 Jun 2027 08:14:51.873   12 Jun 2027 08:14:57.195             5.322          1955.687
       283   12 Jun 2027 09:44:57.471   12 Jun 2027 09:45:08.438            10.967          4734.219
       284   12 Jun 2027 09:45:32.352   12 Jun 2027 09:45:38.103             5.751           638.438
       285   12 Jun 2027 09:48:44.711   12 Jun 2027 09:48:59.635            14.924          5475.625
       286   12 Jun 2027 09:50:07.122   12 Jun 2027 09:50:07.122             0.000             0.000
       287   12 Jun 2027 11:22:37.149   12 Jun 2027 11:23:00.619            23.470         10647.469
       288   12 Jun 2027 11:28:39.929   12 Jun 2027 11:29:00.194            20.265          9098.219
       289   12 Jun 2027 11:29:35.500   12 Jun 2027 11:29:38.758             3.258           894.156
       290   13 Jun 2027 03:44:28.856   13 Jun 2027 03:44:53.666            24.810         12405.000
       291   13 Jun 2027 03:45:00.555   13 Jun 2027 03:45:31.997            31.442         15721.000
       292   13 Jun 2027 03:45:36.135   13 Jun 2027 03:46:24.486            48.351         24175.500
       293   13 Jun 2027 03:46:37.702   13 Jun 2027 03:47:01.439            23.737         11868.500
       294   13 Jun 2027 05:23:15.017   13 Jun 2027 05:24:36.130            81.113         40556.500
       295   13 Jun 2027 05:24:55.883   13 Jun 2027 05:24:59.284             3.401          1700.500
       296   13 Jun 2027 05:26:04.287   13 Jun 2027 05:26:21.458            17.171          8585.500
       297   13 Jun 2027 05:27:07.584   13 Jun 2027 05:27:08.374             0.790           395.000
       298   13 Jun 2027 05:27:56.838   13 Jun 2027 05:28:02.335             5.497          2748.500
       299   13 Jun 2027 05:29:34.256   13 Jun 2027 05:29:47.621            13.365          6682.500
       300   13 Jun 2027 06:47:34.777   13 Jun 2027 06:49:22.597           107.820         53910.000
       301   13 Jun 2027 06:59:50.573   13 Jun 2027 07:00:02.873            12.300          6150.000
       302   13 Jun 2027 08:21:32.681   13 Jun 2027 08:22:02.034            29.353         13329.406
       303   13 Jun 2027 08:22:38.854   13 Jun 2027 08:22:42.698             3.844          1150.625
       304   13 Jun 2027 08:23:52.263   13 Jun 2027 08:23:52.263             0.000             0.000
       305   13 Jun 2027 08:24:28.315   13 Jun 2027 08:24:35.089             6.774          2468.812
       306   13 Jun 2027 08:25:47.722   13 Jun 2027 08:25:47.722             0.000             0.000
       307   13 Jun 2027 08:26:13.042   13 Jun 2027 08:26:18.465             5.423          2511.656
       308   13 Jun 2027 08:26:50.380   13 Jun 2027 08:26:53.051             2.671           855.094
       309   13 Jun 2027 09:57:17.091   13 Jun 2027 09:57:28.292            11.201          5305.656
       310   13 Jun 2027 09:58:27.767   13 Jun 2027 09:58:29.862             2.095           366.250
       311   13 Jun 2027 09:59:13.234   13 Jun 2027 09:59:17.933             4.699          1207.406
       312   13 Jun 2027 10:00:46.686   13 Jun 2027 10:00:53.540             6.854          2114.594
       313   13 Jun 2027 10:05:23.371   13 Jun 2027 10:05:37.199            13.828          6387.000
       314   13 Jun 2027 11:34:20.244   13 Jun 2027 11:34:20.520             0.276           138.000
       315   13 Jun 2027 11:40:14.450   13 Jun 2027 11:40:47.445            32.995         16118.812
       316   13 Jun 2027 11:41:16.772   13 Jun 2027 11:41:18.060             1.288           644.000
