uniorb/output/strategy_1/Camera/Camera_KinoSat_111007.txt

KinoSat_111007
-------------------------
    Access    *     Start Time (UTCG)     *     Stop Time (UTCG)  *   Duration (s) *   Data (Mbytes)
         1   01 Jun 2027 03:08:36.485   01 Jun 2027 03:09:22.741            46.256         23128.000
         2   01 Jun 2027 03:20:16.843   01 Jun 2027 03:21:42.338            85.495         42747.500
         3   01 Jun 2027 04:42:33.129   01 Jun 2027 04:43:09.770            36.641         18320.500
         4   01 Jun 2027 04:43:24.691   01 Jun 2027 04:43:29.503             4.812          2406.000
         5   01 Jun 2027 04:46:59.583   01 Jun 2027 04:47:06.286             6.703          3351.500
         6   01 Jun 2027 06:17:46.141   01 Jun 2027 06:18:33.198            47.057         23528.500
         7   01 Jun 2027 06:19:41.445   01 Jun 2027 06:20:44.539            63.094         31547.000
         8   01 Jun 2027 06:21:18.826   01 Jun 2027 06:21:18.826             0.000             0.000
         9   01 Jun 2027 06:22:36.700   01 Jun 2027 06:22:37.101             0.401           200.500
        10   01 Jun 2027 06:23:58.587   01 Jun 2027 06:24:17.249            18.662          9331.000
        11   01 Jun 2027 07:54:49.864   01 Jun 2027 07:56:53.852           123.988         61994.000
        12   01 Jun 2027 07:57:50.428   01 Jun 2027 07:57:51.624             1.196           598.000
        13   01 Jun 2027 07:58:00.238   01 Jun 2027 07:58:00.238             0.000             0.000
        14   01 Jun 2027 07:58:04.778   01 Jun 2027 07:58:22.954            18.176          9088.000
        15   01 Jun 2027 08:01:58.432   01 Jun 2027 08:02:09.963            11.531          5765.500
        16   01 Jun 2027 09:31:47.811   01 Jun 2027 09:33:13.341            85.530         42765.000
        17   01 Jun 2027 09:33:27.159   01 Jun 2027 09:34:11.268            44.109         22054.500
        18   01 Jun 2027 09:35:07.209   01 Jun 2027 09:35:09.680             2.471          1235.500
        19   01 Jun 2027 09:36:10.707   01 Jun 2027 09:36:16.333             5.626          2813.000
        20   01 Jun 2027 11:09:44.334   01 Jun 2027 11:11:07.685            83.351         41675.500
        21   01 Jun 2027 11:11:22.392   01 Jun 2027 11:12:19.149            56.757         28378.500
        22   01 Jun 2027 11:13:04.607   01 Jun 2027 11:13:12.466             7.859          3929.500
        23   02 Jun 2027 03:19:58.247   02 Jun 2027 03:20:41.743            43.496         21748.000
        24   02 Jun 2027 03:32:14.226   02 Jun 2027 03:33:09.598            55.372         27686.000
        25   02 Jun 2027 04:54:13.037   02 Jun 2027 04:55:11.070            58.033         29016.500
        26   02 Jun 2027 04:57:10.788   02 Jun 2027 04:57:13.706             2.918          1459.000
        27   02 Jun 2027 04:57:34.882   02 Jun 2027 04:57:40.391             5.509          2754.500
        28   02 Jun 2027 04:58:40.536   02 Jun 2027 04:58:44.129             3.593          1796.500
        29   02 Jun 2027 04:58:45.827   02 Jun 2027 04:58:51.237             5.410          2705.000
        30   02 Jun 2027 04:59:22.677   02 Jun 2027 04:59:39.976            17.299          8649.500
        31   02 Jun 2027 06:29:13.217   02 Jun 2027 06:30:31.324            78.107         39053.500
        32   02 Jun 2027 06:30:48.573   02 Jun 2027 06:30:54.933             6.360          3180.000
        33   02 Jun 2027 06:31:30.176   02 Jun 2027 06:31:34.531             4.355          2177.500
        34   02 Jun 2027 06:32:32.703   02 Jun 2027 06:32:36.304             3.601          1800.500
        35   02 Jun 2027 06:34:36.912   02 Jun 2027 06:34:36.912             0.000             0.000
        36   02 Jun 2027 06:35:46.967   02 Jun 2027 06:36:09.149            22.182         11091.000
        37   02 Jun 2027 08:06:51.834   02 Jun 2027 08:08:42.233           110.399         55199.500
        38   02 Jun 2027 08:08:59.421   02 Jun 2027 08:08:59.421             0.000             0.000
        39   02 Jun 2027 08:09:45.264   02 Jun 2027 08:10:05.030            19.766          9883.000
        40   02 Jun 2027 08:10:38.355   02 Jun 2027 08:10:51.556            13.201          6600.500
        41   02 Jun 2027 08:11:24.134   02 Jun 2027 08:11:25.422             1.288           644.000
        42   02 Jun 2027 08:12:13.673   02 Jun 2027 08:12:19.823             6.150          3075.000
        43   02 Jun 2027 08:12:59.401   02 Jun 2027 08:13:03.963             4.562          2281.000
        44   02 Jun 2027 09:43:38.162   02 Jun 2027 09:45:41.458           123.296         61648.000
        45   02 Jun 2027 09:47:50.451   02 Jun 2027 09:47:52.926             2.475          1237.500
        46   02 Jun 2027 09:48:44.348   02 Jun 2027 09:48:47.533             3.185          1592.500
        47   02 Jun 2027 09:49:10.320   02 Jun 2027 09:49:22.928            12.608          6304.000
        48   02 Jun 2027 11:21:43.454   02 Jun 2027 11:23:30.084           106.630         53315.000
        49   02 Jun 2027 11:24:09.021   02 Jun 2027 11:24:13.024             4.003          2001.500
        50   02 Jun 2027 11:24:40.096   02 Jun 2027 11:24:44.297             4.201          2100.500
        51   02 Jun 2027 11:25:44.913   02 Jun 2027 11:25:51.210             6.297          3148.500
        52   03 Jun 2027 03:32:05.594   03 Jun 2027 03:32:42.694            37.100         18550.000
        53   03 Jun 2027 03:44:37.928   03 Jun 2027 03:44:41.201             3.273          1636.500
        54   03 Jun 2027 05:05:54.693   03 Jun 2027 05:08:14.304           139.611         69805.500
        55   03 Jun 2027 05:10:55.708   03 Jun 2027 05:10:55.708             0.000             0.000
        56   03 Jun 2027 05:11:21.298   03 Jun 2027 05:11:38.063            16.765          8382.500
        57   03 Jun 2027 06:40:46.809   03 Jun 2027 06:42:31.365           104.556         52278.000
        58   03 Jun 2027 06:43:27.979   03 Jun 2027 06:43:30.864             2.885          1442.500
        59   03 Jun 2027 06:44:36.871   03 Jun 2027 06:44:52.211            15.340          7670.000
        60   03 Jun 2027 06:47:30.857   03 Jun 2027 06:47:33.849             2.992          1496.000
        61   03 Jun 2027 06:48:27.868   03 Jun 2027 06:48:38.306            10.438          5219.000
        62   03 Jun 2027 08:18:53.027   03 Jun 2027 08:21:02.376           129.349         64674.500
        63   03 Jun 2027 08:23:18.818   03 Jun 2027 08:23:32.762            13.944          6972.000
        64   03 Jun 2027 08:24:06.745   03 Jun 2027 08:24:08.952             2.207          1103.500
        65   03 Jun 2027 08:25:21.694   03 Jun 2027 08:25:27.964             6.270          3135.000
        66   03 Jun 2027 09:55:47.942   03 Jun 2027 09:57:02.489            74.547         37273.500
        67   03 Jun 2027 09:58:26.570   03 Jun 2027 09:58:39.560            12.990          6495.000
        68   03 Jun 2027 09:59:08.965   03 Jun 2027 09:59:18.611             9.646          3839.720
        69   03 Jun 2027 09:59:29.510   03 Jun 2027 09:59:30.171             0.661           171.219
        70   03 Jun 2027 10:01:42.713   03 Jun 2027 10:01:52.281             9.568          4141.938
        71   03 Jun 2027 11:32:56.061   03 Jun 2027 11:33:21.403            25.342         11045.750
        72   03 Jun 2027 11:33:56.439   03 Jun 2027 11:34:02.015             5.576           515.812
        73   03 Jun 2027 11:34:33.628   03 Jun 2027 11:34:36.200             2.572           934.281
        74   03 Jun 2027 11:34:55.949   03 Jun 2027 11:34:55.949             0.000             0.000
        75   03 Jun 2027 11:35:20.099   03 Jun 2027 11:35:22.313             2.214          1107.000
        76   03 Jun 2027 11:36:00.680   03 Jun 2027 11:36:04.208             3.528          1355.656
        77   03 Jun 2027 11:36:13.734   03 Jun 2027 11:36:14.385             0.651           297.687
        78   03 Jun 2027 11:36:44.315   03 Jun 2027 11:36:46.539             2.224           205.094
        79   04 Jun 2027 03:44:01.384   04 Jun 2027 03:44:44.277            42.893         21446.500
        80   04 Jun 2027 05:20:14.991   04 Jun 2027 05:22:45.075           150.084         75042.000
        81   04 Jun 2027 06:53:47.754   04 Jun 2027 06:55:30.660           102.906         51453.000
        82   04 Jun 2027 06:56:11.723   04 Jun 2027 06:56:30.876            19.153          9576.500
        83   04 Jun 2027 07:01:25.532   04 Jun 2027 07:01:37.609            12.077          6038.500
        84   04 Jun 2027 07:02:00.962   04 Jun 2027 07:02:03.226             2.264          1132.000
        85   04 Jun 2027 07:02:18.989   04 Jun 2027 07:02:21.245             2.256          1128.000
        86   04 Jun 2027 08:31:20.180   04 Jun 2027 08:32:06.045            45.865         22167.156
        87   04 Jun 2027 08:32:59.823   04 Jun 2027 08:33:03.285             3.462             5.219
        88   04 Jun 2027 08:33:22.513   04 Jun 2027 08:33:23.835             1.322           337.500
        89   04 Jun 2027 08:35:17.738   04 Jun 2027 08:35:26.402             8.664          3069.594
        90   04 Jun 2027 08:35:39.263   04 Jun 2027 08:35:40.710             1.447           121.750
        91   04 Jun 2027 08:36:45.543   04 Jun 2027 08:36:50.047             4.504          2024.500
        92   04 Jun 2027 10:08:15.487   04 Jun 2027 10:08:28.447            12.960          6480.000
        93   04 Jun 2027 10:08:36.610   04 Jun 2027 10:08:47.213            10.603          2810.344
        94   04 Jun 2027 10:09:13.216   04 Jun 2027 10:09:17.187             3.971           240.781
        95   04 Jun 2027 10:09:42.441   04 Jun 2027 10:09:45.172             2.731           660.656
        96   04 Jun 2027 10:09:58.771   04 Jun 2027 10:10:00.139             1.368           424.969
        97   04 Jun 2027 10:10:31.786   04 Jun 2027 10:10:34.709             2.923           988.969
        98   04 Jun 2027 10:11:45.924   04 Jun 2027 10:11:49.104             3.180          1352.000
        99   04 Jun 2027 10:11:56.957   04 Jun 2027 10:11:58.027             1.070            35.969
       100   04 Jun 2027 10:12:09.877   04 Jun 2027 10:12:11.524             1.647           233.812
       101   04 Jun 2027 10:12:49.519   04 Jun 2027 10:12:52.151             2.632           847.594
       102   04 Jun 2027 10:13:10.320   04 Jun 2027 10:13:10.320             0.000             0.000
       103   04 Jun 2027 10:13:11.303   04 Jun 2027 10:13:14.377             3.074           433.375
       104   04 Jun 2027 10:14:00.258   04 Jun 2027 10:14:06.144             5.886          1347.844
       105   04 Jun 2027 11:45:09.603   04 Jun 2027 11:45:25.124            15.521          6289.813
       106   04 Jun 2027 11:45:43.323   04 Jun 2027 11:45:46.118             2.795           531.938
       107   04 Jun 2027 11:45:56.153   04 Jun 2027 11:45:58.870             2.717           313.594
       108   04 Jun 2027 11:47:20.562   04 Jun 2027 11:47:25.623             5.061          2347.281
       109   04 Jun 2027 11:47:47.174   04 Jun 2027 11:47:49.840             2.666           476.969
       110   04 Jun 2027 11:48:15.677   04 Jun 2027 11:48:16.904             1.227           613.500
       111   05 Jun 2027 03:55:52.533   05 Jun 2027 03:56:57.850            65.317         32658.500
       112   05 Jun 2027 05:32:19.706   05 Jun 2027 05:34:26.876           127.170         63585.000
       113   05 Jun 2027 05:35:14.732   05 Jun 2027 05:35:23.437             8.705          4352.500
       114   05 Jun 2027 05:35:45.099   05 Jun 2027 05:35:48.941             3.842          1921.000
       115   05 Jun 2027 07:04:27.402   05 Jun 2027 07:04:38.431            11.029          5514.500
       116   05 Jun 2027 07:06:26.489   05 Jun 2027 07:08:18.511           112.022         55076.499
       117   05 Jun 2027 07:08:38.693   05 Jun 2027 07:08:41.402             2.709           605.281
       118   05 Jun 2027 07:09:48.536   05 Jun 2027 07:09:54.562             6.026          2090.125
       119   05 Jun 2027 07:10:51.730   05 Jun 2027 07:10:55.112             3.382          1691.000
       120   05 Jun 2027 07:12:56.537   05 Jun 2027 07:13:03.503             6.966          3483.000
       121   05 Jun 2027 07:14:09.633   05 Jun 2027 07:14:15.325             5.692          2448.562
       122   05 Jun 2027 08:43:25.010   05 Jun 2027 08:43:49.048            24.038         10942.906
       123   05 Jun 2027 08:45:05.284   05 Jun 2027 08:45:07.754             2.470           922.781
       124   05 Jun 2027 08:46:17.122   05 Jun 2027 08:46:24.328             7.206          2058.688
       125   05 Jun 2027 08:46:28.864   05 Jun 2027 08:46:31.477             2.613           121.469
       126   05 Jun 2027 08:47:45.284   05 Jun 2027 08:47:49.643             4.359          1150.000
       127   05 Jun 2027 08:48:18.187   05 Jun 2027 08:48:20.957             2.770           681.312
       128   05 Jun 2027 08:48:36.845   05 Jun 2027 08:48:37.435             0.590           282.844
       129   05 Jun 2027 08:48:51.289   05 Jun 2027 08:48:54.209             2.920           432.937
       130   05 Jun 2027 08:49:19.425   05 Jun 2027 08:49:20.691             1.266           230.125
       131   05 Jun 2027 10:20:53.089   05 Jun 2027 10:21:06.960            13.871          6935.500
       132   05 Jun 2027 10:21:59.001   05 Jun 2027 10:22:05.478             6.477          2239.156
       133   05 Jun 2027 10:22:38.007   05 Jun 2027 10:22:42.649             4.642          1016.531
       134   05 Jun 2027 10:23:43.310   05 Jun 2027 10:23:46.825             3.515          1431.594
       135   05 Jun 2027 10:23:58.660   05 Jun 2027 10:24:00.059             1.399           354.219
       136   05 Jun 2027 10:24:41.098   05 Jun 2027 10:24:44.772             3.674           694.031
       137   05 Jun 2027 10:24:47.007   05 Jun 2027 10:24:49.269             2.262            69.844
       138   05 Jun 2027 10:25:00.242   05 Jun 2027 10:25:05.547             5.305           342.906
       139   05 Jun 2027 10:25:12.759   05 Jun 2027 10:25:13.579             0.820           170.750
       140   05 Jun 2027 11:57:12.981   05 Jun 2027 11:57:29.504            16.523          8194.938
       141   05 Jun 2027 11:57:42.046   05 Jun 2027 11:57:45.849             3.803           391.938
       142   05 Jun 2027 11:58:14.992   05 Jun 2027 11:58:18.748             3.756           585.688
       143   05 Jun 2027 11:59:34.066   05 Jun 2027 11:59:34.829             0.763           381.500
       144   05 Jun 2027 11:59:50.343   05 Jun 2027 11:59:55.463             5.120          2054.750
       145   06 Jun 2027 04:08:00.703   06 Jun 2027 04:09:01.941            61.238         30619.000
       146   06 Jun 2027 04:09:09.213   06 Jun 2027 04:09:10.480             1.267           633.500
       147   06 Jun 2027 04:09:42.999   06 Jun 2027 04:09:53.479            10.480          5240.000
       148   06 Jun 2027 05:44:29.490   06 Jun 2027 05:46:53.443           143.953         71976.500
       149   06 Jun 2027 07:19:40.479   06 Jun 2027 07:21:29.813           109.334         54640.156
       150   06 Jun 2027 07:22:20.522   06 Jun 2027 07:22:24.107             3.585          1578.781
       151   06 Jun 2027 07:24:59.726   06 Jun 2027 07:25:10.944            11.218          4640.625
       152   06 Jun 2027 07:25:30.682   06 Jun 2027 07:25:37.948             7.266           573.531
       153   06 Jun 2027 07:25:46.581   06 Jun 2027 07:25:48.307             1.726           204.906
       154   06 Jun 2027 07:26:09.175   06 Jun 2027 07:26:12.670             3.495           499.250
       155   06 Jun 2027 08:55:59.472   06 Jun 2027 08:56:23.283            23.811         10336.312
       156   06 Jun 2027 08:56:42.884   06 Jun 2027 08:56:44.120             1.236           612.531
       157   06 Jun 2027 08:57:47.346   06 Jun 2027 08:57:50.075             2.729          1364.500
       158   06 Jun 2027 08:57:56.570   06 Jun 2027 08:58:00.181             3.611           764.063
       159   06 Jun 2027 08:58:28.192   06 Jun 2027 08:58:31.276             3.084            77.719
       160   06 Jun 2027 08:58:50.822   06 Jun 2027 08:58:54.829             4.007           610.813
       161   06 Jun 2027 08:59:05.092   06 Jun 2027 08:59:06.151             1.059            82.656
       162   06 Jun 2027 08:59:29.023   06 Jun 2027 08:59:31.988             2.965           653.625
       163   06 Jun 2027 08:59:44.668   06 Jun 2027 08:59:44.668             0.000             0.000
       164   06 Jun 2027 09:00:09.506   06 Jun 2027 09:00:09.997             0.491           245.500
       165   06 Jun 2027 09:00:29.696   06 Jun 2027 09:00:37.894             8.198          1542.531
       166   06 Jun 2027 09:00:55.859   06 Jun 2027 09:01:00.888             5.029            99.375
       167   06 Jun 2027 09:01:20.040   06 Jun 2027 09:01:20.704             0.664           332.000
       168   06 Jun 2027 09:01:24.868   06 Jun 2027 09:01:27.949             3.081           141.437
       169   06 Jun 2027 09:01:42.398   06 Jun 2027 09:01:43.468             1.070           451.531
       170   06 Jun 2027 09:02:03.870   06 Jun 2027 09:02:06.696             2.826           599.031
       171   06 Jun 2027 10:33:22.821   06 Jun 2027 10:33:36.695            13.874          6797.688
       172   06 Jun 2027 10:33:59.510   06 Jun 2027 10:34:02.250             2.740           631.750
       173   06 Jun 2027 10:34:56.110   06 Jun 2027 10:34:58.424             2.314          1157.000
       174   06 Jun 2027 10:35:21.094   06 Jun 2027 10:35:24.833             3.739          1187.406
       175   06 Jun 2027 10:36:40.615   06 Jun 2027 10:36:45.784             5.169          2117.844
       176   06 Jun 2027 10:36:50.760   06 Jun 2027 10:36:53.216             2.456           140.625
       177   06 Jun 2027 10:37:03.836   06 Jun 2027 10:37:05.020             1.184           176.781
       178   06 Jun 2027 10:37:39.927   06 Jun 2027 10:37:44.921             4.994          1090.844
       179   07 Jun 2027 04:20:43.137   07 Jun 2027 04:21:52.303            69.166         34583.000
       180   07 Jun 2027 05:56:27.633   07 Jun 2027 05:58:40.779           133.146         66573.000
       181   07 Jun 2027 07:31:32.662   07 Jun 2027 07:33:18.653           105.991         52995.500
       182   07 Jun 2027 07:33:49.622   07 Jun 2027 07:33:53.194             3.572          1786.000
       183   07 Jun 2027 07:34:03.452   07 Jun 2027 07:34:10.416             6.964          3482.000
       184   07 Jun 2027 07:35:09.872   07 Jun 2027 07:35:12.462             2.590          1295.000
       185   07 Jun 2027 07:37:32.332   07 Jun 2027 07:37:36.194             3.862          1931.000
       186   07 Jun 2027 07:38:22.264   07 Jun 2027 07:38:24.004             1.740           870.000
       187   07 Jun 2027 09:07:37.556   07 Jun 2027 09:08:00.862            23.306         11228.156
       188   07 Jun 2027 09:08:54.474   07 Jun 2027 09:08:57.251             2.777           864.094
       189   07 Jun 2027 09:09:37.590   07 Jun 2027 09:09:40.361             2.771          1260.594
       190   07 Jun 2027 09:10:17.471   07 Jun 2027 09:10:18.761             1.290           261.531
       191   07 Jun 2027 09:11:05.048   07 Jun 2027 09:11:06.292             1.244           622.000
       192   07 Jun 2027 09:11:55.484   07 Jun 2027 09:11:58.685             3.201          1600.500
       193   07 Jun 2027 09:12:23.489   07 Jun 2027 09:12:27.544             4.055          1094.969
       194   07 Jun 2027 09:13:48.094   07 Jun 2027 09:13:53.803             5.709          2391.281
       195   07 Jun 2027 10:45:35.507   07 Jun 2027 10:45:48.377            12.870          6236.906
       196   07 Jun 2027 10:46:13.006   07 Jun 2027 10:46:13.006             0.000             0.000
       197   07 Jun 2027 10:46:44.539   07 Jun 2027 10:46:49.245             4.706          1328.500
       198   07 Jun 2027 10:47:39.659   07 Jun 2027 10:47:45.198             5.539          1523.625
       199   07 Jun 2027 10:48:20.192   07 Jun 2027 10:48:25.359             5.167           710.094
       200   07 Jun 2027 10:49:38.329   07 Jun 2027 10:49:42.240             3.911          1871.875
       201   07 Jun 2027 10:49:46.321   07 Jun 2027 10:49:48.557             2.236           114.156
       202   08 Jun 2027 03:08:31.488   08 Jun 2027 03:09:39.500            68.012         34006.000
       203   08 Jun 2027 04:31:49.784   08 Jun 2027 04:32:44.716            54.932         27466.000
       204   08 Jun 2027 06:08:12.225   08 Jun 2027 06:09:40.005            87.780         43890.000
       205   08 Jun 2027 06:10:18.002   08 Jun 2027 06:10:27.597             9.595          4797.500
       206   08 Jun 2027 06:11:14.030   08 Jun 2027 06:11:16.399             2.369          1184.500
       207   08 Jun 2027 06:11:22.507   08 Jun 2027 06:11:22.879             0.372           186.000
       208   08 Jun 2027 06:12:05.885   08 Jun 2027 06:12:25.054            19.169          9584.500
       209   08 Jun 2027 07:42:57.726   08 Jun 2027 07:44:33.877            96.151         47801.188
       210   08 Jun 2027 07:44:54.401   08 Jun 2027 07:44:55.832             1.431            76.094
       211   08 Jun 2027 07:47:07.130   08 Jun 2027 07:47:14.917             7.787          3893.500
       212   08 Jun 2027 07:48:39.690   08 Jun 2027 07:48:45.369             5.679          2762.531
       213   08 Jun 2027 07:49:26.848   08 Jun 2027 07:49:36.374             9.526           986.344
       214   08 Jun 2027 07:50:24.864   08 Jun 2027 07:50:25.185             0.321           160.500
       215   08 Jun 2027 09:19:47.124   08 Jun 2027 09:20:13.274            26.150         10736.344
       216   08 Jun 2027 09:20:24.088   08 Jun 2027 09:20:24.626             0.538           101.969
       217   08 Jun 2027 09:21:28.177   08 Jun 2027 09:21:31.485             3.308          1620.125
       218   08 Jun 2027 09:22:19.752   08 Jun 2027 09:22:22.015             2.263           993.344
       219   08 Jun 2027 09:23:09.849   08 Jun 2027 09:23:16.099             6.250          1177.500
       220   08 Jun 2027 09:23:39.798   08 Jun 2027 09:23:41.246             1.448           678.000
       221   08 Jun 2027 09:24:55.761   08 Jun 2027 09:24:58.841             3.080          1540.000
       222   08 Jun 2027 09:25:40.820   08 Jun 2027 09:25:47.906             7.086          1870.844
       223   08 Jun 2027 09:25:50.512   08 Jun 2027 09:25:58.887             8.375            81.438
       224   08 Jun 2027 10:57:57.753   08 Jun 2027 10:58:11.802            14.049          7016.844
       225   08 Jun 2027 10:58:25.212   08 Jun 2027 10:58:28.901             3.689           419.062
       226   08 Jun 2027 10:58:45.126   08 Jun 2027 10:58:47.146             2.020           507.031
       227   08 Jun 2027 10:59:03.917   08 Jun 2027 10:59:06.248             2.331           447.281
       228   08 Jun 2027 10:59:38.947   08 Jun 2027 10:59:39.803             0.856           428.000
       229   08 Jun 2027 10:59:44.789   08 Jun 2027 10:59:45.174             0.385           158.375
       230   08 Jun 2027 11:00:20.653   08 Jun 2027 11:00:24.105             3.452           784.281
       231   08 Jun 2027 11:00:42.195   08 Jun 2027 11:00:43.116             0.921           215.469
       232   08 Jun 2027 11:01:40.114   08 Jun 2027 11:01:43.264             3.150          1521.719
       233   09 Jun 2027 03:08:51.293   09 Jun 2027 03:09:35.936            44.643         22321.500
       234   09 Jun 2027 03:20:32.122   09 Jun 2027 03:21:56.487            84.365         42182.500
       235   09 Jun 2027 04:42:47.848   09 Jun 2027 04:43:25.515            37.667         18833.500
       236   09 Jun 2027 04:43:40.176   09 Jun 2027 04:43:40.176             0.000             0.000
       237   09 Jun 2027 04:47:35.295   09 Jun 2027 04:47:53.203            17.908          8954.000
       238   09 Jun 2027 06:18:00.278   09 Jun 2027 06:19:12.432            72.154         36077.000
       239   09 Jun 2027 06:19:56.201   09 Jun 2027 06:20:09.854            13.653          6826.500
       240   09 Jun 2027 06:20:59.471   09 Jun 2027 06:21:03.461             3.990          1995.000
       241   09 Jun 2027 06:21:03.959   09 Jun 2027 06:21:06.067             2.108          1054.000
       242   09 Jun 2027 06:21:34.696   09 Jun 2027 06:21:38.254             3.558          1779.000
       243   09 Jun 2027 06:21:49.719   09 Jun 2027 06:22:02.596            12.877          6438.500
       244   09 Jun 2027 06:24:29.716   09 Jun 2027 06:24:34.329             4.613          2306.500
       245   09 Jun 2027 07:55:04.800   09 Jun 2027 07:56:10.467            65.667         32137.813
       246   09 Jun 2027 07:56:28.997   09 Jun 2027 07:56:30.005             1.008           421.406
       247   09 Jun 2027 07:57:08.614   09 Jun 2027 07:57:14.309             5.695           986.906
       248   09 Jun 2027 07:57:47.333   09 Jun 2027 07:57:48.733             1.400           365.281
       249   09 Jun 2027 07:57:57.999   09 Jun 2027 07:57:58.933             0.934           193.125
       250   09 Jun 2027 07:59:08.919   09 Jun 2027 07:59:12.753             3.834          1889.375
       251   09 Jun 2027 07:59:44.774   09 Jun 2027 07:59:48.839             4.065           759.750
       252   09 Jun 2027 07:59:57.982   09 Jun 2027 08:00:01.316             3.334            98.813
       253   09 Jun 2027 08:00:33.409   09 Jun 2027 08:00:34.660             1.251           373.375
       254   09 Jun 2027 08:00:47.498   09 Jun 2027 08:00:47.498             0.000             0.000
       255   09 Jun 2027 08:01:29.163   09 Jun 2027 08:01:35.045             5.882          1620.375
       256   09 Jun 2027 09:32:02.874   09 Jun 2027 09:32:22.596            19.722          9784.719
       257   09 Jun 2027 09:32:46.295   09 Jun 2027 09:32:47.907             1.612           735.844
       258   09 Jun 2027 09:33:26.628   09 Jun 2027 09:33:30.095             3.467           947.656
       259   09 Jun 2027 09:35:24.699   09 Jun 2027 09:35:34.234             9.535          1825.094
       260   09 Jun 2027 09:36:12.492   09 Jun 2027 09:36:12.492             0.000             0.000
       261   09 Jun 2027 09:36:57.407   09 Jun 2027 09:37:00.083             2.676          1338.000
       262   09 Jun 2027 09:37:22.396   09 Jun 2027 09:37:28.800             6.404          1799.687
       263   09 Jun 2027 09:37:51.958   09 Jun 2027 09:37:54.082             2.124           723.688
       264   09 Jun 2027 11:09:59.198   09 Jun 2027 11:10:16.112            16.914          8347.188
       265   09 Jun 2027 11:10:49.723   09 Jun 2027 11:10:59.735            10.012           975.562
       266   09 Jun 2027 11:11:25.513   09 Jun 2027 11:11:28.517             3.004           805.563
       267   09 Jun 2027 11:11:57.303   09 Jun 2027 11:11:59.538             2.235           608.406
       268   09 Jun 2027 11:12:12.250   09 Jun 2027 11:12:18.757             6.507           397.250
       269   09 Jun 2027 11:13:10.218   09 Jun 2027 11:13:13.744             3.526          1608.156
       270   09 Jun 2027 11:13:27.520   09 Jun 2027 11:13:28.996             1.476           430.500
       271   09 Jun 2027 11:13:55.633   09 Jun 2027 11:13:58.031             2.398           484.687
       272   10 Jun 2027 03:20:14.194   10 Jun 2027 03:21:04.398            50.204         25102.000
       273   10 Jun 2027 03:21:14.118   10 Jun 2027 03:21:36.249            22.131         11065.500
       274   10 Jun 2027 03:32:29.341   10 Jun 2027 03:33:24.513            55.172         27586.000
       275   10 Jun 2027 04:54:29.109   10 Jun 2027 04:55:26.811            57.702         28851.000
       276   10 Jun 2027 06:29:28.072   10 Jun 2027 06:31:04.317            96.245         48122.500
       277   10 Jun 2027 06:32:48.632   10 Jun 2027 06:32:48.632             0.000             0.000
       278   10 Jun 2027 06:33:06.381   10 Jun 2027 06:33:09.206             2.825          1412.500
       279   10 Jun 2027 06:33:18.895   10 Jun 2027 06:33:29.580            10.685          5342.500
       280   10 Jun 2027 06:35:51.176   10 Jun 2027 06:36:03.002            11.826          5913.000
       281   10 Jun 2027 06:36:07.271   10 Jun 2027 06:36:07.271             0.000             0.000
       282   10 Jun 2027 06:36:40.113   10 Jun 2027 06:36:48.329             8.216          4108.000
       283   10 Jun 2027 08:07:06.865   10 Jun 2027 08:07:59.715            52.850         23745.562
       284   10 Jun 2027 08:08:57.639   10 Jun 2027 08:08:58.453             0.814           407.000
       285   10 Jun 2027 08:10:42.945   10 Jun 2027 08:10:52.854             9.909          4651.500
       286   10 Jun 2027 08:11:46.603   10 Jun 2027 08:11:50.568             3.965          1679.656
       287   10 Jun 2027 08:12:35.651   10 Jun 2027 08:12:36.573             0.922           461.000
       288   10 Jun 2027 08:13:12.492   10 Jun 2027 08:13:18.045             5.553          2070.312
       289   10 Jun 2027 09:43:53.480   10 Jun 2027 09:44:10.939            17.459          8474.250
       290   10 Jun 2027 09:44:52.652   10 Jun 2027 09:44:59.482             6.830          1301.406
       291   10 Jun 2027 09:45:15.427   10 Jun 2027 09:45:16.403             0.976           264.938
       292   10 Jun 2027 09:45:58.122   10 Jun 2027 09:46:01.901             3.779          1279.312
       293   10 Jun 2027 09:46:29.676   10 Jun 2027 09:46:32.236             2.560           704.219
       294   10 Jun 2027 09:46:36.934   10 Jun 2027 09:46:39.496             2.562           146.812
       295   10 Jun 2027 09:47:03.693   10 Jun 2027 09:47:07.209             3.516           701.000
       296   10 Jun 2027 09:48:02.738   10 Jun 2027 09:48:05.177             2.439          1219.500
       297   10 Jun 2027 09:48:09.468   10 Jun 2027 09:48:14.523             5.055           251.219
       298   10 Jun 2027 09:48:21.827   10 Jun 2027 09:48:24.090             2.263           228.250
       299   10 Jun 2027 09:48:31.312   10 Jun 2027 09:48:32.232             0.920           225.687
       300   10 Jun 2027 09:48:57.548   10 Jun 2027 09:48:59.088             1.540           703.562
       301   10 Jun 2027 09:49:39.352   10 Jun 2027 09:49:41.897             2.545          1258.250
       302   10 Jun 2027 09:50:21.525   10 Jun 2027 09:50:24.686             3.161          1069.562
       303   10 Jun 2027 11:21:56.535   10 Jun 2027 11:22:14.985            18.450          6903.375
       304   10 Jun 2027 11:22:29.092   10 Jun 2027 11:22:29.421             0.329           164.500
       305   10 Jun 2027 11:23:21.944   10 Jun 2027 11:23:26.815             4.871          1917.687
       306   10 Jun 2027 11:24:23.922   10 Jun 2027 11:24:27.881             3.959          1450.344
       307   10 Jun 2027 11:25:13.880   10 Jun 2027 11:25:16.721             2.841          1420.500
       308   10 Jun 2027 11:26:02.952   10 Jun 2027 11:26:06.693             3.741          1448.406
       309   11 Jun 2027 03:32:20.770   11 Jun 2027 03:32:59.104            38.334         19167.000
       310   11 Jun 2027 03:44:53.867   11 Jun 2027 03:44:55.948             2.081          1040.500
       311   11 Jun 2027 05:06:09.257   11 Jun 2027 05:08:30.612           141.355         70677.500
       312   11 Jun 2027 05:09:23.715   11 Jun 2027 05:09:23.715             0.000             0.000
       313   11 Jun 2027 05:11:12.217   11 Jun 2027 05:11:16.267             4.050          2025.000
       314   11 Jun 2027 06:41:01.877   11 Jun 2027 06:41:24.816            22.939         11469.500
       315   11 Jun 2027 06:42:03.463   11 Jun 2027 06:43:22.663            79.200         39600.000
       316   11 Jun 2027 06:44:02.284   11 Jun 2027 06:44:02.284             0.000             0.000
       317   11 Jun 2027 06:46:51.989   11 Jun 2027 06:46:57.684             5.695          2847.500
       318   11 Jun 2027 06:48:01.931   11 Jun 2027 06:48:20.038            18.107          9053.500
       319   11 Jun 2027 06:49:58.920   11 Jun 2027 06:50:11.460            12.540          6270.000
       320   11 Jun 2027 06:50:36.471   11 Jun 2027 06:50:37.031             0.560           280.000
       321   11 Jun 2027 08:19:08.647   11 Jun 2027 08:19:41.649            33.002         16460.312
       322   11 Jun 2027 08:19:58.112   11 Jun 2027 08:20:02.322             4.210           467.062
       323   11 Jun 2027 08:20:50.433   11 Jun 2027 08:20:52.408             1.975           987.500
       324   11 Jun 2027 08:21:13.117   11 Jun 2027 08:21:15.516             2.399           883.125
       325   11 Jun 2027 08:21:53.702   11 Jun 2027 08:21:53.702             0.000             0.000
       326   11 Jun 2027 08:21:58.416   11 Jun 2027 08:21:59.006             0.590           295.000
       327   11 Jun 2027 08:22:34.792   11 Jun 2027 08:22:37.319             2.527          1263.500
       328   11 Jun 2027 08:23:01.175   11 Jun 2027 08:23:04.321             3.146          1495.625
       329   11 Jun 2027 08:23:21.425   11 Jun 2027 08:23:22.630             1.205           534.500
       330   11 Jun 2027 08:25:14.779   11 Jun 2027 08:25:24.200             9.421          3202.625
       331   11 Jun 2027 08:25:42.275   11 Jun 2027 08:25:43.663             1.388           415.125
       332   11 Jun 2027 08:26:09.181   11 Jun 2027 08:26:10.476             1.295           372.313
       333   11 Jun 2027 09:56:03.637   11 Jun 2027 09:56:22.839            19.202          9384.687
       334   11 Jun 2027 09:56:26.489   11 Jun 2027 09:56:29.808             3.319            91.438
       335   11 Jun 2027 09:56:40.185   11 Jun 2027 09:56:40.550             0.365           182.500
       336   11 Jun 2027 09:57:55.718   11 Jun 2027 09:58:01.639             5.921          2465.750
       337   11 Jun 2027 09:58:27.368   11 Jun 2027 09:58:29.096             1.728           713.781
       338   11 Jun 2027 09:58:55.197   11 Jun 2027 09:58:56.926             1.729           815.656
       339   11 Jun 2027 10:00:28.566   11 Jun 2027 10:00:34.526             5.960          2462.250
       340   11 Jun 2027 10:00:36.808   11 Jun 2027 10:00:37.830             1.022            71.313
       341   11 Jun 2027 10:01:49.312   11 Jun 2027 10:01:55.014             5.702          2223.656
       342   11 Jun 2027 10:02:13.117   11 Jun 2027 10:02:16.623             3.506           524.313
       343   11 Jun 2027 10:02:27.067   11 Jun 2027 10:02:27.978             0.911           285.719
       344   11 Jun 2027 11:33:11.191   11 Jun 2027 11:33:31.637            20.446          6599.844
       345   11 Jun 2027 11:33:37.487   11 Jun 2027 11:33:39.003             1.516           182.812
       346   11 Jun 2027 11:34:04.818   11 Jun 2027 11:34:09.128             4.310           806.719
       347   11 Jun 2027 11:34:20.115   11 Jun 2027 11:34:29.801             9.686           343.344
       348   11 Jun 2027 11:34:45.081   11 Jun 2027 11:34:48.555             3.474           392.937
       349   11 Jun 2027 11:35:54.740   11 Jun 2027 11:36:04.200             9.460          2026.781
       350   11 Jun 2027 11:36:17.751   11 Jun 2027 11:36:20.028             2.277           372.031
       351   11 Jun 2027 11:36:55.043   11 Jun 2027 11:36:58.180             3.137          1094.219
       352   11 Jun 2027 11:37:04.759   11 Jun 2027 11:37:06.290             1.531           205.594
       353   11 Jun 2027 11:37:24.413   11 Jun 2027 11:37:26.388             1.975           149.406
       354   12 Jun 2027 03:44:15.959   12 Jun 2027 03:45:00.708            44.749         22374.500
       355   12 Jun 2027 03:46:09.287   12 Jun 2027 03:46:09.287             0.000             0.000
       356   12 Jun 2027 05:20:30.871   12 Jun 2027 05:23:00.859           149.988         74994.000
       357   12 Jun 2027 06:54:03.221   12 Jun 2027 06:56:09.698           126.477         61590.719
       358   12 Jun 2027 06:58:16.603   12 Jun 2027 06:58:19.110             2.507          1253.500
       359   12 Jun 2027 07:00:55.300   12 Jun 2027 07:00:55.300             0.000             0.000
       360   12 Jun 2027 07:01:33.364   12 Jun 2027 07:01:41.676             8.312          4156.000
       361   12 Jun 2027 07:02:19.027   12 Jun 2027 07:02:26.171             7.144          3572.000
       362   12 Jun 2027 08:31:35.823   12 Jun 2027 08:32:00.588            24.765         11134.562
       363   12 Jun 2027 08:33:37.957   12 Jun 2027 08:33:40.790             2.833          1173.438
       364   12 Jun 2027 08:34:21.101   12 Jun 2027 08:34:28.598             7.497          1259.719
       365   12 Jun 2027 08:34:28.662   12 Jun 2027 08:34:29.404             0.742             2.000
       366   12 Jun 2027 08:34:36.966   12 Jun 2027 08:34:39.407             2.441           164.719
       367   12 Jun 2027 08:34:54.909   12 Jun 2027 08:34:55.414             0.505            44.719
       368   12 Jun 2027 08:35:18.967   12 Jun 2027 08:35:20.210             1.243           621.500
       369   12 Jun 2027 08:35:49.052   12 Jun 2027 08:35:54.966             5.914           953.906
       370   12 Jun 2027 08:35:56.432   12 Jun 2027 08:35:59.178             2.746            44.531
       371   12 Jun 2027 08:36:30.871   12 Jun 2027 08:36:34.639             3.768           990.406
       372   12 Jun 2027 08:37:00.541   12 Jun 2027 08:37:03.289             2.748           748.281
       373   12 Jun 2027 08:37:07.527   12 Jun 2027 08:37:07.527             0.000             0.000
       374   12 Jun 2027 10:08:46.457   12 Jun 2027 10:09:05.519            19.062          9433.719
       375   12 Jun 2027 10:10:26.079   12 Jun 2027 10:10:31.930             5.851          2011.594
       376   12 Jun 2027 10:11:17.290   12 Jun 2027 10:11:17.290             0.000             0.000
       377   12 Jun 2027 10:12:01.064   12 Jun 2027 10:12:10.110             9.046          2300.250
       378   12 Jun 2027 10:12:12.314   12 Jun 2027 10:12:14.372             2.058            41.312
       379   12 Jun 2027 10:12:19.673   12 Jun 2027 10:12:20.681             1.008           155.250
       380   12 Jun 2027 10:12:39.347   12 Jun 2027 10:12:48.145             8.798           431.375
       381   12 Jun 2027 10:13:18.322   12 Jun 2027 10:13:21.454             3.132           883.312
       382   12 Jun 2027 10:13:58.521   12 Jun 2027 10:14:02.959             4.438          1158.344
       383   12 Jun 2027 10:14:03.419   12 Jun 2027 10:14:03.581             0.162            14.375
       384   12 Jun 2027 11:45:24.930   12 Jun 2027 11:45:41.669            16.739          5761.187
       385   12 Jun 2027 11:46:42.097   12 Jun 2027 11:46:45.273             3.176          1457.375
       386   12 Jun 2027 11:47:47.903   12 Jun 2027 11:47:53.265             5.362          1933.344
       387   12 Jun 2027 11:48:54.476   12 Jun 2027 11:48:57.909             3.433          1631.937
       388   12 Jun 2027 11:49:35.703   12 Jun 2027 11:49:40.911             5.208           366.594
       389   12 Jun 2027 11:49:52.911   12 Jun 2027 11:49:53.772             0.861           144.063
       390   13 Jun 2027 03:56:07.746   13 Jun 2027 03:56:57.543            49.797         24898.500
       391   13 Jun 2027 05:32:34.933   13 Jun 2027 05:34:52.658           137.725         68862.500
       392   13 Jun 2027 07:04:42.961   13 Jun 2027 07:04:53.354            10.393          5196.500
       393   13 Jun 2027 07:06:41.946   13 Jun 2027 07:08:33.311           111.365         55682.500
       394   13 Jun 2027 07:09:08.496   13 Jun 2027 07:09:22.274            13.778          6723.469
       395   13 Jun 2027 07:10:47.656   13 Jun 2027 07:10:49.222             1.566           783.000
       396   13 Jun 2027 07:11:17.272   13 Jun 2027 07:11:17.272             0.000             0.000
       397   13 Jun 2027 07:11:46.551   13 Jun 2027 07:11:47.623             1.072           536.000
       398   13 Jun 2027 07:12:21.747   13 Jun 2027 07:12:35.344            13.597          4149.281
       399   13 Jun 2027 08:43:40.399   13 Jun 2027 08:44:03.597            23.198         11306.875
       400   13 Jun 2027 08:45:15.380   13 Jun 2027 08:45:22.249             6.869          2243.219
       401   13 Jun 2027 08:46:18.792   13 Jun 2027 08:46:24.710             5.918          1577.781
       402   13 Jun 2027 08:46:41.438   13 Jun 2027 08:46:41.878             0.440           205.219
       403   13 Jun 2027 08:47:42.630   13 Jun 2027 08:47:49.537             6.907          1819.906
       404   13 Jun 2027 08:47:51.480   13 Jun 2027 08:47:53.381             1.901            43.844
       405   13 Jun 2027 08:48:27.522   13 Jun 2027 08:48:30.658             3.136          1015.406
       406   13 Jun 2027 08:48:45.043   13 Jun 2027 08:48:46.488             1.445           449.531
       407   13 Jun 2027 08:49:32.582   13 Jun 2027 08:49:35.303             2.721          1271.250
       408   13 Jun 2027 10:21:11.427   13 Jun 2027 10:21:28.231            16.804          7551.906
       409   13 Jun 2027 10:22:55.222   13 Jun 2027 10:22:57.618             2.396          1079.000
       410   13 Jun 2027 10:23:58.463   13 Jun 2027 10:24:02.132             3.669          1447.375
       411   13 Jun 2027 10:24:10.183   13 Jun 2027 10:24:14.147             3.964           251.594
       412   13 Jun 2027 10:24:34.174   13 Jun 2027 10:24:37.715             3.541           625.844
       413   13 Jun 2027 10:24:37.758   13 Jun 2027 10:24:38.050             0.292             1.344
       414   13 Jun 2027 10:24:56.664   13 Jun 2027 10:24:58.421             1.757           513.219
       415   13 Jun 2027 10:25:23.329   13 Jun 2027 10:25:27.393             4.064           691.219
       416   13 Jun 2027 11:57:29.838   13 Jun 2027 11:57:45.936            16.098          8005.219
       417   13 Jun 2027 11:58:05.653   13 Jun 2027 11:58:10.564             4.911           373.562
       418   13 Jun 2027 11:58:30.589   13 Jun 2027 11:58:35.489             4.900           512.344
       419   13 Jun 2027 11:59:49.639   13 Jun 2027 11:59:55.453             5.814          1978.344
