uniorb/output/strategy_1/Camera/Camera_KinoSat_110602.txt

KinoSat_110602
-------------------------
    Access    *     Start Time (UTCG)     *     Stop Time (UTCG)  *   Duration (s) *   Data (Mbytes)
         1   01 Jun 2027 04:10:56.361   01 Jun 2027 04:11:51.458            55.097         27548.500
         2   01 Jun 2027 04:12:26.956   01 Jun 2027 04:13:05.682            38.726         19363.000
         3   01 Jun 2027 04:13:07.901   01 Jun 2027 04:13:21.893            13.992          6996.000
         4   01 Jun 2027 05:47:21.691   01 Jun 2027 05:49:39.095           137.404         68702.000
         5   01 Jun 2027 05:50:08.280   01 Jun 2027 05:50:22.707            14.427          7213.500
         6   01 Jun 2027 05:51:06.835   01 Jun 2027 05:51:26.787            19.952          9976.000
         7   01 Jun 2027 07:24:27.800   01 Jun 2027 07:25:31.438            63.638         31819.000
         8   01 Jun 2027 07:25:43.799   01 Jun 2027 07:27:15.790            91.991         45995.500
         9   01 Jun 2027 07:28:02.235   01 Jun 2027 07:28:11.523             9.288          4644.000
        10   01 Jun 2027 07:30:42.007   01 Jun 2027 07:30:44.787             2.780          1390.000
        11   01 Jun 2027 09:02:23.002   01 Jun 2027 09:04:26.290           123.288         61644.000
        12   01 Jun 2027 09:05:12.401   01 Jun 2027 09:05:17.244             4.843          2421.500
        13   01 Jun 2027 09:06:00.578   01 Jun 2027 09:06:06.760             6.182          3091.000
        14   01 Jun 2027 09:06:21.425   01 Jun 2027 09:06:21.629             0.204           102.000
        15   01 Jun 2027 10:35:28.805   01 Jun 2027 10:37:16.113           107.308         53654.000
        16   01 Jun 2027 10:37:30.385   01 Jun 2027 10:37:45.640            15.255          7627.500
        17   01 Jun 2027 10:41:16.092   01 Jun 2027 10:41:35.971            19.879          9939.500
        18   02 Jun 2027 04:22:05.932   02 Jun 2027 04:23:43.475            97.543         48771.500
        19   02 Jun 2027 04:23:55.130   02 Jun 2027 04:24:06.044            10.914          5457.000
        20   02 Jun 2027 04:24:13.502   02 Jun 2027 04:24:13.502             0.000             0.000
        21   02 Jun 2027 04:27:32.142   02 Jun 2027 04:27:35.800             3.658          1829.000
        22   02 Jun 2027 04:30:17.692   02 Jun 2027 04:30:32.673            14.981          7490.500
        23   02 Jun 2027 05:59:37.426   02 Jun 2027 06:01:18.932           101.506         50753.000
        24   02 Jun 2027 06:01:31.012   02 Jun 2027 06:01:34.487             3.475          1737.500
        25   02 Jun 2027 06:02:03.630   02 Jun 2027 06:02:11.465             7.835          3917.500
        26   02 Jun 2027 06:04:41.318   02 Jun 2027 06:04:48.986             7.668          3834.000
        27   02 Jun 2027 06:05:52.557   02 Jun 2027 06:06:02.255             9.698          4849.000
        28   02 Jun 2027 07:36:23.218   02 Jun 2027 07:37:57.277            94.059         47029.500
        29   02 Jun 2027 07:38:26.749   02 Jun 2027 07:39:22.452            55.703         27851.500
        30   02 Jun 2027 07:40:59.375   02 Jun 2027 07:41:02.603             3.228          1614.000
        31   02 Jun 2027 07:41:25.884   02 Jun 2027 07:41:26.116             0.232           116.000
        32   02 Jun 2027 07:42:19.287   02 Jun 2027 07:42:20.222             0.935           467.500
        33   02 Jun 2027 09:14:22.734   02 Jun 2027 09:16:39.837           137.103         68551.500
        34   02 Jun 2027 09:17:25.517   02 Jun 2027 09:17:39.162            13.645          6822.500
        35   02 Jun 2027 10:47:59.392   02 Jun 2027 10:49:41.962           102.570         51285.000
        36   02 Jun 2027 10:51:53.205   02 Jun 2027 10:51:56.263             3.058          1529.000
        37   02 Jun 2027 10:53:01.534   02 Jun 2027 10:53:07.942             6.408          3204.000
        38   02 Jun 2027 10:54:51.396   02 Jun 2027 10:55:02.204            10.808          5404.000
        39   03 Jun 2027 03:00:00.000   03 Jun 2027 03:00:02.969             2.969          1484.500
        40   03 Jun 2027 03:01:06.312   03 Jun 2027 03:01:18.210            11.898          5949.000
        41   03 Jun 2027 03:02:58.756   03 Jun 2027 03:03:11.330            12.574          6287.000
        42   03 Jun 2027 04:33:36.579   03 Jun 2027 04:33:37.548             0.969           484.500
        43   03 Jun 2027 04:34:11.848   03 Jun 2027 04:35:12.195            60.347         30173.500
        44   03 Jun 2027 04:35:56.643   03 Jun 2027 04:36:13.174            16.531          8265.500
        45   03 Jun 2027 04:37:39.733   03 Jun 2027 04:37:39.733             0.000             0.000
        46   03 Jun 2027 04:38:10.921   03 Jun 2027 04:38:25.939            15.018          7509.000
        47   03 Jun 2027 04:39:12.594   03 Jun 2027 04:39:29.774            17.180          8590.000
        48   03 Jun 2027 04:42:01.955   03 Jun 2027 04:42:15.845            13.890          6945.000
        49   03 Jun 2027 04:42:29.952   03 Jun 2027 04:42:44.380            14.428          7214.000
        50   03 Jun 2027 04:42:58.691   03 Jun 2027 04:42:58.937             0.246           123.000
        51   03 Jun 2027 06:11:32.215   03 Jun 2027 06:12:53.778            81.563         40781.500
        52   03 Jun 2027 06:14:34.886   03 Jun 2027 06:14:39.321             4.435          2217.500
        53   03 Jun 2027 06:14:53.227   03 Jun 2027 06:15:14.756            21.529         10764.500
        54   03 Jun 2027 06:18:46.497   03 Jun 2027 06:18:58.447            11.950          5975.000
        55   03 Jun 2027 07:48:19.635   03 Jun 2027 07:51:11.616           171.981         85990.500
        56   03 Jun 2027 09:26:10.050   03 Jun 2027 09:28:22.199           132.149         66074.500
        57   03 Jun 2027 09:30:18.854   03 Jun 2027 09:30:22.381             3.527          1763.500
        58   03 Jun 2027 11:02:08.619   03 Jun 2027 11:02:58.854            50.235         24937.001
        59   03 Jun 2027 11:03:17.172   03 Jun 2027 11:03:17.172             0.000             0.000
        60   03 Jun 2027 11:03:43.848   03 Jun 2027 11:03:48.299             4.451          1294.687
        61   03 Jun 2027 11:05:02.155   03 Jun 2027 11:05:06.578             4.423          2108.125
        62   03 Jun 2027 11:06:18.090   03 Jun 2027 11:06:25.713             7.623          2234.750
        63   04 Jun 2027 03:12:42.173   04 Jun 2027 03:12:44.788             2.615          1307.500
        64   04 Jun 2027 03:13:56.085   04 Jun 2027 03:14:05.434             9.349          4674.500
        65   04 Jun 2027 03:14:54.973   04 Jun 2027 03:15:00.640             5.667          2833.500
        66   04 Jun 2027 03:15:58.504   04 Jun 2027 03:16:00.065             1.561           780.500
        67   04 Jun 2027 03:16:01.653   04 Jun 2027 03:16:14.473            12.820          6410.000
        68   04 Jun 2027 04:46:29.931   04 Jun 2027 04:47:52.194            82.263         41131.500
        69   04 Jun 2027 04:48:04.637   04 Jun 2027 04:48:17.029            12.392          6196.000
        70   04 Jun 2027 04:48:32.071   04 Jun 2027 04:48:54.637            22.566         11283.000
        71   04 Jun 2027 04:50:41.463   04 Jun 2027 04:50:41.463             0.000             0.000
        72   04 Jun 2027 04:54:08.762   04 Jun 2027 04:54:09.517             0.755           377.500
        73   04 Jun 2027 04:54:40.708   04 Jun 2027 04:55:01.454            20.746         10373.000
        74   04 Jun 2027 06:23:43.862   04 Jun 2027 06:25:36.598           112.736         56368.000
        75   04 Jun 2027 06:26:23.996   04 Jun 2027 06:26:39.385            15.389          7694.500
        76   04 Jun 2027 08:00:56.348   04 Jun 2027 08:02:29.267            92.919         46459.500
        77   04 Jun 2027 08:03:02.447   04 Jun 2027 08:03:07.528             5.081          2540.500
        78   04 Jun 2027 08:04:53.003   04 Jun 2027 08:04:53.347             0.344           172.000
        79   04 Jun 2027 08:05:54.618   04 Jun 2027 08:06:06.778            12.160          5897.469
        80   04 Jun 2027 09:37:39.073   04 Jun 2027 09:38:05.124            26.051         11337.406
        81   04 Jun 2027 09:38:34.509   04 Jun 2027 09:38:37.113             2.604           918.281
        82   04 Jun 2027 09:39:20.602   04 Jun 2027 09:39:23.333             2.731           963.656
        83   04 Jun 2027 09:40:02.230   04 Jun 2027 09:40:04.963             2.733           889.750
        84   04 Jun 2027 09:40:55.688   04 Jun 2027 09:41:00.352             4.664           887.469
        85   04 Jun 2027 09:41:07.690   04 Jun 2027 09:41:08.345             0.655            45.469
        86   04 Jun 2027 09:41:46.977   04 Jun 2027 09:41:49.021             2.044           860.875
        87   04 Jun 2027 09:41:59.009   04 Jun 2027 09:42:03.716             4.707            82.094
        88   04 Jun 2027 09:42:21.970   04 Jun 2027 09:42:27.960             5.990           424.437
        89   04 Jun 2027 11:12:50.844   04 Jun 2027 11:12:57.711             6.867          2604.156
        90   04 Jun 2027 11:14:36.467   04 Jun 2027 11:14:42.837             6.370           952.594
        91   04 Jun 2027 11:14:55.589   04 Jun 2027 11:15:00.233             4.644           354.219
        92   04 Jun 2027 11:15:18.650   04 Jun 2027 11:15:20.211             1.561           525.250
        93   04 Jun 2027 11:16:07.016   04 Jun 2027 11:16:11.864             4.848          1189.469
        94   04 Jun 2027 11:17:04.098   04 Jun 2027 11:17:10.257             6.159          1447.469
        95   05 Jun 2027 03:24:56.030   05 Jun 2027 03:25:19.282            23.252         11626.000
        96   05 Jun 2027 03:26:49.519   05 Jun 2027 03:27:05.755            16.236          8118.000
        97   05 Jun 2027 04:59:01.132   05 Jun 2027 04:59:21.761            20.629         10314.500
        98   05 Jun 2027 05:00:02.419   05 Jun 2027 05:02:02.628           120.209         60104.500
        99   05 Jun 2027 05:02:34.790   05 Jun 2027 05:02:38.071             3.281          1640.500
       100   05 Jun 2027 05:03:49.621   05 Jun 2027 05:03:58.781             9.160          4580.000
       101   05 Jun 2027 05:04:09.144   05 Jun 2027 05:04:12.312             3.168          1584.000
       102   05 Jun 2027 05:05:18.329   05 Jun 2027 05:05:18.329             0.000             0.000
       103   05 Jun 2027 05:05:52.265   05 Jun 2027 05:05:53.765             1.500           750.000
       104   05 Jun 2027 06:36:05.349   05 Jun 2027 06:38:14.497           129.148         64574.000
       105   05 Jun 2027 08:13:03.020   05 Jun 2027 08:14:13.394            70.374         33492.656
       106   05 Jun 2027 08:15:10.229   05 Jun 2027 08:15:14.022             3.793          1655.219
       107   05 Jun 2027 08:16:13.710   05 Jun 2027 08:16:18.596             4.886          1860.969
       108   05 Jun 2027 08:17:05.817   05 Jun 2027 08:17:09.850             4.033          1311.125
       109   05 Jun 2027 09:49:48.982   05 Jun 2027 09:50:12.304            23.322         10626.656
       110   05 Jun 2027 09:51:37.606   05 Jun 2027 09:51:43.610             6.004          2592.781
       111   05 Jun 2027 09:52:29.109   05 Jun 2027 09:52:38.132             9.023           827.594
       112   05 Jun 2027 09:53:07.543   05 Jun 2027 09:53:14.808             7.265           352.281
       113   05 Jun 2027 09:53:17.940   05 Jun 2027 09:53:18.854             0.914            62.906
       114   05 Jun 2027 11:28:00.523   05 Jun 2027 11:28:07.104             6.581          2330.531
       115   05 Jun 2027 11:28:29.209   05 Jun 2027 11:28:30.579             1.370           391.656
       116   06 Jun 2027 03:37:02.796   06 Jun 2027 03:37:47.817            45.021         22510.500
       117   06 Jun 2027 05:12:10.497   06 Jun 2027 05:14:34.233           143.736         71868.000
       118   06 Jun 2027 05:14:35.189   06 Jun 2027 05:14:38.927             3.738          1869.000
       119   06 Jun 2027 05:15:04.537   06 Jun 2027 05:15:12.312             7.775          3887.500
       120   06 Jun 2027 05:16:13.324   06 Jun 2027 05:16:19.818             6.494          3247.000
       121   06 Jun 2027 05:17:19.352   06 Jun 2027 05:17:19.352             0.000             0.000
       122   06 Jun 2027 05:18:36.978   06 Jun 2027 05:18:48.018            11.040          5520.000
       123   06 Jun 2027 06:48:31.496   06 Jun 2027 06:50:00.859            89.363         44681.500
       124   06 Jun 2027 06:50:40.562   06 Jun 2027 06:51:14.106            33.544         16772.000
       125   06 Jun 2027 06:52:02.069   06 Jun 2027 06:52:03.067             0.998           499.000
       126   06 Jun 2027 06:52:39.992   06 Jun 2027 06:52:52.860            12.868          3349.750
       127   06 Jun 2027 08:26:04.644   06 Jun 2027 08:26:43.637            38.993         18318.469
       128   06 Jun 2027 08:27:07.330   06 Jun 2027 08:27:11.321             3.991           740.406
       129   06 Jun 2027 08:27:32.624   06 Jun 2027 08:27:37.887             5.263           665.719
       130   06 Jun 2027 08:27:50.123   06 Jun 2027 08:27:50.811             0.688           323.687
       131   06 Jun 2027 08:28:05.489   06 Jun 2027 08:28:15.737            10.248           458.687
       132   06 Jun 2027 08:29:26.069   06 Jun 2027 08:29:33.378             7.309          2197.875
       133   06 Jun 2027 08:29:49.232   06 Jun 2027 08:29:50.972             1.740           261.375
       134   06 Jun 2027 10:02:08.447   06 Jun 2027 10:02:28.782            20.335          8067.375
       135   06 Jun 2027 10:02:37.305   06 Jun 2027 10:02:41.025             3.720           241.656
       136   06 Jun 2027 10:03:18.309   06 Jun 2027 10:03:20.919             2.610          1025.156
       137   06 Jun 2027 10:03:50.310   06 Jun 2027 10:03:54.094             3.784           918.469
       138   06 Jun 2027 10:04:21.009   06 Jun 2027 10:04:21.009             0.000             0.000
       139   06 Jun 2027 10:05:03.571   06 Jun 2027 10:05:07.838             4.267          1883.875
       140   06 Jun 2027 10:05:16.894   06 Jun 2027 10:05:20.508             3.614           201.219
       141   06 Jun 2027 10:05:51.500   06 Jun 2027 10:06:01.058             9.558           899.375
       142   07 Jun 2027 03:49:12.081   07 Jun 2027 03:50:04.236            52.155         26077.500
       143   07 Jun 2027 03:51:06.019   07 Jun 2027 03:51:06.019             0.000             0.000
       144   07 Jun 2027 03:52:02.396   07 Jun 2027 03:52:02.396             0.000             0.000
       145   07 Jun 2027 03:52:12.797   07 Jun 2027 03:52:21.704             8.907          4453.500
       146   07 Jun 2027 03:52:38.191   07 Jun 2027 03:52:38.191             0.000             0.000
       147   07 Jun 2027 05:24:22.074   07 Jun 2027 05:26:38.030           135.956         67978.000
       148   07 Jun 2027 05:27:00.209   07 Jun 2027 05:27:07.581             7.372          3686.000
       149   07 Jun 2027 05:29:44.367   07 Jun 2027 05:29:44.367             0.000             0.000
       150   07 Jun 2027 05:30:08.933   07 Jun 2027 05:30:30.186            21.253         10626.500
       151   07 Jun 2027 07:00:39.339   07 Jun 2027 07:02:48.316           128.977         64488.500
       152   07 Jun 2027 08:38:11.049   07 Jun 2027 08:38:41.963            30.914         15266.844
       153   07 Jun 2027 08:39:17.205   07 Jun 2027 08:39:25.243             8.038           475.563
       154   07 Jun 2027 08:39:30.915   07 Jun 2027 08:39:33.141             2.226           177.250
       155   07 Jun 2027 08:40:21.820   07 Jun 2027 08:40:29.207             7.387          1521.219
       156   07 Jun 2027 08:41:15.749   07 Jun 2027 08:41:29.259            13.510          1454.438
       157   07 Jun 2027 08:41:39.717   07 Jun 2027 08:41:43.483             3.766           285.000
       158   07 Jun 2027 08:41:49.708   07 Jun 2027 08:41:51.552             1.844           146.031
       159   07 Jun 2027 08:42:38.851   07 Jun 2027 08:42:41.213             2.362          1012.469
       160   07 Jun 2027 10:14:11.843   07 Jun 2027 10:14:28.599            16.756          8269.344
       161   07 Jun 2027 10:15:14.991   07 Jun 2027 10:15:18.434             3.443          1449.750
       162   07 Jun 2027 10:15:25.289   07 Jun 2027 10:15:28.465             3.176           214.219
       163   07 Jun 2027 10:15:37.404   07 Jun 2027 10:15:37.414             0.010             5.000
       164   07 Jun 2027 10:15:39.182   07 Jun 2027 10:15:39.939             0.757           303.531
       165   07 Jun 2027 10:16:50.963   07 Jun 2027 10:16:54.504             3.541          1462.500
       166   07 Jun 2027 10:17:22.973   07 Jun 2027 10:17:24.395             1.422           366.125
       167   07 Jun 2027 10:18:12.847   07 Jun 2027 10:18:15.813             2.966           941.469
       168   07 Jun 2027 10:19:00.832   07 Jun 2027 10:19:03.693             2.861          1406.844
       169   08 Jun 2027 04:00:55.893   08 Jun 2027 04:01:56.941            61.048         30524.000
       170   08 Jun 2027 04:04:38.250   08 Jun 2027 04:05:06.403            28.153         14076.500
       171   08 Jun 2027 05:35:49.925   08 Jun 2027 05:37:59.024           129.099         64549.500
       172   08 Jun 2027 05:39:44.092   08 Jun 2027 05:40:11.509            27.417         13708.500
       173   08 Jun 2027 05:42:33.500   08 Jun 2027 05:42:37.599             4.099          2049.500
       174   08 Jun 2027 05:42:58.402   08 Jun 2027 05:43:01.782             3.380          1690.000
       175   08 Jun 2027 07:12:22.698   08 Jun 2027 07:14:47.344           144.646         71430.188
       176   08 Jun 2027 07:16:02.889   08 Jun 2027 07:16:07.120             4.231          2115.500
       177   08 Jun 2027 07:17:18.110   08 Jun 2027 07:17:25.971             7.861          2389.250
       178   08 Jun 2027 08:50:39.938   08 Jun 2027 08:51:11.797            31.859         15745.687
       179   08 Jun 2027 08:51:18.849   08 Jun 2027 08:51:21.617             2.768            27.438
       180   08 Jun 2027 08:51:50.074   08 Jun 2027 08:51:51.652             1.578           604.844
       181   08 Jun 2027 08:52:30.202   08 Jun 2027 08:52:36.050             5.848          1079.875
       182   08 Jun 2027 08:53:07.008   08 Jun 2027 08:53:07.541             0.533           266.500
       183   08 Jun 2027 08:53:12.516   08 Jun 2027 08:53:14.814             2.298           856.406
       184   08 Jun 2027 08:53:35.539   08 Jun 2027 08:53:37.866             2.327           351.875
       185   08 Jun 2027 10:26:01.101   08 Jun 2027 10:26:16.025            14.924          7081.531
       186   08 Jun 2027 10:27:13.469   08 Jun 2027 10:27:14.681             1.212           606.000
       187   08 Jun 2027 10:27:16.054   08 Jun 2027 10:27:17.579             1.525           762.500
       188   08 Jun 2027 10:27:52.646   08 Jun 2027 10:27:56.146             3.500          1434.219
       189   08 Jun 2027 10:28:05.243   08 Jun 2027 10:28:05.243             0.000             0.000
       190   08 Jun 2027 10:28:38.229   08 Jun 2027 10:28:41.855             3.626          1114.500
       191   08 Jun 2027 10:29:00.347   08 Jun 2027 10:29:00.987             0.640           320.000
       192   08 Jun 2027 10:29:46.973   08 Jun 2027 10:29:51.363             4.390          1658.031
       193   08 Jun 2027 10:30:58.553   08 Jun 2027 10:31:01.208             2.655          1327.500
       194   09 Jun 2027 04:11:10.343   09 Jun 2027 04:12:06.106            55.763         27881.500
       195   09 Jun 2027 04:12:41.357   09 Jun 2027 04:12:47.209             5.852          2926.000
       196   09 Jun 2027 04:16:25.733   09 Jun 2027 04:16:27.067             1.334           667.000
       197   09 Jun 2027 04:16:34.692   09 Jun 2027 04:16:41.604             6.912          3456.000
       198   09 Jun 2027 04:17:13.456   09 Jun 2027 04:17:13.929             0.473           236.500
       199   09 Jun 2027 05:47:36.608   09 Jun 2027 05:49:54.282           137.674         68837.000
       200   09 Jun 2027 05:52:14.406   09 Jun 2027 05:52:19.980             5.574          2787.000
       201   09 Jun 2027 05:53:03.765   09 Jun 2027 05:53:12.591             8.826          4413.000
       202   09 Jun 2027 05:54:29.596   09 Jun 2027 05:54:30.861             1.265           632.500
       203   09 Jun 2027 05:55:07.016   09 Jun 2027 05:55:08.422             1.406           703.000
       204   09 Jun 2027 07:24:43.022   09 Jun 2027 07:26:47.206           124.184         62092.000
       205   09 Jun 2027 07:27:30.424   09 Jun 2027 07:27:37.657             7.233          3616.500
       206   09 Jun 2027 07:27:41.799   09 Jun 2027 07:27:46.389             4.590          2165.219
       207   09 Jun 2027 07:29:53.533   09 Jun 2027 07:30:03.175             9.642          3940.313
       208   09 Jun 2027 07:30:27.327   09 Jun 2027 07:30:30.535             3.208           456.719
       209   09 Jun 2027 07:30:39.185   09 Jun 2027 07:30:39.622             0.437           157.438
       210   09 Jun 2027 07:30:46.139   09 Jun 2027 07:30:46.732             0.593           104.469
       211   09 Jun 2027 09:02:37.719   09 Jun 2027 09:03:06.252            28.533         13743.500
       212   09 Jun 2027 09:03:49.441   09 Jun 2027 09:03:52.076             2.635           903.250
       213   09 Jun 2027 09:04:26.426   09 Jun 2027 09:04:28.759             2.333          1073.437
       214   09 Jun 2027 09:04:54.935   09 Jun 2027 09:04:58.841             3.906           434.781
       215   09 Jun 2027 09:05:09.116   09 Jun 2027 09:05:10.407             1.291           143.219
       216   09 Jun 2027 09:05:28.259   09 Jun 2027 09:05:28.868             0.609           264.250
       217   09 Jun 2027 09:06:17.413   09 Jun 2027 09:06:21.656             4.243          1425.563
       218   09 Jun 2027 09:06:35.962   09 Jun 2027 09:06:36.532             0.570           285.000
       219   09 Jun 2027 10:35:43.754   09 Jun 2027 10:36:02.963            19.209          5757.594
       220   09 Jun 2027 10:37:11.046   09 Jun 2027 10:37:15.709             4.663          1074.875
       221   09 Jun 2027 10:38:00.868   09 Jun 2027 10:38:04.697             3.829          1411.219
       222   09 Jun 2027 10:38:14.167   09 Jun 2027 10:38:16.408             2.241           295.937
       223   09 Jun 2027 10:39:40.279   09 Jun 2027 10:39:45.892             5.613          1719.781
       224   09 Jun 2027 10:40:32.192   09 Jun 2027 10:40:32.192             0.000             0.000
       225   09 Jun 2027 10:40:50.069   09 Jun 2027 10:40:53.102             3.033          1362.094
       226   09 Jun 2027 10:41:50.749   09 Jun 2027 10:41:53.872             3.123          1529.750
       227   09 Jun 2027 10:42:56.784   09 Jun 2027 10:43:06.729             9.945          1966.000
       228   09 Jun 2027 10:43:42.564   09 Jun 2027 10:43:43.668             1.104           552.000
       229   10 Jun 2027 04:22:19.767   10 Jun 2027 04:24:09.430           109.663         54831.500
       230   10 Jun 2027 04:24:27.668   10 Jun 2027 04:24:33.600             5.932          2966.000
       231   10 Jun 2027 04:26:45.966   10 Jun 2027 04:26:59.400            13.434          6717.000
       232   10 Jun 2027 04:30:32.495   10 Jun 2027 04:30:38.051             5.556          2778.000
       233   10 Jun 2027 05:59:51.911   10 Jun 2027 06:01:46.375           114.464         57232.000
       234   10 Jun 2027 06:06:01.638   10 Jun 2027 06:06:05.774             4.136          2068.000
       235   10 Jun 2027 07:36:37.970   10 Jun 2027 07:38:33.287           115.317         57658.500
       236   10 Jun 2027 07:38:49.899   10 Jun 2027 07:39:08.140            18.241          8686.812
       237   10 Jun 2027 07:40:04.175   10 Jun 2027 07:40:04.175             0.000             0.000
       238   10 Jun 2027 07:40:49.250   10 Jun 2027 07:40:55.730             6.480          3137.781
       239   10 Jun 2027 07:41:40.942   10 Jun 2027 07:41:41.109             0.167            83.500
       240   10 Jun 2027 07:42:15.300   10 Jun 2027 07:42:21.794             6.494          2397.844
       241   10 Jun 2027 09:14:37.735   10 Jun 2027 09:15:01.990            24.255         11048.000
       242   10 Jun 2027 09:15:16.339   10 Jun 2027 09:15:22.244             5.905           170.625
       243   10 Jun 2027 09:15:32.652   10 Jun 2027 09:15:34.594             1.942           325.250
       244   10 Jun 2027 09:15:41.715   10 Jun 2027 09:15:48.349             6.634           162.687
       245   10 Jun 2027 09:16:02.843   10 Jun 2027 09:16:02.843             0.000             0.000
       246   10 Jun 2027 09:16:16.966   10 Jun 2027 09:16:21.188             4.222           894.281
       247   10 Jun 2027 09:16:42.310   10 Jun 2027 09:16:43.929             1.619           660.062
       248   10 Jun 2027 09:16:56.627   10 Jun 2027 09:16:59.352             2.725           198.438
       249   10 Jun 2027 09:17:38.697   10 Jun 2027 09:17:40.188             1.491           369.156
       250   10 Jun 2027 09:17:40.563   10 Jun 2027 09:17:41.959             1.396            11.719
       251   10 Jun 2027 09:18:07.129   10 Jun 2027 09:18:09.536             2.407           266.969
       252   10 Jun 2027 09:18:12.009   10 Jun 2027 09:18:19.986             7.977            69.344
       253   10 Jun 2027 10:48:14.042   10 Jun 2027 10:48:22.406             8.364          1713.531
       254   10 Jun 2027 10:48:54.394   10 Jun 2027 10:48:56.645             2.251           245.656
       255   10 Jun 2027 10:49:21.941   10 Jun 2027 10:49:21.941             0.000             0.000
       256   10 Jun 2027 10:49:57.927   10 Jun 2027 10:50:05.058             7.131          1336.281
       257   10 Jun 2027 10:50:26.160   10 Jun 2027 10:50:32.028             5.868           548.875
       258   10 Jun 2027 10:51:15.119   10 Jun 2027 10:51:17.263             2.144           905.406
       259   10 Jun 2027 10:51:30.258   10 Jun 2027 10:51:31.418             1.160           406.094
       260   10 Jun 2027 10:53:01.933   10 Jun 2027 10:53:06.094             4.161          1992.687
       261   10 Jun 2027 10:54:06.366   10 Jun 2027 10:54:12.400             6.034          1561.906
       262   10 Jun 2027 10:54:55.489   10 Jun 2027 10:54:55.910             0.421           210.500
       263   11 Jun 2027 03:00:53.620   11 Jun 2027 03:00:56.014             2.394          1197.000
       264   11 Jun 2027 03:01:20.786   11 Jun 2027 03:01:33.266            12.480          6240.000
       265   11 Jun 2027 03:02:56.919   11 Jun 2027 03:03:02.731             5.812          2906.000
       266   11 Jun 2027 03:04:15.165   11 Jun 2027 03:04:26.789            11.624          5812.000
       267   11 Jun 2027 04:33:50.811   11 Jun 2027 04:35:00.290            69.479         34739.500
       268   11 Jun 2027 04:35:28.945   11 Jun 2027 04:36:07.512            38.567         19283.500
       269   11 Jun 2027 04:41:48.610   11 Jun 2027 04:41:56.400             7.790          3895.000
       270   11 Jun 2027 04:42:43.756   11 Jun 2027 04:42:59.961            16.205          8102.500
       271   11 Jun 2027 06:11:46.796   11 Jun 2027 06:13:16.838            90.042         45021.000
       272   11 Jun 2027 06:13:37.575   11 Jun 2027 06:13:46.865             9.290          4645.000
       273   11 Jun 2027 06:14:33.118   11 Jun 2027 06:14:38.154             5.036          2518.000
       274   11 Jun 2027 06:14:54.976   11 Jun 2027 06:15:08.584            13.608          6804.000
       275   11 Jun 2027 06:16:16.959   11 Jun 2027 06:16:26.687             9.728          4864.000
       276   11 Jun 2027 06:17:34.220   11 Jun 2027 06:17:41.918             7.698          3849.000
       277   11 Jun 2027 06:18:42.363   11 Jun 2027 06:18:47.398             5.035          2517.500
       278   11 Jun 2027 07:48:34.562   11 Jun 2027 07:49:07.279            32.717         16358.500
       279   11 Jun 2027 07:49:07.444   11 Jun 2027 07:50:17.738            70.294         34730.249
       280   11 Jun 2027 07:50:33.802   11 Jun 2027 07:50:35.346             1.544           502.000
       281   11 Jun 2027 07:51:26.025   11 Jun 2027 07:51:26.459             0.434           217.000
       282   11 Jun 2027 07:51:31.082   11 Jun 2027 07:51:31.302             0.220           110.000
       283   11 Jun 2027 07:53:39.919   11 Jun 2027 07:53:50.982            11.063          5010.125
       284   11 Jun 2027 07:54:01.606   11 Jun 2027 07:54:02.488             0.882           194.438
       285   11 Jun 2027 09:26:24.838   11 Jun 2027 09:26:44.486            19.648          9824.000
       286   11 Jun 2027 09:27:18.717   11 Jun 2027 09:27:22.952             4.235          1405.688
       287   11 Jun 2027 09:27:23.932   11 Jun 2027 09:27:25.897             1.965            30.625
       288   11 Jun 2027 09:28:58.603   11 Jun 2027 09:29:03.292             4.689          1970.219
       289   11 Jun 2027 09:29:13.590   11 Jun 2027 09:29:15.932             2.342           321.812
       290   11 Jun 2027 09:29:42.279   11 Jun 2027 09:29:50.270             7.991           809.688
       291   11 Jun 2027 09:30:15.609   11 Jun 2027 09:30:15.609             0.000             0.000
       292   11 Jun 2027 09:30:33.491   11 Jun 2027 09:30:36.807             3.316          1166.844
       293   11 Jun 2027 09:30:37.376   11 Jun 2027 09:30:40.601             3.225            17.781
       294   11 Jun 2027 11:02:23.558   11 Jun 2027 11:02:29.149             5.591          2677.219
       295   11 Jun 2027 11:02:53.256   11 Jun 2027 11:02:53.980             0.724           153.625
       296   11 Jun 2027 11:03:06.974   11 Jun 2027 11:03:08.028             1.054           406.063
       297   11 Jun 2027 11:03:29.921   11 Jun 2027 11:03:31.463             1.542           395.938
       298   11 Jun 2027 11:04:00.485   11 Jun 2027 11:04:04.145             3.660           895.469
       299   11 Jun 2027 11:04:12.761   11 Jun 2027 11:04:16.982             4.221           106.375
       300   11 Jun 2027 11:05:17.008   11 Jun 2027 11:05:21.321             4.313          1418.625
       301   11 Jun 2027 11:06:33.105   11 Jun 2027 11:06:38.714             5.609          2209.656
       302   12 Jun 2027 03:12:56.852   12 Jun 2027 03:13:36.838            39.986         19993.000
       303   12 Jun 2027 04:46:44.360   12 Jun 2027 04:48:32.292           107.932         53966.000
       304   12 Jun 2027 04:48:47.030   12 Jun 2027 04:49:10.140            23.110         11555.000
       305   12 Jun 2027 04:52:27.823   12 Jun 2027 04:52:31.571             3.748          1874.000
       306   12 Jun 2027 04:54:11.991   12 Jun 2027 04:54:17.294             5.303          2651.500
       307   12 Jun 2027 04:55:15.234   12 Jun 2027 04:55:16.101             0.867           433.500
       308   12 Jun 2027 06:23:58.881   12 Jun 2027 06:26:04.068           125.187         62593.500
       309   12 Jun 2027 06:27:49.634   12 Jun 2027 06:27:55.759             6.125          3062.500
       310   12 Jun 2027 06:28:11.081   12 Jun 2027 06:28:14.134             3.053          1526.500
       311   12 Jun 2027 06:28:45.595   12 Jun 2027 06:28:53.515             7.920          3960.000
       312   12 Jun 2027 06:29:23.376   12 Jun 2027 06:29:35.895            12.519          6259.500
       313   12 Jun 2027 08:01:11.137   12 Jun 2027 08:02:06.241            55.104         27537.500
       314   12 Jun 2027 08:02:27.736   12 Jun 2027 08:02:29.348             1.612           671.719
       315   12 Jun 2027 08:02:48.261   12 Jun 2027 08:02:52.566             4.305           589.469
       316   12 Jun 2027 08:03:30.292   12 Jun 2027 08:03:33.017             2.725           766.938
       317   12 Jun 2027 08:04:17.448   12 Jun 2027 08:04:26.605             9.157          1284.063
       318   12 Jun 2027 08:04:57.092   12 Jun 2027 08:04:59.124             2.032           952.719
       319   12 Jun 2027 08:06:21.511   12 Jun 2027 08:06:26.747             5.236          2574.594
       320   12 Jun 2027 09:37:54.014   12 Jun 2027 09:38:12.787            18.773          8979.969
       321   12 Jun 2027 09:38:50.741   12 Jun 2027 09:38:56.076             5.335           895.250
       322   12 Jun 2027 09:39:25.574   12 Jun 2027 09:39:25.984             0.410           205.000
       323   12 Jun 2027 09:40:09.871   12 Jun 2027 09:40:16.878             7.007          1793.781
       324   12 Jun 2027 09:41:05.753   12 Jun 2027 09:41:06.760             1.007           503.500
       325   12 Jun 2027 09:41:41.683   12 Jun 2027 09:41:46.370             4.687          2115.187
       326   12 Jun 2027 09:41:59.362   12 Jun 2027 09:41:59.744             0.382            38.219
       327   12 Jun 2027 09:42:37.396   12 Jun 2027 09:42:42.589             5.193          1073.781
       328   12 Jun 2027 11:13:07.446   12 Jun 2027 11:13:09.861             2.415          1207.500
       329   12 Jun 2027 11:14:51.109   12 Jun 2027 11:14:58.834             7.725          1651.125
       330   12 Jun 2027 11:15:16.665   12 Jun 2027 11:15:17.376             0.711           350.375
       331   12 Jun 2027 11:15:33.307   12 Jun 2027 11:15:33.307             0.000             0.000
       332   12 Jun 2027 11:15:48.431   12 Jun 2027 11:15:50.946             2.515           747.812
       333   12 Jun 2027 11:16:10.933   12 Jun 2027 11:16:13.023             2.090           205.250
       334   12 Jun 2027 11:16:33.145   12 Jun 2027 11:16:46.610            13.465           312.000
       335   12 Jun 2027 11:17:22.429   12 Jun 2027 11:17:25.911             3.482           735.594
       336   13 Jun 2027 03:25:11.135   13 Jun 2027 03:25:42.434            31.299         15649.500
       337   13 Jun 2027 03:27:21.124   13 Jun 2027 03:27:21.124             0.000             0.000
       338   13 Jun 2027 03:27:32.399   13 Jun 2027 03:27:32.399             0.000             0.000
       339   13 Jun 2027 04:57:30.187   13 Jun 2027 04:58:03.557            33.370         16685.000
       340   13 Jun 2027 04:59:15.759   13 Jun 2027 04:59:34.657            18.898          9449.000
       341   13 Jun 2027 05:00:25.605   13 Jun 2027 05:01:57.789            92.184         46092.000
       342   13 Jun 2027 05:02:05.393   13 Jun 2027 05:02:06.259             0.866           433.000
       343   13 Jun 2027 05:02:21.444   13 Jun 2027 05:02:21.444             0.000             0.000
       344   13 Jun 2027 05:02:31.865   13 Jun 2027 05:02:44.238            12.373          6186.500
       345   13 Jun 2027 05:05:45.148   13 Jun 2027 05:05:56.610            11.462          5731.000
       346   13 Jun 2027 05:07:11.055   13 Jun 2027 05:07:12.343             1.288           644.000
       347   13 Jun 2027 06:36:19.838   13 Jun 2027 06:38:30.292           130.454         65227.000
       348   13 Jun 2027 08:13:17.727   13 Jun 2027 08:14:18.884            61.157         30494.562
       349   13 Jun 2027 08:14:37.735   13 Jun 2027 08:14:41.891             4.156           480.844
       350   13 Jun 2027 08:14:52.617   13 Jun 2027 08:14:54.596             1.979           335.188
       351   13 Jun 2027 08:15:12.204   13 Jun 2027 08:15:14.061             1.857           550.250
       352   13 Jun 2027 08:16:07.344   13 Jun 2027 08:16:12.814             5.470          1665.094
       353   13 Jun 2027 08:17:52.220   13 Jun 2027 08:17:56.773             4.553          2276.500
       354   13 Jun 2027 09:50:03.413   13 Jun 2027 09:50:24.357            20.944         10337.719
       355   13 Jun 2027 09:51:27.131   13 Jun 2027 09:51:30.307             3.176          1535.813
       356   13 Jun 2027 09:52:06.185   13 Jun 2027 09:52:09.833             3.648          1121.187
       357   13 Jun 2027 09:52:45.433   13 Jun 2027 09:52:50.326             4.893           879.844
       358   13 Jun 2027 09:53:14.643   13 Jun 2027 09:53:15.063             0.420            98.844
       359   13 Jun 2027 09:53:50.742   13 Jun 2027 09:53:53.903             3.161           568.250
       360   13 Jun 2027 09:54:42.785   13 Jun 2027 09:54:42.852             0.067            33.500
       361   13 Jun 2027 11:28:14.988   13 Jun 2027 11:28:22.959             7.971          2132.750
       362   13 Jun 2027 11:28:43.908   13 Jun 2027 11:28:46.611             2.703           348.406
