uniorb/output/strategy_1/Camera/Camera_KinoSat_110907.txt

KinoSat_110907
-------------------------
    Access    *     Start Time (UTCG)     *     Stop Time (UTCG)  *   Duration (s) *   Data (Mbytes)
         1   01 Jun 2027 03:11:59.260   01 Jun 2027 03:13:02.893            63.633         31816.500
         2   01 Jun 2027 03:13:27.124   01 Jun 2027 03:13:34.003             6.879          3439.500
         3   01 Jun 2027 03:13:49.494   01 Jun 2027 03:13:52.608             3.114          1557.000
         4   01 Jun 2027 04:47:58.350   01 Jun 2027 04:49:32.374            94.024         47012.000
         5   01 Jun 2027 04:50:35.429   01 Jun 2027 04:50:35.429             0.000             0.000
         6   01 Jun 2027 04:50:51.728   01 Jun 2027 04:51:02.895            11.167          5583.500
         7   01 Jun 2027 04:51:20.420   01 Jun 2027 04:51:38.627            18.207          9103.500
         8   01 Jun 2027 06:21:44.833   01 Jun 2027 06:23:29.352           104.519         52259.500
         9   01 Jun 2027 06:24:24.561   01 Jun 2027 06:24:27.212             2.651          1325.500
        10   01 Jun 2027 06:24:48.567   01 Jun 2027 06:24:48.857             0.290           145.000
        11   01 Jun 2027 06:26:58.713   01 Jun 2027 06:27:04.081             5.368          2684.000
        12   01 Jun 2027 06:27:50.718   01 Jun 2027 06:28:02.916            12.198          6099.000
        13   01 Jun 2027 06:28:37.322   01 Jun 2027 06:28:42.304             4.982          2491.000
        14   01 Jun 2027 06:29:45.024   01 Jun 2027 06:29:49.743             4.719          2359.500
        15   01 Jun 2027 06:29:55.202   01 Jun 2027 06:30:08.554            13.352          6676.000
        16   01 Jun 2027 06:30:16.562   01 Jun 2027 06:30:17.491             0.929           464.500
        17   01 Jun 2027 07:59:02.572   01 Jun 2027 08:00:50.923           108.351         54175.500
        18   01 Jun 2027 08:02:33.635   01 Jun 2027 08:02:33.635             0.000             0.000
        19   01 Jun 2027 08:02:35.732   01 Jun 2027 08:02:45.864            10.132          5066.000
        20   01 Jun 2027 08:03:43.773   01 Jun 2027 08:04:00.126            16.353          8176.500
        21   01 Jun 2027 08:04:43.996   01 Jun 2027 08:04:45.035             1.039           519.500
        22   01 Jun 2027 08:05:28.973   01 Jun 2027 08:05:32.192             3.219          1609.500
        23   01 Jun 2027 09:36:12.035   01 Jun 2027 09:38:03.363           111.328         55664.000
        24   01 Jun 2027 09:39:09.905   01 Jun 2027 09:39:14.596             4.691          2345.500
        25   01 Jun 2027 09:39:46.739   01 Jun 2027 09:40:02.184            15.445          7722.500
        26   01 Jun 2027 09:40:07.054   01 Jun 2027 09:40:14.634             7.580          3790.000
        27   01 Jun 2027 11:12:55.994   01 Jun 2027 11:15:16.356           140.362         70181.000
        28   01 Jun 2027 11:17:19.720   01 Jun 2027 11:17:27.892             8.172          4086.000
        29   02 Jun 2027 03:23:50.552   02 Jun 2027 03:24:00.478             9.926          4963.000
        30   02 Jun 2027 03:26:08.077   02 Jun 2027 03:26:15.942             7.865          3932.500
        31   02 Jun 2027 05:00:12.645   02 Jun 2027 05:02:41.010           148.365         74182.500
        32   02 Jun 2027 05:02:45.216   02 Jun 2027 05:02:51.565             6.349          3174.500
        33   02 Jun 2027 06:32:29.702   02 Jun 2027 06:32:49.037            19.335          9667.500
        34   02 Jun 2027 06:34:16.705   02 Jun 2027 06:35:37.160            80.455         40227.500
        35   02 Jun 2027 06:37:07.158   02 Jun 2027 06:37:23.280            16.122          8061.000
        36   02 Jun 2027 06:38:21.929   02 Jun 2027 06:38:23.761             1.832           916.000
        37   02 Jun 2027 06:38:42.055   02 Jun 2027 06:38:48.121             6.066          3033.000
        38   02 Jun 2027 06:42:02.068   02 Jun 2027 06:42:12.257            10.189          5094.500
        39   02 Jun 2027 08:11:21.084   02 Jun 2027 08:13:41.025           139.941         69970.500
        40   02 Jun 2027 08:15:01.519   02 Jun 2027 08:15:15.663            14.144          7072.000
        41   02 Jun 2027 08:16:57.999   02 Jun 2027 08:17:08.399            10.400          5200.000
        42   02 Jun 2027 09:48:17.457   02 Jun 2027 09:50:11.499           114.042         57021.000
        43   02 Jun 2027 09:50:42.161   02 Jun 2027 09:50:56.592            14.431          7215.500
        44   02 Jun 2027 09:52:50.684   02 Jun 2027 09:52:55.013             4.329          2164.500
        45   02 Jun 2027 09:53:03.045   02 Jun 2027 09:53:04.193             1.148           574.000
        46   02 Jun 2027 11:25:04.035   02 Jun 2027 11:26:51.684           107.649         53824.500
        47   02 Jun 2027 11:27:05.145   02 Jun 2027 11:27:18.650            13.505          6752.500
        48   03 Jun 2027 03:35:54.012   03 Jun 2027 03:36:04.940            10.928          5464.000
        49   03 Jun 2027 03:37:46.316   03 Jun 2027 03:38:05.188            18.872          9436.000
        50   03 Jun 2027 05:12:23.185   03 Jun 2027 05:14:39.142           135.957         67978.500
        51   03 Jun 2027 06:47:28.057   03 Jun 2027 06:49:23.043           114.986         57493.000
        52   03 Jun 2027 06:49:37.164   03 Jun 2027 06:49:51.556            14.392          7196.000
        53   03 Jun 2027 06:54:09.015   03 Jun 2027 06:54:14.339             5.324          2662.000
        54   03 Jun 2027 08:23:49.638   03 Jun 2027 08:25:59.183           129.545         64772.500
        55   03 Jun 2027 08:26:20.745   03 Jun 2027 08:26:52.411            31.666         15833.000
        56   03 Jun 2027 10:01:20.399   03 Jun 2027 10:02:45.384            84.985         42492.500
        57   03 Jun 2027 10:03:07.820   03 Jun 2027 10:03:12.983             5.163          1458.218
        58   03 Jun 2027 10:04:24.101   03 Jun 2027 10:04:26.175             2.074          1037.000
        59   03 Jun 2027 10:05:35.066   03 Jun 2027 10:05:39.783             4.717          2358.500
        60   03 Jun 2027 11:37:24.958   03 Jun 2027 11:37:46.738            21.780          9394.281
        61   03 Jun 2027 11:38:02.275   03 Jun 2027 11:38:06.388             4.113            91.156
        62   03 Jun 2027 11:39:12.893   03 Jun 2027 11:39:13.391             0.498           249.000
        63   03 Jun 2027 11:39:19.385   03 Jun 2027 11:39:20.925             1.540           770.000
        64   03 Jun 2027 11:39:42.982   03 Jun 2027 11:39:53.392            10.410          1580.344
        65   03 Jun 2027 11:40:20.553   03 Jun 2027 11:40:20.622             0.069            34.500
        66   03 Jun 2027 11:40:27.260   03 Jun 2027 11:40:29.908             2.648          1021.719
        67   03 Jun 2027 11:40:55.852   03 Jun 2027 11:40:58.436             2.584           257.938
        68   04 Jun 2027 03:47:50.189   04 Jun 2027 03:48:31.793            41.604         20802.000
        69   04 Jun 2027 03:50:13.512   04 Jun 2027 03:50:13.512             0.000             0.000
        70   04 Jun 2027 03:50:34.991   04 Jun 2027 03:51:01.135            26.144         13072.000
        71   04 Jun 2027 05:24:28.002   04 Jun 2027 05:26:33.575           125.573         62786.500
        72   04 Jun 2027 06:59:38.133   04 Jun 2027 07:01:25.532           107.399         53699.500
        73   04 Jun 2027 07:02:03.226   04 Jun 2027 07:02:18.989            15.763          7881.500
        74   04 Jun 2027 07:05:36.361   04 Jun 2027 07:05:41.875             5.514          2757.000
        75   04 Jun 2027 07:06:09.363   04 Jun 2027 07:06:14.570             5.207          2603.500
        76   04 Jun 2027 08:35:54.194   04 Jun 2027 08:36:36.046            41.852         20583.125
        77   04 Jun 2027 08:37:43.633   04 Jun 2027 08:37:49.966             6.333          1935.781
        78   04 Jun 2027 08:38:13.674   04 Jun 2027 08:38:15.302             1.628           705.969
        79   04 Jun 2027 08:38:33.508   04 Jun 2027 08:38:35.323             1.815           531.906
        80   04 Jun 2027 08:39:29.811   04 Jun 2027 08:39:33.119             3.308          1311.094
        81   04 Jun 2027 08:40:00.093   04 Jun 2027 08:40:06.064             5.971           782.531
        82   04 Jun 2027 08:40:52.430   04 Jun 2027 08:40:58.888             6.458          1448.937
        83   04 Jun 2027 08:41:14.465   04 Jun 2027 08:41:17.934             3.469           456.313
        84   04 Jun 2027 10:13:25.943   04 Jun 2027 10:13:43.236            17.293          8287.750
        85   04 Jun 2027 10:13:47.599   04 Jun 2027 10:13:51.678             4.079            11.594
        86   04 Jun 2027 10:14:06.785   04 Jun 2027 10:14:11.990             5.205           203.969
        87   04 Jun 2027 10:14:49.669   04 Jun 2027 10:14:54.713             5.044          1156.063
        88   04 Jun 2027 10:15:35.730   04 Jun 2027 10:15:37.799             2.069           984.156
        89   04 Jun 2027 10:15:51.124   04 Jun 2027 10:15:53.639             2.515           416.406
        90   04 Jun 2027 10:16:14.972   04 Jun 2027 10:16:17.660             2.688           472.000
        91   04 Jun 2027 10:17:19.068   04 Jun 2027 10:17:25.341             6.273          1714.563
        92   04 Jun 2027 10:17:34.840   04 Jun 2027 10:17:35.497             0.657           296.844
        93   04 Jun 2027 11:49:27.183   04 Jun 2027 11:49:43.874            16.691          6116.781
        94   04 Jun 2027 11:50:43.246   04 Jun 2027 11:50:48.159             4.913          1855.375
        95   04 Jun 2027 11:50:58.751   04 Jun 2027 11:51:06.728             7.977           331.000
        96   04 Jun 2027 11:51:22.017   04 Jun 2027 11:51:22.588             0.571           285.500
        97   04 Jun 2027 11:51:53.199   04 Jun 2027 11:51:55.857             2.658          1148.875
        98   04 Jun 2027 11:52:52.338   04 Jun 2027 11:53:04.965            12.627          1765.031
        99   04 Jun 2027 11:53:12.033   04 Jun 2027 11:53:13.710             1.677           193.625
       100   04 Jun 2027 11:53:47.432   04 Jun 2027 11:53:51.025             3.593          1053.812
       101   04 Jun 2027 11:54:18.444   04 Jun 2027 11:54:19.704             1.260           630.000
       102   05 Jun 2027 04:00:26.147   05 Jun 2027 04:01:28.672            62.525         31262.500
       103   05 Jun 2027 05:36:11.567   05 Jun 2027 05:38:37.503           145.936         72968.000
       104   05 Jun 2027 07:11:02.965   05 Jun 2027 07:12:56.537           113.572         56786.000
       105   05 Jun 2027 07:13:38.390   05 Jun 2027 07:13:47.680             9.290          4310.782
       106   05 Jun 2027 07:14:32.516   05 Jun 2027 07:14:38.287             5.771          1303.969
       107   05 Jun 2027 07:17:49.143   05 Jun 2027 07:17:55.166             6.023          3011.500
       108   05 Jun 2027 07:18:02.706   05 Jun 2027 07:18:07.065             4.359          2179.500
       109   05 Jun 2027 08:47:38.497   05 Jun 2027 08:48:04.888            26.391         12132.719
       110   05 Jun 2027 08:48:29.585   05 Jun 2027 08:48:31.250             1.665           475.031
       111   05 Jun 2027 08:49:45.184   05 Jun 2027 08:49:49.645             4.461          2135.594
       112   05 Jun 2027 08:50:25.486   05 Jun 2027 08:50:28.413             2.927           371.188
       113   05 Jun 2027 08:51:22.922   05 Jun 2027 08:51:27.142             4.220          1531.344
       114   05 Jun 2027 08:51:59.900   05 Jun 2027 08:52:00.984             1.084           542.000
       115   05 Jun 2027 08:52:56.846   05 Jun 2027 08:53:01.669             4.823          2227.375
       116   05 Jun 2027 08:53:33.648   05 Jun 2027 08:53:35.568             1.920           682.344
       117   05 Jun 2027 08:53:49.016   05 Jun 2027 08:53:51.146             2.130           367.938
       118   05 Jun 2027 10:25:56.098   05 Jun 2027 10:26:12.182            16.084          7869.438
       119   05 Jun 2027 10:26:14.971   05 Jun 2027 10:26:15.298             0.327            87.156
       120   05 Jun 2027 10:26:52.708   05 Jun 2027 10:26:55.955             3.247          1123.625
       121   05 Jun 2027 10:27:27.182   05 Jun 2027 10:27:29.421             2.239           975.844
       122   05 Jun 2027 10:27:59.755   05 Jun 2027 10:28:06.296             6.541           793.906
       123   05 Jun 2027 10:28:21.060   05 Jun 2027 10:28:22.690             1.630           292.750
       124   05 Jun 2027 10:29:31.867   05 Jun 2027 10:29:33.077             1.210           605.000
       125   05 Jun 2027 10:29:37.271   05 Jun 2027 10:29:42.385             5.114          1512.406
       126   05 Jun 2027 10:29:42.771   05 Jun 2027 10:29:45.425             2.654            12.062
       127   05 Jun 2027 11:59:55.891   05 Jun 2027 12:00:00.000             4.109          2054.500
       128   06 Jun 2027 04:11:04.748   06 Jun 2027 04:11:56.775            52.027         26013.500
       129   06 Jun 2027 04:12:02.065   06 Jun 2027 04:12:03.705             1.640           820.000
       130   06 Jun 2027 04:12:40.374   06 Jun 2027 04:13:04.291            23.917         11958.500
       131   06 Jun 2027 05:46:25.141   06 Jun 2027 05:47:23.391            58.250         29125.000
       132   06 Jun 2027 05:47:56.679   06 Jun 2027 05:49:07.075            70.396         35198.000
       133   06 Jun 2027 05:49:27.826   06 Jun 2027 05:49:38.362            10.536          5268.000
       134   06 Jun 2027 05:51:03.539   06 Jun 2027 05:51:11.219             7.680          3840.000
       135   06 Jun 2027 05:51:49.623   06 Jun 2027 05:51:51.939             2.316          1158.000
       136   06 Jun 2027 05:52:01.670   06 Jun 2027 05:52:13.213            11.543          5771.500
       137   06 Jun 2027 07:22:54.596   06 Jun 2027 07:24:13.745            79.149         39574.500
       138   06 Jun 2027 07:24:57.685   06 Jun 2027 07:25:22.495            24.810         12405.000
       139   06 Jun 2027 07:26:15.247   06 Jun 2027 07:26:21.046             5.799          2803.094
       140   06 Jun 2027 07:27:31.623   06 Jun 2027 07:27:39.130             7.507          2065.531
       141   06 Jun 2027 07:27:58.944   06 Jun 2027 07:28:00.938             1.994           595.781
       142   06 Jun 2027 08:59:59.608   06 Jun 2027 09:00:29.696            30.088         12774.094
       143   06 Jun 2027 09:01:11.618   06 Jun 2027 09:01:11.809             0.191            67.437
       144   06 Jun 2027 09:01:27.949   06 Jun 2027 09:01:29.317             1.368           504.375
       145   06 Jun 2027 09:02:27.053   06 Jun 2027 09:02:29.900             2.847          1395.469
       146   06 Jun 2027 09:02:47.180   06 Jun 2027 09:02:48.406             1.226           540.000
       147   06 Jun 2027 09:02:56.569   06 Jun 2027 09:03:00.161             3.592           255.094
       148   06 Jun 2027 09:03:51.807   06 Jun 2027 09:03:57.144             5.337          1530.719
       149   06 Jun 2027 09:04:05.946   06 Jun 2027 09:04:07.088             1.142            10.875
       150   06 Jun 2027 09:04:49.379   06 Jun 2027 09:04:55.787             6.408          1241.313
       151   06 Jun 2027 09:05:38.939   06 Jun 2027 09:05:38.939             0.000             0.000
       152   06 Jun 2027 09:05:43.635   06 Jun 2027 09:05:49.830             6.195          1219.906
       153   06 Jun 2027 10:37:53.788   06 Jun 2027 10:38:10.084            16.296          7835.625
       154   06 Jun 2027 10:38:54.607   06 Jun 2027 10:39:00.492             5.885          1367.469
       155   06 Jun 2027 10:39:50.068   06 Jun 2027 10:39:54.448             4.380          1214.594
       156   06 Jun 2027 10:40:57.657   06 Jun 2027 10:41:04.732             7.075          1672.281
       157   06 Jun 2027 10:41:27.274   06 Jun 2027 10:41:28.816             1.542           704.438
       158   06 Jun 2027 10:41:35.038   06 Jun 2027 10:41:38.951             3.913           194.437
       159   06 Jun 2027 10:41:45.046   06 Jun 2027 10:41:46.930             1.884            33.656
       160   07 Jun 2027 03:00:25.065   07 Jun 2027 03:00:44.087            19.022          9511.000
       161   07 Jun 2027 03:00:54.508   07 Jun 2027 03:01:21.090            26.582         13291.000
       162   07 Jun 2027 04:22:40.626   07 Jun 2027 04:23:10.540            29.914         14957.000
       163   07 Jun 2027 04:24:36.145   07 Jun 2027 04:25:02.302            26.157         13078.500
       164   07 Jun 2027 04:26:17.994   07 Jun 2027 04:26:40.600            22.606         11303.000
       165   07 Jun 2027 05:57:34.563   07 Jun 2027 05:59:15.897           101.334         50667.000
       166   07 Jun 2027 06:00:54.741   07 Jun 2027 06:00:54.758             0.017             8.500
       167   07 Jun 2027 06:01:04.726   07 Jun 2027 06:01:12.001             7.275          3637.500
       168   07 Jun 2027 06:04:00.852   07 Jun 2027 06:04:14.705            13.853          6926.500
       169   07 Jun 2027 06:04:55.715   07 Jun 2027 06:04:56.071             0.356           178.000
       170   07 Jun 2027 07:35:08.093   07 Jun 2027 07:35:57.148            49.055         24527.500
       171   07 Jun 2027 07:36:59.737   07 Jun 2027 07:38:09.652            69.915         34437.094
       172   07 Jun 2027 07:38:50.195   07 Jun 2027 07:38:52.911             2.716          1148.062
       173   07 Jun 2027 07:39:23.232   07 Jun 2027 07:39:24.660             1.428           714.000
       174   07 Jun 2027 07:40:37.318   07 Jun 2027 07:40:37.318             0.000             0.000
       175   07 Jun 2027 07:41:16.663   07 Jun 2027 07:41:24.495             7.832          3590.250
       176   07 Jun 2027 09:11:50.563   07 Jun 2027 09:12:23.093            32.530         13188.469
       177   07 Jun 2027 09:12:24.986   07 Jun 2027 09:12:27.544             2.558            59.156
       178   07 Jun 2027 09:14:12.570   07 Jun 2027 09:14:20.013             7.443          2417.563
       179   07 Jun 2027 09:15:06.720   07 Jun 2027 09:15:10.494             3.774          1349.156
       180   07 Jun 2027 09:15:43.106   07 Jun 2027 09:15:45.222             2.116          1019.125
       181   07 Jun 2027 09:15:50.926   07 Jun 2027 09:15:53.463             2.537           139.812
       182   07 Jun 2027 09:16:17.333   07 Jun 2027 09:16:25.403             8.070           602.969
       183   07 Jun 2027 09:16:50.413   07 Jun 2027 09:16:51.495             1.082           459.906
       184   07 Jun 2027 09:17:03.566   07 Jun 2027 09:17:05.900             2.334           377.219
       185   07 Jun 2027 09:17:26.953   07 Jun 2027 09:17:29.341             2.388           464.812
       186   07 Jun 2027 09:17:54.949   07 Jun 2027 09:17:58.977             4.028           780.563
       187   07 Jun 2027 09:18:25.184   07 Jun 2027 09:18:28.410             3.226           818.969
       188   07 Jun 2027 10:49:53.699   07 Jun 2027 10:50:08.810            15.111          7555.500
       189   07 Jun 2027 10:50:39.745   07 Jun 2027 10:50:43.803             4.058          1413.063
       190   07 Jun 2027 10:51:49.238   07 Jun 2027 10:51:54.725             5.487          2044.844
       191   07 Jun 2027 10:52:10.738   07 Jun 2027 10:52:14.275             3.537           500.406
       192   07 Jun 2027 10:52:25.723   07 Jun 2027 10:52:27.741             2.018           357.750
       193   07 Jun 2027 10:53:06.228   07 Jun 2027 10:53:08.782             2.554           983.062
       194   07 Jun 2027 10:53:24.392   07 Jun 2027 10:53:26.393             2.001           450.906
       195   07 Jun 2027 10:53:35.363   07 Jun 2027 10:53:35.363             0.000             0.000
       196   07 Jun 2027 10:53:48.716   07 Jun 2027 10:53:51.863             3.147           697.594
       197   08 Jun 2027 03:00:17.862   08 Jun 2027 03:00:29.191            11.329          5664.500
       198   08 Jun 2027 03:02:07.173   08 Jun 2027 03:02:07.173             0.000             0.000
       199   08 Jun 2027 03:12:33.501   08 Jun 2027 03:13:00.278            26.777         13388.500
       200   08 Jun 2027 04:34:09.920   08 Jun 2027 04:35:14.046            64.126         32063.000
       201   08 Jun 2027 04:36:15.467   08 Jun 2027 04:36:26.442            10.975          5487.500
       202   08 Jun 2027 04:38:39.645   08 Jun 2027 04:38:59.736            20.091         10045.500
       203   08 Jun 2027 04:39:46.001   08 Jun 2027 04:40:08.290            22.289         11144.500
       204   08 Jun 2027 06:09:05.197   08 Jun 2027 06:10:35.797            90.600         45300.000
       205   08 Jun 2027 06:12:25.054   08 Jun 2027 06:12:25.054             0.000             0.000
       206   08 Jun 2027 06:13:17.380   08 Jun 2027 06:13:26.088             8.708          4354.000
       207   08 Jun 2027 06:15:47.764   08 Jun 2027 06:16:08.068            20.304         10152.000
       208   08 Jun 2027 07:47:02.039   08 Jun 2027 07:48:32.235            90.196         45098.000
       209   08 Jun 2027 07:49:00.983   08 Jun 2027 07:49:05.780             4.797          2398.500
       210   08 Jun 2027 07:49:49.990   08 Jun 2027 07:49:54.254             4.264          1563.750
       211   08 Jun 2027 07:49:54.835   08 Jun 2027 07:49:56.823             1.988            18.156
       212   08 Jun 2027 07:50:59.557   08 Jun 2027 07:51:03.641             4.084          1044.875
       213   08 Jun 2027 07:52:17.934   08 Jun 2027 07:52:21.259             3.325          1662.500
       214   08 Jun 2027 07:52:28.009   08 Jun 2027 07:52:38.192            10.183           812.812
       215   08 Jun 2027 07:53:52.517   08 Jun 2027 07:53:57.949             5.432          2193.750
       216   08 Jun 2027 09:23:55.217   08 Jun 2027 09:24:17.628            22.411         10417.469
       217   08 Jun 2027 09:24:33.702   08 Jun 2027 09:24:35.412             1.710           143.687
       218   08 Jun 2027 09:24:53.524   08 Jun 2027 09:24:55.761             2.237           156.469
       219   08 Jun 2027 09:26:17.598   08 Jun 2027 09:26:22.585             4.987          2365.562
       220   08 Jun 2027 09:26:47.424   08 Jun 2027 09:26:47.865             0.441           160.312
       221   08 Jun 2027 09:27:36.299   08 Jun 2027 09:27:41.217             4.918          1415.969
       222   08 Jun 2027 09:28:30.144   08 Jun 2027 09:28:33.802             3.658          1360.938
       223   08 Jun 2027 09:29:42.390   08 Jun 2027 09:29:49.825             7.435          1967.781
       224   08 Jun 2027 09:30:12.091   08 Jun 2027 09:30:14.931             2.840           619.000
       225   08 Jun 2027 11:01:40.134   08 Jun 2027 11:01:55.390            15.256          6736.375
       226   08 Jun 2027 11:02:05.068   08 Jun 2027 11:02:07.314             2.246           190.625
       227   08 Jun 2027 11:02:58.752   08 Jun 2027 11:03:02.243             3.491          1562.031
       228   08 Jun 2027 11:03:08.438   08 Jun 2027 11:03:14.606             6.168           155.250
       229   08 Jun 2027 11:03:26.878   08 Jun 2027 11:03:28.974             2.096           352.531
       230   08 Jun 2027 11:04:08.393   08 Jun 2027 11:04:16.156             7.763          1106.563
       231   08 Jun 2027 11:05:05.395   08 Jun 2027 11:05:09.838             4.443          1403.406
       232   09 Jun 2027 03:12:13.682   09 Jun 2027 03:12:34.541            20.859         10429.500
       233   09 Jun 2027 03:13:05.642   09 Jun 2027 03:13:05.642             0.000             0.000
       234   09 Jun 2027 03:13:28.921   09 Jun 2027 03:13:41.975            13.054          6527.000
       235   09 Jun 2027 04:48:13.414   09 Jun 2027 04:50:22.298           128.884         64442.000
       236   09 Jun 2027 04:50:50.619   09 Jun 2027 04:50:50.619             0.000             0.000
       237   09 Jun 2027 04:50:59.802   09 Jun 2027 04:51:06.925             7.123          3561.500
       238   09 Jun 2027 06:21:58.901   09 Jun 2027 06:23:05.696            66.795         33397.500
       239   09 Jun 2027 06:24:01.041   09 Jun 2027 06:24:29.716            28.675         14337.500
       240   09 Jun 2027 06:24:47.776   09 Jun 2027 06:24:47.776             0.000             0.000
       241   09 Jun 2027 06:25:01.113   09 Jun 2027 06:25:02.108             0.995           497.500
       242   09 Jun 2027 06:25:17.715   09 Jun 2027 06:25:19.553             1.838           919.000
       243   09 Jun 2027 06:27:33.887   09 Jun 2027 06:28:01.148            27.261         13630.500
       244   09 Jun 2027 06:30:31.475   09 Jun 2027 06:30:32.457             0.982           491.000
       245   09 Jun 2027 07:59:22.735   09 Jun 2027 08:00:20.900            58.165         28641.219
       246   09 Jun 2027 08:01:08.595   09 Jun 2027 08:01:14.561             5.966           771.219
       247   09 Jun 2027 08:01:52.009   09 Jun 2027 08:01:55.033             3.024          1096.406
       248   09 Jun 2027 08:02:14.558   09 Jun 2027 08:02:15.784             1.226           610.156
       249   09 Jun 2027 08:02:30.319   09 Jun 2027 08:02:30.538             0.219            88.875
       250   09 Jun 2027 08:02:37.603   09 Jun 2027 08:02:38.562             0.959           141.438
       251   09 Jun 2027 08:03:02.680   09 Jun 2027 08:03:03.639             0.959           337.531
       252   09 Jun 2027 08:03:26.791   09 Jun 2027 08:03:31.063             4.272           622.062
       253   09 Jun 2027 08:04:18.121   09 Jun 2027 08:04:20.833             2.712          1255.813
       254   09 Jun 2027 08:05:35.242   09 Jun 2027 08:05:45.137             9.895          2325.281
       255   09 Jun 2027 08:06:02.539   09 Jun 2027 08:06:02.539             0.000             0.000
       256   09 Jun 2027 09:36:26.719   09 Jun 2027 09:36:48.435            21.716          9783.625
       257   09 Jun 2027 09:36:53.288   09 Jun 2027 09:36:54.121             0.833           151.656
       258   09 Jun 2027 09:37:35.033   09 Jun 2027 09:37:40.780             5.747           999.156
       259   09 Jun 2027 09:38:27.870   09 Jun 2027 09:38:32.465             4.595          1233.312
       260   09 Jun 2027 09:39:30.134   09 Jun 2027 09:39:31.773             1.639           819.500
       261   09 Jun 2027 09:40:02.008   09 Jun 2027 09:40:06.277             4.269          1819.593
       262   09 Jun 2027 09:40:20.931   09 Jun 2027 09:40:21.647             0.716           358.000
       263   09 Jun 2027 09:40:44.069   09 Jun 2027 09:40:47.561             3.492           800.625
       264   09 Jun 2027 09:40:52.947   09 Jun 2027 09:40:54.587             1.640           168.312
       265   09 Jun 2027 09:41:56.887   09 Jun 2027 09:42:01.143             4.256          1735.469
       266   09 Jun 2027 09:42:05.696   09 Jun 2027 09:42:06.210             0.514           142.281
       267   09 Jun 2027 11:13:11.271   09 Jun 2027 11:13:26.867            15.596          7513.156
       268   09 Jun 2027 11:14:11.179   09 Jun 2027 11:14:13.542             2.363           956.031
       269   09 Jun 2027 11:14:59.620   09 Jun 2027 11:15:07.181             7.561           982.031
       270   09 Jun 2027 11:15:43.037   09 Jun 2027 11:15:45.903             2.866          1119.312
       271   09 Jun 2027 11:16:11.328   09 Jun 2027 11:16:13.596             2.268           723.531
       272   09 Jun 2027 11:17:23.041   09 Jun 2027 11:17:27.450             4.409          2009.813
       273   09 Jun 2027 11:17:43.298   09 Jun 2027 11:17:44.413             1.115           273.656
       274   09 Jun 2027 11:17:51.725   09 Jun 2027 11:17:52.402             0.677            91.375
       275   09 Jun 2027 11:17:53.716   09 Jun 2027 11:17:56.009             2.293            41.062
       276   10 Jun 2027 03:24:05.243   10 Jun 2027 03:24:18.534            13.291          6645.500
       277   10 Jun 2027 03:24:43.397   10 Jun 2027 03:25:05.761            22.364         11182.000
       278   10 Jun 2027 03:25:37.581   10 Jun 2027 03:25:42.796             5.215          2607.500
       279   10 Jun 2027 03:26:01.308   10 Jun 2027 03:26:03.644             2.336          1168.000
       280   10 Jun 2027 03:26:07.031   10 Jun 2027 03:26:15.911             8.880          4440.000
       281   10 Jun 2027 05:00:27.698   10 Jun 2027 05:02:41.813           134.115         67057.500
       282   10 Jun 2027 06:34:31.691   10 Jun 2027 06:36:07.271            95.580         47790.000
       283   10 Jun 2027 06:36:40.113   10 Jun 2027 06:36:40.113             0.000             0.000
       284   10 Jun 2027 06:36:48.329   10 Jun 2027 06:36:56.729             8.400          4200.000
       285   10 Jun 2027 06:37:57.286   10 Jun 2027 06:38:03.696             6.410          3205.000
       286   10 Jun 2027 06:39:54.909   10 Jun 2027 06:40:04.284             9.375          4687.500
       287   10 Jun 2027 06:40:58.128   10 Jun 2027 06:41:00.302             2.174          1087.000
       288   10 Jun 2027 06:41:28.664   10 Jun 2027 06:41:34.072             5.408          2704.000
       289   10 Jun 2027 06:42:27.263   10 Jun 2027 06:42:29.886             2.623          1311.500
       290   10 Jun 2027 08:11:36.273   10 Jun 2027 08:12:17.940            41.667         20141.750
       291   10 Jun 2027 08:13:28.939   10 Jun 2027 08:13:37.222             8.283          1896.875
       292   10 Jun 2027 08:14:11.594   10 Jun 2027 08:14:12.345             0.751           286.969
       293   10 Jun 2027 08:14:15.305   10 Jun 2027 08:14:17.387             2.082            92.500
       294   10 Jun 2027 08:14:39.751   10 Jun 2027 08:14:45.008             5.257           402.250
       295   10 Jun 2027 08:15:30.352   10 Jun 2027 08:15:33.540             3.188           763.187
       296   10 Jun 2027 08:15:50.008   10 Jun 2027 08:15:50.008             0.000             0.000
       297   10 Jun 2027 08:16:02.993   10 Jun 2027 08:16:08.184             5.191           635.000
       298   10 Jun 2027 08:16:59.055   10 Jun 2027 08:17:11.890            12.835          1515.187
       299   10 Jun 2027 08:17:24.764   10 Jun 2027 08:17:27.757             2.993            28.594
       300   10 Jun 2027 08:17:44.205   10 Jun 2027 08:17:44.217             0.012             6.000
       301   10 Jun 2027 08:18:04.922   10 Jun 2027 08:18:08.457             3.535          1063.125
       302   10 Jun 2027 09:48:32.232   10 Jun 2027 09:48:54.020            21.788          9671.312
       303   10 Jun 2027 09:49:26.197   10 Jun 2027 09:49:32.293             6.096           895.281
       304   10 Jun 2027 09:50:21.525   10 Jun 2027 09:50:24.686             3.161          1069.562
       305   10 Jun 2027 09:50:35.666   10 Jun 2027 09:50:36.474             0.808           225.594
       306   10 Jun 2027 09:51:07.202   10 Jun 2027 09:51:08.414             1.212           323.125
       307   10 Jun 2027 09:51:28.396   10 Jun 2027 09:51:29.887             1.491           335.250
       308   10 Jun 2027 09:51:38.700   10 Jun 2027 09:51:40.343             1.643           134.031
       309   10 Jun 2027 09:51:50.768   10 Jun 2027 09:51:54.719             3.951           325.781
       310   10 Jun 2027 09:52:26.544   10 Jun 2027 09:52:29.096             2.552           994.531
       311   10 Jun 2027 09:52:49.521   10 Jun 2027 09:52:51.506             1.985           290.937
       312   10 Jun 2027 11:25:18.788   10 Jun 2027 11:25:38.465            19.677          8593.469
       313   10 Jun 2027 11:26:12.583   10 Jun 2027 11:26:18.572             5.989          1066.187
       314   10 Jun 2027 11:26:43.466   10 Jun 2027 11:26:44.989             1.523           381.188
       315   10 Jun 2027 11:27:37.875   10 Jun 2027 11:27:41.435             3.560          1652.687
       316   10 Jun 2027 11:27:48.866   10 Jun 2027 11:27:48.866             0.000             0.000
       317   10 Jun 2027 11:29:22.054   10 Jun 2027 11:29:30.193             8.139          3064.375
       318   10 Jun 2027 11:29:53.120   10 Jun 2027 11:29:59.070             5.950           704.687
       319   11 Jun 2027 03:36:09.198   11 Jun 2027 03:36:19.593            10.395          5197.500
       320   11 Jun 2027 03:36:45.510   11 Jun 2027 03:37:04.490            18.980          9490.000
       321   11 Jun 2027 03:37:08.763   11 Jun 2027 03:37:13.839             5.076          2538.000
       322   11 Jun 2027 03:38:50.638   11 Jun 2027 03:38:50.638             0.000             0.000
       323   11 Jun 2027 05:12:38.245   11 Jun 2027 05:14:58.186           139.941         69970.500
       324   11 Jun 2027 05:15:43.256   11 Jun 2027 05:15:47.213             3.957          1978.500
       325   11 Jun 2027 06:47:43.216   11 Jun 2027 06:49:54.053           130.837         65418.500
       326   11 Jun 2027 08:24:05.183   11 Jun 2027 08:24:37.241            32.058         15675.813
       327   11 Jun 2027 08:25:03.952   11 Jun 2027 08:25:05.796             1.844           787.312
       328   11 Jun 2027 08:25:24.200   11 Jun 2027 08:25:28.795             4.595           325.969
       329   11 Jun 2027 08:26:10.476   11 Jun 2027 08:26:13.854             3.378           390.781
       330   11 Jun 2027 08:27:20.799   11 Jun 2027 08:27:23.352             2.553          1276.500
       331   11 Jun 2027 08:27:29.903   11 Jun 2027 08:27:30.244             0.341           170.500
       332   11 Jun 2027 08:27:50.996   11 Jun 2027 08:27:53.534             2.538           792.656
       333   11 Jun 2027 08:28:04.529   11 Jun 2027 08:28:05.210             0.681           307.094
       334   11 Jun 2027 08:28:53.080   11 Jun 2027 08:28:58.134             5.054          1137.250
       335   11 Jun 2027 08:29:47.168   11 Jun 2027 08:29:48.851             1.683           841.500
       336   11 Jun 2027 08:30:02.535   11 Jun 2027 08:30:05.998             3.463          1118.438
       337   11 Jun 2027 10:01:35.406   11 Jun 2027 10:01:55.014            19.608          9317.750
       338   11 Jun 2027 10:02:24.320   11 Jun 2027 10:02:27.067             2.747           793.531
       339   11 Jun 2027 10:03:21.340   11 Jun 2027 10:03:24.230             2.890          1277.625
       340   11 Jun 2027 10:05:45.461   11 Jun 2027 10:05:54.865             9.404          3677.906
       341   11 Jun 2027 11:37:40.104   11 Jun 2027 11:37:55.637            15.533          6988.969
       342   11 Jun 2027 11:38:19.086   11 Jun 2027 11:38:28.376             9.290           155.937
       343   11 Jun 2027 11:39:00.031   11 Jun 2027 11:39:03.795             3.764           790.688
       344   11 Jun 2027 11:39:34.407   11 Jun 2027 11:39:36.404             1.997           195.500
       345   11 Jun 2027 11:40:10.148   11 Jun 2027 11:40:13.608             3.460           555.219
       346   11 Jun 2027 11:40:36.745   11 Jun 2027 11:40:36.745             0.000             0.000
       347   11 Jun 2027 11:41:19.507   11 Jun 2027 11:41:29.431             9.924          1949.938
       348   12 Jun 2027 03:48:05.101   12 Jun 2027 03:48:47.932            42.831         21415.500
       349   12 Jun 2027 03:50:03.476   12 Jun 2027 03:50:19.382            15.906          7953.000
       350   12 Jun 2027 03:50:29.867   12 Jun 2027 03:50:51.701            21.834         10917.000
       351   12 Jun 2027 05:24:42.841   12 Jun 2027 05:26:49.228           126.387         63193.500
       352   12 Jun 2027 06:59:53.301   12 Jun 2027 07:01:42.826           109.525         54762.500
       353   12 Jun 2027 07:02:08.996   12 Jun 2027 07:02:16.401             7.405          3702.500
       354   12 Jun 2027 07:03:22.926   12 Jun 2027 07:03:26.517             3.591          1795.500
       355   12 Jun 2027 07:04:40.138   12 Jun 2027 07:04:40.138             0.000             0.000
       356   12 Jun 2027 07:05:47.737   12 Jun 2027 07:05:52.699             4.962          2481.000
       357   12 Jun 2027 07:06:05.899   12 Jun 2027 07:06:13.013             7.114          3557.000
       358   12 Jun 2027 08:36:07.719   12 Jun 2027 08:36:34.639            26.920         13025.750
       359   12 Jun 2027 08:37:08.481   12 Jun 2027 08:37:13.351             4.870           383.156
       360   12 Jun 2027 08:37:28.270   12 Jun 2027 08:37:28.482             0.212            65.906
       361   12 Jun 2027 08:37:59.420   12 Jun 2027 08:38:06.711             7.291           490.000
       362   12 Jun 2027 08:38:48.450   12 Jun 2027 08:38:51.816             3.366           495.937
       363   12 Jun 2027 08:39:44.638   12 Jun 2027 08:39:47.580             2.942          1405.656
       364   12 Jun 2027 08:41:29.041   12 Jun 2027 08:41:35.326             6.285          2792.125
       365   12 Jun 2027 10:13:41.026   12 Jun 2027 10:14:02.959            21.933          8920.750
       366   12 Jun 2027 10:14:46.903   12 Jun 2027 10:14:52.286             5.383           973.188
       367   12 Jun 2027 10:14:57.572   12 Jun 2027 10:14:58.676             1.104           165.188
       368   12 Jun 2027 10:15:49.563   12 Jun 2027 10:15:50.708             1.145           572.500
       369   12 Jun 2027 10:15:54.371   12 Jun 2027 10:15:54.797             0.426           213.000
       370   12 Jun 2027 10:16:06.335   12 Jun 2027 10:16:11.266             4.931           649.125
       371   12 Jun 2027 10:16:31.313   12 Jun 2027 10:16:32.600             1.287           507.750
       372   12 Jun 2027 10:17:12.801   12 Jun 2027 10:17:18.671             5.870          1256.281
       373   12 Jun 2027 11:49:42.347   12 Jun 2027 11:49:58.686            16.339          6206.125
       374   12 Jun 2027 11:50:15.690   12 Jun 2027 11:50:21.067             5.377           261.937
       375   12 Jun 2027 11:50:52.600   12 Jun 2027 11:50:52.600             0.000             0.000
       376   12 Jun 2027 11:51:35.363   12 Jun 2027 11:51:38.199             2.836          1418.000
       377   12 Jun 2027 11:51:51.879   12 Jun 2027 11:51:51.879             0.000             0.000
       378   12 Jun 2027 11:52:30.682   12 Jun 2027 11:52:38.510             7.828          2359.812
       379   12 Jun 2027 11:53:21.282   12 Jun 2027 11:53:24.562             3.280           809.938
       380   12 Jun 2027 11:53:30.540   12 Jun 2027 11:53:34.018             3.478           116.875
       381   12 Jun 2027 11:54:38.073   12 Jun 2027 11:54:42.271             4.198          2001.719
       382   13 Jun 2027 04:00:40.813   13 Jun 2027 04:01:23.707            42.894         21447.000
       383   13 Jun 2027 04:03:19.496   13 Jun 2027 04:03:20.596             1.100           550.000
       384   13 Jun 2027 05:36:26.585   13 Jun 2027 05:38:29.210           122.625         61312.500
       385   13 Jun 2027 05:39:38.653   13 Jun 2027 05:39:54.534            15.881          7940.500
       386   13 Jun 2027 05:40:30.704   13 Jun 2027 05:40:32.373             1.669           834.500
       387   13 Jun 2027 07:11:17.564   13 Jun 2027 07:13:28.974           131.410         65705.000
       388   13 Jun 2027 07:14:56.541   13 Jun 2027 07:15:08.601            12.060          5155.562
       389   13 Jun 2027 07:15:25.559   13 Jun 2027 07:15:27.701             2.142           497.250
       390   13 Jun 2027 07:16:01.852   13 Jun 2027 07:16:04.107             2.255          1067.219
       391   13 Jun 2027 07:17:22.747   13 Jun 2027 07:17:23.531             0.784           392.000
       392   13 Jun 2027 07:18:02.209   13 Jun 2027 07:18:09.880             7.671          3105.938
       393   13 Jun 2027 08:47:53.381   13 Jun 2027 08:48:20.487            27.106         13485.500
       394   13 Jun 2027 08:49:26.673   13 Jun 2027 08:49:32.582             5.909          1541.312
       395   13 Jun 2027 08:50:03.107   13 Jun 2027 08:50:05.870             2.763           953.906
       396   13 Jun 2027 08:50:44.319   13 Jun 2027 08:50:47.690             3.371          1201.531
       397   13 Jun 2027 08:50:55.116   13 Jun 2027 08:50:56.295             1.179            92.219
       398   13 Jun 2027 08:51:37.740   13 Jun 2027 08:51:39.519             1.779           889.500
       399   13 Jun 2027 08:52:12.856   13 Jun 2027 08:52:15.501             2.645          1322.500
       400   13 Jun 2027 08:52:29.937   13 Jun 2027 08:52:34.303             4.366           576.063
       401   13 Jun 2027 08:52:43.786   13 Jun 2027 08:52:52.156             8.370           296.344
       402   13 Jun 2027 08:53:38.304   13 Jun 2027 08:53:40.840             2.536          1135.938
       403   13 Jun 2027 08:53:52.099   13 Jun 2027 08:53:53.791             1.692           106.531
       404   13 Jun 2027 08:54:12.067   13 Jun 2027 08:54:12.067             0.000             0.000
       405   13 Jun 2027 10:26:11.044   13 Jun 2027 10:26:26.809            15.765          7882.500
       406   13 Jun 2027 10:26:28.023   13 Jun 2027 10:26:30.510             2.487           715.062
       407   13 Jun 2027 10:27:06.622   13 Jun 2027 10:27:12.386             5.764           625.844
       408   13 Jun 2027 10:27:17.735   13 Jun 2027 10:27:23.481             5.746           104.437
       409   13 Jun 2027 10:27:40.110   13 Jun 2027 10:27:41.192             1.082           433.969
       410   13 Jun 2027 10:28:15.475   13 Jun 2027 10:28:22.099             6.624           814.094
       411   13 Jun 2027 10:28:36.295   13 Jun 2027 10:28:39.224             2.929           255.969
       412   13 Jun 2027 10:28:45.764   13 Jun 2027 10:28:46.512             0.748           204.375
       413   13 Jun 2027 10:28:53.514   13 Jun 2027 10:28:54.630             1.116            49.156
       414   13 Jun 2027 10:29:47.597   13 Jun 2027 10:29:49.143             1.546           773.000
       415   13 Jun 2027 10:30:00.085   13 Jun 2027 10:30:05.537             5.452          1122.219
       416   13 Jun 2027 11:59:31.692   13 Jun 2027 11:59:41.435             9.743          4871.500
