uniorb/output/strategy_1/Camera/Camera_KinoSat_112002.txt

KinoSat_112002
-------------------------
    Access    *     Start Time (UTCG)     *     Stop Time (UTCG)  *   Duration (s) *   Data (Mbytes)
         1   01 Jun 2027 03:25:34.963   01 Jun 2027 03:26:55.288            80.325         40162.500
         2   01 Jun 2027 03:27:38.878   01 Jun 2027 03:27:50.323            11.445          5722.500
         3   01 Jun 2027 03:29:35.371   01 Jun 2027 03:30:36.608            61.237         30618.500
         4   01 Jun 2027 03:32:42.347   01 Jun 2027 03:32:51.201             8.854          4427.000
         5   01 Jun 2027 05:03:52.500   01 Jun 2027 05:04:16.135            23.635         11817.500
         6   01 Jun 2027 05:04:29.332   01 Jun 2027 05:05:14.206            44.874         22437.000
         7   01 Jun 2027 05:05:56.761   01 Jun 2027 05:06:20.684            23.923         11961.500
         8   01 Jun 2027 05:06:31.271   01 Jun 2027 05:06:38.330             7.059          3529.500
         9   01 Jun 2027 05:07:46.528   01 Jun 2027 05:07:49.406             2.878          1439.000
        10   01 Jun 2027 05:07:58.655   01 Jun 2027 05:08:02.084             3.429          1714.500
        11   01 Jun 2027 05:08:21.116   01 Jun 2027 05:08:31.653            10.537          5268.500
        12   01 Jun 2027 06:42:04.999   01 Jun 2027 06:43:46.745           101.746         50873.000
        13   01 Jun 2027 06:44:20.584   01 Jun 2027 06:44:32.049            11.465          5732.500
        14   01 Jun 2027 06:44:50.196   01 Jun 2027 06:44:58.322             8.126          4063.000
        15   01 Jun 2027 08:05:28.483   01 Jun 2027 08:06:55.769            87.286         43643.000
        16   01 Jun 2027 08:07:37.688   01 Jun 2027 08:07:55.694            18.006          9003.000
        17   01 Jun 2027 09:41:51.181   01 Jun 2027 09:42:34.992            43.811         21905.500
        18   01 Jun 2027 11:15:46.983   01 Jun 2027 11:17:45.204           118.221         59110.500
        19   01 Jun 2027 11:19:23.426   01 Jun 2027 11:19:57.988            34.562         17281.000
        20   01 Jun 2027 11:22:37.743   01 Jun 2027 11:22:51.155            13.412          6706.000
        21   01 Jun 2027 11:22:52.348   01 Jun 2027 11:23:23.992            31.644         15822.000
        22   01 Jun 2027 11:23:51.341   01 Jun 2027 11:23:53.567             2.226          1113.000
        23   02 Jun 2027 03:37:41.665   02 Jun 2027 03:38:03.997            22.332         11166.000
        24   02 Jun 2027 03:39:06.556   02 Jun 2027 03:40:52.777           106.221         53110.500
        25   02 Jun 2027 03:42:56.521   02 Jun 2027 03:43:15.279            18.758          9379.000
        26   02 Jun 2027 03:43:21.851   02 Jun 2027 03:43:27.845             5.994          2997.000
        27   02 Jun 2027 03:44:22.635   02 Jun 2027 03:44:28.270             5.635          2817.500
        28   02 Jun 2027 05:15:56.235   02 Jun 2027 05:16:57.254            61.019         30509.500
        29   02 Jun 2027 05:17:02.954   02 Jun 2027 05:17:30.856            27.902         13951.000
        30   02 Jun 2027 05:18:22.108   02 Jun 2027 05:18:22.137             0.029            14.500
        31   02 Jun 2027 05:18:47.458   02 Jun 2027 05:19:09.843            22.385         11192.500
        32   02 Jun 2027 06:54:57.590   02 Jun 2027 06:56:40.710           103.120         51560.000
        33   02 Jun 2027 06:57:17.240   02 Jun 2027 06:57:27.516            10.276          5138.000
        34   02 Jun 2027 06:57:42.133   02 Jun 2027 06:57:51.665             9.532          4766.000
        35   02 Jun 2027 08:17:20.932   02 Jun 2027 08:20:05.070           164.138         82069.000
        36   02 Jun 2027 09:53:54.744   02 Jun 2027 09:53:59.769             5.025          2512.500
        37   02 Jun 2027 11:29:03.716   02 Jun 2027 11:29:31.657            27.941         13970.500
        38   02 Jun 2027 11:29:49.684   02 Jun 2027 11:29:49.684             0.000             0.000
        39   02 Jun 2027 11:32:58.956   02 Jun 2027 11:32:58.956             0.000             0.000
        40   02 Jun 2027 11:35:02.288   02 Jun 2027 11:35:49.929            47.641         23820.500
        41   03 Jun 2027 03:49:39.904   03 Jun 2027 03:50:24.576            44.672         22336.000
        42   03 Jun 2027 03:50:35.271   03 Jun 2027 03:51:54.578            79.307         39653.500
        43   03 Jun 2027 03:52:54.194   03 Jun 2027 03:52:59.261             5.067          2533.500
        44   03 Jun 2027 03:53:34.288   03 Jun 2027 03:53:36.186             1.898           949.000
        45   03 Jun 2027 03:55:55.587   03 Jun 2027 03:56:15.170            19.583          9791.500
        46   03 Jun 2027 05:27:53.008   03 Jun 2027 05:28:43.329            50.321         25160.500
        47   03 Jun 2027 05:28:59.721   03 Jun 2027 05:29:58.450            58.729         29364.500
        48   03 Jun 2027 05:31:00.183   03 Jun 2027 05:31:14.527            14.344          7172.000
        49   03 Jun 2027 07:06:08.197   03 Jun 2027 07:08:05.058           116.861         58430.500
        50   03 Jun 2027 07:08:34.684   03 Jun 2027 07:08:44.724            10.040          5020.000
        51   03 Jun 2027 08:29:30.601   03 Jun 2027 08:31:38.412           127.811         63905.500
        52   03 Jun 2027 10:06:05.682   03 Jun 2027 10:06:24.925            19.243          9621.500
        53   03 Jun 2027 10:07:44.515   03 Jun 2027 10:07:47.541             3.026          1513.000
        54   03 Jun 2027 11:41:15.837   03 Jun 2027 11:41:38.109            22.272         11136.000
        55   03 Jun 2027 11:43:11.834   03 Jun 2027 11:43:27.001            15.167          7583.500
        56   03 Jun 2027 11:47:39.862   03 Jun 2027 11:47:51.607            11.745          5872.500
        57   04 Jun 2027 04:01:41.106   04 Jun 2027 04:02:42.418            61.312         30656.000
        58   04 Jun 2027 04:02:58.949   04 Jun 2027 04:03:53.642            54.693         27346.500
        59   04 Jun 2027 04:04:00.316   04 Jun 2027 04:04:21.924            21.608         10804.000
        60   04 Jun 2027 05:40:58.716   04 Jun 2027 05:42:51.089           112.373         56186.500
        61   04 Jun 2027 05:45:56.078   04 Jun 2027 05:46:03.002             6.924          3462.000
        62   04 Jun 2027 05:47:34.738   04 Jun 2027 05:47:38.204             3.466          1733.000
        63   04 Jun 2027 05:47:51.556   04 Jun 2027 05:47:56.743             5.187          2593.500
        64   04 Jun 2027 05:48:43.247   04 Jun 2027 05:48:51.041             7.794          3897.000
        65   04 Jun 2027 07:18:04.928   04 Jun 2027 07:19:57.611           112.683         56341.500
        66   04 Jun 2027 07:20:16.357   04 Jun 2027 07:20:23.409             7.052          3392.094
        67   04 Jun 2027 08:42:03.538   04 Jun 2027 08:42:37.417            33.879         16939.500
        68   04 Jun 2027 08:43:14.140   04 Jun 2027 08:43:19.827             5.687          1902.375
        69   04 Jun 2027 11:53:22.017   04 Jun 2027 11:53:22.017             0.000             0.000
        70   04 Jun 2027 11:56:28.296   04 Jun 2027 11:56:28.296             0.000             0.000
        71   04 Jun 2027 11:59:30.810   04 Jun 2027 12:00:00.000            29.190         14595.000
        72   05 Jun 2027 04:14:21.905   05 Jun 2027 04:15:01.203            39.298         19649.000
        73   05 Jun 2027 04:16:03.885   05 Jun 2027 04:17:32.220            88.335         44167.500
        74   05 Jun 2027 04:18:38.719   05 Jun 2027 04:18:52.926            14.207          7103.500
        75   05 Jun 2027 05:53:07.497   05 Jun 2027 05:54:48.355           100.858         50429.000
        76   05 Jun 2027 05:55:40.540   05 Jun 2027 05:55:51.887            11.347          5673.500
        77   05 Jun 2027 05:56:42.234   05 Jun 2027 05:56:57.067            14.833          7416.500
        78   05 Jun 2027 05:57:47.506   05 Jun 2027 05:57:54.019             6.513          3256.500
        79   05 Jun 2027 06:00:07.609   05 Jun 2027 06:00:42.771            35.162         17581.000
        80   05 Jun 2027 07:18:44.089   05 Jun 2027 07:19:48.531            64.442         32221.000
        81   05 Jun 2027 07:30:03.251   05 Jun 2027 07:30:35.771            32.520         16116.094
        82   05 Jun 2027 08:52:38.771   05 Jun 2027 08:53:21.777            43.006         20221.688
        83   05 Jun 2027 08:53:55.993   05 Jun 2027 08:53:59.697             3.704           700.031
        84   05 Jun 2027 08:54:07.050   05 Jun 2027 08:54:07.735             0.685           190.781
        85   05 Jun 2027 08:55:16.856   05 Jun 2027 08:55:21.291             4.435          1030.875
        86   05 Jun 2027 10:33:31.240   05 Jun 2027 10:34:03.146            31.906         15953.000
        87   06 Jun 2027 04:26:29.678   06 Jun 2027 04:26:36.370             6.692          3346.000
        88   06 Jun 2027 04:26:46.258   06 Jun 2027 04:27:42.476            56.218         28109.000
        89   06 Jun 2027 04:30:18.053   06 Jun 2027 04:30:23.625             5.572          2786.000
        90   06 Jun 2027 04:30:51.470   06 Jun 2027 04:31:15.966            24.496         12248.000
        91   06 Jun 2027 04:31:54.140   06 Jun 2027 04:32:36.342            42.202         21101.000
        92   06 Jun 2027 06:05:33.484   06 Jun 2027 06:07:49.811           136.327         68163.500
        93   06 Jun 2027 06:09:45.767   06 Jun 2027 06:09:59.913            14.146          7073.000
        94   06 Jun 2027 06:10:29.018   06 Jun 2027 06:10:40.603            11.585          5792.500
        95   06 Jun 2027 06:12:22.213   06 Jun 2027 06:12:28.097             5.884          2942.000
        96   06 Jun 2027 07:30:22.747   06 Jun 2027 07:31:51.091            88.344         43918.812
        97   06 Jun 2027 07:42:02.735   06 Jun 2027 07:42:14.883            12.148          5176.750
        98   06 Jun 2027 07:42:24.509   06 Jun 2027 07:42:25.843             1.334           233.531
        99   06 Jun 2027 09:04:21.330   06 Jun 2027 09:04:55.787            34.457         16654.437
       100   06 Jun 2027 09:06:58.231   06 Jun 2027 09:06:58.231             0.000             0.000
       101   06 Jun 2027 10:39:17.200   06 Jun 2027 10:39:44.740            27.540          8451.281
       102   06 Jun 2027 10:40:37.165   06 Jun 2027 10:40:44.394             7.229          1100.344
       103   06 Jun 2027 10:43:06.445   06 Jun 2027 10:43:20.031            13.586          4366.406
       104   07 Jun 2027 03:01:53.312   07 Jun 2027 03:02:02.298             8.986          4493.000
       105   07 Jun 2027 03:02:14.481   07 Jun 2027 03:02:14.481             0.000             0.000
       106   07 Jun 2027 03:03:31.088   07 Jun 2027 03:03:42.639            11.551          5775.500
       107   07 Jun 2027 03:04:07.011   07 Jun 2027 03:04:19.252            12.241          6120.500
       108   07 Jun 2027 03:04:59.097   07 Jun 2027 03:05:38.836            39.739         19869.500
       109   07 Jun 2027 03:08:01.150   07 Jun 2027 03:08:17.016            15.866          7933.000
       110   07 Jun 2027 03:08:49.144   07 Jun 2027 03:08:57.743             8.599          4299.500
       111   07 Jun 2027 04:38:56.925   07 Jun 2027 04:39:14.675            17.750          8875.000
       112   07 Jun 2027 04:39:22.458   07 Jun 2027 04:39:52.139            29.681         14840.500
       113   07 Jun 2027 04:39:57.041   07 Jun 2027 04:39:57.580             0.539           269.500
       114   07 Jun 2027 04:42:09.069   07 Jun 2027 04:42:17.058             7.989          3994.500
       115   07 Jun 2027 04:42:28.058   07 Jun 2027 04:42:35.881             7.823          3911.500
       116   07 Jun 2027 04:43:50.515   07 Jun 2027 04:44:19.502            28.987         14493.500
       117   07 Jun 2027 06:17:38.481   07 Jun 2027 06:19:16.706            98.225         49112.500
       118   07 Jun 2027 06:19:22.507   07 Jun 2027 06:19:41.469            18.962          9481.000
       119   07 Jun 2027 06:22:11.714   07 Jun 2027 06:22:21.516             9.802          4901.000
       120   07 Jun 2027 06:24:24.497   07 Jun 2027 06:24:32.232             7.735          3867.500
       121   07 Jun 2027 07:41:56.491   07 Jun 2027 07:42:32.512            36.021         18010.500
       122   07 Jun 2027 07:42:43.062   07 Jun 2027 07:43:32.452            49.390         24668.656
       123   07 Jun 2027 07:43:53.171   07 Jun 2027 07:43:56.433             3.262           570.438
       124   07 Jun 2027 07:54:18.380   07 Jun 2027 07:54:30.181            11.801          5900.500
       125   07 Jun 2027 09:15:53.463   07 Jun 2027 09:16:35.439            41.976         20957.688
       126   07 Jun 2027 09:21:01.781   07 Jun 2027 09:21:18.854            17.073          8259.531
       127   07 Jun 2027 10:51:49.653   07 Jun 2027 10:52:07.614            17.961          6648.469
       128   07 Jun 2027 10:54:26.264   07 Jun 2027 10:54:30.274             4.010          2005.000
       129   07 Jun 2027 10:55:24.374   07 Jun 2027 10:55:29.455             5.081          2297.437
       130   07 Jun 2027 10:55:52.332   07 Jun 2027 10:55:53.124             0.792           396.000
       131   07 Jun 2027 10:56:22.971   07 Jun 2027 10:56:30.379             7.408          1251.625
       132   07 Jun 2027 10:57:01.168   07 Jun 2027 10:57:06.356             5.188           956.438
       133   07 Jun 2027 10:57:36.659   07 Jun 2027 10:57:40.060             3.401           740.719
       134   07 Jun 2027 10:58:07.003   07 Jun 2027 10:58:09.708             2.705           519.719
       135   08 Jun 2027 03:13:51.451   08 Jun 2027 03:14:15.125            23.674         11837.000
       136   08 Jun 2027 03:14:28.078   08 Jun 2027 03:15:08.016            39.938         19969.000
       137   08 Jun 2027 03:16:26.500   08 Jun 2027 03:16:51.214            24.714         12357.000
       138   08 Jun 2027 03:19:25.534   08 Jun 2027 03:19:44.298            18.764          9382.000
       139   08 Jun 2027 03:20:33.846   08 Jun 2027 03:20:46.066            12.220          6110.000
       140   08 Jun 2027 03:21:16.310   08 Jun 2027 03:21:18.131             1.821           910.500
       141   08 Jun 2027 04:51:33.027   08 Jun 2027 04:51:45.445            12.418          6209.000
       142   08 Jun 2027 04:51:55.983   08 Jun 2027 04:52:56.420            60.437         30218.500
       143   08 Jun 2027 04:53:04.677   08 Jun 2027 04:53:23.351            18.674          9337.000
       144   08 Jun 2027 04:56:14.951   08 Jun 2027 04:56:30.162            15.211          7605.500
       145   08 Jun 2027 06:30:04.097   08 Jun 2027 06:31:45.791           101.694         50847.000
       146   08 Jun 2027 06:31:53.900   08 Jun 2027 06:31:56.561             2.661          1330.500
       147   08 Jun 2027 06:33:07.142   08 Jun 2027 06:33:19.147            12.005          6002.500
       148   08 Jun 2027 06:34:30.836   08 Jun 2027 06:35:00.267            29.431         14715.500
       149   08 Jun 2027 07:53:52.541   08 Jun 2027 07:54:47.880            55.339         25826.781
       150   08 Jun 2027 07:55:44.286   08 Jun 2027 07:55:48.567             4.281          1762.688
       151   08 Jun 2027 09:30:53.566   08 Jun 2027 09:31:28.534            34.968         17484.000
       152   08 Jun 2027 09:32:37.082   08 Jun 2027 09:32:56.320            19.238          9344.031
       153   08 Jun 2027 11:03:40.344   08 Jun 2027 11:03:56.459            16.115          5330.406
       154   08 Jun 2027 11:09:48.071   08 Jun 2027 11:10:04.597            16.526          7990.250
       155   08 Jun 2027 11:10:55.672   08 Jun 2027 11:10:59.396             3.724          1124.406
       156   08 Jun 2027 11:11:22.916   08 Jun 2027 11:11:25.369             2.453           398.187
       157   08 Jun 2027 11:11:39.264   08 Jun 2027 11:11:45.445             6.181           428.375
       158   09 Jun 2027 03:25:53.691   09 Jun 2027 03:26:45.287            51.596         25798.000
       159   09 Jun 2027 03:26:57.718   09 Jun 2027 03:27:10.041            12.323          6161.500
       160   09 Jun 2027 03:27:53.823   09 Jun 2027 03:28:32.762            38.939         19469.500
       161   09 Jun 2027 03:29:06.567   09 Jun 2027 03:29:26.609            20.042         10021.000
       162   09 Jun 2027 03:29:35.941   09 Jun 2027 03:29:49.346            13.405          6702.500
       163   09 Jun 2027 03:30:40.772   09 Jun 2027 03:30:45.316             4.544          2272.000
       164   09 Jun 2027 03:32:16.407   09 Jun 2027 03:32:42.411            26.004         13002.000
       165   09 Jun 2027 05:04:06.150   09 Jun 2027 05:04:32.905            26.755         13377.500
       166   09 Jun 2027 05:04:43.876   09 Jun 2027 05:05:56.608            72.732         36366.000
       167   09 Jun 2027 05:08:30.184   09 Jun 2027 05:08:31.883             1.699           849.500
       168   09 Jun 2027 05:10:00.000   09 Jun 2027 05:10:14.845            14.844          7422.000
       169   09 Jun 2027 06:42:22.794   09 Jun 2027 06:43:55.791            92.997         46498.500
       170   09 Jun 2027 06:44:18.217   09 Jun 2027 06:44:29.237            11.020          5510.000
       171   09 Jun 2027 06:45:25.503   09 Jun 2027 06:45:25.503             0.000             0.000
       172   09 Jun 2027 06:46:10.210   09 Jun 2027 06:46:10.210             0.000             0.000
       173   09 Jun 2027 06:46:13.502   09 Jun 2027 06:46:27.437            13.935          6967.500
       174   09 Jun 2027 08:05:45.137   09 Jun 2027 08:06:20.140            35.003         17501.500
       175   09 Jun 2027 08:07:56.520   09 Jun 2027 08:07:56.520             0.000             0.000
       176   09 Jun 2027 08:08:03.866   09 Jun 2027 08:08:12.700             8.834          3712.750
       177   09 Jun 2027 09:42:06.210   09 Jun 2027 09:42:35.077            28.867         14135.750
       178   09 Jun 2027 11:16:10.249   09 Jun 2027 11:16:33.484            23.235         10166.813
       179   09 Jun 2027 11:17:09.187   09 Jun 2027 11:17:15.264             6.077           909.937
       180   09 Jun 2027 11:22:52.516   09 Jun 2027 11:23:09.042            16.526          8263.000
       181   09 Jun 2027 11:23:10.089   09 Jun 2027 11:23:12.791             2.702           883.531
       182   09 Jun 2027 11:24:08.067   09 Jun 2027 11:24:11.355             3.288          1644.000
       183   10 Jun 2027 03:37:59.340   10 Jun 2027 03:39:11.844            72.504         36252.000
       184   10 Jun 2027 03:39:21.582   10 Jun 2027 03:39:46.975            25.393         12696.500
       185   10 Jun 2027 03:41:22.270   10 Jun 2027 03:41:32.864            10.594          5297.000
       186   10 Jun 2027 03:42:27.759   10 Jun 2027 03:42:32.438             4.679          2339.500
       187   10 Jun 2027 03:44:07.296   10 Jun 2027 03:44:42.774            35.478         17739.000
       188   10 Jun 2027 05:16:12.439   10 Jun 2027 05:17:14.199            61.760         30880.000
       189   10 Jun 2027 05:17:20.223   10 Jun 2027 05:18:02.868            42.645         21322.500
       190   10 Jun 2027 05:18:11.339   10 Jun 2027 05:18:14.773             3.434          1717.000
       191   10 Jun 2027 05:18:36.839   10 Jun 2027 05:18:42.289             5.450          2725.000
       192   10 Jun 2027 05:19:04.961   10 Jun 2027 05:19:13.058             8.097          4048.500
       193   10 Jun 2027 05:19:31.966   10 Jun 2027 05:19:31.966             0.000             0.000
       194   10 Jun 2027 05:19:37.125   10 Jun 2027 05:19:56.594            19.469          9734.500
       195   10 Jun 2027 06:55:15.771   10 Jun 2027 06:56:48.625            92.854         46427.000
       196   10 Jun 2027 06:57:18.727   10 Jun 2027 06:57:20.211             1.484           742.000
       197   10 Jun 2027 06:57:45.640   10 Jun 2027 06:57:45.640             0.000             0.000
       198   10 Jun 2027 06:58:06.380   10 Jun 2027 06:58:14.016             7.636          3095.593
       199   10 Jun 2027 08:17:47.084   10 Jun 2027 08:18:09.613            22.529         11038.969
       200   10 Jun 2027 09:54:12.967   10 Jun 2027 09:54:15.407             2.440          1220.000
       201   10 Jun 2027 09:55:24.749   10 Jun 2027 09:55:41.537            16.788          7725.781
       202   10 Jun 2027 09:56:11.362   10 Jun 2027 09:56:13.810             2.448           842.250
       203   10 Jun 2027 09:56:35.309   10 Jun 2027 09:56:35.309             0.000             0.000
       204   10 Jun 2027 09:57:17.058   10 Jun 2027 09:57:22.353             5.295          1976.500
       205   10 Jun 2027 11:30:46.919   10 Jun 2027 11:31:07.962            21.043         10444.063
       206   10 Jun 2027 11:31:15.725   10 Jun 2027 11:31:19.564             3.839           215.000
       207   10 Jun 2027 11:32:27.377   10 Jun 2027 11:32:31.858             4.481          2059.875
       208   10 Jun 2027 11:33:20.503   10 Jun 2027 11:33:25.001             4.498          1217.156
       209   10 Jun 2027 11:34:26.503   10 Jun 2027 11:34:32.260             5.757          1761.781
       210   10 Jun 2027 11:34:56.700   10 Jun 2027 11:34:57.561             0.861           158.344
       211   10 Jun 2027 11:36:02.293   10 Jun 2027 11:36:06.469             4.176          1938.781
       212   11 Jun 2027 03:49:57.834   11 Jun 2027 03:52:09.666           131.832         65916.000
       213   11 Jun 2027 03:53:00.365   11 Jun 2027 03:53:08.899             8.534          4267.000
       214   11 Jun 2027 03:55:31.860   11 Jun 2027 03:55:42.016            10.156          5078.000
       215   11 Jun 2027 05:28:11.681   11 Jun 2027 05:28:56.754            45.073         22536.500
       216   11 Jun 2027 05:29:17.785   11 Jun 2027 05:30:19.399            61.614         30807.000
       217   11 Jun 2027 05:31:59.171   11 Jun 2027 05:32:08.945             9.774          4887.000
       218   11 Jun 2027 05:33:50.094   11 Jun 2027 05:33:53.266             3.172          1586.000
       219   11 Jun 2027 07:06:24.989   11 Jun 2027 07:08:02.443            97.454         48727.000
       220   11 Jun 2027 07:08:59.486   11 Jun 2027 07:09:15.600            16.114          8057.000
       221   11 Jun 2027 07:09:47.833   11 Jun 2027 07:09:49.530             1.697           848.500
       222   11 Jun 2027 08:29:46.888   11 Jun 2027 08:30:22.007            35.119         16239.499
       223   11 Jun 2027 08:30:36.786   11 Jun 2027 08:30:38.571             1.785           211.563
       224   11 Jun 2027 08:31:14.968   11 Jun 2027 08:31:15.654             0.686           343.000
       225   11 Jun 2027 08:31:55.845   11 Jun 2027 08:31:55.845             0.000             0.000
       226   11 Jun 2027 08:32:45.272   11 Jun 2027 08:32:51.629             6.357          3026.500
       227   11 Jun 2027 10:06:23.524   11 Jun 2027 10:06:36.238            12.714          5953.500
       228   11 Jun 2027 10:08:06.095   11 Jun 2027 10:08:06.167             0.072            36.000
       229   11 Jun 2027 10:08:21.329   11 Jun 2027 10:08:31.499            10.170          3067.563
       230   11 Jun 2027 10:09:24.454   11 Jun 2027 10:09:24.454             0.000             0.000
       231   11 Jun 2027 11:44:44.017   11 Jun 2027 11:44:44.017             0.000             0.000
       232   11 Jun 2027 11:47:57.004   11 Jun 2027 11:48:09.482            12.478          6239.000
       233   12 Jun 2027 04:01:59.493   12 Jun 2027 04:02:21.774            22.281         11140.500
       234   12 Jun 2027 04:02:24.319   12 Jun 2027 04:03:13.786            49.467         24733.500
       235   12 Jun 2027 04:04:36.318   12 Jun 2027 04:05:43.346            67.028         33514.000
       236   12 Jun 2027 04:07:53.878   12 Jun 2027 04:08:04.639            10.761          5380.500
       237   12 Jun 2027 05:41:17.004   12 Jun 2027 05:43:32.034           135.030         67515.000
       238   12 Jun 2027 05:46:13.229   12 Jun 2027 05:46:15.517             2.288          1144.000
       239   12 Jun 2027 05:48:06.913   12 Jun 2027 05:48:58.270            51.357         25678.500
       240   12 Jun 2027 07:07:39.982   12 Jun 2027 07:07:43.342             3.360          1680.000
       241   12 Jun 2027 07:18:22.818   12 Jun 2027 07:19:42.651            79.833         39916.500
       242   12 Jun 2027 07:21:08.745   12 Jun 2027 07:21:25.785            17.040          7250.813
       243   12 Jun 2027 07:21:46.813   12 Jun 2027 07:21:49.942             3.129           583.750
       244   12 Jun 2027 08:42:23.303   12 Jun 2027 08:42:47.155            23.852          9456.219
       245   12 Jun 2027 08:42:59.375   12 Jun 2027 08:42:59.375             0.000             0.000
       246   12 Jun 2027 08:43:31.705   12 Jun 2027 08:43:34.739             3.034          1244.281
       247   12 Jun 2027 10:19:37.496   12 Jun 2027 10:19:37.496             0.000             0.000
       248   12 Jun 2027 11:56:30.926   12 Jun 2027 11:56:44.066            13.140          6570.000
       249   12 Jun 2027 11:59:47.681   12 Jun 2027 12:00:00.000            12.319          6159.500
       250   13 Jun 2027 04:14:40.089   13 Jun 2027 04:16:42.961           122.872         61436.000
       251   13 Jun 2027 05:53:37.829   13 Jun 2027 05:55:46.702           128.873         64436.500
       252   13 Jun 2027 05:56:46.951   13 Jun 2027 05:56:50.690             3.739          1869.500
       253   13 Jun 2027 05:59:00.866   13 Jun 2027 05:59:15.676            14.810          7405.000
       254   13 Jun 2027 06:00:26.956   13 Jun 2027 06:01:02.231            35.275         17637.500
       255   13 Jun 2027 07:18:57.319   13 Jun 2027 07:20:07.458            70.139         35069.500
       256   13 Jun 2027 07:30:21.612   13 Jun 2027 07:30:51.983            30.371         15185.500
       257   13 Jun 2027 07:31:01.091   13 Jun 2027 07:31:07.854             6.763          3381.500
       258   13 Jun 2027 08:52:59.420   13 Jun 2027 08:53:29.099            29.679         14530.375
       259   13 Jun 2027 08:54:32.283   13 Jun 2027 08:54:33.718             1.435           702.375
       260   13 Jun 2027 08:55:34.628   13 Jun 2027 08:55:42.719             8.091          1027.219
       261   13 Jun 2027 10:28:27.532   13 Jun 2027 10:28:34.874             7.342          3671.000
       262   13 Jun 2027 10:30:49.248   13 Jun 2027 10:31:07.143            17.895          8319.687
       263   13 Jun 2027 10:33:22.959   13 Jun 2027 10:33:29.415             6.456          3164.500
