uniorb/output/strategy_1/Camera/Camera_KinoSat_110302.txt

KinoSat_110302
-------------------------
    Access    *     Start Time (UTCG)     *     Stop Time (UTCG)  *   Duration (s) *   Data (Mbytes)
         1   01 Jun 2027 04:25:08.293   01 Jun 2027 04:27:21.644           133.351         66675.500
         2   01 Jun 2027 04:28:02.762   01 Jun 2027 04:28:14.098            11.336          5668.000
         3   01 Jun 2027 04:28:23.880   01 Jun 2027 04:28:28.688             4.808          2404.000
         4   01 Jun 2027 04:29:16.393   01 Jun 2027 04:29:25.420             9.027          4513.500
         5   01 Jun 2027 04:29:33.469   01 Jun 2027 04:29:35.410             1.941           970.500
         6   01 Jun 2027 04:30:43.239   01 Jun 2027 04:30:53.167             9.928          4964.000
         7   01 Jun 2027 04:31:11.317   01 Jun 2027 04:31:33.565            22.248         11124.000
         8   01 Jun 2027 06:02:02.746   01 Jun 2027 06:05:25.943           203.197        101598.500
         9   01 Jun 2027 06:06:10.037   01 Jun 2027 06:06:20.720            10.683          5341.500
        10   01 Jun 2027 06:06:52.389   01 Jun 2027 06:06:58.719             6.330          3165.000
        11   01 Jun 2027 06:07:01.314   01 Jun 2027 06:07:09.384             8.070          4035.000
        12   01 Jun 2027 06:07:39.704   01 Jun 2027 06:07:42.508             2.804          1402.000
        13   01 Jun 2027 06:08:06.545   01 Jun 2027 06:08:09.881             3.336          1668.000
        14   01 Jun 2027 06:08:18.050   01 Jun 2027 06:08:23.593             5.543          2771.500
        15   01 Jun 2027 07:39:11.530   01 Jun 2027 07:42:18.725           187.195         93597.500
        16   01 Jun 2027 07:42:22.897   01 Jun 2027 07:42:29.893             6.996          3498.000
        17   01 Jun 2027 07:42:55.664   01 Jun 2027 07:42:58.248             2.584          1292.000
        18   01 Jun 2027 09:14:01.845   01 Jun 2027 09:15:10.059            68.214         34107.000
        19   01 Jun 2027 09:15:53.468   01 Jun 2027 09:16:57.006            63.538         31769.000
        20   01 Jun 2027 09:17:57.514   01 Jun 2027 09:18:41.308            43.794         21897.000
        21   02 Jun 2027 03:00:03.047   02 Jun 2027 03:05:16.081           313.034        156517.000
        22   02 Jun 2027 03:05:38.710   02 Jun 2027 03:05:53.667            14.957          7478.500
        23   02 Jun 2027 03:06:48.507   02 Jun 2027 03:06:51.331             2.824          1412.000
        24   02 Jun 2027 03:06:55.241   02 Jun 2027 03:06:55.241             0.000             0.000
        25   02 Jun 2027 03:07:08.372   02 Jun 2027 03:07:19.124            10.752          5376.000
        26   02 Jun 2027 03:07:56.348   02 Jun 2027 03:08:36.578            40.230         20115.000
        27   02 Jun 2027 04:37:34.282   02 Jun 2027 04:39:53.697           139.415         69707.500
        28   02 Jun 2027 04:41:05.398   02 Jun 2027 04:41:17.617            12.219          6109.500
        29   02 Jun 2027 04:41:34.052   02 Jun 2027 04:41:43.842             9.790          4895.000
        30   02 Jun 2027 04:42:01.066   02 Jun 2027 04:42:09.881             8.815          4407.500
        31   02 Jun 2027 04:42:52.138   02 Jun 2027 04:43:01.667             9.529          4764.500
        32   02 Jun 2027 04:43:08.684   02 Jun 2027 04:43:17.940             9.256          4628.000
        33   02 Jun 2027 04:43:32.369   02 Jun 2027 04:43:32.820             0.451           225.500
        34   02 Jun 2027 06:14:30.440   02 Jun 2027 06:16:48.719           138.279         69139.500
        35   02 Jun 2027 06:17:12.738   02 Jun 2027 06:17:13.924             1.186           593.000
        36   02 Jun 2027 06:17:36.592   02 Jun 2027 06:18:12.218            35.626         17813.000
        37   02 Jun 2027 06:19:05.163   02 Jun 2027 06:19:31.092            25.929         12964.500
        38   02 Jun 2027 07:51:24.402   02 Jun 2027 07:53:37.377           132.975         66487.500
        39   02 Jun 2027 07:53:45.363   02 Jun 2027 07:53:52.727             7.364          3682.000
        40   02 Jun 2027 07:54:24.141   02 Jun 2027 07:54:32.962             8.821          4410.500
        41   02 Jun 2027 07:54:41.628   02 Jun 2027 07:54:50.252             8.624          4312.000
        42   02 Jun 2027 07:55:23.922   02 Jun 2027 07:55:37.664            13.742          6871.000
        43   02 Jun 2027 09:28:34.587   02 Jun 2027 09:30:48.752           134.165         67082.500
        44   02 Jun 2027 09:30:58.773   02 Jun 2027 09:30:59.744             0.971           485.500
        45   03 Jun 2027 03:10:43.379   03 Jun 2027 03:10:54.090            10.711          5355.500
        46   03 Jun 2027 03:12:41.772   03 Jun 2027 03:17:57.024           315.252        157626.000
        47   03 Jun 2027 03:18:08.284   03 Jun 2027 03:18:16.351             8.067          4033.500
        48   03 Jun 2027 03:19:01.845   03 Jun 2027 03:19:05.605             3.760          1880.000
        49   03 Jun 2027 03:19:21.908   03 Jun 2027 03:19:26.980             5.072          2536.000
        50   03 Jun 2027 03:20:30.609   03 Jun 2027 03:20:30.875             0.266           133.000
        51   03 Jun 2027 04:49:40.606   03 Jun 2027 04:52:49.253           188.647         94323.500
        52   03 Jun 2027 04:54:55.932   03 Jun 2027 04:55:05.670             9.738          4869.000
        53   03 Jun 2027 04:55:09.294   03 Jun 2027 04:55:10.910             1.616           808.000
        54   03 Jun 2027 04:55:39.037   03 Jun 2027 04:56:01.362            22.325         11162.500
        55   03 Jun 2027 04:56:21.146   03 Jun 2027 04:56:21.146             0.000             0.000
        56   03 Jun 2027 06:27:04.004   03 Jun 2027 06:29:15.424           131.420         65710.000
        57   03 Jun 2027 06:29:58.981   03 Jun 2027 06:30:14.971            15.990          7995.000
        58   03 Jun 2027 06:30:43.215   03 Jun 2027 06:30:47.974             4.759          2379.500
        59   03 Jun 2027 06:30:52.037   03 Jun 2027 06:30:56.091             4.054          2027.000
        60   03 Jun 2027 06:31:35.450   03 Jun 2027 06:31:47.399            11.949          5974.500
        61   03 Jun 2027 08:03:26.481   03 Jun 2027 08:05:38.609           132.128         66064.000
        62   03 Jun 2027 08:06:01.026   03 Jun 2027 08:06:14.577            13.551          6775.500
        63   03 Jun 2027 08:07:01.166   03 Jun 2027 08:07:14.392            13.226          6613.000
        64   03 Jun 2027 08:07:37.430   03 Jun 2027 08:07:44.834             7.404          3702.000
        65   03 Jun 2027 08:08:02.680   03 Jun 2027 08:08:08.239             5.559          2779.500
        66   03 Jun 2027 08:08:21.266   03 Jun 2027 08:08:31.054             9.788          4894.000
        67   03 Jun 2027 09:41:44.569   03 Jun 2027 09:42:22.485            37.916         18958.000
        68   04 Jun 2027 03:25:55.782   04 Jun 2027 03:30:42.653           286.871        143435.500
        69   04 Jun 2027 03:30:57.581   04 Jun 2027 03:31:24.719            27.138         13569.000
        70   04 Jun 2027 03:32:24.444   04 Jun 2027 03:32:33.041             8.597          4298.500
        71   04 Jun 2027 05:02:14.355   04 Jun 2027 05:04:57.131           162.776         81388.000
        72   04 Jun 2027 05:05:33.483   04 Jun 2027 05:05:41.071             7.588          3794.000
        73   04 Jun 2027 05:06:39.976   04 Jun 2027 05:06:46.020             6.044          3022.000
        74   04 Jun 2027 05:06:58.801   04 Jun 2027 05:07:07.597             8.796          4398.000
        75   04 Jun 2027 05:07:55.449   04 Jun 2027 05:07:56.039             0.590           295.000
        76   04 Jun 2027 06:39:37.222   04 Jun 2027 06:42:29.026           171.804         85902.000
        77   04 Jun 2027 06:42:53.918   04 Jun 2027 06:42:53.918             0.000             0.000
        78   04 Jun 2027 06:43:08.065   04 Jun 2027 06:43:21.938            13.873          6936.500
        79   04 Jun 2027 06:43:32.349   04 Jun 2027 06:43:39.865             7.516          3758.000
        80   04 Jun 2027 08:15:47.571   04 Jun 2027 08:17:03.808            76.237         38118.500
        81   04 Jun 2027 08:17:38.221   04 Jun 2027 08:18:05.328            27.107         13553.500
        82   04 Jun 2027 08:19:02.447   04 Jun 2027 08:19:02.801             0.354           177.000
        83   04 Jun 2027 08:19:28.038   04 Jun 2027 08:19:37.933             9.895          4947.500
        84   04 Jun 2027 08:19:54.766   04 Jun 2027 08:19:57.379             2.613          1306.500
        85   04 Jun 2027 08:20:13.291   04 Jun 2027 08:20:20.369             7.078          3539.000
        86   05 Jun 2027 03:37:56.880   05 Jun 2027 03:42:16.344           259.464        129732.000
        87   05 Jun 2027 03:42:55.629   05 Jun 2027 03:43:25.849            30.220         15110.000
        88   05 Jun 2027 03:44:16.253   05 Jun 2027 03:44:20.687             4.434          2217.000
        89   05 Jun 2027 03:44:36.268   05 Jun 2027 03:44:39.105             2.837          1418.500
        90   05 Jun 2027 05:13:52.872   05 Jun 2027 05:17:18.993           206.121        103060.500
        91   05 Jun 2027 05:17:23.770   05 Jun 2027 05:17:24.551             0.781           390.500
        92   05 Jun 2027 05:17:38.572   05 Jun 2027 05:17:40.447             1.875           937.500
        93   05 Jun 2027 05:17:49.129   05 Jun 2027 05:18:03.544            14.415          7207.500
        94   05 Jun 2027 05:19:09.437   05 Jun 2027 05:19:10.711             1.274           637.000
        95   05 Jun 2027 05:19:16.957   05 Jun 2027 05:19:22.784             5.827          2913.500
        96   05 Jun 2027 05:19:35.890   05 Jun 2027 05:19:41.325             5.435          2717.500
        97   05 Jun 2027 06:51:51.056   05 Jun 2027 06:54:04.797           133.741         66870.500
        98   05 Jun 2027 06:54:34.857   05 Jun 2027 06:54:48.479            13.622          6811.000
        99   05 Jun 2027 06:55:01.659   05 Jun 2027 06:55:10.320             8.661          4330.500
       100   05 Jun 2027 08:27:42.613   05 Jun 2027 08:28:38.823            56.210         28105.000
       101   05 Jun 2027 08:29:31.209   05 Jun 2027 08:29:40.321             9.112          4556.000
       102   05 Jun 2027 08:30:12.298   05 Jun 2027 08:30:29.362            17.064          8532.000
       103   05 Jun 2027 08:31:24.214   05 Jun 2027 08:31:32.136             7.922          3961.000
       104   05 Jun 2027 08:32:07.787   05 Jun 2027 08:32:17.630             9.843          4921.500
       105   05 Jun 2027 08:32:51.867   05 Jun 2027 08:32:54.644             2.777          1388.500
       106   06 Jun 2027 03:49:12.609   06 Jun 2027 03:53:57.911           285.302        142651.000
       107   06 Jun 2027 03:54:56.067   06 Jun 2027 03:55:26.809            30.742         15371.000
       108   06 Jun 2027 03:56:05.319   06 Jun 2027 03:56:28.245            22.926         11463.000
       109   06 Jun 2027 03:56:41.177   06 Jun 2027 03:56:45.625             4.448          2224.000
       110   06 Jun 2027 05:26:02.313   06 Jun 2027 05:29:24.880           202.567        101283.500
       111   06 Jun 2027 05:29:37.669   06 Jun 2027 05:29:38.240             0.571           285.500
       112   06 Jun 2027 05:31:05.366   06 Jun 2027 05:31:08.981             3.615          1807.500
       113   06 Jun 2027 05:31:22.959   06 Jun 2027 05:31:53.395            30.436         15218.000
       114   06 Jun 2027 07:04:13.609   06 Jun 2027 07:06:47.978           154.369         77184.500
       115   06 Jun 2027 07:07:27.307   06 Jun 2027 07:07:40.211            12.904          6452.000
       116   06 Jun 2027 07:08:08.095   06 Jun 2027 07:08:10.538             2.443          1221.500
       117   06 Jun 2027 08:37:31.579   06 Jun 2027 08:38:01.149            29.570         14785.000
       118   06 Jun 2027 08:38:10.778   06 Jun 2027 08:38:17.922             7.144          3572.000
       119   06 Jun 2027 08:38:31.476   06 Jun 2027 08:38:47.990            16.514          8257.000
       120   06 Jun 2027 08:40:11.435   06 Jun 2027 08:40:11.435             0.000             0.000
       121   06 Jun 2027 08:40:43.279   06 Jun 2027 08:40:54.725            11.446          5723.000
       122   06 Jun 2027 08:41:10.345   06 Jun 2027 08:41:10.345             0.000             0.000
       123   06 Jun 2027 08:41:33.210   06 Jun 2027 08:41:41.472             8.262          4131.000
       124   06 Jun 2027 08:42:11.764   06 Jun 2027 08:42:25.067            13.303          6651.500
       125   06 Jun 2027 08:43:15.261   06 Jun 2027 08:43:21.002             5.741          2870.500
       126   06 Jun 2027 08:43:36.181   06 Jun 2027 08:43:54.857            18.676          9338.000
       127   06 Jun 2027 08:45:09.606   06 Jun 2027 08:45:17.269             7.663          3831.500
       128   07 Jun 2027 04:01:20.296   07 Jun 2027 04:06:05.797           285.501        142750.500
       129   07 Jun 2027 04:06:58.972   07 Jun 2027 04:07:28.430            29.458         14729.000
       130   07 Jun 2027 04:07:50.493   07 Jun 2027 04:08:20.753            30.260         15130.000
       131   07 Jun 2027 05:38:18.266   07 Jun 2027 05:41:11.701           173.435         86717.500
       132   07 Jun 2027 05:41:16.333   07 Jun 2027 05:41:46.258            29.925         14962.500
       133   07 Jun 2027 05:43:38.706   07 Jun 2027 05:44:06.475            27.769         13884.500
       134   07 Jun 2027 07:16:14.749   07 Jun 2027 07:18:38.440           143.691         71845.500
       135   07 Jun 2027 07:18:39.642   07 Jun 2027 07:19:01.734            22.092         11046.000
       136   07 Jun 2027 07:20:12.109   07 Jun 2027 07:20:20.840             8.731          4365.500
       137   07 Jun 2027 08:49:34.859   07 Jun 2027 08:50:05.311            30.452         15226.000
       138   07 Jun 2027 08:50:13.263   07 Jun 2027 08:50:21.230             7.967          3983.500
       139   07 Jun 2027 08:51:20.739   07 Jun 2027 08:51:45.583            24.844         12422.000
       140   07 Jun 2027 08:54:18.995   07 Jun 2027 08:54:36.848            17.853          8926.500
       141   07 Jun 2027 08:55:24.887   07 Jun 2027 08:55:34.251             9.364          4682.000
       142   07 Jun 2027 08:55:52.022   07 Jun 2027 08:55:58.341             6.319          3159.500
       143   08 Jun 2027 04:13:22.204   08 Jun 2027 04:19:04.423           342.219        171109.500
       144   08 Jun 2027 04:19:27.455   08 Jun 2027 04:19:38.627            11.172          5586.000
       145   08 Jun 2027 05:50:08.412   08 Jun 2027 05:53:27.036           198.624         99312.000
       146   08 Jun 2027 05:56:24.345   08 Jun 2027 05:56:51.224            26.879         13439.500
       147   08 Jun 2027 07:28:13.546   08 Jun 2027 07:30:26.153           132.607         66303.500
       148   08 Jun 2027 07:30:36.186   08 Jun 2027 07:30:42.442             6.256          3128.000
       149   08 Jun 2027 07:30:58.411   08 Jun 2027 07:30:59.073             0.662           331.000
       150   08 Jun 2027 07:31:16.699   08 Jun 2027 07:31:29.380            12.681          6340.500
       151   08 Jun 2027 07:31:48.829   08 Jun 2027 07:32:04.770            15.941          7970.500
       152   08 Jun 2027 09:02:02.153   08 Jun 2027 09:02:28.525            26.372         13186.000
       153   08 Jun 2027 09:02:52.550   08 Jun 2027 09:03:07.464            14.914          7457.000
       154   08 Jun 2027 09:03:53.699   08 Jun 2027 09:03:54.168             0.469           234.500
       155   08 Jun 2027 09:04:12.218   08 Jun 2027 09:04:18.100             5.882          2941.000
       156   08 Jun 2027 09:04:31.224   08 Jun 2027 09:04:56.008            24.784         12392.000
       157   08 Jun 2027 09:07:07.939   08 Jun 2027 09:07:16.259             8.320          4160.000
       158   08 Jun 2027 09:07:22.105   08 Jun 2027 09:07:29.262             7.157          3578.500
       159   08 Jun 2027 09:08:31.972   08 Jun 2027 09:08:44.560            12.588          6294.000
       160   09 Jun 2027 04:25:23.033   09 Jun 2027 04:32:14.647           411.614        205807.000
       161   09 Jun 2027 06:02:17.755   09 Jun 2027 06:05:05.297           167.542         83771.000
       162   09 Jun 2027 06:05:12.522   09 Jun 2027 06:05:26.437            13.915          6957.500
       163   09 Jun 2027 06:08:18.259   09 Jun 2027 06:08:43.372            25.113         12556.500
       164   09 Jun 2027 07:39:26.234   09 Jun 2027 07:41:38.661           132.427         66213.500
       165   09 Jun 2027 07:41:50.881   09 Jun 2027 07:42:07.946            17.065          8532.500
       166   09 Jun 2027 07:43:13.177   09 Jun 2027 07:43:17.054             3.877          1938.500
       167   09 Jun 2027 07:43:58.176   09 Jun 2027 07:44:16.180            18.004          9002.000
       168   09 Jun 2027 09:14:17.199   09 Jun 2027 09:14:51.593            34.394         17197.000
       169   09 Jun 2027 09:16:37.995   09 Jun 2027 09:17:12.072            34.077         17038.500
       170   09 Jun 2027 09:19:02.838   09 Jun 2027 09:19:13.470            10.632          5316.000
       171   10 Jun 2027 03:00:17.793   10 Jun 2027 03:03:54.964           217.171        108585.500
       172   10 Jun 2027 03:04:06.338   10 Jun 2027 03:04:12.519             6.181          3090.500
       173   10 Jun 2027 03:04:43.537   10 Jun 2027 03:05:07.117            23.580         11790.000
       174   10 Jun 2027 03:05:32.170   10 Jun 2027 03:05:37.033             4.863          2431.500
       175   10 Jun 2027 03:06:32.350   10 Jun 2027 03:06:51.708            19.358          9679.000
       176   10 Jun 2027 03:07:49.049   10 Jun 2027 03:07:49.637             0.588           294.000
       177   10 Jun 2027 03:07:49.848   10 Jun 2027 03:08:10.847            20.999         10499.500
       178   10 Jun 2027 03:08:49.868   10 Jun 2027 03:08:51.276             1.408           704.000
       179   10 Jun 2027 04:37:49.566   10 Jun 2027 04:40:22.298           152.732         76366.000
       180   10 Jun 2027 04:40:36.901   10 Jun 2027 04:40:36.901             0.000             0.000
       181   10 Jun 2027 04:40:53.263   10 Jun 2027 04:41:03.908            10.645          5322.500
       182   10 Jun 2027 04:41:35.508   10 Jun 2027 04:42:01.422            25.914         12957.000
       183   10 Jun 2027 04:43:08.113   10 Jun 2027 04:43:16.248             8.135          4067.500
       184   10 Jun 2027 04:43:20.385   10 Jun 2027 04:43:26.663             6.278          3139.000
       185   10 Jun 2027 06:14:45.706   10 Jun 2027 06:17:05.341           139.635         69817.500
       186   10 Jun 2027 06:17:53.023   10 Jun 2027 06:18:27.853            34.830         17415.000
       187   10 Jun 2027 06:19:19.717   10 Jun 2027 06:19:47.085            27.368         13684.000
       188   10 Jun 2027 07:51:39.342   10 Jun 2027 07:53:42.894           123.552         61776.000
       189   10 Jun 2027 07:54:12.668   10 Jun 2027 07:54:18.392             5.724          2862.000
       190   10 Jun 2027 07:54:57.774   10 Jun 2027 07:55:05.123             7.349          3674.500
       191   10 Jun 2027 07:55:41.609   10 Jun 2027 07:55:52.312            10.703          5351.500
       192   10 Jun 2027 07:55:58.872   10 Jun 2027 07:56:04.960             6.088          3044.000
       193   10 Jun 2027 09:28:49.453   10 Jun 2027 09:29:06.508            17.055          8527.500
       194   10 Jun 2027 09:29:47.361   10 Jun 2027 09:29:50.362             3.001          1500.500
       195   10 Jun 2027 09:30:12.813   10 Jun 2027 09:30:27.104            14.291          7145.500
       196   10 Jun 2027 09:31:04.628   10 Jun 2027 09:31:07.146             2.518          1259.000
       197   11 Jun 2027 03:10:57.739   11 Jun 2027 03:11:08.725            10.986          5493.000
       198   11 Jun 2027 03:12:56.429   11 Jun 2027 03:16:43.683           227.254        113627.000
       199   11 Jun 2027 03:17:08.668   11 Jun 2027 03:17:12.520             3.852          1926.000
       200   11 Jun 2027 03:17:33.549   11 Jun 2027 03:17:57.400            23.851         11925.500
       201   11 Jun 2027 03:18:47.944   11 Jun 2027 03:18:54.578             6.634          3317.000
       202   11 Jun 2027 03:18:57.505   11 Jun 2027 03:19:16.485            18.980          9490.000
       203   11 Jun 2027 03:20:45.249   11 Jun 2027 03:20:45.580             0.331           165.500
       204   11 Jun 2027 04:49:55.150   11 Jun 2027 04:51:39.704           104.554         52277.000
       205   11 Jun 2027 04:51:57.374   11 Jun 2027 04:52:35.488            38.114         19057.000
       206   11 Jun 2027 04:52:47.426   11 Jun 2027 04:53:05.117            17.691          8845.500
       207   11 Jun 2027 04:53:25.217   11 Jun 2027 04:53:34.943             9.726          4863.000
       208   11 Jun 2027 04:54:13.835   11 Jun 2027 04:54:19.998             6.163          3081.500
       209   11 Jun 2027 04:54:41.608   11 Jun 2027 04:54:59.064            17.456          8728.000
       210   11 Jun 2027 04:55:31.793   11 Jun 2027 04:55:39.514             7.721          3860.500
       211   11 Jun 2027 04:55:57.879   11 Jun 2027 04:55:57.879             0.000             0.000
       212   11 Jun 2027 04:56:21.782   11 Jun 2027 04:56:37.109            15.327          7663.500
       213   11 Jun 2027 06:27:20.408   11 Jun 2027 06:29:50.087           149.679         74839.500
       214   11 Jun 2027 06:30:41.378   11 Jun 2027 06:30:49.544             8.166          4083.000
       215   11 Jun 2027 06:31:10.911   11 Jun 2027 06:31:20.986            10.075          5037.500
       216   11 Jun 2027 06:31:23.458   11 Jun 2027 06:31:23.927             0.469           234.500
       217   11 Jun 2027 06:31:37.900   11 Jun 2027 06:31:49.693            11.793          5896.500
       218   11 Jun 2027 08:03:41.869   11 Jun 2027 08:05:15.143            93.274         46637.000
       219   11 Jun 2027 08:05:43.731   11 Jun 2027 08:05:53.326             9.595          4797.500
       220   11 Jun 2027 08:06:15.977   11 Jun 2027 08:06:29.177            13.200          6600.000
       221   11 Jun 2027 08:07:21.902   11 Jun 2027 08:07:29.265             7.363          3681.500
       222   11 Jun 2027 08:07:32.469   11 Jun 2027 08:07:39.677             7.208          3604.000
       223   11 Jun 2027 08:08:22.904   11 Jun 2027 08:08:32.614             9.710          4855.000
       224   11 Jun 2027 09:41:59.327   11 Jun 2027 09:42:30.807            31.480         15740.000
       225   12 Jun 2027 03:26:10.461   12 Jun 2027 03:30:10.869           240.408        120204.000
       226   12 Jun 2027 03:30:24.319   12 Jun 2027 03:30:58.555            34.236         17118.000
       227   12 Jun 2027 03:31:40.011   12 Jun 2027 03:31:40.011             0.000             0.000
       228   12 Jun 2027 03:32:39.058   12 Jun 2027 03:32:47.749             8.691          4345.500
       229   12 Jun 2027 05:02:29.196   12 Jun 2027 05:05:15.089           165.893         82946.500
       230   12 Jun 2027 05:05:48.412   12 Jun 2027 05:05:59.517            11.105          5552.500
       231   12 Jun 2027 05:06:02.800   12 Jun 2027 05:06:07.247             4.447          2223.500
       232   12 Jun 2027 06:39:52.128   12 Jun 2027 06:42:14.300           142.172         71086.000
       233   12 Jun 2027 06:42:46.688   12 Jun 2027 06:42:59.991            13.303          6651.500
       234   12 Jun 2027 06:43:46.815   12 Jun 2027 06:43:54.742             7.927          3963.500
       235   12 Jun 2027 08:16:02.118   12 Jun 2027 08:16:35.302            33.184         16592.000
       236   12 Jun 2027 08:17:16.604   12 Jun 2027 08:17:23.062             6.458          3229.000
       237   12 Jun 2027 08:17:53.659   12 Jun 2027 08:18:06.012            12.353          6176.500
       238   12 Jun 2027 08:18:27.829   12 Jun 2027 08:18:47.517            19.688          9844.000
       239   12 Jun 2027 08:19:42.016   12 Jun 2027 08:19:42.704             0.688           344.000
       240   12 Jun 2027 08:19:52.492   12 Jun 2027 08:19:54.987             2.495          1247.500
       241   12 Jun 2027 08:20:32.738   12 Jun 2027 08:20:38.667             5.929          2964.500
       242   13 Jun 2027 03:38:11.351   13 Jun 2027 03:42:40.390           269.039        134519.500
       243   13 Jun 2027 03:43:10.334   13 Jun 2027 03:43:42.534            32.200         16100.000
       244   13 Jun 2027 03:44:30.834   13 Jun 2027 03:44:53.936            23.102         11551.000
       245   13 Jun 2027 05:14:07.726   13 Jun 2027 05:17:00.856           173.130         86565.000
       246   13 Jun 2027 05:17:50.303   13 Jun 2027 05:18:24.685            34.382         17191.000
       247   13 Jun 2027 05:18:40.713   13 Jun 2027 05:18:50.189             9.476          4738.000
       248   13 Jun 2027 06:52:05.577   13 Jun 2027 06:54:55.870           170.293         85146.500
       249   13 Jun 2027 06:55:02.345   13 Jun 2027 06:55:03.039             0.694           347.000
       250   13 Jun 2027 06:55:28.441   13 Jun 2027 06:55:32.926             4.485          2242.500
       251   13 Jun 2027 08:27:57.071   13 Jun 2027 08:28:56.319            59.248         29624.000
       252   13 Jun 2027 08:29:24.488   13 Jun 2027 08:29:26.261             1.773           886.500
       253   13 Jun 2027 08:31:04.370   13 Jun 2027 08:31:24.348            19.978          9989.000
       254   13 Jun 2027 08:31:38.889   13 Jun 2027 08:31:53.283            14.394          7197.000
       255   13 Jun 2027 08:32:46.135   13 Jun 2027 08:32:55.791             9.656          4828.000
       256   13 Jun 2027 08:33:06.151   13 Jun 2027 08:33:07.023             0.872           436.000
