uniorb/output/strategy_1/Camera/Camera_KinoSat_112006.txt

KinoSat_112006
-------------------------
    Access    *     Start Time (UTCG)     *     Stop Time (UTCG)  *   Duration (s) *   Data (Mbytes)
         1   01 Jun 2027 04:23:52.702   01 Jun 2027 04:25:34.185           101.483         50741.500
         2   01 Jun 2027 04:25:34.335   01 Jun 2027 04:26:20.805            46.470         23235.000
         3   01 Jun 2027 06:02:56.996   01 Jun 2027 06:05:14.808           137.812         68906.000
         4   01 Jun 2027 06:07:14.644   01 Jun 2027 06:07:14.644             0.000             0.000
         5   01 Jun 2027 06:08:09.881   01 Jun 2027 06:08:18.050             8.169          4084.500
         6   01 Jun 2027 06:09:43.925   01 Jun 2027 06:09:59.453            15.528          7764.000
         7   01 Jun 2027 07:27:49.257   01 Jun 2027 07:29:19.701            90.444         45222.000
         8   01 Jun 2027 07:39:31.418   01 Jun 2027 07:40:31.953            60.535         30267.500
         9   01 Jun 2027 09:01:44.961   01 Jun 2027 09:02:40.535            55.574         27787.000
        10   01 Jun 2027 10:36:49.018   01 Jun 2027 10:37:26.674            37.656         18828.000
        11   01 Jun 2027 10:42:28.932   01 Jun 2027 10:43:51.931            82.999         41499.500
        12   02 Jun 2027 03:00:01.799   02 Jun 2027 03:00:19.390            17.591          8795.500
        13   02 Jun 2027 03:01:35.754   02 Jun 2027 03:01:45.651             9.897          4948.500
        14   02 Jun 2027 03:02:32.596   02 Jun 2027 03:02:54.910            22.314         11157.000
        15   02 Jun 2027 03:04:31.450   02 Jun 2027 03:04:49.105            17.655          8827.500
        16   02 Jun 2027 03:05:55.777   02 Jun 2027 03:06:16.342            20.565         10282.500
        17   02 Jun 2027 04:36:13.214   02 Jun 2027 04:36:27.735            14.521          7260.500
        18   02 Jun 2027 04:36:44.465   02 Jun 2027 04:37:19.542            35.077         17538.500
        19   02 Jun 2027 04:37:22.892   02 Jun 2027 04:37:33.781            10.889          5444.500
        20   02 Jun 2027 04:39:25.934   02 Jun 2027 04:39:44.458            18.524          9262.000
        21   02 Jun 2027 04:39:53.697   02 Jun 2027 04:39:54.889             1.192           596.000
        22   02 Jun 2027 04:40:42.394   02 Jun 2027 04:40:46.302             3.908          1954.000
        23   02 Jun 2027 04:41:59.673   02 Jun 2027 04:42:09.881            10.208          5104.000
        24   02 Jun 2027 06:14:59.226   02 Jun 2027 06:17:10.165           130.939         65469.500
        25   02 Jun 2027 06:19:50.196   02 Jun 2027 06:19:56.457             6.261          3130.500
        26   02 Jun 2027 06:20:48.246   02 Jun 2027 06:20:59.705            11.459          5729.500
        27   02 Jun 2027 06:21:57.069   02 Jun 2027 06:22:00.449             3.380          1690.000
        28   02 Jun 2027 07:39:19.422   02 Jun 2027 07:40:35.492            76.070         38035.000
        29   02 Jun 2027 07:40:52.823   02 Jun 2027 07:40:57.853             5.030          2515.000
        30   02 Jun 2027 07:41:21.266   02 Jun 2027 07:41:32.731            11.465          5732.500
        31   02 Jun 2027 07:51:33.763   02 Jun 2027 07:51:36.252             2.489          1244.500
        32   02 Jun 2027 09:13:29.376   02 Jun 2027 09:14:04.971            35.595         17797.500
        33   02 Jun 2027 09:15:32.310   02 Jun 2027 09:16:22.906            50.596         25298.000
        34   02 Jun 2027 09:17:21.407   02 Jun 2027 09:17:21.407             0.000             0.000
        35   02 Jun 2027 09:18:36.118   02 Jun 2027 09:19:07.048            30.930         15465.000
        36   02 Jun 2027 10:48:17.279   02 Jun 2027 10:49:18.763            61.484         30742.000
        37   02 Jun 2027 10:50:21.237   02 Jun 2027 10:50:32.902            11.665          5832.500
        38   03 Jun 2027 03:11:16.718   03 Jun 2027 03:11:30.454            13.736          6868.000
        39   03 Jun 2027 03:12:00.893   03 Jun 2027 03:12:01.487             0.594           297.000
        40   03 Jun 2027 03:12:34.736   03 Jun 2027 03:12:41.863             7.127          3563.500
        41   03 Jun 2027 03:13:32.848   03 Jun 2027 03:13:32.848             0.000             0.000
        42   03 Jun 2027 03:13:34.552   03 Jun 2027 03:13:48.418            13.866          6933.000
        43   03 Jun 2027 03:14:00.086   03 Jun 2027 03:14:41.391            41.305         20652.500
        44   03 Jun 2027 03:16:06.497   03 Jun 2027 03:16:15.514             9.017          4508.500
        45   03 Jun 2027 03:16:51.231   03 Jun 2027 03:16:56.639             5.408          2704.000
        46   03 Jun 2027 03:17:26.968   03 Jun 2027 03:17:34.804             7.836          3918.000
        47   03 Jun 2027 03:18:33.966   03 Jun 2027 03:18:36.213             2.247          1123.500
        48   03 Jun 2027 04:48:55.798   03 Jun 2027 04:49:14.993            19.195          9597.500
        49   03 Jun 2027 04:49:20.480   03 Jun 2027 04:50:13.109            52.629         26314.500
        50   03 Jun 2027 04:50:59.897   03 Jun 2027 04:51:00.928             1.031           515.500
        51   03 Jun 2027 04:51:16.463   03 Jun 2027 04:51:40.926            24.463         12231.500
        52   03 Jun 2027 04:54:04.740   03 Jun 2027 04:54:08.488             3.748          1874.000
        53   03 Jun 2027 06:27:22.779   03 Jun 2027 06:28:45.923            83.144         41572.000
        54   03 Jun 2027 06:28:56.251   03 Jun 2027 06:29:07.707            11.456          5728.000
        55   03 Jun 2027 06:29:29.387   03 Jun 2027 06:29:41.144            11.757          5878.500
        56   03 Jun 2027 06:31:10.810   03 Jun 2027 06:31:22.343            11.533          5766.500
        57   03 Jun 2027 07:51:19.008   03 Jun 2027 07:52:49.290            90.282         45141.000
        58   03 Jun 2027 09:27:15.809   03 Jun 2027 09:29:01.068           105.259         52629.500
        59   03 Jun 2027 11:01:06.311   03 Jun 2027 11:02:49.834           103.523         51761.500
        60   03 Jun 2027 11:07:16.458   03 Jun 2027 11:07:16.458             0.000             0.000
        61   04 Jun 2027 03:23:16.805   04 Jun 2027 03:23:32.797            15.992          7996.000
        62   04 Jun 2027 03:23:50.662   04 Jun 2027 03:24:18.023            27.361         13680.500
        63   04 Jun 2027 03:25:27.380   04 Jun 2027 03:26:26.710            59.330         29665.000
        64   04 Jun 2027 03:27:24.520   04 Jun 2027 03:27:27.299             2.779          1389.500
        65   04 Jun 2027 03:28:14.679   04 Jun 2027 03:28:21.545             6.866          3433.000
        66   04 Jun 2027 05:01:40.748   04 Jun 2027 05:02:00.618            19.870          9935.000
        67   04 Jun 2027 05:02:17.708   04 Jun 2027 05:03:08.583            50.875         25437.500
        68   04 Jun 2027 05:03:10.492   04 Jun 2027 05:03:27.788            17.296          8648.000
        69   04 Jun 2027 05:07:27.604   04 Jun 2027 05:07:33.464             5.860          2930.000
        70   04 Jun 2027 05:07:37.169   04 Jun 2027 05:07:41.003             3.834          1917.000
        71   04 Jun 2027 06:39:49.077   04 Jun 2027 06:41:59.466           130.389         65194.500
        72   04 Jun 2027 06:43:53.946   04 Jun 2027 06:44:10.552            16.606          8303.000
        73   04 Jun 2027 08:03:13.615   04 Jun 2027 08:04:15.592            61.977         30988.500
        74   04 Jun 2027 08:05:04.620   04 Jun 2027 08:05:04.620             0.000             0.000
        75   04 Jun 2027 08:05:32.797   04 Jun 2027 08:05:34.120             1.323           661.500
        76   04 Jun 2027 09:40:04.963   04 Jun 2027 09:40:25.093            20.130         10065.000
        77   04 Jun 2027 11:13:20.297   04 Jun 2027 11:14:01.408            41.111         20541.093
        78   04 Jun 2027 11:14:34.325   04 Jun 2027 11:14:36.467             2.142           916.500
        79   04 Jun 2027 11:20:57.886   04 Jun 2027 11:21:20.978            23.092         10464.656
        80   05 Jun 2027 03:35:29.644   05 Jun 2027 03:36:15.490            45.846         22923.000
        81   05 Jun 2027 03:36:38.653   05 Jun 2027 03:36:38.653             0.000             0.000
        82   05 Jun 2027 03:36:54.965   05 Jun 2027 03:38:19.830            84.865         42432.500
        83   05 Jun 2027 03:39:36.006   05 Jun 2027 03:39:37.436             1.430           715.000
        84   05 Jun 2027 03:39:50.461   05 Jun 2027 03:39:57.603             7.142          3571.000
        85   05 Jun 2027 03:41:09.560   05 Jun 2027 03:41:12.042             2.482          1241.000
        86   05 Jun 2027 03:42:05.739   05 Jun 2027 03:42:22.485            16.746          8373.000
        87   05 Jun 2027 05:13:49.061   05 Jun 2027 05:14:40.316            51.255         25627.500
        88   05 Jun 2027 05:14:46.568   05 Jun 2027 05:15:33.937            47.369         23684.500
        89   05 Jun 2027 05:17:24.599   05 Jun 2027 05:17:29.060             4.461          2230.500
        90   05 Jun 2027 05:19:00.199   05 Jun 2027 05:19:09.437             9.238          4619.000
        91   05 Jun 2027 06:52:07.014   05 Jun 2027 06:53:50.257           103.243         51621.500
        92   05 Jun 2027 08:15:01.137   05 Jun 2027 08:15:38.996            37.859         18929.500
        93   05 Jun 2027 08:17:45.199   05 Jun 2027 08:17:48.603             3.404          1702.000
        94   05 Jun 2027 09:53:39.325   05 Jun 2027 09:54:05.049            25.724         12406.126
        95   05 Jun 2027 11:27:21.415   05 Jun 2027 11:27:21.415             0.000             0.000
        96   05 Jun 2027 11:28:01.564   05 Jun 2027 11:28:29.209            27.645         10865.781
        97   05 Jun 2027 11:28:38.539   05 Jun 2027 11:28:40.279             1.740           248.750
        98   05 Jun 2027 11:29:00.525   05 Jun 2027 11:29:04.059             3.534           342.469
        99   05 Jun 2027 11:29:33.589   05 Jun 2027 11:29:35.569             1.980           611.250
       100   05 Jun 2027 11:30:43.039   05 Jun 2027 11:30:45.633             2.594          1297.000
       101   05 Jun 2027 11:33:30.559   05 Jun 2027 11:33:31.766             1.207           603.500
       102   06 Jun 2027 03:47:26.509   06 Jun 2027 03:49:44.297           137.788         68894.000
       103   06 Jun 2027 03:50:29.504   06 Jun 2027 03:50:29.504             0.000             0.000
       104   06 Jun 2027 03:52:34.751   06 Jun 2027 03:52:45.052            10.301          5150.500
       105   06 Jun 2027 03:54:11.865   06 Jun 2027 03:54:16.404             4.539          2269.500
       106   06 Jun 2027 05:25:34.832   06 Jun 2027 05:26:36.118            61.286         30643.000
       107   06 Jun 2027 05:26:42.812   06 Jun 2027 05:27:36.599            53.787         26893.500
       108   06 Jun 2027 05:28:03.897   06 Jun 2027 05:28:09.335             5.438          2719.000
       109   06 Jun 2027 05:29:26.048   06 Jun 2027 05:29:37.669            11.621          5810.500
       110   06 Jun 2027 05:31:18.020   06 Jun 2027 05:31:22.959             4.939          2469.500
       111   06 Jun 2027 07:03:52.277   06 Jun 2027 07:05:18.595            86.318         43159.000
       112   06 Jun 2027 07:06:24.595   06 Jun 2027 07:06:34.143             9.548          3817.843
       113   06 Jun 2027 08:27:15.923   06 Jun 2027 08:27:43.864            27.941         12611.281
       114   06 Jun 2027 08:28:21.453   06 Jun 2027 08:28:21.453             0.000             0.000
       115   06 Jun 2027 08:28:45.724   06 Jun 2027 08:28:50.931             5.207          1529.531
       116   06 Jun 2027 08:30:18.534   06 Jun 2027 08:30:23.241             4.707          2353.500
       117   06 Jun 2027 10:04:17.475   06 Jun 2027 10:04:17.475             0.000             0.000
       118   06 Jun 2027 10:05:30.816   06 Jun 2027 10:06:01.058            30.242         14985.656
       119   06 Jun 2027 11:40:46.716   06 Jun 2027 11:40:55.116             8.400          4200.000
       120   06 Jun 2027 11:45:24.237   06 Jun 2027 11:45:34.119             9.882          4941.000
       121   07 Jun 2027 03:59:23.814   07 Jun 2027 04:00:40.816            77.002         38501.000
       122   07 Jun 2027 04:02:07.662   07 Jun 2027 04:02:45.997            38.335         19167.500
       123   07 Jun 2027 04:03:51.522   07 Jun 2027 04:04:11.764            20.242         10121.000
       124   07 Jun 2027 04:05:08.692   07 Jun 2027 04:05:14.465             5.773          2886.500
       125   07 Jun 2027 04:05:48.134   07 Jun 2027 04:05:48.705             0.571           285.500
       126   07 Jun 2027 05:38:41.596   07 Jun 2027 05:40:36.727           115.131         57565.500
       127   07 Jun 2027 05:40:53.183   07 Jun 2027 05:41:04.881            11.698          5849.000
       128   07 Jun 2027 05:41:28.096   07 Jun 2027 05:41:28.096             0.000             0.000
       129   07 Jun 2027 05:45:39.161   07 Jun 2027 05:46:20.299            41.138         20569.000
       130   07 Jun 2027 07:15:49.305   07 Jun 2027 07:16:29.693            40.388         20194.000
       131   07 Jun 2027 07:16:47.522   07 Jun 2027 07:17:48.017            60.495         30247.500
       132   07 Jun 2027 07:18:11.621   07 Jun 2027 07:18:11.621             0.000             0.000
       133   07 Jun 2027 07:18:38.440   07 Jun 2027 07:18:39.642             1.202           601.000
       134   07 Jun 2027 07:19:01.734   07 Jun 2027 07:19:14.131            12.397          5261.374
       135   07 Jun 2027 08:39:46.055   07 Jun 2027 08:40:11.944            25.889         12845.906
       136   07 Jun 2027 08:42:12.372   07 Jun 2027 08:42:21.743             9.371          3383.031
       137   07 Jun 2027 10:16:56.907   07 Jun 2027 10:16:56.907             0.000             0.000
       138   07 Jun 2027 11:50:35.672   07 Jun 2027 11:51:08.122            32.450         16225.000
       139   07 Jun 2027 11:57:15.627   07 Jun 2027 11:57:42.034            26.407         13203.500
       140   08 Jun 2027 04:12:05.204   08 Jun 2027 04:14:19.224           134.020         67010.000
       141   08 Jun 2027 04:15:51.311   08 Jun 2027 04:15:59.148             7.837          3918.500
       142   08 Jun 2027 05:50:45.822   08 Jun 2027 05:52:33.417           107.595         53797.500
       143   08 Jun 2027 05:52:40.367   08 Jun 2027 05:52:40.367             0.000             0.000
       144   08 Jun 2027 05:53:05.249   08 Jun 2027 05:53:15.306            10.057          5028.500
       145   08 Jun 2027 05:54:25.915   08 Jun 2027 05:54:39.907            13.992          6996.000
       146   08 Jun 2027 05:55:32.119   08 Jun 2027 05:55:37.561             5.442          2721.000
       147   08 Jun 2027 05:57:48.208   08 Jun 2027 05:58:23.930            35.722         17861.000
       148   08 Jun 2027 07:16:34.702   08 Jun 2027 07:17:25.971            51.269         25634.500
       149   08 Jun 2027 07:27:46.081   08 Jun 2027 07:28:30.807            44.726         22363.000
       150   08 Jun 2027 08:50:23.234   08 Jun 2027 08:50:50.640            27.406         12834.874
       151   08 Jun 2027 08:51:50.369   08 Jun 2027 08:51:51.652             1.283           641.500
       152   08 Jun 2027 08:52:26.567   08 Jun 2027 08:52:36.050             9.483          2163.562
       153   08 Jun 2027 08:54:00.476   08 Jun 2027 08:54:10.633            10.157          2461.594
       154   08 Jun 2027 10:31:23.921   08 Jun 2027 10:31:53.605            29.684         14842.000
       155   09 Jun 2027 04:24:11.349   09 Jun 2027 04:26:06.555           115.206         57603.000
       156   09 Jun 2027 04:26:26.329   09 Jun 2027 04:26:34.768             8.439          4219.500
       157   09 Jun 2027 04:28:00.057   09 Jun 2027 04:28:04.525             4.468          2234.000
       158   09 Jun 2027 04:29:36.548   09 Jun 2027 04:29:41.757             5.209          2604.500
       159   09 Jun 2027 06:03:15.998   09 Jun 2027 06:05:29.131           133.133         66566.500
       160   09 Jun 2027 06:05:54.173   09 Jun 2027 06:05:54.985             0.812           406.000
       161   09 Jun 2027 06:06:52.011   09 Jun 2027 06:06:52.011             0.000             0.000
       162   09 Jun 2027 06:07:19.446   09 Jun 2027 06:07:29.167             9.721          4860.500
       163   09 Jun 2027 06:10:03.136   09 Jun 2027 06:10:14.011            10.875          5437.500
       164   09 Jun 2027 07:28:06.719   09 Jun 2027 07:29:36.275            89.556         44778.000
       165   09 Jun 2027 07:39:47.004   09 Jun 2027 07:40:05.949            18.945          7098.218
       166   09 Jun 2027 09:02:04.515   09 Jun 2027 09:02:27.585            23.070         11535.000
       167   09 Jun 2027 09:03:00.304   09 Jun 2027 09:03:12.609            12.305          6152.500
       168   09 Jun 2027 09:04:28.759   09 Jun 2027 09:04:37.278             8.519          1580.781
       169   09 Jun 2027 10:37:04.717   09 Jun 2027 10:37:27.366            22.649          7882.781
       170   09 Jun 2027 10:38:09.336   09 Jun 2027 10:38:12.711             3.375           861.219
       171   09 Jun 2027 10:40:13.048   09 Jun 2027 10:40:13.048             0.000             0.000
       172   09 Jun 2027 10:40:53.102   09 Jun 2027 10:41:04.174            11.072          4896.688
       173   09 Jun 2027 10:42:43.209   09 Jun 2027 10:42:43.333             0.124            62.000
       174   09 Jun 2027 10:43:12.200   09 Jun 2027 10:43:20.575             8.375          3538.219
       175   10 Jun 2027 03:00:00.000   10 Jun 2027 03:00:11.085            11.085          5542.500
       176   10 Jun 2027 03:00:36.750   10 Jun 2027 03:00:38.738             1.988           994.000
       177   10 Jun 2027 03:01:06.612   10 Jun 2027 03:01:17.713            11.101          5550.500
       178   10 Jun 2027 03:02:47.548   10 Jun 2027 03:03:09.744            22.196         11098.000
       179   10 Jun 2027 03:04:18.436   10 Jun 2027 03:04:20.678             2.242          1121.000
       180   10 Jun 2027 03:04:31.788   10 Jun 2027 03:04:38.192             6.404          3202.000
       181   10 Jun 2027 03:05:07.772   10 Jun 2027 03:05:15.857             8.085          4042.500
       182   10 Jun 2027 03:06:01.300   10 Jun 2027 03:06:11.716            10.416          5208.000
       183   10 Jun 2027 04:36:31.593   10 Jun 2027 04:37:37.279            65.686         32843.000
       184   10 Jun 2027 04:37:41.195   10 Jun 2027 04:37:44.695             3.500          1750.000
       185   10 Jun 2027 04:37:57.451   10 Jun 2027 04:38:04.283             6.832          3416.000
       186   10 Jun 2027 04:38:35.877   10 Jun 2027 04:38:36.183             0.306           153.000
       187   10 Jun 2027 04:38:37.334   10 Jun 2027 04:38:45.829             8.495          4247.500
       188   10 Jun 2027 04:40:05.427   10 Jun 2027 04:40:07.954             2.527          1263.500
       189   10 Jun 2027 04:41:26.452   10 Jun 2027 04:41:35.104             8.652          4326.000
       190   10 Jun 2027 06:15:18.323   10 Jun 2027 06:17:24.962           126.639         63319.500
       191   10 Jun 2027 06:18:03.188   10 Jun 2027 06:18:16.360            13.172          6586.000
       192   10 Jun 2027 06:18:51.252   10 Jun 2027 06:18:55.682             4.430          2215.000
       193   10 Jun 2027 06:19:58.893   10 Jun 2027 06:20:14.279            15.386          7693.000
       194   10 Jun 2027 06:22:14.590   10 Jun 2027 06:22:18.266             3.676          1838.000
       195   10 Jun 2027 07:39:38.606   10 Jun 2027 07:40:53.326            74.720         36426.562
       196   10 Jun 2027 07:41:47.000   10 Jun 2027 07:41:50.450             3.450          1677.312
       197   10 Jun 2027 07:51:54.975   10 Jun 2027 07:52:10.031            15.056          6593.344
       198   10 Jun 2027 09:13:45.583   10 Jun 2027 09:14:14.603            29.020         13544.625
       199   10 Jun 2027 09:18:50.271   10 Jun 2027 09:19:08.618            18.347          8397.062
       200   10 Jun 2027 10:48:33.405   10 Jun 2027 10:48:43.461            10.056          4842.906
       201   10 Jun 2027 10:52:09.960   10 Jun 2027 10:52:22.068            12.108          4846.250
       202   10 Jun 2027 10:55:48.186   10 Jun 2027 10:55:48.186             0.000             0.000
       203   11 Jun 2027 03:11:34.630   11 Jun 2027 03:11:56.876            22.246         11123.000
       204   11 Jun 2027 03:12:11.570   11 Jun 2027 03:12:49.488            37.918         18959.000
       205   11 Jun 2027 03:13:47.732   11 Jun 2027 03:13:47.732             0.000             0.000
       206   11 Jun 2027 03:14:03.492   11 Jun 2027 03:14:08.504             5.012          2506.000
       207   11 Jun 2027 03:15:06.553   11 Jun 2027 03:15:10.558             4.005          2002.500
       208   11 Jun 2027 03:15:16.743   11 Jun 2027 03:15:20.211             3.468          1734.000
       209   11 Jun 2027 03:15:30.465   11 Jun 2027 03:15:31.334             0.869           434.500
       210   11 Jun 2027 03:15:48.948   11 Jun 2027 03:16:01.513            12.565          6282.500
       211   11 Jun 2027 03:17:12.376   11 Jun 2027 03:17:16.547             4.171          2085.500
       212   11 Jun 2027 03:17:18.257   11 Jun 2027 03:17:22.324             4.067          2033.500
       213   11 Jun 2027 03:18:51.437   11 Jun 2027 03:18:53.809             2.372          1186.000
       214   11 Jun 2027 04:49:14.548   11 Jun 2027 04:49:28.936            14.388          7194.000
       215   11 Jun 2027 04:49:38.197   11 Jun 2027 04:50:43.811            65.614         32807.000
       216   11 Jun 2027 04:51:19.297   11 Jun 2027 04:51:22.007             2.710          1355.000
       217   11 Jun 2027 04:51:55.718   11 Jun 2027 04:51:57.374             1.656           828.000
       218   11 Jun 2027 04:53:36.844   11 Jun 2027 04:53:37.336             0.492           246.000
       219   11 Jun 2027 04:54:19.998   11 Jun 2027 04:54:23.397             3.399          1699.500
       220   11 Jun 2027 04:54:41.608   11 Jun 2027 04:54:48.550             6.942          3471.000
       221   11 Jun 2027 06:27:43.967   11 Jun 2027 06:29:44.051           120.084         60042.000
       222   11 Jun 2027 06:30:49.544   11 Jun 2027 06:31:00.926            11.382          5691.000
       223   11 Jun 2027 06:32:32.269   11 Jun 2027 06:32:46.357            14.088          7044.000
       224   11 Jun 2027 07:51:36.837   11 Jun 2027 07:52:45.346            68.509         34183.874
       225   11 Jun 2027 09:27:34.133   11 Jun 2027 09:28:12.267            38.134         18622.125
       226   11 Jun 2027 09:28:23.676   11 Jun 2027 09:28:27.853             4.177           146.406
       227   11 Jun 2027 09:29:21.835   11 Jun 2027 09:29:26.955             5.120          1550.344
       228   11 Jun 2027 09:30:31.171   11 Jun 2027 09:30:31.171             0.000             0.000
       229   11 Jun 2027 11:03:35.735   11 Jun 2027 11:03:55.533            19.798          9199.156
       230   11 Jun 2027 11:04:41.993   11 Jun 2027 11:04:57.413            15.420          1338.594
       231   11 Jun 2027 11:09:12.341   11 Jun 2027 11:09:27.079            14.738          7369.000
       232   12 Jun 2027 03:23:35.412   12 Jun 2027 03:24:32.627            57.215         28607.500
       233   12 Jun 2027 03:25:42.319   12 Jun 2027 03:25:52.628            10.309          5154.500
       234   12 Jun 2027 03:26:08.494   12 Jun 2027 03:27:02.568            54.074         27037.000
       235   12 Jun 2027 03:27:10.383   12 Jun 2027 03:27:20.014             9.631          4815.500
       236   12 Jun 2027 03:28:29.050   12 Jun 2027 03:28:29.568             0.518           259.000
       237   12 Jun 2027 03:29:31.506   12 Jun 2027 03:29:43.346            11.840          5920.000
       238   12 Jun 2027 05:01:58.326   12 Jun 2027 05:02:17.564            19.238          9619.000
       239   12 Jun 2027 05:02:31.197   12 Jun 2027 05:03:14.872            43.675         21837.500
       240   12 Jun 2027 05:03:54.226   12 Jun 2027 05:04:25.667            31.441         15720.500
       241   12 Jun 2027 05:05:32.611   12 Jun 2027 05:05:39.315             6.704          3352.000
       242   12 Jun 2027 05:06:20.665   12 Jun 2027 05:06:29.273             8.608          4304.000
       243   12 Jun 2027 05:07:42.145   12 Jun 2027 05:07:43.089             0.944           472.000
       244   12 Jun 2027 05:07:58.500   12 Jun 2027 05:08:00.377             1.877           938.500
       245   12 Jun 2027 06:40:06.075   12 Jun 2027 06:42:00.080           114.005         57002.500
       246   12 Jun 2027 06:42:45.632   12 Jun 2027 06:42:46.688             1.056           528.000
       247   12 Jun 2027 06:44:40.695   12 Jun 2027 06:44:47.297             6.602          3301.000
       248   12 Jun 2027 08:03:29.798   12 Jun 2027 08:04:02.126            32.328         14228.063
       249   12 Jun 2027 08:04:56.415   12 Jun 2027 08:05:03.741             7.326          1634.906
       250   12 Jun 2027 08:05:26.703   12 Jun 2027 08:05:27.419             0.716           160.594
       251   12 Jun 2027 09:39:52.096   12 Jun 2027 09:40:24.713            32.617         15541.500
       252   12 Jun 2027 11:13:45.083   12 Jun 2027 11:14:07.483            22.400         10241.688
       253   12 Jun 2027 11:14:51.388   12 Jun 2027 11:14:58.834             7.446           905.625
       254   12 Jun 2027 11:15:10.462   12 Jun 2027 11:15:11.214             0.752           330.406
       255   12 Jun 2027 11:21:19.767   12 Jun 2027 11:21:43.295            23.528         10496.312
       256   13 Jun 2027 03:35:44.760   13 Jun 2027 03:36:32.130            47.370         23685.000
       257   13 Jun 2027 03:37:09.967   13 Jun 2027 03:38:05.525            55.558         27779.000
       258   13 Jun 2027 03:38:46.689   13 Jun 2027 03:39:01.115            14.426          7213.000
       259   13 Jun 2027 03:39:33.460   13 Jun 2027 03:39:42.767             9.307          4653.500
       260   13 Jun 2027 03:40:54.218   13 Jun 2027 03:40:55.692             1.474           737.000
       261   13 Jun 2027 03:42:21.246   13 Jun 2027 03:42:39.752            18.506          9253.000
       262   13 Jun 2027 05:14:01.001   13 Jun 2027 05:14:53.302            52.301         26150.500
       263   13 Jun 2027 05:15:49.595   13 Jun 2027 05:16:17.541            27.946         13973.000
       264   13 Jun 2027 05:17:37.827   13 Jun 2027 05:17:39.454             1.627           813.500
       265   13 Jun 2027 05:18:50.189   13 Jun 2027 05:19:05.207            15.018          7509.000
       266   13 Jun 2027 05:19:26.120   13 Jun 2027 05:19:37.690            11.570          5785.000
       267   13 Jun 2027 06:52:29.265   13 Jun 2027 06:54:28.124           118.859         59429.500
       268   13 Jun 2027 06:55:13.110   13 Jun 2027 06:55:28.441            15.331          7665.500
       269   13 Jun 2027 08:15:18.958   13 Jun 2027 08:15:54.632            35.674         17837.000
       270   13 Jun 2027 08:18:04.230   13 Jun 2027 08:18:06.085             1.855           927.500
       271   13 Jun 2027 09:51:55.724   13 Jun 2027 09:52:25.030            29.306         12043.281
       272   13 Jun 2027 11:27:51.141   13 Jun 2027 11:27:51.141             0.000             0.000
       273   13 Jun 2027 11:28:22.959   13 Jun 2027 11:28:53.250            30.291         13487.531
       274   13 Jun 2027 11:29:19.006   13 Jun 2027 11:29:21.170             2.164           423.219
       275   13 Jun 2027 11:30:55.639   13 Jun 2027 11:31:00.497             4.858          2043.156
       276   13 Jun 2027 11:31:22.452   13 Jun 2027 11:31:25.186             2.734           668.000
       277   13 Jun 2027 11:32:47.320   13 Jun 2027 11:32:48.818             1.498           749.000
       278   13 Jun 2027 11:32:52.520   13 Jun 2027 11:32:54.132             1.612           806.000
       279   13 Jun 2027 11:33:29.899   13 Jun 2027 11:33:33.217             3.318          1474.343
