uniorb/output/strategy_1/Camera/Camera_KinoSat_112005.txt

KinoSat_112005
-------------------------
    Access    *     Start Time (UTCG)     *     Stop Time (UTCG)  *   Duration (s) *   Data (Mbytes)
         1   01 Jun 2027 03:00:00.000   01 Jun 2027 03:00:01.643             1.643           821.500
         2   01 Jun 2027 03:00:09.650   01 Jun 2027 03:00:44.932            35.282         17641.000
         3   01 Jun 2027 03:01:52.018   01 Jun 2027 03:02:13.812            21.794         10897.000
         4   01 Jun 2027 03:03:48.677   01 Jun 2027 03:03:51.308             2.631          1315.500
         5   01 Jun 2027 03:04:06.675   01 Jun 2027 03:04:13.353             6.678          3339.000
         6   01 Jun 2027 04:33:43.470   01 Jun 2027 04:35:17.263            93.793         46896.500
         7   01 Jun 2027 04:36:48.528   01 Jun 2027 04:37:19.215            30.687         15343.500
         8   01 Jun 2027 06:12:40.501   01 Jun 2027 06:14:50.738           130.237         65118.500
         9   01 Jun 2027 06:15:36.845   01 Jun 2027 06:15:52.386            15.541          7770.500
        10   01 Jun 2027 06:16:32.459   01 Jun 2027 06:16:33.877             1.418           709.000
        11   01 Jun 2027 06:19:28.685   01 Jun 2027 06:19:41.386            12.701          6350.500
        12   01 Jun 2027 07:36:49.311   01 Jun 2027 07:38:09.367            80.056         40028.000
        13   01 Jun 2027 07:38:15.024   01 Jun 2027 07:38:57.762            42.738         21369.000
        14   01 Jun 2027 07:39:01.379   01 Jun 2027 07:39:01.379             0.000             0.000
        15   01 Jun 2027 07:49:07.092   01 Jun 2027 07:49:26.066            18.974          9487.000
        16   01 Jun 2027 09:11:05.021   01 Jun 2027 09:12:23.162            78.141         39070.500
        17   01 Jun 2027 09:13:12.688   01 Jun 2027 09:13:46.674            33.986         16993.000
        18   01 Jun 2027 09:15:27.548   01 Jun 2027 09:15:27.548             0.000             0.000
        19   01 Jun 2027 09:16:10.896   01 Jun 2027 09:16:18.630             7.734          3867.000
        20   01 Jun 2027 10:45:57.120   01 Jun 2027 10:46:55.714            58.594         29297.000
        21   01 Jun 2027 10:52:53.540   01 Jun 2027 10:53:01.719             8.179          4089.500
        22   01 Jun 2027 10:54:20.651   01 Jun 2027 10:54:44.113            23.462         11731.000
        23   02 Jun 2027 03:08:50.618   02 Jun 2027 03:09:04.438            13.820          6910.000
        24   02 Jun 2027 03:09:28.906   02 Jun 2027 03:09:28.906             0.000             0.000
        25   02 Jun 2027 03:11:04.252   02 Jun 2027 03:12:14.750            70.498         35249.000
        26   02 Jun 2027 03:13:40.814   02 Jun 2027 03:14:25.595            44.781         22390.500
        27   02 Jun 2027 04:46:28.302   02 Jun 2027 04:46:51.988            23.686         11843.000
        28   02 Jun 2027 04:46:55.194   02 Jun 2027 04:47:48.576            53.382         26691.000
        29   02 Jun 2027 04:48:33.241   02 Jun 2027 04:48:53.173            19.932          9966.000
        30   02 Jun 2027 04:51:36.435   02 Jun 2027 04:51:40.336             3.901          1950.500
        31   02 Jun 2027 04:51:56.351   02 Jun 2027 04:52:02.495             6.144          3072.000
        32   02 Jun 2027 06:24:51.019   02 Jun 2027 06:26:42.809           111.790         55895.000
        33   02 Jun 2027 06:27:03.508   02 Jun 2027 06:27:11.110             7.602          3801.000
        34   02 Jun 2027 06:28:06.073   02 Jun 2027 06:28:07.256             1.183           591.500
        35   02 Jun 2027 06:28:34.670   02 Jun 2027 06:28:34.670             0.000             0.000
        36   02 Jun 2027 07:48:54.517   02 Jun 2027 07:50:23.151            88.634         44317.000
        37   02 Jun 2027 09:22:40.575   02 Jun 2027 09:24:49.497           128.922         64461.000
        38   02 Jun 2027 09:26:35.375   02 Jun 2027 09:26:40.416             5.041          2520.500
        39   02 Jun 2027 10:58:41.240   02 Jun 2027 11:00:32.227           110.987         55493.500
        40   02 Jun 2027 11:06:35.109   02 Jun 2027 11:07:10.999            35.890         17945.000
        41   03 Jun 2027 03:20:50.632   03 Jun 2027 03:21:22.022            31.390         15695.000
        42   03 Jun 2027 03:23:07.510   03 Jun 2027 03:24:02.964            55.454         27727.000
        43   03 Jun 2027 03:24:43.264   03 Jun 2027 03:24:58.609            15.345          7672.500
        44   03 Jun 2027 03:25:17.343   03 Jun 2027 03:25:24.538             7.195          3597.500
        45   03 Jun 2027 04:59:05.906   03 Jun 2027 04:59:50.795            44.889         22444.500
        46   03 Jun 2027 04:59:59.960   03 Jun 2027 05:00:43.447            43.487         21743.500
        47   03 Jun 2027 05:00:44.529   03 Jun 2027 05:00:53.969             9.440          4720.000
        48   03 Jun 2027 05:01:07.139   03 Jun 2027 05:01:07.961             0.822           411.000
        49   03 Jun 2027 05:01:31.924   03 Jun 2027 05:01:33.005             1.081           540.500
        50   03 Jun 2027 05:02:56.644   03 Jun 2027 05:03:00.313             3.669          1834.500
        51   03 Jun 2027 05:03:43.594   03 Jun 2027 05:04:00.590            16.996          8498.000
        52   03 Jun 2027 06:37:25.761   03 Jun 2027 06:38:48.907            83.146         41573.000
        53   03 Jun 2027 06:39:12.345   03 Jun 2027 06:39:19.463             7.118          3559.000
        54   03 Jun 2027 06:40:04.142   03 Jun 2027 06:40:12.434             8.292          4146.000
        55   03 Jun 2027 08:00:49.573   03 Jun 2027 08:02:12.557            82.984         41492.000
        56   03 Jun 2027 09:37:08.683   03 Jun 2027 09:38:09.227            60.544         30272.000
        57   03 Jun 2027 09:38:22.850   03 Jun 2027 09:39:27.689            64.839         32419.500
        58   03 Jun 2027 11:10:39.135   03 Jun 2027 11:11:59.082            79.947         39159.844
        59   03 Jun 2027 11:18:21.222   03 Jun 2027 11:18:21.222             0.000             0.000
        60   03 Jun 2027 11:19:10.126   03 Jun 2027 11:19:11.185             1.059           529.500
        61   04 Jun 2027 03:32:58.475   04 Jun 2027 03:33:20.157            21.682         10841.000
        62   04 Jun 2027 03:33:30.883   04 Jun 2027 03:33:51.682            20.799         10399.500
        63   04 Jun 2027 03:34:35.899   04 Jun 2027 03:35:27.250            51.351         25675.500
        64   04 Jun 2027 03:36:22.761   04 Jun 2027 03:36:32.924            10.163          5081.500
        65   04 Jun 2027 03:36:59.801   04 Jun 2027 03:37:08.506             8.705          4352.500
        66   04 Jun 2027 03:37:36.732   04 Jun 2027 03:37:42.125             5.393          2696.500
        67   04 Jun 2027 03:37:48.257   04 Jun 2027 03:37:55.786             7.529          3764.500
        68   04 Jun 2027 03:38:09.509   04 Jun 2027 03:38:16.804             7.295          3647.500
        69   04 Jun 2027 05:10:59.817   04 Jun 2027 05:11:05.476             5.659          2829.500
        70   04 Jun 2027 05:11:17.639   04 Jun 2027 05:12:31.088            73.449         36724.500
        71   04 Jun 2027 05:12:33.299   04 Jun 2027 05:12:41.983             8.684          4342.000
        72   04 Jun 2027 05:13:07.543   04 Jun 2027 05:13:13.968             6.425          3212.500
        73   04 Jun 2027 05:14:13.616   04 Jun 2027 05:14:29.331            15.715          7857.500
        74   04 Jun 2027 05:14:37.160   04 Jun 2027 05:14:37.500             0.340           170.000
        75   04 Jun 2027 05:16:23.382   04 Jun 2027 05:16:26.037             2.655          1327.500
        76   04 Jun 2027 06:49:04.040   04 Jun 2027 06:50:49.985           105.945         52972.500
        77   04 Jun 2027 06:51:45.322   04 Jun 2027 06:51:59.760            14.438          7219.000
        78   04 Jun 2027 06:52:24.056   04 Jun 2027 06:52:35.374            11.318          5659.000
        79   04 Jun 2027 06:52:44.059   04 Jun 2027 06:53:04.072            20.013         10006.500
        80   04 Jun 2027 08:12:41.192   04 Jun 2027 08:13:15.546            34.354         17177.000
        81   04 Jun 2027 08:15:13.095   04 Jun 2027 08:15:22.413             9.318          4659.000
        82   04 Jun 2027 09:49:10.698   04 Jun 2027 09:49:39.809            29.111         13290.156
        83   04 Jun 2027 11:23:19.268   04 Jun 2027 11:23:32.786            13.518          6759.000
        84   04 Jun 2027 11:25:10.455   04 Jun 2027 11:25:10.455             0.000             0.000
        85   04 Jun 2027 11:25:27.247   04 Jun 2027 11:25:44.582            17.335          7718.219
        86   04 Jun 2027 11:26:21.526   04 Jun 2027 11:26:24.270             2.744           190.219
        87   04 Jun 2027 11:27:27.421   04 Jun 2027 11:27:33.761             6.340          1973.469
        88   04 Jun 2027 11:28:19.324   04 Jun 2027 11:28:20.601             1.277           514.750
        89   05 Jun 2027 03:45:00.303   05 Jun 2027 03:47:15.695           135.392         67696.000
        90   05 Jun 2027 03:48:02.726   05 Jun 2027 03:48:06.053             3.327          1663.500
        91   05 Jun 2027 03:49:01.264   05 Jun 2027 03:49:14.925            13.661          6830.500
        92   05 Jun 2027 03:51:31.227   05 Jun 2027 03:51:36.401             5.174          2587.000
        93   05 Jun 2027 05:23:08.780   05 Jun 2027 05:24:10.041            61.261         30630.500
        94   05 Jun 2027 05:24:17.920   05 Jun 2027 05:25:11.765            53.845         26922.500
        95   05 Jun 2027 05:27:18.939   05 Jun 2027 05:27:18.939             0.000             0.000
        96   05 Jun 2027 05:27:36.657   05 Jun 2027 05:27:41.442             4.785          2392.500
        97   05 Jun 2027 05:28:53.431   05 Jun 2027 05:29:15.284            21.853         10926.500
        98   05 Jun 2027 07:01:27.210   05 Jun 2027 07:01:57.936            30.726         15363.000
        99   05 Jun 2027 07:02:16.387   05 Jun 2027 07:03:21.124            64.737         32368.500
       100   05 Jun 2027 07:03:54.173   05 Jun 2027 07:03:54.173             0.000             0.000
       101   05 Jun 2027 07:04:19.170   05 Jun 2027 07:04:23.330             4.160          2080.000
       102   05 Jun 2027 07:05:01.828   05 Jun 2027 07:05:13.484            11.656          5019.594
       103   05 Jun 2027 08:24:50.484   05 Jun 2027 08:25:22.309            31.825         14679.063
       104   05 Jun 2027 08:25:55.102   05 Jun 2027 08:25:55.102             0.000             0.000
       105   05 Jun 2027 08:26:23.625   05 Jun 2027 08:26:31.698             8.073          1626.625
       106   05 Jun 2027 08:27:46.208   05 Jun 2027 08:27:47.329             1.121           560.500
       107   05 Jun 2027 10:01:21.118   05 Jun 2027 10:01:39.767            18.649          8745.469
       108   05 Jun 2027 11:36:31.205   05 Jun 2027 11:36:41.716            10.511          5255.500
       109   05 Jun 2027 11:38:10.882   05 Jun 2027 11:38:14.214             3.332          1666.000
       110   05 Jun 2027 11:39:59.635   05 Jun 2027 11:39:59.635             0.000             0.000
       111   05 Jun 2027 11:42:41.167   05 Jun 2027 11:43:08.178            27.011         13505.500
       112   06 Jun 2027 03:56:58.268   06 Jun 2027 03:58:54.144           115.876         57938.000
       113   06 Jun 2027 03:58:57.848   06 Jun 2027 03:59:04.272             6.424          3212.000
       114   06 Jun 2027 04:01:27.533   06 Jun 2027 04:01:29.568             2.035          1017.500
       115   06 Jun 2027 04:03:06.601   06 Jun 2027 04:03:10.713             4.112          2056.000
       116   06 Jun 2027 04:03:31.149   06 Jun 2027 04:03:35.266             4.117          2058.500
       117   06 Jun 2027 05:35:14.561   06 Jun 2027 05:35:21.833             7.272          3636.000
       118   06 Jun 2027 05:36:15.589   06 Jun 2027 05:38:30.309           134.720         67360.000
       119   06 Jun 2027 05:43:18.961   06 Jun 2027 05:43:49.301            30.340         15170.000
       120   06 Jun 2027 07:13:24.243   06 Jun 2027 07:14:03.226            38.983         19491.500
       121   06 Jun 2027 07:14:27.253   06 Jun 2027 07:15:20.891            53.638         26340.874
       122   06 Jun 2027 07:16:34.659   06 Jun 2027 07:16:34.659             0.000             0.000
       123   06 Jun 2027 07:16:38.723   06 Jun 2027 07:16:44.995             6.272          2389.250
       124   06 Jun 2027 08:37:30.694   06 Jun 2027 08:37:53.882            23.188         11126.500
       125   06 Jun 2027 08:38:31.002   06 Jun 2027 08:38:35.853             4.851          1037.375
       126   06 Jun 2027 10:16:48.618   06 Jun 2027 10:16:48.618             0.000             0.000
       127   06 Jun 2027 11:48:33.284   06 Jun 2027 11:48:45.978            12.694          6347.000
       128   06 Jun 2027 11:51:02.774   06 Jun 2027 11:51:18.096            15.322          7661.000
       129   06 Jun 2027 11:54:51.868   06 Jun 2027 11:55:14.237            22.369         11184.500
       130   07 Jun 2027 04:09:36.028   07 Jun 2027 04:10:16.370            40.342         20171.000
       131   07 Jun 2027 04:11:27.053   07 Jun 2027 04:12:17.325            50.272         25136.000
       132   07 Jun 2027 04:12:39.245   07 Jun 2027 04:12:56.972            17.727          8863.500
       133   07 Jun 2027 04:13:23.841   07 Jun 2027 04:13:34.249            10.408          5204.000
       134   07 Jun 2027 05:48:19.485   07 Jun 2027 05:50:22.519           123.034         61517.000
       135   07 Jun 2027 05:52:36.005   07 Jun 2027 05:52:51.074            15.069          7534.500
       136   07 Jun 2027 05:53:13.878   07 Jun 2027 05:53:23.526             9.648          4824.000
       137   07 Jun 2027 07:14:18.169   07 Jun 2027 07:14:57.121            38.952         19476.000
       138   07 Jun 2027 07:25:20.832   07 Jun 2027 07:26:28.095            67.263         33631.500
       139   07 Jun 2027 07:26:56.462   07 Jun 2027 07:27:00.941             4.479           903.531
       140   07 Jun 2027 07:28:26.772   07 Jun 2027 07:28:29.685             2.913          1456.500
       141   07 Jun 2027 08:48:19.491   07 Jun 2027 08:48:42.586            23.095         11300.594
       142   07 Jun 2027 08:49:34.299   07 Jun 2027 08:49:34.299             0.000             0.000
       143   07 Jun 2027 08:50:00.304   07 Jun 2027 08:50:05.311             5.007          1977.562
       144   07 Jun 2027 08:51:36.401   07 Jun 2027 08:51:41.832             5.431          2514.625
       145   07 Jun 2027 10:29:12.855   07 Jun 2027 10:29:28.558            15.703          7851.500
       146   08 Jun 2027 04:21:43.043   08 Jun 2027 04:22:20.603            37.560         18780.000
       147   08 Jun 2027 04:23:10.883   08 Jun 2027 04:23:28.139            17.256          8628.000
       148   08 Jun 2027 04:23:30.138   08 Jun 2027 04:24:19.635            49.497         24748.500
       149   08 Jun 2027 04:24:33.140   08 Jun 2027 04:24:53.101            19.961          9980.500
       150   08 Jun 2027 04:25:31.586   08 Jun 2027 04:25:34.613             3.027          1513.500
       151   08 Jun 2027 06:00:49.320   08 Jun 2027 06:02:49.229           119.909         59954.500
       152   08 Jun 2027 06:03:32.071   08 Jun 2027 06:03:33.050             0.979           489.500
       153   08 Jun 2027 06:04:00.471   08 Jun 2027 06:04:10.683            10.212          5106.000
       154   08 Jun 2027 06:04:42.402   08 Jun 2027 06:04:49.475             7.073          3536.500
       155   08 Jun 2027 06:05:31.313   08 Jun 2027 06:05:51.265            19.952          9976.000
       156   08 Jun 2027 06:06:20.349   08 Jun 2027 06:06:21.671             1.322           661.000
       157   08 Jun 2027 06:07:34.382   08 Jun 2027 06:07:52.754            18.372          9186.000
       158   08 Jun 2027 07:25:41.021   08 Jun 2027 07:27:08.583            87.562         43781.000
       159   08 Jun 2027 07:37:23.639   08 Jun 2027 07:37:34.812            11.173          5586.500
       160   08 Jun 2027 07:38:06.850   08 Jun 2027 07:38:09.030             2.180          1090.000
       161   08 Jun 2027 08:59:36.276   08 Jun 2027 09:00:21.909            45.633         22042.907
       162   08 Jun 2027 09:00:29.673   08 Jun 2027 09:00:30.882             1.209            81.719
       163   08 Jun 2027 09:02:02.559   08 Jun 2027 09:02:15.223            12.664          2862.219
       164   08 Jun 2027 10:34:43.281   08 Jun 2027 10:34:57.160            13.879          6400.719
       165   08 Jun 2027 10:40:23.764   08 Jun 2027 10:40:39.615            15.851          7925.500
       166   08 Jun 2027 10:41:12.221   08 Jun 2027 10:41:18.381             6.160          2782.938
       167   08 Jun 2027 10:41:22.651   08 Jun 2027 10:41:25.130             2.479           133.438
       168   09 Jun 2027 03:00:00.000   09 Jun 2027 03:00:01.696             1.696           848.000
       169   09 Jun 2027 03:00:02.901   09 Jun 2027 03:00:16.737            13.836          6918.000
       170   09 Jun 2027 03:00:27.845   09 Jun 2027 03:00:49.330            21.485         10742.500
       171   09 Jun 2027 03:02:27.958   09 Jun 2027 03:02:36.925             8.967          4483.500
       172   09 Jun 2027 03:03:12.720   09 Jun 2027 03:03:17.083             4.363          2181.500
       173   09 Jun 2027 04:34:02.403   09 Jun 2027 04:35:12.409            70.006         35003.000
       174   09 Jun 2027 04:35:13.510   09 Jun 2027 04:35:25.049            11.539          5769.500
       175   09 Jun 2027 04:35:48.457   09 Jun 2027 04:36:14.119            25.662         12831.000
       176   09 Jun 2027 04:37:51.178   09 Jun 2027 04:38:13.158            21.980         10990.000
       177   09 Jun 2027 06:12:50.019   09 Jun 2027 06:14:29.179            99.160         49580.000
       178   09 Jun 2027 06:14:53.899   09 Jun 2027 06:15:07.479            13.580          6790.000
       179   09 Jun 2027 06:16:06.990   09 Jun 2027 06:16:12.220             5.230          2615.000
       180   09 Jun 2027 06:16:57.539   09 Jun 2027 06:17:23.252            25.713         12856.500
       181   09 Jun 2027 06:19:47.757   09 Jun 2027 06:19:57.143             9.386          4693.000
       182   09 Jun 2027 07:37:08.972   09 Jun 2027 07:38:08.485            59.513         29756.500
       183   09 Jun 2027 07:38:19.025   09 Jun 2027 07:38:27.200             8.175          4087.500
       184   09 Jun 2027 07:49:25.272   09 Jun 2027 07:49:37.754            12.482          6131.719
       185   09 Jun 2027 09:11:22.199   09 Jun 2027 09:11:57.208            35.009         13323.406
       186   09 Jun 2027 09:14:14.951   09 Jun 2027 09:14:14.951             0.000             0.000
       187   09 Jun 2027 09:15:14.722   09 Jun 2027 09:15:27.183            12.461          6170.094
       188   09 Jun 2027 10:46:12.697   09 Jun 2027 10:46:28.916            16.219          7945.062
       189   09 Jun 2027 10:47:47.760   09 Jun 2027 10:47:52.343             4.583          1170.094
       190   10 Jun 2027 03:09:09.146   10 Jun 2027 03:09:20.265            11.119          5559.500
       191   10 Jun 2027 03:09:31.301   10 Jun 2027 03:09:34.059             2.758          1379.000
       192   10 Jun 2027 03:09:35.160   10 Jun 2027 03:09:46.312            11.152          5576.000
       193   10 Jun 2027 03:10:23.578   10 Jun 2027 03:10:35.850            12.272          6136.000
       194   10 Jun 2027 03:11:19.089   10 Jun 2027 03:11:19.089             0.000             0.000
       195   10 Jun 2027 03:11:37.434   10 Jun 2027 03:12:26.376            48.942         24471.000
       196   10 Jun 2027 03:12:32.812   10 Jun 2027 03:12:51.521            18.709          9354.500
       197   10 Jun 2027 03:15:16.556   10 Jun 2027 03:15:26.537             9.981          4990.500
       198   10 Jun 2027 03:15:39.970   10 Jun 2027 03:16:02.759            22.789         11394.500
       199   10 Jun 2027 04:46:46.829   10 Jun 2027 04:47:24.897            38.068         19034.000
       200   10 Jun 2027 04:47:36.274   10 Jun 2027 04:48:03.680            27.406         13703.000
       201   10 Jun 2027 04:48:48.404   10 Jun 2027 04:48:52.691             4.287          2143.500
       202   10 Jun 2027 04:49:08.660   10 Jun 2027 04:49:10.814             2.154          1077.000
       203   10 Jun 2027 04:49:32.245   10 Jun 2027 04:49:32.367             0.122            61.000
       204   10 Jun 2027 04:49:46.757   10 Jun 2027 04:49:53.168             6.411          3205.500
       205   10 Jun 2027 04:51:16.608   10 Jun 2027 04:51:33.983            17.375          8687.500
       206   10 Jun 2027 06:25:10.010   10 Jun 2027 06:26:38.865            88.855         44427.500
       207   10 Jun 2027 06:27:07.034   10 Jun 2027 06:27:07.416             0.382           191.000
       208   10 Jun 2027 06:27:30.026   10 Jun 2027 06:27:33.990             3.964          1982.000
       209   10 Jun 2027 06:27:48.680   10 Jun 2027 06:27:51.769             3.089          1544.500
       210   10 Jun 2027 06:28:20.998   10 Jun 2027 06:28:22.223             1.225           612.500
       211   10 Jun 2027 06:28:41.792   10 Jun 2027 06:28:57.661            15.869          7934.500
       212   10 Jun 2027 06:29:44.701   10 Jun 2027 06:29:44.701             0.000             0.000
       213   10 Jun 2027 07:49:12.140   10 Jun 2027 07:50:17.345            65.205         31290.844
       214   10 Jun 2027 07:50:28.860   10 Jun 2027 07:50:32.735             3.875           191.750
       215   10 Jun 2027 09:25:21.774   10 Jun 2027 09:26:08.955            47.181         22828.031
       216   10 Jun 2027 09:28:01.836   10 Jun 2027 09:28:01.836             0.000             0.000
       217   10 Jun 2027 11:00:38.081   10 Jun 2027 11:00:55.768            17.687          8843.500
       218   10 Jun 2027 11:06:51.068   10 Jun 2027 11:07:16.640            25.572         12394.594
       219   11 Jun 2027 03:21:08.600   11 Jun 2027 03:22:12.718            64.118         32059.000
       220   11 Jun 2027 03:23:23.353   11 Jun 2027 03:23:48.989            25.636         12818.000
       221   11 Jun 2027 03:25:01.161   11 Jun 2027 03:25:15.013            13.852          6926.000
       222   11 Jun 2027 03:25:18.030   11 Jun 2027 03:25:31.258            13.228          6614.000
       223   11 Jun 2027 04:59:24.664   11 Jun 2027 05:00:07.299            42.635         21317.500
       224   11 Jun 2027 05:00:12.728   11 Jun 2027 05:00:54.140            41.412         20706.000
       225   11 Jun 2027 05:01:49.980   11 Jun 2027 05:02:06.326            16.346          8173.000
       226   11 Jun 2027 05:03:39.648   11 Jun 2027 05:03:49.500             9.852          4926.000
       227   11 Jun 2027 06:37:43.783   11 Jun 2027 06:39:26.771           102.988         51494.000
       228   11 Jun 2027 06:39:45.608   11 Jun 2027 06:40:20.767            35.159         17579.500
       229   11 Jun 2027 08:01:06.478   11 Jun 2027 08:01:50.096            43.618         21809.000
       230   11 Jun 2027 08:02:07.150   11 Jun 2027 08:02:24.225            17.075          5947.218
       231   11 Jun 2027 09:37:28.469   11 Jun 2027 09:38:02.834            34.365         16296.187
       232   11 Jun 2027 09:38:18.800   11 Jun 2027 09:38:18.800             0.000             0.000
       233   11 Jun 2027 09:38:30.924   11 Jun 2027 09:38:34.041             3.117           734.844
       234   11 Jun 2027 09:39:38.224   11 Jun 2027 09:39:38.224             0.000             0.000
       235   11 Jun 2027 09:39:41.969   11 Jun 2027 09:39:41.969             0.000             0.000
       236   11 Jun 2027 11:10:57.413   11 Jun 2027 11:11:17.633            20.220          8338.937
       237   11 Jun 2027 11:12:45.239   11 Jun 2027 11:12:46.958             1.719           627.000
       238   11 Jun 2027 11:13:35.114   11 Jun 2027 11:13:35.114             0.000             0.000
       239   11 Jun 2027 11:14:32.975   11 Jun 2027 11:14:40.281             7.306          2571.844
       240   11 Jun 2027 11:14:51.805   11 Jun 2027 11:14:53.791             1.986           304.406
       241   11 Jun 2027 11:15:07.168   11 Jun 2027 11:15:07.547             0.379            92.656
       242   11 Jun 2027 11:16:05.651   11 Jun 2027 11:16:06.433             0.782           391.000
       243   11 Jun 2027 11:18:24.057   11 Jun 2027 11:18:34.101            10.044          5022.000
       244   11 Jun 2027 11:18:42.702   11 Jun 2027 11:18:42.929             0.227           113.500
       245   11 Jun 2027 11:19:27.674   11 Jun 2027 11:19:29.012             1.338           669.000
       246   12 Jun 2027 03:33:16.918   12 Jun 2027 03:34:27.575            70.657         35328.500
       247   12 Jun 2027 03:34:50.884   12 Jun 2027 03:35:12.022            21.138         10569.000
       248   12 Jun 2027 03:37:24.908   12 Jun 2027 03:37:43.003            18.095          9047.500
       249   12 Jun 2027 03:39:21.300   12 Jun 2027 03:39:56.576            35.276         17638.000
       250   12 Jun 2027 05:11:17.986   12 Jun 2027 05:11:22.672             4.686          2343.000
       251   12 Jun 2027 05:11:47.564   12 Jun 2027 05:13:25.176            97.612         48806.000
       252   12 Jun 2027 05:14:32.134   12 Jun 2027 05:14:42.893            10.759          5379.500
       253   12 Jun 2027 05:14:47.698   12 Jun 2027 05:14:49.671             1.973           986.500
       254   12 Jun 2027 06:49:58.960   12 Jun 2027 06:51:44.638           105.678         52839.000
       255   12 Jun 2027 06:52:16.302   12 Jun 2027 06:52:29.308            13.006          5932.687
       256   12 Jun 2027 06:53:28.878   12 Jun 2027 06:53:33.054             4.176          1743.969
       257   12 Jun 2027 08:12:57.475   12 Jun 2027 08:13:18.791            21.316          9799.813
       258   12 Jun 2027 08:14:31.644   12 Jun 2027 08:14:31.644             0.000             0.000
       259   12 Jun 2027 08:15:32.069   12 Jun 2027 08:15:40.345             8.276          3776.469
       260   12 Jun 2027 09:49:30.901   12 Jun 2027 09:49:48.347            17.446          8079.000
       261   12 Jun 2027 11:24:04.917   12 Jun 2027 11:24:29.035            24.118         11769.625
       262   12 Jun 2027 11:25:31.792   12 Jun 2027 11:25:36.025             4.233          1961.156
       263   12 Jun 2027 11:26:45.348   12 Jun 2027 11:26:50.575             5.227          2079.031
       264   12 Jun 2027 11:27:06.239   12 Jun 2027 11:27:10.109             3.870           478.187
       265   12 Jun 2027 11:28:18.261   12 Jun 2027 11:28:26.734             8.473          1722.687
       266   12 Jun 2027 11:28:50.667   12 Jun 2027 11:28:56.452             5.785           586.281
       267   12 Jun 2027 11:29:18.242   12 Jun 2027 11:29:20.141             1.899           396.469
       268   12 Jun 2027 11:29:44.242   12 Jun 2027 11:29:45.900             1.658           273.188
       269   12 Jun 2027 11:30:55.411   12 Jun 2027 11:31:00.098             4.687          1789.500
       270   12 Jun 2027 11:31:17.711   12 Jun 2027 11:31:23.198             5.487           424.500
       271   13 Jun 2027 03:45:18.773   13 Jun 2027 03:47:17.300           118.527         59263.500
       272   13 Jun 2027 03:47:36.413   13 Jun 2027 03:47:59.152            22.739         11369.500
       273   13 Jun 2027 03:49:34.977   13 Jun 2027 03:49:45.820            10.843          5421.500
       274   13 Jun 2027 05:23:26.885   13 Jun 2027 05:24:28.973            62.088         31044.000
       275   13 Jun 2027 05:24:35.482   13 Jun 2027 05:25:08.699            33.217         16608.500
       276   13 Jun 2027 05:25:29.848   13 Jun 2027 05:25:33.573             3.725          1862.500
       277   13 Jun 2027 05:27:08.374   13 Jun 2027 05:27:16.451             8.077          4038.500
       278   13 Jun 2027 05:29:08.347   13 Jun 2027 05:29:09.971             1.624           812.000
       279   13 Jun 2027 07:01:45.255   13 Jun 2027 07:02:17.045            31.790         15895.000
       280   13 Jun 2027 07:02:34.829   13 Jun 2027 07:03:56.934            82.105         41052.500
       281   13 Jun 2027 07:04:06.245   13 Jun 2027 07:04:06.351             0.106            53.000
       282   13 Jun 2027 07:05:16.930   13 Jun 2027 07:05:27.299            10.369          5149.781
       283   13 Jun 2027 08:25:08.282   13 Jun 2027 08:25:37.842            29.560         13849.062
       284   13 Jun 2027 08:26:38.486   13 Jun 2027 08:26:47.699             9.213          1586.375
       285   13 Jun 2027 08:28:03.121   13 Jun 2027 08:28:08.520             5.399          2316.719
       286   13 Jun 2027 10:01:39.999   13 Jun 2027 10:01:58.987            18.988          9494.000
       287   13 Jun 2027 10:04:08.972   13 Jun 2027 10:04:18.770             9.798          4302.937
       288   13 Jun 2027 10:05:11.438   13 Jun 2027 10:05:13.935             2.497          1073.781
       289   13 Jun 2027 11:38:32.792   13 Jun 2027 11:39:01.897            29.105         14509.875
       290   13 Jun 2027 11:39:31.075   13 Jun 2027 11:39:34.349             3.274           791.594
       291   13 Jun 2027 11:40:20.718   13 Jun 2027 11:40:24.348             3.630          1137.563
       292   13 Jun 2027 11:40:57.905   13 Jun 2027 11:40:59.300             1.395           649.406
       293   13 Jun 2027 11:41:14.394   13 Jun 2027 11:41:16.772             2.378           404.156
       294   13 Jun 2027 11:41:47.722   13 Jun 2027 11:41:50.031             2.309           967.188
       295   13 Jun 2027 11:42:55.902   13 Jun 2027 11:43:01.949             6.047          2058.469
       296   13 Jun 2027 11:43:17.163   13 Jun 2027 11:43:20.456             3.293           459.188
       297   13 Jun 2027 11:43:23.996   13 Jun 2027 11:43:26.214             2.218           110.625
