uniorb/output/strategy_1/Camera/Camera_KinoSat_111206.txt

KinoSat_111206
-------------------------
    Access    *     Start Time (UTCG)     *     Stop Time (UTCG)  *   Duration (s) *   Data (Mbytes)
         1   01 Jun 2027 03:22:14.340   01 Jun 2027 03:24:25.654           131.314         65657.000
         2   01 Jun 2027 03:24:58.820   01 Jun 2027 03:25:08.315             9.495          4747.500
         3   01 Jun 2027 03:25:57.846   01 Jun 2027 03:25:57.846             0.000             0.000
         4   01 Jun 2027 03:26:23.589   01 Jun 2027 03:26:41.913            18.324          9162.000
         5   01 Jun 2027 04:45:36.273   01 Jun 2027 04:46:11.351            35.078         17539.000
         6   01 Jun 2027 04:47:18.040   01 Jun 2027 04:47:18.315             0.275           137.500
         7   01 Jun 2027 06:21:58.312   01 Jun 2027 06:23:45.434           107.122         53561.000
         8   01 Jun 2027 06:24:14.210   01 Jun 2027 06:24:33.069            18.859          9429.500
         9   01 Jun 2027 06:24:43.372   01 Jun 2027 06:24:43.372             0.000             0.000
        10   01 Jun 2027 07:56:02.314   01 Jun 2027 07:58:00.238           117.924         58962.000
        11   01 Jun 2027 07:58:04.778   01 Jun 2027 07:58:04.778             0.000             0.000
        12   01 Jun 2027 08:00:50.923   01 Jun 2027 08:00:50.923             0.000             0.000
        13   01 Jun 2027 08:02:33.635   01 Jun 2027 08:02:35.732             2.097          1048.500
        14   01 Jun 2027 08:02:45.864   01 Jun 2027 08:02:57.242            11.378          5689.000
        15   01 Jun 2027 08:02:59.684   01 Jun 2027 08:03:14.188            14.504          7252.000
        16   01 Jun 2027 08:04:00.126   01 Jun 2027 08:04:01.015             0.889           444.500
        17   01 Jun 2027 09:33:06.873   01 Jun 2027 09:35:07.209           120.336         60168.000
        18   01 Jun 2027 09:35:09.680   01 Jun 2027 09:35:25.410            15.730          7865.000
        19   01 Jun 2027 09:39:08.323   01 Jun 2027 09:39:09.905             1.582           791.000
        20   01 Jun 2027 11:10:02.914   01 Jun 2027 11:11:54.350           111.436         55718.000
        21   01 Jun 2027 11:13:54.743   01 Jun 2027 11:14:26.969            32.226         16113.000
        22   01 Jun 2027 11:14:27.351   01 Jun 2027 11:14:30.357             3.006          1503.000
        23   02 Jun 2027 03:34:42.555   02 Jun 2027 03:36:49.357           126.802         63401.000
        24   02 Jun 2027 04:57:39.827   02 Jun 2027 04:58:09.149            29.322         14661.000
        25   02 Jun 2027 04:58:40.802   02 Jun 2027 04:58:40.802             0.000             0.000
        26   02 Jun 2027 04:58:44.129   02 Jun 2027 04:58:45.827             1.698           849.000
        27   02 Jun 2027 04:58:51.237   02 Jun 2027 04:59:00.355             9.118          4559.000
        28   02 Jun 2027 06:34:08.957   02 Jun 2027 06:35:51.616           102.659         51329.500
        29   02 Jun 2027 06:36:46.665   02 Jun 2027 06:36:48.170             1.505           752.500
        30   02 Jun 2027 06:37:17.358   02 Jun 2027 06:37:37.977            20.619         10309.500
        31   02 Jun 2027 08:09:13.899   02 Jun 2027 08:10:53.410            99.511         49755.500
        32   02 Jun 2027 08:11:33.343   02 Jun 2027 08:11:51.545            18.202          9101.000
        33   02 Jun 2027 08:14:00.058   02 Jun 2027 08:14:17.622            17.564          8782.000
        34   02 Jun 2027 08:14:51.125   02 Jun 2027 08:15:01.519            10.394          5197.000
        35   02 Jun 2027 08:15:19.808   02 Jun 2027 08:15:26.227             6.419          3209.500
        36   02 Jun 2027 09:45:35.835   02 Jun 2027 09:47:31.241           115.406         57703.000
        37   02 Jun 2027 09:47:44.515   02 Jun 2027 09:47:50.451             5.936          2968.000
        38   02 Jun 2027 09:49:37.690   02 Jun 2027 09:49:39.352             1.662           831.000
        39   02 Jun 2027 09:50:18.554   02 Jun 2027 09:50:20.976             2.422          1211.000
        40   02 Jun 2027 09:51:03.551   02 Jun 2027 09:51:10.535             6.984          3492.000
        41   02 Jun 2027 11:23:06.150   02 Jun 2027 11:24:58.281           112.131         56065.500
        42   02 Jun 2027 11:25:27.665   02 Jun 2027 11:25:37.239             9.574          4787.000
        43   03 Jun 2027 03:46:17.055   03 Jun 2027 03:46:53.297            36.242         18121.000
        44   03 Jun 2027 03:47:06.067   03 Jun 2027 03:47:15.591             9.524          4762.000
        45   03 Jun 2027 03:47:43.759   03 Jun 2027 03:47:54.290            10.531          5265.500
        46   03 Jun 2027 03:48:16.442   03 Jun 2027 03:48:58.717            42.275         21137.500
        47   03 Jun 2027 05:09:35.944   03 Jun 2027 05:10:36.584            60.640         30320.000
        48   03 Jun 2027 05:10:43.170   03 Jun 2027 05:10:43.170             0.000             0.000
        49   03 Jun 2027 05:11:12.555   03 Jun 2027 05:11:20.547             7.992          3996.000
        50   03 Jun 2027 06:46:13.727   03 Jun 2027 06:46:43.137            29.410         14705.000
        51   03 Jun 2027 06:46:56.501   03 Jun 2027 06:48:15.297            78.796         39398.000
        52   03 Jun 2027 06:48:38.306   03 Jun 2027 06:48:46.827             8.521          4260.500
        53   03 Jun 2027 08:21:24.096   03 Jun 2027 08:23:18.818           114.722         57361.000
        54   03 Jun 2027 08:24:16.317   03 Jun 2027 08:24:27.013            10.696          5348.000
        55   03 Jun 2027 08:24:56.006   03 Jun 2027 08:24:58.169             2.163          1081.500
        56   03 Jun 2027 08:25:59.183   03 Jun 2027 08:26:20.745            21.562         10781.000
        57   03 Jun 2027 09:57:38.605   03 Jun 2027 09:58:57.183            78.578         39289.000
        58   03 Jun 2027 10:00:31.303   03 Jun 2027 10:00:46.031            14.728          6849.810
        59   03 Jun 2027 10:01:09.971   03 Jun 2027 10:01:09.971             0.000             0.000
        60   03 Jun 2027 10:02:06.252   03 Jun 2027 10:02:06.252             0.000             0.000
        61   03 Jun 2027 10:03:06.738   03 Jun 2027 10:03:16.742            10.004          4318.312
        62   03 Jun 2027 11:35:11.835   03 Jun 2027 11:35:31.852            20.017         10008.500
        63   03 Jun 2027 11:35:38.093   03 Jun 2027 11:35:38.884             0.791           362.594
        64   03 Jun 2027 11:36:04.208   03 Jun 2027 11:36:05.101             0.893           446.500
        65   03 Jun 2027 11:36:40.327   03 Jun 2027 11:36:43.433             3.106          1428.594
        66   03 Jun 2027 11:37:04.542   03 Jun 2027 11:37:07.721             3.179           659.656
        67   03 Jun 2027 11:37:21.190   03 Jun 2027 11:37:24.810             3.620           417.125
        68   03 Jun 2027 11:37:37.830   03 Jun 2027 11:37:39.398             1.568           383.750
        69   03 Jun 2027 11:38:22.957   03 Jun 2027 11:38:28.497             5.540          1109.438
        70   03 Jun 2027 11:39:15.091   03 Jun 2027 11:39:19.385             4.294          1156.719
        71   04 Jun 2027 03:47:24.588   04 Jun 2027 03:47:40.520            15.932          7966.000
        72   04 Jun 2027 03:58:13.523   04 Jun 2027 03:58:55.587            42.064         21032.000
        73   04 Jun 2027 03:59:01.721   04 Jun 2027 03:59:16.589            14.868          7434.000
        74   04 Jun 2027 03:59:56.169   04 Jun 2027 04:00:00.247             4.078          2039.000
        75   04 Jun 2027 04:00:24.515   04 Jun 2027 04:00:55.390            30.875         15437.500
        76   04 Jun 2027 04:01:40.479   04 Jun 2027 04:01:40.479             0.000             0.000
        77   04 Jun 2027 05:22:11.858   04 Jun 2027 05:23:31.779            79.921         39960.500
        78   04 Jun 2027 05:24:46.535   04 Jun 2027 05:24:46.535             0.000             0.000
        79   04 Jun 2027 06:57:57.475   04 Jun 2027 06:59:47.348           109.873         54936.500
        80   04 Jun 2027 07:01:37.609   04 Jun 2027 07:02:00.982            23.373         11686.500
        81   04 Jun 2027 08:32:48.452   04 Jun 2027 08:33:21.775            33.323         16100.438
        82   04 Jun 2027 08:33:39.511   04 Jun 2027 08:33:42.183             2.672           554.250
        83   04 Jun 2027 08:34:00.175   04 Jun 2027 08:34:03.481             3.306           562.250
        84   04 Jun 2027 08:34:24.358   04 Jun 2027 08:34:25.684             1.326           574.781
        85   04 Jun 2027 08:34:39.077   04 Jun 2027 08:34:40.039             0.962           418.531
        86   04 Jun 2027 08:35:39.347   04 Jun 2027 08:35:46.586             7.239          1768.875
        87   04 Jun 2027 08:37:29.538   04 Jun 2027 08:37:29.538             0.000             0.000
        88   04 Jun 2027 08:39:30.831   04 Jun 2027 08:39:44.352            13.521          6627.500
        89   04 Jun 2027 10:09:24.286   04 Jun 2027 10:09:41.570            17.284          8343.438
        90   04 Jun 2027 10:09:53.732   04 Jun 2027 10:09:58.771             5.039           324.031
        91   04 Jun 2027 10:11:17.942   04 Jun 2027 10:11:22.240             4.298          2065.813
        92   04 Jun 2027 10:11:39.892   04 Jun 2027 10:11:43.623             3.731           523.656
        93   04 Jun 2027 10:12:00.325   04 Jun 2027 10:12:02.395             2.070           109.906
        94   04 Jun 2027 10:12:34.725   04 Jun 2027 10:12:35.731             1.006           503.000
        95   04 Jun 2027 10:12:47.142   04 Jun 2027 10:12:48.853             1.711           786.125
        96   04 Jun 2027 10:13:01.231   04 Jun 2027 10:13:07.222             5.991           386.813
        97   04 Jun 2027 10:13:17.127   04 Jun 2027 10:13:17.127             0.000             0.000
        98   04 Jun 2027 10:14:00.258   04 Jun 2027 10:14:06.144             5.886          1560.562
        99   04 Jun 2027 10:14:32.173   04 Jun 2027 10:14:36.867             4.694           793.375
       100   04 Jun 2027 10:14:42.453   04 Jun 2027 10:14:43.738             1.285           174.562
       101   04 Jun 2027 11:47:41.974   04 Jun 2027 11:47:55.345            13.371          6685.500
       102   04 Jun 2027 11:48:02.474   04 Jun 2027 11:48:02.982             0.508           254.000
       103   04 Jun 2027 11:48:29.595   04 Jun 2027 11:48:39.306             9.711          1522.687
       104   04 Jun 2027 11:49:14.811   04 Jun 2027 11:49:18.971             4.160          1097.813
       105   04 Jun 2027 11:49:43.874   04 Jun 2027 11:49:46.201             2.327           778.219
       106   04 Jun 2027 11:49:48.053   04 Jun 2027 11:49:48.691             0.638            57.875
       107   04 Jun 2027 11:49:57.609   04 Jun 2027 11:50:00.952             3.343           278.688
       108   04 Jun 2027 11:50:11.761   04 Jun 2027 11:50:17.121             5.360           337.781
       109   04 Jun 2027 11:51:07.034   04 Jun 2027 11:51:20.339            13.305          1452.625
       110   04 Jun 2027 11:51:35.734   04 Jun 2027 11:51:35.734             0.000             0.000
       111   05 Jun 2027 03:58:41.201   05 Jun 2027 03:59:05.889            24.688         12344.000
       112   05 Jun 2027 04:10:11.442   05 Jun 2027 04:11:45.567            94.125         47062.500
       113   05 Jun 2027 05:32:50.701   05 Jun 2027 05:33:49.557            58.856         29428.000
       114   05 Jun 2027 05:34:26.212   05 Jun 2027 05:35:00.628            34.416         17208.000
       115   05 Jun 2027 07:08:09.722   05 Jun 2027 07:09:09.851            60.129         30064.500
       116   05 Jun 2027 07:09:42.348   05 Jun 2027 07:10:47.445            65.097         32474.313
       117   05 Jun 2027 07:12:33.476   05 Jun 2027 07:12:35.109             1.633           816.500
       118   05 Jun 2027 07:13:32.956   05 Jun 2027 07:13:37.232             4.276          2138.000
       119   05 Jun 2027 07:13:50.083   05 Jun 2027 07:13:59.142             9.059          2434.375
       120   05 Jun 2027 08:44:41.477   05 Jun 2027 08:44:57.031            15.554          6928.781
       121   05 Jun 2027 08:45:40.241   05 Jun 2027 08:45:43.907             3.666          1015.219
       122   05 Jun 2027 08:46:24.977   05 Jun 2027 08:46:26.610             1.633           604.000
       123   05 Jun 2027 08:47:08.484   05 Jun 2027 08:47:11.998             3.514          1308.563
       124   05 Jun 2027 08:48:14.384   05 Jun 2027 08:48:18.187             3.803          1434.312
       125   05 Jun 2027 08:49:00.099   05 Jun 2027 08:49:08.775             8.676          1296.969
       126   05 Jun 2027 08:49:48.360   05 Jun 2027 08:49:52.094             3.734           971.781
       127   05 Jun 2027 08:50:24.164   05 Jun 2027 08:50:25.486             1.322           661.000
       128   05 Jun 2027 08:50:33.919   05 Jun 2027 08:50:34.424             0.505           252.500
       129   05 Jun 2027 08:50:56.178   05 Jun 2027 08:51:00.930             4.752           978.500
       130   05 Jun 2027 08:51:57.583   05 Jun 2027 08:51:59.900             2.317          1158.500
       131   05 Jun 2027 10:21:45.477   05 Jun 2027 10:21:59.001            13.524          6747.906
       132   05 Jun 2027 10:24:19.591   05 Jun 2027 10:24:24.374             4.783          1953.344
       133   05 Jun 2027 10:25:35.246   05 Jun 2027 10:25:45.116             9.870          2178.625
       134   05 Jun 2027 10:25:59.160   05 Jun 2027 10:26:00.747             1.587           438.875
       135   05 Jun 2027 10:26:09.582   05 Jun 2027 10:26:11.535             1.953           261.688
       136   05 Jun 2027 10:26:16.752   05 Jun 2027 10:26:19.831             3.079            55.656
       137   05 Jun 2027 10:26:31.067   05 Jun 2027 10:26:35.792             4.725           351.125
       138   05 Jun 2027 10:27:34.350   05 Jun 2027 10:27:35.827             1.477           738.500
       139   05 Jun 2027 10:27:37.407   05 Jun 2027 10:27:44.023             6.616           950.313
       140   05 Jun 2027 10:27:51.297   05 Jun 2027 10:27:52.724             1.427           227.312
       141   05 Jun 2027 11:59:39.779   05 Jun 2027 11:59:55.463            15.684          7299.313
       142   06 Jun 2027 04:09:58.182   06 Jun 2027 04:10:59.719            61.537         30768.500
       143   06 Jun 2027 04:22:10.704   06 Jun 2027 04:22:52.969            42.265         21132.500
       144   06 Jun 2027 05:44:26.527   06 Jun 2027 05:45:33.009            66.482         33241.000
       145   06 Jun 2027 05:46:21.950   06 Jun 2027 05:46:59.761            37.811         18905.500
       146   06 Jun 2027 05:47:26.439   06 Jun 2027 05:47:52.521            26.082         13041.000
       147   06 Jun 2027 07:19:19.819   06 Jun 2027 07:20:46.674            86.855         43427.500
       148   06 Jun 2027 07:21:20.258   06 Jun 2027 07:21:24.160             3.902          1951.000
       149   06 Jun 2027 07:21:29.813   06 Jun 2027 07:21:41.998            12.185          6092.500
       150   06 Jun 2027 07:21:44.321   06 Jun 2027 07:21:44.707             0.386           193.000
       151   06 Jun 2027 07:22:13.487   06 Jun 2027 07:22:20.522             7.035          2029.344
       152   06 Jun 2027 07:22:40.264   06 Jun 2027 07:22:44.681             4.417           282.437
       153   06 Jun 2027 07:23:16.830   06 Jun 2027 07:23:19.900             3.070           841.375
       154   06 Jun 2027 07:24:36.956   06 Jun 2027 07:24:36.956             0.000             0.000
       155   06 Jun 2027 07:26:41.084   06 Jun 2027 07:26:42.037             0.953           476.500
       156   06 Jun 2027 07:27:22.398   06 Jun 2027 07:27:35.191            12.793          5810.500
       157   06 Jun 2027 08:56:53.954   06 Jun 2027 08:57:08.818            14.864          6982.562
       158   06 Jun 2027 08:58:54.829   06 Jun 2027 08:58:54.829             0.000             0.000
       159   06 Jun 2027 08:59:42.775   06 Jun 2027 08:59:50.648             7.873          3936.500
       160   06 Jun 2027 09:01:09.460   06 Jun 2027 09:01:18.224             8.764          3297.187
       161   06 Jun 2027 09:01:44.701   06 Jun 2027 09:01:45.981             1.280           640.000
       162   06 Jun 2027 09:02:49.036   06 Jun 2027 09:02:56.520             7.484          2101.125
       163   06 Jun 2027 09:03:31.384   06 Jun 2027 09:03:38.663             7.279          1089.500
       164   06 Jun 2027 09:04:05.598   06 Jun 2027 09:04:07.274             1.676           828.469
       165   06 Jun 2027 09:04:14.344   06 Jun 2027 09:04:14.438             0.094            47.000
       166   06 Jun 2027 10:33:36.695   06 Jun 2027 10:33:56.340            19.645          8993.062
       167   06 Jun 2027 10:34:31.944   06 Jun 2027 10:34:41.287             9.343          1054.875
       168   06 Jun 2027 10:34:51.255   06 Jun 2027 10:34:53.555             2.300           273.156
       169   06 Jun 2027 10:35:09.502   06 Jun 2027 10:35:13.562             4.060           237.688
       170   06 Jun 2027 10:36:20.776   06 Jun 2027 10:36:26.059             5.283          2082.094
       171   06 Jun 2027 10:37:38.791   06 Jun 2027 10:37:44.921             6.130          2219.906
       172   06 Jun 2027 10:38:07.906   06 Jun 2027 10:38:10.084             2.178           546.281
       173   06 Jun 2027 10:38:30.814   06 Jun 2027 10:38:32.350             1.536           647.812
       174   06 Jun 2027 10:39:26.637   06 Jun 2027 10:39:31.296             4.659          1509.625
       175   06 Jun 2027 10:39:48.226   06 Jun 2027 10:39:49.655             1.429           457.906
       176   06 Jun 2027 10:39:54.448   06 Jun 2027 10:39:56.024             1.576            32.812
       177   07 Jun 2027 03:00:00.000   07 Jun 2027 03:00:06.337             6.337          3168.500
       178   07 Jun 2027 03:00:36.743   07 Jun 2027 03:01:03.257            26.514         13257.000
       179   07 Jun 2027 03:01:35.684   07 Jun 2027 03:01:47.209            11.525          5762.500
       180   07 Jun 2027 03:02:15.789   07 Jun 2027 03:02:34.116            18.327          9163.500
       181   07 Jun 2027 04:22:03.811   07 Jun 2027 04:22:48.432            44.621         22310.500
       182   07 Jun 2027 04:34:24.992   07 Jun 2027 04:34:44.561            19.569          9784.500
       183   07 Jun 2027 05:55:55.440   07 Jun 2027 05:57:18.649            83.209         41604.500
       184   07 Jun 2027 05:57:56.291   07 Jun 2027 05:58:22.300            26.009         13004.500
       185   07 Jun 2027 06:00:54.758   07 Jun 2027 06:00:57.795             3.037          1518.500
       186   07 Jun 2027 07:30:50.384   07 Jun 2027 07:32:45.941           115.557         57088.094
       187   07 Jun 2027 07:32:55.424   07 Jun 2027 07:32:57.230             1.806           140.969
       188   07 Jun 2027 07:34:21.446   07 Jun 2027 07:34:22.803             1.357           678.500
       189   07 Jun 2027 07:35:20.014   07 Jun 2027 07:35:29.546             9.532          3706.750
       190   07 Jun 2027 07:37:49.703   07 Jun 2027 07:37:49.845             0.142            71.000
       191   07 Jun 2027 07:38:38.516   07 Jun 2027 07:38:50.195            11.679          5796.344
       192   07 Jun 2027 09:08:48.019   07 Jun 2027 09:09:03.283            15.264          7632.000
       193   07 Jun 2027 09:09:12.200   07 Jun 2027 09:09:20.900             8.700          1370.219
       194   07 Jun 2027 09:10:09.102   07 Jun 2027 09:10:13.320             4.218           984.750
       195   07 Jun 2027 09:10:32.885   07 Jun 2027 09:10:33.565             0.680           340.000
       196   07 Jun 2027 09:10:50.737   07 Jun 2027 09:10:52.446             1.709           678.313
       197   07 Jun 2027 09:11:44.189   07 Jun 2027 09:11:48.997             4.808          1579.687
       198   07 Jun 2027 09:13:01.323   07 Jun 2027 09:13:05.642             4.319          2057.469
       199   07 Jun 2027 09:13:14.063   07 Jun 2027 09:13:15.650             1.587           263.156
       200   07 Jun 2027 09:14:27.855   07 Jun 2027 09:14:34.427             6.572          2173.625
       201   07 Jun 2027 09:15:43.555   07 Jun 2027 09:15:49.305             5.750          1986.000
       202   07 Jun 2027 09:15:58.038   07 Jun 2027 09:16:01.069             3.031           222.250
       203   07 Jun 2027 10:45:42.852   07 Jun 2027 10:45:50.587             7.735          3867.500
       204   07 Jun 2027 10:46:12.045   07 Jun 2027 10:46:19.335             7.290          3143.563
       205   07 Jun 2027 10:47:05.617   07 Jun 2027 10:47:12.614             6.997          1430.031
       206   07 Jun 2027 10:47:36.898   07 Jun 2027 10:47:37.703             0.805            92.844
       207   07 Jun 2027 10:48:01.036   07 Jun 2027 10:48:01.962             0.926            15.312
       208   07 Jun 2027 10:48:02.504   07 Jun 2027 10:48:07.852             5.348            16.938
       209   07 Jun 2027 10:48:34.886   07 Jun 2027 10:48:38.429             3.543           507.969
       210   07 Jun 2027 10:48:55.583   07 Jun 2027 10:48:57.529             1.946           353.250
       211   07 Jun 2027 10:49:19.529   07 Jun 2027 10:49:36.156            16.627           501.750
       212   07 Jun 2027 10:50:08.538   07 Jun 2027 10:50:11.411             2.873           960.031
       213   07 Jun 2027 10:50:13.538   07 Jun 2027 10:50:15.658             2.120            66.469
       214   07 Jun 2027 10:50:27.809   07 Jun 2027 10:50:32.100             4.291            42.875
       215   07 Jun 2027 10:51:23.773   07 Jun 2027 10:51:28.677             4.904          1037.094
       216   07 Jun 2027 10:51:40.599   07 Jun 2027 10:51:45.633             5.034           372.563
       217   07 Jun 2027 10:52:08.838   07 Jun 2027 10:52:10.738             1.900           725.156
       218   08 Jun 2027 03:10:11.345   08 Jun 2027 03:11:14.130            62.785         31392.500
       219   08 Jun 2027 03:11:59.827   08 Jun 2027 03:12:06.226             6.399          3199.500
       220   08 Jun 2027 03:13:02.028   08 Jun 2027 03:13:11.751             9.723          4861.500
       221   08 Jun 2027 03:13:25.097   08 Jun 2027 03:13:25.956             0.859           429.500
       222   08 Jun 2027 04:33:59.604   08 Jun 2027 04:34:25.917            26.313         13156.500
       223   08 Jun 2027 04:34:56.346   08 Jun 2027 04:34:56.346             0.000             0.000
       224   08 Jun 2027 04:35:48.825   08 Jun 2027 04:35:56.734             7.909          3954.500
       225   08 Jun 2027 06:09:59.751   08 Jun 2027 06:11:43.958           104.207         52103.500
       226   08 Jun 2027 06:12:03.115   08 Jun 2027 06:12:05.885             2.770          1385.000
       227   08 Jun 2027 06:13:04.983   08 Jun 2027 06:13:04.983             0.000             0.000
       228   08 Jun 2027 07:43:43.970   08 Jun 2027 07:45:29.655           105.685         52743.844
       229   08 Jun 2027 07:46:13.025   08 Jun 2027 07:46:16.036             3.011          1341.156
       230   08 Jun 2027 07:47:07.130   08 Jun 2027 07:47:10.763             3.633          1570.219
       231   08 Jun 2027 07:48:37.143   08 Jun 2027 07:48:39.690             2.547          1273.500
       232   08 Jun 2027 07:49:12.687   08 Jun 2027 07:49:24.427            11.740          2440.062
       233   08 Jun 2027 07:49:39.780   08 Jun 2027 07:49:40.940             1.160           404.125
       234   08 Jun 2027 07:49:54.254   08 Jun 2027 07:49:56.823             2.569           342.750
       235   08 Jun 2027 07:50:26.121   08 Jun 2027 07:50:28.055             1.934           420.281
       236   08 Jun 2027 07:50:48.504   08 Jun 2027 07:50:48.504             0.000             0.000
       237   08 Jun 2027 07:50:51.469   08 Jun 2027 07:50:55.940             4.471           479.156
       238   08 Jun 2027 07:51:16.906   08 Jun 2027 07:51:18.288             1.382           655.188
       239   08 Jun 2027 07:52:01.243   08 Jun 2027 07:52:04.241             2.998          1342.344
       240   08 Jun 2027 07:52:16.230   08 Jun 2027 07:52:17.644             1.414           374.656
       241   08 Jun 2027 09:21:09.272   08 Jun 2027 09:21:28.177            18.905          9452.500
       242   08 Jun 2027 09:21:47.965   08 Jun 2027 09:21:50.200             2.235           817.344
       243   08 Jun 2027 09:22:24.804   08 Jun 2027 09:22:30.022             5.218           422.875
       244   08 Jun 2027 09:23:30.927   08 Jun 2027 09:23:35.988             5.061          1790.250
       245   08 Jun 2027 09:25:35.224   08 Jun 2027 09:25:40.820             5.596          2798.000
       246   08 Jun 2027 09:26:04.304   08 Jun 2027 09:26:08.795             4.491          1662.000
       247   08 Jun 2027 09:26:20.154   08 Jun 2027 09:26:21.641             1.487            79.875
       248   08 Jun 2027 09:27:19.544   08 Jun 2027 09:27:21.972             2.428          1214.000
       249   08 Jun 2027 09:27:41.985   08 Jun 2027 09:27:45.462             3.477          1220.875
       250   08 Jun 2027 10:58:12.842   08 Jun 2027 10:58:28.901            16.059          7788.813
       251   08 Jun 2027 10:59:49.641   08 Jun 2027 10:59:54.620             4.979          2016.094
       252   08 Jun 2027 11:00:06.919   08 Jun 2027 11:00:08.489             1.570           202.125
       253   08 Jun 2027 11:00:35.300   08 Jun 2027 11:00:41.109             5.809           837.844
       254   08 Jun 2027 11:01:33.716   08 Jun 2027 11:01:37.772             4.056          1643.969
       255   08 Jun 2027 11:01:50.036   08 Jun 2027 11:01:55.390             5.354           310.062
       256   08 Jun 2027 11:02:00.400   08 Jun 2027 11:02:00.801             0.401            50.406
       257   08 Jun 2027 11:03:43.134   08 Jun 2027 11:03:56.459            13.325          3107.031
       258   09 Jun 2027 03:22:29.996   09 Jun 2027 03:24:24.276           114.280         57140.000
       259   09 Jun 2027 03:25:01.417   09 Jun 2027 03:25:17.308            15.891          7945.500
       260   09 Jun 2027 03:26:49.221   09 Jun 2027 03:26:56.340             7.119          3559.500
       261   09 Jun 2027 04:45:51.170   09 Jun 2027 04:46:25.779            34.609         17304.500
       262   09 Jun 2027 04:47:33.464   09 Jun 2027 04:47:33.464             0.000             0.000
       263   09 Jun 2027 04:48:00.783   09 Jun 2027 04:48:09.961             9.178          4589.000
       264   09 Jun 2027 06:22:14.325   09 Jun 2027 06:23:31.505            77.180         38590.000
       265   09 Jun 2027 06:24:15.835   09 Jun 2027 06:24:34.329            18.494          9247.000
       266   09 Jun 2027 07:56:18.613   09 Jun 2027 07:57:20.739            62.126         29758.688
       267   09 Jun 2027 07:59:29.720   09 Jun 2027 07:59:32.903             3.183          1591.500
       268   09 Jun 2027 07:59:52.113   09 Jun 2027 07:59:57.006             4.893          1896.406
       269   09 Jun 2027 08:01:01.347   09 Jun 2027 08:01:05.826             4.479          1980.156
       270   09 Jun 2027 08:02:51.879   09 Jun 2027 08:02:58.435             6.556          3227.625
       271   09 Jun 2027 08:03:47.937   09 Jun 2027 08:03:52.686             4.749          1414.281
       272   09 Jun 2027 08:04:00.221   09 Jun 2027 08:04:02.163             1.942           184.437
       273   09 Jun 2027 09:33:22.481   09 Jun 2027 09:33:39.962            17.481          6901.250
       274   09 Jun 2027 09:34:44.152   09 Jun 2027 09:34:48.497             4.345           398.156
       275   09 Jun 2027 09:35:40.025   09 Jun 2027 09:35:42.395             2.370          1164.156
       276   09 Jun 2027 09:35:47.921   09 Jun 2027 09:35:49.108             1.187           172.688
       277   09 Jun 2027 09:35:49.998   09 Jun 2027 09:35:53.260             3.262            27.812
       278   09 Jun 2027 09:36:03.679   09 Jun 2027 09:36:05.064             1.385           219.812
       279   09 Jun 2027 09:37:03.060   09 Jun 2027 09:37:20.400            17.340          1489.062
       280   09 Jun 2027 09:38:18.453   09 Jun 2027 09:38:22.044             3.591          1356.875
       281   09 Jun 2027 09:38:35.918   09 Jun 2027 09:38:37.946             2.028           433.563
       282   09 Jun 2027 09:39:25.671   09 Jun 2027 09:39:30.134             4.463          1491.406
       283   09 Jun 2027 09:39:57.533   09 Jun 2027 09:39:59.527             1.994           856.219
       284   09 Jun 2027 11:10:18.737   09 Jun 2027 11:10:31.336            12.599          6242.281
       285   09 Jun 2027 11:10:42.833   09 Jun 2027 11:10:43.809             0.976           213.250
       286   09 Jun 2027 11:11:12.918   09 Jun 2027 11:11:16.190             3.272           909.656
       287   09 Jun 2027 11:11:41.030   09 Jun 2027 11:11:42.552             1.522           744.875
       288   09 Jun 2027 11:11:49.904   09 Jun 2027 11:11:51.115             1.211           229.750
       289   09 Jun 2027 11:12:29.037   09 Jun 2027 11:12:32.501             3.464           991.687
       290   09 Jun 2027 11:12:38.263   09 Jun 2027 11:12:46.489             8.226            90.625
       291   09 Jun 2027 11:13:06.237   09 Jun 2027 11:13:10.176             3.939           574.250
       292   09 Jun 2027 11:13:13.744   09 Jun 2027 11:13:16.130             2.386           110.187
       293   09 Jun 2027 11:13:19.673   09 Jun 2027 11:13:24.088             4.415           107.969
       294   09 Jun 2027 11:15:12.694   09 Jun 2027 11:15:18.905             6.211          3105.500
       295   10 Jun 2027 03:34:58.931   10 Jun 2027 03:37:05.797           126.866         63433.000
       296   10 Jun 2027 04:57:55.860   10 Jun 2027 04:58:54.723            58.863         29431.500
       297   10 Jun 2027 06:34:24.806   10 Jun 2027 06:35:58.692            93.886         46943.000
       298   10 Jun 2027 06:36:34.516   10 Jun 2027 06:36:40.113             5.597          2798.500
       299   10 Jun 2027 06:36:48.329   10 Jun 2027 06:36:48.329             0.000             0.000
       300   10 Jun 2027 08:09:30.387   10 Jun 2027 08:10:16.273            45.886         22369.750
       301   10 Jun 2027 08:11:20.869   10 Jun 2027 08:11:24.477             3.608          1663.656
       302   10 Jun 2027 08:12:07.979   10 Jun 2027 08:12:10.651             2.672          1319.375
       303   10 Jun 2027 08:13:11.221   10 Jun 2027 08:13:13.881             2.660          1111.563
       304   10 Jun 2027 08:13:40.836   10 Jun 2027 08:13:47.199             6.363           842.344
       305   10 Jun 2027 08:14:02.411   10 Jun 2027 08:14:06.743             4.332           198.719
       306   10 Jun 2027 08:14:26.879   10 Jun 2027 08:14:29.605             2.726           477.656
       307   10 Jun 2027 08:14:45.008   10 Jun 2027 08:14:46.377             1.369           351.531
       308   10 Jun 2027 08:15:16.607   10 Jun 2027 08:15:20.031             3.424           944.687
       309   10 Jun 2027 08:15:49.177   10 Jun 2027 08:15:50.008             0.831           415.500
       310   10 Jun 2027 08:16:02.993   10 Jun 2027 08:16:02.993             0.000             0.000
       311   10 Jun 2027 09:45:52.590   10 Jun 2027 09:46:07.141            14.551          7176.688
       312   10 Jun 2027 09:46:52.752   10 Jun 2027 09:46:56.927             4.175           494.312
       313   10 Jun 2027 09:48:05.177   10 Jun 2027 09:48:07.059             1.882           941.000
       314   10 Jun 2027 09:48:24.090   10 Jun 2027 09:48:26.528             2.438           575.156
       315   10 Jun 2027 09:49:53.932   10 Jun 2027 09:50:01.326             7.394          2581.875
       316   10 Jun 2027 09:50:32.492   10 Jun 2027 09:50:35.666             3.174           585.281
       317   10 Jun 2027 09:51:40.343   10 Jun 2027 09:51:42.251             1.908           892.000
       318   10 Jun 2027 11:23:20.969   10 Jun 2027 11:23:34.293            13.324          6212.188
       319   10 Jun 2027 11:24:03.019   10 Jun 2027 11:24:04.483             1.464           732.000
       320   10 Jun 2027 11:24:21.698   10 Jun 2027 11:24:23.922             2.224           675.000
       321   10 Jun 2027 11:24:29.283   10 Jun 2027 11:24:29.283             0.000             0.000
       322   10 Jun 2027 11:24:54.814   10 Jun 2027 11:24:57.982             3.168           965.375
       323   10 Jun 2027 11:25:16.721   10 Jun 2027 11:25:17.705             0.984           492.000
       324   10 Jun 2027 11:26:42.780   10 Jun 2027 11:26:53.711            10.931          2730.594
       325   11 Jun 2027 03:46:32.012   11 Jun 2027 03:47:09.196            37.184         18592.000
       326   11 Jun 2027 03:47:21.758   11 Jun 2027 03:48:33.988            72.230         36115.000
       327   11 Jun 2027 03:49:01.111   11 Jun 2027 03:49:19.114            18.003          9001.500
       328   11 Jun 2027 05:10:00.167   11 Jun 2027 05:10:51.607            51.440         25720.000
       329   11 Jun 2027 05:11:35.724   11 Jun 2027 05:11:38.291             2.567          1283.500
       330   11 Jun 2027 06:46:29.134   11 Jun 2027 06:48:01.931            92.797         46398.500
       331   11 Jun 2027 06:49:01.841   11 Jun 2027 06:49:29.836            27.995         13997.500
       332   11 Jun 2027 08:21:39.564   11 Jun 2027 08:22:06.131            26.567         13283.500
       333   11 Jun 2027 08:22:37.319   11 Jun 2027 08:22:43.905             6.586          1255.969
       334   11 Jun 2027 08:23:04.321   11 Jun 2027 08:23:07.954             3.633            98.312
       335   11 Jun 2027 08:24:02.765   11 Jun 2027 08:24:02.765             0.000             0.000
       336   11 Jun 2027 08:24:26.798   11 Jun 2027 08:24:32.085             5.287          2463.875
       337   11 Jun 2027 08:24:41.024   11 Jun 2027 08:24:41.024             0.000             0.000
       338   11 Jun 2027 08:25:13.636   11 Jun 2027 08:25:14.779             1.143           571.500
       339   11 Jun 2027 08:25:28.991   11 Jun 2027 08:25:31.962             2.971          1171.094
       340   11 Jun 2027 08:26:52.608   11 Jun 2027 08:26:57.971             5.363          2184.312
       341   11 Jun 2027 08:27:14.928   11 Jun 2027 08:27:14.928             0.000             0.000
       342   11 Jun 2027 08:27:37.519   11 Jun 2027 08:27:40.681             3.162          1235.875
       343   11 Jun 2027 09:57:52.456   11 Jun 2027 09:58:08.892            16.436          7502.250
       344   11 Jun 2027 09:58:43.908   11 Jun 2027 09:58:44.808             0.900           439.531
       345   11 Jun 2027 09:59:12.453   11 Jun 2027 09:59:15.563             3.110            34.500
       346   11 Jun 2027 09:59:51.900   11 Jun 2027 09:59:53.259             1.359           118.750
       347   11 Jun 2027 10:00:31.456   11 Jun 2027 10:00:34.526             3.070           672.375
       348   11 Jun 2027 10:00:52.727   11 Jun 2027 10:00:54.204             1.477           497.469
       349   11 Jun 2027 10:01:12.704   11 Jun 2027 10:01:15.356             2.652           466.969
       350   11 Jun 2027 10:02:11.764   11 Jun 2027 10:02:16.623             4.859          1473.781
       351   11 Jun 2027 10:03:21.340   11 Jun 2027 10:03:29.613             8.273          1862.844
       352   11 Jun 2027 10:03:35.460   11 Jun 2027 10:03:36.231             0.771           182.719
       353   11 Jun 2027 11:35:27.451   11 Jun 2027 11:35:41.944            14.493          6769.563
       354   11 Jun 2027 11:36:33.142   11 Jun 2027 11:36:53.371            20.229          1079.000
       355   11 Jun 2027 11:37:14.645   11 Jun 2027 11:37:19.632             4.987           617.594
       356   11 Jun 2027 11:37:36.849   11 Jun 2027 11:37:40.104             3.255           449.187
       357   11 Jun 2027 11:37:46.146   11 Jun 2027 11:37:48.047             1.901           141.094
       358   11 Jun 2027 11:38:05.190   11 Jun 2027 11:38:06.013             0.823           386.750
       359   11 Jun 2027 11:38:33.817   11 Jun 2027 11:38:34.729             0.912           456.000
       360   11 Jun 2027 11:39:00.031   11 Jun 2027 11:39:03.795             3.764          1092.875
       361   11 Jun 2027 11:39:34.407   11 Jun 2027 11:39:34.407             0.000             0.000
       362   11 Jun 2027 11:39:55.023   11 Jun 2027 11:39:57.302             2.279           839.750
       363   12 Jun 2027 03:47:38.742   12 Jun 2027 03:47:57.316            18.574          9287.000
       364   12 Jun 2027 03:58:29.098   12 Jun 2027 04:00:02.775            93.677         46838.500
       365   12 Jun 2027 04:00:39.783   12 Jun 2027 04:00:49.825            10.042          5021.000
       366   12 Jun 2027 05:22:26.969   12 Jun 2027 05:23:39.955            72.986         36493.000
       367   12 Jun 2027 06:58:13.390   12 Jun 2027 07:00:01.984           108.594         54297.000
       368   12 Jun 2027 07:01:06.175   12 Jun 2027 07:01:11.005             4.830          2415.000
       369   12 Jun 2027 07:01:41.676   12 Jun 2027 07:01:52.458            10.782          5391.000
       370   12 Jun 2027 07:02:03.948   12 Jun 2027 07:02:08.996             5.048          2524.000
       371   12 Jun 2027 08:32:59.595   12 Jun 2027 08:33:17.885            18.290          7996.281
       372   12 Jun 2027 08:33:56.912   12 Jun 2027 08:33:59.900             2.988          1056.813
       373   12 Jun 2027 08:34:57.396   12 Jun 2027 08:35:02.660             5.264           897.937
       374   12 Jun 2027 08:35:37.090   12 Jun 2027 08:35:38.784             1.694           782.406
       375   12 Jun 2027 08:35:54.966   12 Jun 2027 08:35:55.503             0.537           155.219
       376   12 Jun 2027 08:37:15.802   12 Jun 2027 08:37:26.161            10.359          1877.937
       377   12 Jun 2027 08:37:55.487   12 Jun 2027 08:37:58.664             3.177           850.531
       378   12 Jun 2027 08:38:07.286   12 Jun 2027 08:38:08.114             0.828           269.438
       379   12 Jun 2027 08:38:32.580   12 Jun 2027 08:38:33.279             0.699           127.250
       380   12 Jun 2027 08:38:38.317   12 Jun 2027 08:38:38.804             0.487           105.969
       381   12 Jun 2027 08:39:39.477   12 Jun 2027 08:39:39.477             0.000             0.000
       382   12 Jun 2027 08:40:16.810   12 Jun 2027 08:40:23.700             6.890          3062.687
       383   12 Jun 2027 10:09:40.217   12 Jun 2027 10:09:57.686            17.469          8734.500
       384   12 Jun 2027 10:10:07.677   12 Jun 2027 10:10:10.317             2.640           444.625
       385   12 Jun 2027 10:10:29.019   12 Jun 2027 10:10:29.968             0.949            91.875
       386   12 Jun 2027 10:11:39.255   12 Jun 2027 10:11:46.947             7.692          1539.781
       387   12 Jun 2027 10:12:28.500   12 Jun 2027 10:12:34.773             6.273          1045.156
       388   12 Jun 2027 10:13:04.943   12 Jun 2027 10:13:07.914             2.971           850.438
       389   12 Jun 2027 10:14:15.761   12 Jun 2027 10:14:20.900             5.139          1934.531
       390   12 Jun 2027 10:14:52.286   12 Jun 2027 10:14:57.572             5.286           980.813
       391   12 Jun 2027 10:15:54.797   12 Jun 2027 10:15:55.917             1.120           560.000
       392   12 Jun 2027 11:47:58.023   12 Jun 2027 11:48:11.658            13.635          6817.500
       393   12 Jun 2027 11:48:32.796   12 Jun 2027 11:48:39.577             6.781          1002.437
       394   12 Jun 2027 11:49:23.972   12 Jun 2027 11:49:30.413             6.441          1226.313
       395   12 Jun 2027 11:50:26.861   12 Jun 2027 11:50:31.503             4.642          1764.000
       396   12 Jun 2027 11:51:35.363   12 Jun 2027 11:51:38.053             2.690          1336.344
       397   13 Jun 2027 03:58:54.897   13 Jun 2027 03:59:20.461            25.564         12782.000
       398   13 Jun 2027 04:10:27.255   13 Jun 2027 04:11:52.282            85.027         42513.500
       399   13 Jun 2027 05:33:06.152   13 Jun 2027 05:34:04.343            58.191         29095.500
       400   13 Jun 2027 05:34:41.824   13 Jun 2027 05:35:02.810            20.986         10493.000
       401   13 Jun 2027 05:35:10.167   13 Jun 2027 05:35:16.026             5.859          2929.500
       402   13 Jun 2027 07:08:18.238   13 Jun 2027 07:09:26.641            68.403         34201.500
       403   13 Jun 2027 07:09:57.005   13 Jun 2027 07:11:04.361            67.356         33190.812
       404   13 Jun 2027 07:12:48.105   13 Jun 2027 07:12:52.653             4.548          2274.000
       405   13 Jun 2027 08:44:58.559   13 Jun 2027 08:45:11.409            12.850          6425.000
       406   13 Jun 2027 08:45:25.662   13 Jun 2027 08:45:30.324             4.662          1832.156
       407   13 Jun 2027 08:48:06.808   13 Jun 2027 08:48:10.921             4.113          2056.500
       408   13 Jun 2027 08:48:20.487   13 Jun 2027 08:48:27.522             7.035          2272.469
       409   13 Jun 2027 08:48:42.532   13 Jun 2027 08:48:45.038             2.506           469.063
       410   13 Jun 2027 08:48:51.902   13 Jun 2027 08:48:52.453             0.551           214.344
       411   13 Jun 2027 08:49:35.860   13 Jun 2027 08:49:39.767             3.907           287.094
       412   13 Jun 2027 08:50:28.073   13 Jun 2027 08:50:29.062             0.989           494.500
       413   13 Jun 2027 08:50:43.101   13 Jun 2027 08:50:44.319             1.218           609.000
       414   13 Jun 2027 08:50:52.165   13 Jun 2027 08:50:55.116             2.951          1089.969
       415   13 Jun 2027 08:51:41.829   13 Jun 2027 08:51:45.060             3.231          1459.781
       416   13 Jun 2027 08:52:10.415   13 Jun 2027 08:52:12.856             2.441           195.031
       417   13 Jun 2027 08:52:26.451   13 Jun 2027 08:52:27.012             0.561           280.500
       418   13 Jun 2027 10:22:01.318   13 Jun 2027 10:22:20.694            19.376          9097.031
       419   13 Jun 2027 10:23:33.274   13 Jun 2027 10:23:40.002             6.728          1557.937
       420   13 Jun 2027 10:23:48.756   13 Jun 2027 10:23:50.761             2.005           248.719
       421   13 Jun 2027 10:23:51.339   13 Jun 2027 10:23:55.791             4.452            18.062
       422   13 Jun 2027 10:24:14.147   13 Jun 2027 10:24:18.124             3.977           293.781
       423   13 Jun 2027 10:24:33.438   13 Jun 2027 10:24:37.715             4.277           450.500
       424   13 Jun 2027 10:25:41.992   13 Jun 2027 10:25:46.879             4.887          2007.313
       425   13 Jun 2027 10:26:25.092   13 Jun 2027 10:26:28.023             2.931          1194.156
       426   13 Jun 2027 10:26:31.213   13 Jun 2027 10:26:35.116             3.903            99.687
       427   13 Jun 2027 10:26:46.595   13 Jun 2027 10:26:52.569             5.974           358.719
       428   13 Jun 2027 10:27:14.393   13 Jun 2027 10:27:17.735             3.342           604.156
       429   13 Jun 2027 10:27:49.424   13 Jun 2027 10:27:51.567             2.143           990.281
       430   13 Jun 2027 11:59:55.461   13 Jun 2027 12:00:00.000             4.539          2269.500
