uniorb/output/strategy_1/Camera/Camera_KinoSat_110108.txt

KinoSat_110108
-------------------------
    Access    *     Start Time (UTCG)     *     Stop Time (UTCG)  *   Duration (s) *   Data (Mbytes)
         1   01 Jun 2027 03:38:12.223   01 Jun 2027 03:39:57.736           105.513         52756.500
         2   01 Jun 2027 03:41:25.341   01 Jun 2027 03:42:23.669            58.328         29164.000
         3   01 Jun 2027 03:42:56.816   01 Jun 2027 03:42:59.399             2.583          1291.500
         4   01 Jun 2027 03:43:28.368   01 Jun 2027 03:43:49.619            21.251         10625.500
         5   01 Jun 2027 05:15:37.649   01 Jun 2027 05:18:02.939           145.290         72645.000
         6   01 Jun 2027 05:18:19.524   01 Jun 2027 05:18:28.314             8.790          4395.000
         7   01 Jun 2027 05:19:33.625   01 Jun 2027 05:20:00.592            26.967         13483.500
         8   01 Jun 2027 06:51:48.553   01 Jun 2027 06:54:27.682           159.129         79564.500
         9   01 Jun 2027 06:55:10.553   01 Jun 2027 06:55:19.550             8.997          4498.500
        10   02 Jun 2027 03:49:53.114   02 Jun 2027 03:55:40.643           347.529        173764.500
        11   02 Jun 2027 03:55:42.532   02 Jun 2027 03:56:09.180            26.648         13324.000
        12   02 Jun 2027 05:27:45.291   02 Jun 2027 05:31:10.559           205.268        102634.000
        13   02 Jun 2027 05:31:39.566   02 Jun 2027 05:31:49.276             9.710          4855.000
        14   02 Jun 2027 05:32:05.891   02 Jun 2027 05:32:13.131             7.240          3620.000
        15   02 Jun 2027 07:03:43.010   02 Jun 2027 07:06:10.334           147.324         73662.000
        16   02 Jun 2027 07:06:36.447   02 Jun 2027 07:06:42.581             6.134          3067.000
        17   02 Jun 2027 07:06:52.517   02 Jun 2027 07:06:54.177             1.660           830.000
        18   02 Jun 2027 07:07:14.445   02 Jun 2027 07:07:26.672            12.227          6113.500
        19   02 Jun 2027 07:08:33.913   02 Jun 2027 07:08:49.982            16.069          8034.500
        20   03 Jun 2027 04:01:58.978   03 Jun 2027 04:08:20.850           381.872        190936.000
        21   03 Jun 2027 05:40:14.607   03 Jun 2027 05:43:56.800           222.193        111096.500
        22   03 Jun 2027 07:13:33.333   03 Jun 2027 07:15:03.389            90.056         45028.000
        23   03 Jun 2027 07:15:30.033   03 Jun 2027 07:16:54.661            84.628         42314.000
        24   03 Jun 2027 07:17:13.587   03 Jun 2027 07:17:31.083            17.496          8748.000
        25   03 Jun 2027 07:18:26.773   03 Jun 2027 07:18:54.285            27.512         13756.000
        26   03 Jun 2027 07:20:29.169   03 Jun 2027 07:20:31.801             2.632          1316.000
        27   03 Jun 2027 07:21:03.470   03 Jun 2027 07:21:13.483            10.013          5006.500
        28   04 Jun 2027 04:14:19.380   04 Jun 2027 04:20:09.923           350.543        175271.500
        29   04 Jun 2027 04:20:19.207   04 Jun 2027 04:20:26.881             7.674          3837.000
        30   04 Jun 2027 05:52:12.823   04 Jun 2027 05:56:02.145           229.322        114661.000
        31   04 Jun 2027 07:25:30.096   04 Jun 2027 07:28:14.205           164.109         82054.500
        32   04 Jun 2027 07:28:47.138   04 Jun 2027 07:28:47.138             0.000             0.000
        33   04 Jun 2027 07:29:41.843   04 Jun 2027 07:29:55.195            13.352          6676.000
        34   04 Jun 2027 07:30:14.759   04 Jun 2027 07:30:18.436             3.677          1838.500
        35   04 Jun 2027 07:30:28.895   04 Jun 2027 07:30:35.076             6.181          3090.500
        36   04 Jun 2027 07:30:50.969   04 Jun 2027 07:31:07.352            16.383          8191.500
        37   04 Jun 2027 07:32:31.115   04 Jun 2027 07:32:49.496            18.381          9190.500
        38   05 Jun 2027 04:26:08.373   05 Jun 2027 04:32:48.266           399.893        199946.500
        39   05 Jun 2027 06:04:12.055   05 Jun 2027 06:07:21.905           189.850         94925.000
        40   05 Jun 2027 06:08:17.208   05 Jun 2027 06:08:21.719             4.511          2255.500
        41   05 Jun 2027 07:37:56.021   05 Jun 2027 07:39:36.343           100.322         50161.000
        42   05 Jun 2027 07:40:54.039   05 Jun 2027 07:41:40.380            46.341         23170.500
        43   05 Jun 2027 07:44:31.130   05 Jun 2027 07:44:45.048            13.918          6959.000
        44   06 Jun 2027 03:01:20.878   06 Jun 2027 03:04:59.785           218.907        109453.500
        45   06 Jun 2027 03:05:08.048   06 Jun 2027 03:05:08.048             0.000             0.000
        46   06 Jun 2027 03:05:37.594   06 Jun 2027 03:05:47.686            10.092          5046.000
        47   06 Jun 2027 03:06:45.615   06 Jun 2027 03:07:19.925            34.310         17155.000
        48   06 Jun 2027 03:07:41.009   06 Jun 2027 03:07:59.868            18.859          9429.500
        49   06 Jun 2027 03:08:16.814   06 Jun 2027 03:08:31.742            14.928          7464.000
        50   06 Jun 2027 04:38:15.413   06 Jun 2027 04:41:07.380           171.967         85983.500
        51   06 Jun 2027 04:41:26.705   06 Jun 2027 04:41:26.705             0.000             0.000
        52   06 Jun 2027 04:42:17.530   06 Jun 2027 04:42:31.343            13.813          6906.500
        53   06 Jun 2027 04:42:52.147   06 Jun 2027 04:42:59.731             7.584          3792.000
        54   06 Jun 2027 04:43:08.957   06 Jun 2027 04:43:08.957             0.000             0.000
        55   06 Jun 2027 04:43:17.675   06 Jun 2027 04:43:26.929             9.254          4627.000
        56   06 Jun 2027 04:44:28.838   06 Jun 2027 04:44:45.072            16.234          8117.000
        57   06 Jun 2027 06:15:49.528   06 Jun 2027 06:18:32.383           162.855         81427.500
        58   06 Jun 2027 06:19:57.070   06 Jun 2027 06:20:17.287            20.217         10108.500
        59   06 Jun 2027 07:50:12.081   06 Jun 2027 07:51:14.226            62.145         31072.500
        60   06 Jun 2027 07:51:24.297   06 Jun 2027 07:51:24.421             0.124            62.000
        61   06 Jun 2027 07:52:02.098   06 Jun 2027 07:52:43.057            40.959         20479.500
        62   06 Jun 2027 07:55:08.415   06 Jun 2027 07:55:20.539            12.124          6062.000
        63   07 Jun 2027 03:13:42.932   07 Jun 2027 03:18:31.406           288.474        144237.000
        64   07 Jun 2027 03:18:49.150   07 Jun 2027 03:19:09.105            19.955          9977.500
        65   07 Jun 2027 03:19:41.502   07 Jun 2027 03:19:46.002             4.500          2250.000
        66   07 Jun 2027 04:50:44.798   07 Jun 2027 04:53:12.698           147.900         73950.000
        67   07 Jun 2027 04:54:04.971   07 Jun 2027 04:54:32.849            27.878         13939.000
        68   07 Jun 2027 04:54:59.426   07 Jun 2027 04:55:03.468             4.042          2021.000
        69   07 Jun 2027 04:55:34.296   07 Jun 2027 04:55:56.573            22.277         11138.500
        70   07 Jun 2027 04:56:14.087   07 Jun 2027 04:56:24.772            10.685          5342.500
        71   07 Jun 2027 06:27:34.152   07 Jun 2027 06:30:03.309           149.157         74578.500
        72   07 Jun 2027 06:30:42.035   07 Jun 2027 06:31:06.319            24.284         12142.000
        73   07 Jun 2027 08:04:47.461   07 Jun 2027 08:06:03.646            76.185         38092.500
        74   08 Jun 2027 03:25:53.642   08 Jun 2027 03:31:42.998           349.356        174678.000
        75   08 Jun 2027 03:31:56.673   08 Jun 2027 03:32:16.305            19.632          9816.000
        76   08 Jun 2027 03:32:30.291   08 Jun 2027 03:32:38.256             7.965          3982.500
        77   08 Jun 2027 05:03:02.384   08 Jun 2027 05:05:48.881           166.497         83248.500
        78   08 Jun 2027 05:06:11.650   08 Jun 2027 05:06:28.873            17.223          8611.500
        79   08 Jun 2027 06:39:36.907   08 Jun 2027 06:42:21.270           164.363         82181.500
        80   08 Jun 2027 06:42:53.980   08 Jun 2027 06:42:58.087             4.107          2053.500
        81   08 Jun 2027 06:44:02.610   08 Jun 2027 06:44:13.080            10.470          5235.000
        82   08 Jun 2027 08:17:55.629   08 Jun 2027 08:18:42.712            47.083         23541.500
        83   09 Jun 2027 03:38:27.598   09 Jun 2027 03:44:44.659           377.061        188530.500
        84   09 Jun 2027 05:15:52.388   09 Jun 2027 05:18:33.651           161.263         80631.500
        85   09 Jun 2027 05:19:48.649   09 Jun 2027 05:20:22.612            33.963         16981.500
        86   09 Jun 2027 06:52:03.474   09 Jun 2027 06:54:02.466           118.992         59496.000
        87   09 Jun 2027 06:54:32.654   09 Jun 2027 06:54:52.181            19.527          9763.500
        88   09 Jun 2027 06:55:04.463   09 Jun 2027 06:55:06.403             1.940           970.000
        89   09 Jun 2027 06:55:41.803   09 Jun 2027 06:55:48.039             6.236          3118.000
        90   10 Jun 2027 03:50:07.734   10 Jun 2027 03:56:24.678           376.944        188472.000
        91   10 Jun 2027 05:28:00.982   10 Jun 2027 05:30:07.699           126.717         63358.500
        92   10 Jun 2027 05:30:33.517   10 Jun 2027 05:32:02.559            89.042         44521.000
        93   10 Jun 2027 05:32:12.240   10 Jun 2027 05:32:21.678             9.438          4719.000
        94   10 Jun 2027 07:03:57.831   10 Jun 2027 07:06:15.846           138.015         69007.500
        95   10 Jun 2027 07:07:04.451   10 Jun 2027 07:07:21.590            17.139          8569.500
        96   10 Jun 2027 07:08:27.508   10 Jun 2027 07:08:46.561            19.053          9526.500
        97   11 Jun 2027 04:02:14.090   11 Jun 2027 04:08:35.699           381.609        190804.500
        98   11 Jun 2027 05:40:29.541   11 Jun 2027 05:44:05.773           216.232        108116.000
        99   11 Jun 2027 07:13:47.955   11 Jun 2027 07:15:18.909            90.954         45477.000
       100   11 Jun 2027 07:15:43.613   11 Jun 2027 07:16:42.857            59.244         29622.000
       101   11 Jun 2027 07:17:48.098   11 Jun 2027 07:18:09.817            21.719         10859.500
       102   11 Jun 2027 07:18:16.668   11 Jun 2027 07:18:19.064             2.396          1198.000
       103   11 Jun 2027 07:19:10.414   11 Jun 2027 07:19:23.718            13.304          6652.000
       104   11 Jun 2027 07:19:30.906   11 Jun 2027 07:19:37.537             6.631          3315.500
       105   11 Jun 2027 07:20:50.060   11 Jun 2027 07:21:01.470            11.410          5705.000
       106   11 Jun 2027 07:21:24.327   11 Jun 2027 07:21:28.748             4.421          2210.500
       107   12 Jun 2027 04:14:34.336   12 Jun 2027 04:20:25.161           350.825        175412.500
       108   12 Jun 2027 04:20:30.576   12 Jun 2027 04:20:41.573            10.997          5498.500
       109   12 Jun 2027 05:52:28.107   12 Jun 2027 05:56:05.948           217.841        108920.500
       110   12 Jun 2027 07:25:45.275   12 Jun 2027 07:28:03.935           138.660         69330.000
       111   12 Jun 2027 07:29:14.200   12 Jun 2027 07:29:31.852            17.652          8826.000
       112   12 Jun 2027 07:29:38.935   12 Jun 2027 07:29:47.383             8.448          4224.000
       113   12 Jun 2027 07:30:31.001   12 Jun 2027 07:30:43.477            12.476          6238.000
       114   12 Jun 2027 07:31:25.741   12 Jun 2027 07:31:27.031             1.290           645.000
       115   12 Jun 2027 07:32:12.084   12 Jun 2027 07:32:17.803             5.719          2859.500
       116   12 Jun 2027 07:32:18.531   12 Jun 2027 07:32:33.176            14.645          7322.500
       117   12 Jun 2027 07:33:30.556   12 Jun 2027 07:33:34.535             3.979          1989.500
       118   13 Jun 2027 04:26:22.971   13 Jun 2027 04:32:49.956           386.985        193492.500
       119   13 Jun 2027 04:32:55.983   13 Jun 2027 04:33:03.425             7.442          3721.000
       120   13 Jun 2027 06:04:27.065   13 Jun 2027 06:07:28.506           181.441         90720.500
       121   13 Jun 2027 06:07:36.430   13 Jun 2027 06:07:37.670             1.240           620.000
       122   13 Jun 2027 06:08:07.000   13 Jun 2027 06:08:25.474            18.474          9237.000
       123   13 Jun 2027 07:38:11.381   13 Jun 2027 07:40:20.110           128.729         64364.500
       124   13 Jun 2027 07:41:58.328   13 Jun 2027 07:42:21.270            22.942         11471.000
       125   13 Jun 2027 07:43:05.737   13 Jun 2027 07:43:05.737             0.000             0.000
       126   13 Jun 2027 07:43:24.451   13 Jun 2027 07:43:35.432            10.981          5490.500
       127   13 Jun 2027 07:44:24.312   13 Jun 2027 07:44:40.846            16.534          8267.000
