uniorb/output/strategy_1/Camera/Camera_KinoSat_111407.txt

KinoSat_111407
-------------------------
    Access    *     Start Time (UTCG)     *     Stop Time (UTCG)  *   Duration (s) *   Data (Mbytes)
         1   01 Jun 2027 03:02:48.219   01 Jun 2027 03:03:05.541            17.322          8661.000
         2   01 Jun 2027 03:03:50.857   01 Jun 2027 03:04:21.230            30.373         15186.500
         3   01 Jun 2027 03:04:44.506   01 Jun 2027 03:04:52.878             8.372          4186.000
         4   01 Jun 2027 03:05:53.130   01 Jun 2027 03:06:16.329            23.199         11599.500
         5   01 Jun 2027 03:08:24.522   01 Jun 2027 03:08:33.905             9.383          4691.500
         6   01 Jun 2027 03:10:25.885   01 Jun 2027 03:10:31.622             5.737          2868.500
         7   01 Jun 2027 04:40:59.677   01 Jun 2027 04:41:37.064            37.387         18693.500
         8   01 Jun 2027 04:42:07.225   01 Jun 2027 04:43:20.143            72.918         36459.000
         9   01 Jun 2027 06:05:05.673   01 Jun 2027 06:06:32.974            87.301         43650.500
        10   01 Jun 2027 07:40:51.268   01 Jun 2027 07:43:13.481           142.213         71106.500
        11   01 Jun 2027 07:43:25.425   01 Jun 2027 07:43:25.425             0.000             0.000
        12   01 Jun 2027 09:15:48.713   01 Jun 2027 09:17:38.248           109.535         54767.500
        13   01 Jun 2027 09:18:36.818   01 Jun 2027 09:18:37.631             0.813           406.500
        14   01 Jun 2027 09:21:21.723   01 Jun 2027 09:21:21.723             0.000             0.000
        15   01 Jun 2027 09:22:25.887   01 Jun 2027 09:22:44.779            18.892          9446.000
        16   01 Jun 2027 09:22:46.516   01 Jun 2027 09:22:49.438             2.922          1461.000
        17   01 Jun 2027 10:52:00.956   01 Jun 2027 10:54:09.981           129.025         64512.500
        18   01 Jun 2027 10:54:11.982   01 Jun 2027 10:54:13.925             1.943           971.500
        19   01 Jun 2027 10:55:32.413   01 Jun 2027 10:55:38.661             6.248          3124.000
        20   01 Jun 2027 10:57:36.188   01 Jun 2027 10:57:36.188             0.000             0.000
        21   01 Jun 2027 10:58:01.252   01 Jun 2027 10:58:11.513            10.261          5130.500
        22   02 Jun 2027 03:15:53.453   02 Jun 2027 03:17:21.885            88.432         44216.000
        23   02 Jun 2027 03:18:25.182   02 Jun 2027 03:18:26.722             1.540           770.000
        24   02 Jun 2027 03:18:49.245   02 Jun 2027 03:18:57.120             7.875          3937.500
        25   02 Jun 2027 03:19:25.735   02 Jun 2027 03:19:39.142            13.407          6703.500
        26   02 Jun 2027 03:22:29.865   02 Jun 2027 03:22:32.712             2.847          1423.500
        27   02 Jun 2027 03:22:51.423   02 Jun 2027 03:22:55.018             3.595          1797.500
        28   02 Jun 2027 03:23:02.583   02 Jun 2027 03:23:23.071            20.488         10244.000
        29   02 Jun 2027 04:41:53.305   02 Jun 2027 04:42:13.701            20.396         10198.000
        30   02 Jun 2027 04:52:55.790   02 Jun 2027 04:53:55.596            59.806         29903.000
        31   02 Jun 2027 04:54:50.536   02 Jun 2027 04:55:13.477            22.941         11470.500
        32   02 Jun 2027 06:15:55.329   02 Jun 2027 06:16:28.071            32.742         16371.000
        33   02 Jun 2027 06:16:55.299   02 Jun 2027 06:17:14.245            18.946          9473.000
        34   02 Jun 2027 06:19:49.332   02 Jun 2027 06:19:54.843             5.511          2755.500
        35   02 Jun 2027 07:51:27.273   02 Jun 2027 07:51:33.593             6.320          3160.000
        36   02 Jun 2027 07:52:36.993   02 Jun 2027 07:54:17.391           100.398         50199.000
        37   02 Jun 2027 07:55:20.895   02 Jun 2027 07:55:26.567             5.672          2836.000
        38   02 Jun 2027 07:55:59.780   02 Jun 2027 07:56:14.164            14.384          7192.000
        39   02 Jun 2027 09:27:22.387   02 Jun 2027 09:29:27.112           124.725         62362.500
        40   02 Jun 2027 09:33:09.566   02 Jun 2027 09:33:17.730             8.164          4082.000
        41   02 Jun 2027 11:04:22.451   02 Jun 2027 11:06:35.893           133.442         66721.000
        42   02 Jun 2027 11:06:52.083   02 Jun 2027 11:07:07.675            15.592          7796.000
        43   02 Jun 2027 11:10:23.569   02 Jun 2027 11:10:27.141             3.572          1786.000
        44   03 Jun 2027 03:28:17.280   03 Jun 2027 03:29:13.911            56.631         28315.500
        45   03 Jun 2027 03:29:45.396   03 Jun 2027 03:29:54.178             8.782          4391.000
        46   03 Jun 2027 03:30:26.055   03 Jun 2027 03:30:47.097            21.042         10521.000
        47   03 Jun 2027 03:32:35.971   03 Jun 2027 03:32:53.487            17.516          8758.000
        48   03 Jun 2027 03:34:18.330   03 Jun 2027 03:34:30.277            11.947          5973.500
        49   03 Jun 2027 04:53:15.633   03 Jun 2027 04:53:22.353             6.720          3360.000
        50   03 Jun 2027 04:53:34.072   03 Jun 2027 04:53:55.740            21.668         10834.000
        51   03 Jun 2027 05:04:57.586   03 Jun 2027 05:05:35.924            38.338         19169.000
        52   03 Jun 2027 06:27:11.485   03 Jun 2027 06:28:06.542            55.057         27528.500
        53   03 Jun 2027 06:29:39.835   03 Jun 2027 06:29:56.429            16.594          8297.000
        54   03 Jun 2027 06:31:29.164   03 Jun 2027 06:31:29.164             0.000             0.000
        55   03 Jun 2027 08:02:19.074   03 Jun 2027 08:03:47.451            88.377         44188.500
        56   03 Jun 2027 08:04:20.561   03 Jun 2027 08:04:36.928            16.367          8183.500
        57   03 Jun 2027 08:06:49.128   03 Jun 2027 08:07:07.540            18.412          9206.000
        58   03 Jun 2027 08:07:35.397   03 Jun 2027 08:07:37.430             2.033          1016.500
        59   03 Jun 2027 08:08:17.373   03 Jun 2027 08:08:28.331            10.958          5479.000
        60   03 Jun 2027 09:39:30.757   03 Jun 2027 09:40:29.436            58.679         29339.500
        61   03 Jun 2027 09:40:32.137   03 Jun 2027 09:40:44.469            12.332          6166.000
        62   03 Jun 2027 09:41:08.693   03 Jun 2027 09:41:28.882            20.189         10094.500
        63   03 Jun 2027 09:41:39.755   03 Jun 2027 09:41:56.039            16.284          8142.000
        64   03 Jun 2027 09:44:44.095   03 Jun 2027 09:45:07.504            23.409         11704.500
        65   03 Jun 2027 09:46:20.690   03 Jun 2027 09:46:21.583             0.893           446.500
        66   03 Jun 2027 11:16:28.127   03 Jun 2027 11:17:22.151            54.024         23600.312
        67   03 Jun 2027 11:18:50.103   03 Jun 2027 11:18:55.388             5.285          2133.500
        68   03 Jun 2027 11:19:20.680   03 Jun 2027 11:19:22.059             1.379           666.469
        69   03 Jun 2027 11:20:14.135   03 Jun 2027 11:20:16.876             2.741          1370.500
        70   03 Jun 2027 11:21:15.329   03 Jun 2027 11:21:28.211            12.882          1990.375
        71   04 Jun 2027 03:40:35.839   04 Jun 2027 03:41:58.948            83.109         41554.500
        72   04 Jun 2027 03:42:15.636   04 Jun 2027 03:42:24.843             9.207          4603.500
        73   04 Jun 2027 03:43:16.803   04 Jun 2027 03:43:26.218             9.415          4707.500
        74   04 Jun 2027 03:45:26.304   04 Jun 2027 03:45:41.747            15.443          7721.500
        75   04 Jun 2027 03:46:33.898   04 Jun 2027 03:46:35.252             1.354           677.000
        76   04 Jun 2027 03:47:20.155   04 Jun 2027 03:47:21.024             0.869           434.500
        77   04 Jun 2027 05:04:42.168   04 Jun 2027 05:05:25.314            43.146         21573.000
        78   04 Jun 2027 05:05:35.075   04 Jun 2027 05:05:44.131             9.056          4528.000
        79   04 Jun 2027 05:16:54.443   04 Jun 2027 05:17:33.250            38.807         19403.500
        80   04 Jun 2027 06:38:56.482   04 Jun 2027 06:40:15.887            79.405         39702.500
        81   04 Jun 2027 06:41:00.765   04 Jun 2027 06:41:12.667            11.902          5951.000
        82   04 Jun 2027 06:41:28.624   04 Jun 2027 06:41:38.900            10.276          5138.000
        83   04 Jun 2027 08:13:48.725   04 Jun 2027 08:14:34.959            46.234         23117.000
        84   04 Jun 2027 08:15:10.125   04 Jun 2027 08:15:24.480            14.355          6978.626
        85   04 Jun 2027 08:16:29.258   04 Jun 2027 08:16:34.237             4.979          1951.969
        86   04 Jun 2027 08:18:02.779   04 Jun 2027 08:18:02.779             0.000             0.000
        87   04 Jun 2027 08:19:54.681   04 Jun 2027 08:20:11.325            16.644          5949.125
        88   04 Jun 2027 08:20:48.353   04 Jun 2027 08:20:53.364             5.011          1157.125
        89   04 Jun 2027 08:20:55.981   04 Jun 2027 08:20:56.198             0.217            58.781
        90   04 Jun 2027 09:51:32.492   04 Jun 2027 09:51:49.563            17.071          6093.875
        91   04 Jun 2027 09:52:43.652   04 Jun 2027 09:52:48.316             4.664          1192.906
        92   04 Jun 2027 09:52:55.557   04 Jun 2027 09:52:56.122             0.565           118.344
        93   04 Jun 2027 09:53:10.986   04 Jun 2027 09:53:11.989             1.003           464.500
        94   04 Jun 2027 09:53:15.761   04 Jun 2027 09:53:16.169             0.408           117.875
        95   04 Jun 2027 09:53:45.433   04 Jun 2027 09:53:47.207             1.774           793.000
        96   04 Jun 2027 09:54:31.143   04 Jun 2027 09:54:37.893             6.750           230.656
        97   04 Jun 2027 09:55:31.937   04 Jun 2027 09:55:31.937             0.000             0.000
        98   04 Jun 2027 09:55:37.554   04 Jun 2027 09:55:39.866             2.312          1156.000
        99   04 Jun 2027 09:56:26.130   04 Jun 2027 09:56:32.578             6.448          2146.781
       100   04 Jun 2027 09:56:35.470   04 Jun 2027 09:56:36.620             1.150            90.375
       101   04 Jun 2027 09:57:26.565   04 Jun 2027 09:57:30.313             3.748          1439.625
       102   04 Jun 2027 09:57:50.105   04 Jun 2027 09:57:53.666             3.561           246.031
       103   04 Jun 2027 09:58:08.027   04 Jun 2027 09:58:10.651             2.624           407.813
       104   04 Jun 2027 09:58:17.272   04 Jun 2027 09:58:20.554             3.282            46.000
       105   04 Jun 2027 09:58:32.086   04 Jun 2027 09:58:33.739             1.653           309.438
       106   04 Jun 2027 11:28:20.601   04 Jun 2027 11:28:39.184            18.583          8079.719
       107   04 Jun 2027 11:28:42.616   04 Jun 2027 11:28:48.718             6.102             5.094
       108   04 Jun 2027 11:30:00.454   04 Jun 2027 11:30:04.559             4.105          1789.875
       109   04 Jun 2027 11:30:19.773   04 Jun 2027 11:30:26.850             7.077           450.719
       110   04 Jun 2027 11:30:38.800   04 Jun 2027 11:30:39.258             0.458           229.000
       111   04 Jun 2027 11:30:50.898   04 Jun 2027 11:30:58.091             7.193           455.781
       112   04 Jun 2027 11:31:39.601   04 Jun 2027 11:31:44.329             4.728          1208.719
       113   04 Jun 2027 11:32:48.712   04 Jun 2027 11:32:53.137             4.425          1920.844
       114   04 Jun 2027 11:33:51.391   04 Jun 2027 11:33:57.436             6.045          1052.344
       115   04 Jun 2027 11:34:08.378   04 Jun 2027 11:34:13.730             5.352           341.938
       116   04 Jun 2027 11:34:39.008   04 Jun 2027 11:34:40.822             1.814           625.469
       117   05 Jun 2027 03:52:41.020   05 Jun 2027 03:54:36.095           115.075         57537.500
       118   05 Jun 2027 03:55:55.051   05 Jun 2027 03:56:18.822            23.771         11885.500
       119   05 Jun 2027 05:16:46.130   05 Jun 2027 05:17:46.336            60.206         30103.000
       120   05 Jun 2027 06:52:43.583   05 Jun 2027 06:54:47.503           123.920         61960.000
       121   05 Jun 2027 08:26:32.986   05 Jun 2027 08:27:02.231            29.245         13726.531
       122   05 Jun 2027 08:27:56.435   05 Jun 2027 08:27:56.960             0.525           262.500
       123   05 Jun 2027 08:28:28.053   05 Jun 2027 08:28:30.543             2.490          1227.156
       124   05 Jun 2027 08:28:39.298   05 Jun 2027 08:28:41.706             2.408           273.594
       125   05 Jun 2027 08:29:48.439   05 Jun 2027 08:29:53.804             5.365          2060.875
       126   05 Jun 2027 08:30:05.097   05 Jun 2027 08:30:07.298             2.201           174.594
       127   05 Jun 2027 08:32:25.352   05 Jun 2027 08:32:37.052            11.700          3973.719
       128   05 Jun 2027 08:33:20.048   05 Jun 2027 08:33:22.537             2.489           975.531
       129   05 Jun 2027 08:33:44.267   05 Jun 2027 08:33:44.267             0.000             0.000
       130   05 Jun 2027 08:34:23.910   05 Jun 2027 08:34:29.535             5.625          1917.906
       131   05 Jun 2027 08:34:58.725   05 Jun 2027 08:35:02.860             4.135           617.656
       132   05 Jun 2027 10:03:35.969   05 Jun 2027 10:03:52.414            16.445          6733.844
       133   05 Jun 2027 10:05:35.794   05 Jun 2027 10:05:35.794             0.000             0.000
       134   05 Jun 2027 10:07:33.173   05 Jun 2027 10:07:46.735            13.562          6083.062
       135   05 Jun 2027 10:08:55.993   05 Jun 2027 10:09:01.287             5.294          2164.312
       136   05 Jun 2027 10:09:32.504   05 Jun 2027 10:09:32.891             0.387           193.500
       137   05 Jun 2027 10:09:41.034   05 Jun 2027 10:09:48.662             7.628          1015.531
       138   05 Jun 2027 10:10:01.310   05 Jun 2027 10:10:01.382             0.072            36.000
       139   05 Jun 2027 10:10:20.366   05 Jun 2027 10:10:23.535             3.169           721.063
       140   05 Jun 2027 10:10:29.053   05 Jun 2027 10:10:29.053             0.000             0.000
       141   05 Jun 2027 11:40:30.674   05 Jun 2027 11:40:43.128            12.454          6227.000
       142   05 Jun 2027 11:41:03.841   05 Jun 2027 11:41:06.584             2.743           942.344
       143   05 Jun 2027 11:42:21.898   05 Jun 2027 11:42:28.933             7.035          2317.438
       144   05 Jun 2027 11:42:29.800   05 Jun 2027 11:42:33.120             3.320            27.094
       145   05 Jun 2027 11:42:48.859   05 Jun 2027 11:42:50.935             2.076           383.625
       146   05 Jun 2027 11:43:07.364   05 Jun 2027 11:43:13.293             5.929           513.406
       147   05 Jun 2027 11:43:21.215   05 Jun 2027 11:43:22.113             0.898           247.562
       148   05 Jun 2027 11:43:37.864   05 Jun 2027 11:43:42.495             4.631           492.219
       149   05 Jun 2027 11:44:08.753   05 Jun 2027 11:44:10.744             1.991           162.625
       150   05 Jun 2027 11:44:53.261   05 Jun 2027 11:44:54.179             0.918           459.000
       151   05 Jun 2027 11:45:03.953   05 Jun 2027 11:45:11.134             7.181          1175.094
       152   05 Jun 2027 11:46:21.659   05 Jun 2027 11:46:26.594             4.935          2158.469
       153   06 Jun 2027 04:05:16.113   06 Jun 2027 04:06:54.477            98.364         49182.000
       154   06 Jun 2027 04:07:54.780   06 Jun 2027 04:08:02.388             7.608          3804.000
       155   06 Jun 2027 04:08:04.359   06 Jun 2027 04:08:33.779            29.420         14710.000
       156   06 Jun 2027 05:28:41.045   06 Jun 2027 05:30:16.586            95.541         47770.500
       157   06 Jun 2027 07:05:00.670   06 Jun 2027 07:06:34.143            93.473         46736.500
       158   06 Jun 2027 07:07:09.245   06 Jun 2027 07:07:16.817             7.572          3786.000
       159   06 Jun 2027 07:07:36.701   06 Jun 2027 07:07:36.701             0.000             0.000
       160   06 Jun 2027 08:38:31.088   06 Jun 2027 08:38:51.445            20.357          9147.000
       161   06 Jun 2027 08:39:56.419   06 Jun 2027 08:40:01.016             4.597           979.156
       162   06 Jun 2027 08:40:26.909   06 Jun 2027 08:40:29.811             2.902           516.750
       163   06 Jun 2027 08:40:45.554   06 Jun 2027 08:40:46.249             0.695            41.437
       164   06 Jun 2027 08:40:58.805   06 Jun 2027 08:41:00.193             1.388           392.375
       165   06 Jun 2027 08:41:32.973   06 Jun 2027 08:41:38.358             5.385          1024.375
       166   06 Jun 2027 08:42:23.489   06 Jun 2027 08:42:28.458             4.969          1030.469
       167   06 Jun 2027 08:45:19.354   06 Jun 2027 08:45:28.074             8.720          4221.188
       168   06 Jun 2027 08:46:28.545   06 Jun 2027 08:46:32.789             4.244          1810.437
       169   06 Jun 2027 08:46:58.681   06 Jun 2027 08:46:58.681             0.000             0.000
       170   06 Jun 2027 10:16:01.886   06 Jun 2027 10:16:20.119            18.233          6451.656
       171   06 Jun 2027 10:18:25.736   06 Jun 2027 10:18:25.795             0.059            29.500
       172   06 Jun 2027 10:19:33.959   06 Jun 2027 10:19:41.880             7.921          3691.937
       173   06 Jun 2027 10:20:54.030   06 Jun 2027 10:20:58.161             4.131          2065.500
       174   06 Jun 2027 10:21:24.286   06 Jun 2027 10:21:26.904             2.618           874.156
       175   06 Jun 2027 10:22:10.915   06 Jun 2027 10:22:12.155             1.240           620.000
       176   06 Jun 2027 10:22:19.043   06 Jun 2027 10:22:23.081             4.038           864.062
       177   06 Jun 2027 11:52:58.283   06 Jun 2027 11:53:11.637            13.354          6653.437
       178   06 Jun 2027 11:54:39.697   06 Jun 2027 11:54:45.426             5.729          2147.094
       179   06 Jun 2027 11:55:11.404   06 Jun 2027 11:55:14.237             2.833           784.969
       180   06 Jun 2027 11:56:11.785   06 Jun 2027 11:56:14.291             2.506          1253.000
       181   06 Jun 2027 11:56:28.633   06 Jun 2027 11:56:28.997             0.364           182.000
       182   06 Jun 2027 11:56:41.185   06 Jun 2027 11:56:46.108             4.923           871.906
       183   06 Jun 2027 11:57:16.571   06 Jun 2027 11:57:19.924             3.353           884.656
       184   06 Jun 2027 11:57:35.386   06 Jun 2027 11:57:39.778             4.392           483.187
       185   06 Jun 2027 11:57:56.940   06 Jun 2027 11:58:00.995             4.055           536.313
       186   06 Jun 2027 11:58:36.793   06 Jun 2027 11:58:40.071             3.278          1118.687
       187   07 Jun 2027 04:16:54.847   07 Jun 2027 04:18:22.388            87.541         43770.500
       188   07 Jun 2027 04:19:25.319   07 Jun 2027 04:19:47.152            21.833         10916.500
       189   07 Jun 2027 04:19:53.267   07 Jun 2027 04:20:04.326            11.059          5529.500
       190   07 Jun 2027 05:40:31.739   07 Jun 2027 05:41:53.201            81.462         40731.000
       191   07 Jun 2027 07:17:02.956   07 Jun 2027 07:19:21.456           138.500         68824.156
       192   07 Jun 2027 07:19:31.985   07 Jun 2027 07:19:33.475             1.490           329.031
       193   07 Jun 2027 07:20:23.515   07 Jun 2027 07:20:23.515             0.000             0.000
       194   07 Jun 2027 08:51:10.844   07 Jun 2027 08:51:26.249            15.405          7248.656
       195   07 Jun 2027 08:53:08.020   07 Jun 2027 08:53:13.158             5.138          2009.500
       196   07 Jun 2027 08:53:52.289   07 Jun 2027 08:53:59.255             6.966          1059.062
       197   07 Jun 2027 08:55:24.248   07 Jun 2027 08:55:24.248             0.000             0.000
       198   07 Jun 2027 08:56:05.994   07 Jun 2027 08:56:13.749             7.755          2953.938
       199   07 Jun 2027 08:57:38.883   07 Jun 2027 08:57:45.122             6.239          2514.406
       200   07 Jun 2027 08:58:00.506   07 Jun 2027 08:58:00.506             0.000             0.000
       201   07 Jun 2027 08:58:28.888   07 Jun 2027 08:58:37.116             8.228          1367.687
       202   07 Jun 2027 08:58:56.241   07 Jun 2027 08:58:56.732             0.491           245.500
       203   07 Jun 2027 10:28:08.677   07 Jun 2027 10:28:21.413            12.736          6244.469
       204   07 Jun 2027 10:30:43.970   07 Jun 2027 10:30:49.961             5.991           997.156
       205   07 Jun 2027 10:31:02.609   07 Jun 2027 10:31:05.858             3.249           395.250
       206   07 Jun 2027 10:32:32.471   07 Jun 2027 10:32:37.731             5.260          2244.906
       207   07 Jun 2027 10:32:42.195   07 Jun 2027 10:32:44.026             1.831           139.500
       208   07 Jun 2027 10:33:00.385   07 Jun 2027 10:33:02.004             1.619           438.719
       209   07 Jun 2027 10:33:21.182   07 Jun 2027 10:33:25.766             4.584           599.313
       210   07 Jun 2027 10:34:21.659   07 Jun 2027 10:34:25.592             3.933          1746.656
       211   08 Jun 2027 04:29:20.019   08 Jun 2027 04:29:46.668            26.649         13324.500
       212   08 Jun 2027 04:30:08.029   08 Jun 2027 04:31:16.070            68.041         34020.500
       213   08 Jun 2027 04:31:41.925   08 Jun 2027 04:31:43.003             1.078           539.000
       214   08 Jun 2027 04:32:36.598   08 Jun 2027 04:32:36.598             0.000             0.000
       215   08 Jun 2027 04:32:52.825   08 Jun 2027 04:33:11.501            18.676          9338.000
       216   08 Jun 2027 05:52:41.551   08 Jun 2027 05:54:10.098            88.547         44273.500
       217   08 Jun 2027 07:29:12.437   08 Jun 2027 07:31:08.842           116.405         58202.500
       218   08 Jun 2027 09:04:22.364   08 Jun 2027 09:04:32.161             9.797          4898.500
       219   08 Jun 2027 09:04:42.836   08 Jun 2027 09:04:51.473             8.637          3770.937
       220   08 Jun 2027 09:05:19.162   08 Jun 2027 09:05:21.400             2.238           180.562
       221   08 Jun 2027 09:05:53.702   08 Jun 2027 09:05:53.702             0.000             0.000
       222   08 Jun 2027 09:06:42.231   08 Jun 2027 09:06:50.106             7.875          1900.188
       223   08 Jun 2027 09:07:17.199   08 Jun 2027 09:07:18.484             1.285            62.875
       224   08 Jun 2027 09:07:43.174   08 Jun 2027 09:07:43.917             0.743           371.500
       225   08 Jun 2027 09:09:39.155   08 Jun 2027 09:09:47.385             8.230          3995.469
       226   08 Jun 2027 09:10:17.999   08 Jun 2027 09:10:20.477             2.478           882.062
       227   08 Jun 2027 09:10:44.768   08 Jun 2027 09:10:47.676             2.908           742.875
       228   08 Jun 2027 10:40:44.861   08 Jun 2027 10:41:01.108            16.247          6841.094
       229   08 Jun 2027 10:41:25.130   08 Jun 2027 10:41:25.294             0.164            77.469
       230   08 Jun 2027 10:41:50.158   08 Jun 2027 10:41:52.323             2.165           115.656
       231   08 Jun 2027 10:42:36.332   08 Jun 2027 10:42:38.586             2.254          1127.000
       232   08 Jun 2027 10:42:55.203   08 Jun 2027 10:42:56.806             1.603           529.156
       233   08 Jun 2027 10:43:18.734   08 Jun 2027 10:43:22.112             3.378           685.250
       234   08 Jun 2027 10:43:22.985   08 Jun 2027 10:43:24.683             1.698            27.281
       235   08 Jun 2027 10:43:54.592   08 Jun 2027 10:43:56.521             1.929           934.656
       236   08 Jun 2027 10:44:45.946   08 Jun 2027 10:44:48.737             2.791           952.469
       237   08 Jun 2027 10:45:27.418   08 Jun 2027 10:45:33.243             5.825           842.469
       238   08 Jun 2027 10:45:47.616   08 Jun 2027 10:45:50.148             2.532            69.156
       239   08 Jun 2027 10:46:10.681   08 Jun 2027 10:46:12.171             1.490           611.031
       240   08 Jun 2027 10:46:43.353   08 Jun 2027 10:46:47.811             4.458           903.312
       241   09 Jun 2027 03:03:04.494   09 Jun 2027 03:03:43.895            39.401         19700.500
       242   09 Jun 2027 03:04:42.643   09 Jun 2027 03:04:45.161             2.518          1259.000
       243   09 Jun 2027 03:05:04.223   09 Jun 2027 03:05:43.535            39.312         19656.000
       244   09 Jun 2027 03:05:58.598   09 Jun 2027 03:06:00.261             1.663           831.500
       245   09 Jun 2027 03:08:40.900   09 Jun 2027 03:08:48.935             8.035          4017.500
       246   09 Jun 2027 03:11:14.699   09 Jun 2027 03:11:57.092            42.393         21196.500
       247   09 Jun 2027 04:41:15.734   09 Jun 2027 04:41:53.598            37.864         18932.000
       248   09 Jun 2027 04:42:23.235   09 Jun 2027 04:42:33.381            10.146          5073.000
       249   09 Jun 2027 04:43:36.257   09 Jun 2027 04:43:37.462             1.205           602.500
       250   09 Jun 2027 04:43:41.199   09 Jun 2027 04:44:06.139            24.940         12470.000
       251   09 Jun 2027 06:05:21.615   09 Jun 2027 06:06:08.396            46.781         23390.500
       252   09 Jun 2027 07:41:06.978   09 Jun 2027 07:41:51.306            44.328         22164.000
       253   09 Jun 2027 07:43:14.296   09 Jun 2027 07:44:19.756            65.460         32607.094
       254   09 Jun 2027 09:16:04.355   09 Jun 2027 09:16:15.030            10.675          5017.406
       255   09 Jun 2027 09:16:21.364   09 Jun 2027 09:16:22.013             0.649           159.062
       256   09 Jun 2027 09:17:54.709   09 Jun 2027 09:18:03.749             9.040          2691.937
       257   09 Jun 2027 09:18:30.783   09 Jun 2027 09:18:35.923             5.140           692.500
       258   09 Jun 2027 09:19:08.957   09 Jun 2027 09:19:08.957             0.000             0.000
       259   09 Jun 2027 09:19:44.213   09 Jun 2027 09:19:51.106             6.893          1508.750
       260   09 Jun 2027 09:20:06.342   09 Jun 2027 09:20:08.317             1.975           392.437
       261   09 Jun 2027 09:22:41.623   09 Jun 2027 09:22:55.950            14.327          4389.344
       262   09 Jun 2027 10:52:16.996   09 Jun 2027 10:52:31.511            14.515          6966.094
       263   09 Jun 2027 10:53:01.984   09 Jun 2027 10:53:04.239             2.255           262.344
       264   09 Jun 2027 10:53:21.987   09 Jun 2027 10:53:28.330             6.343           159.125
       265   09 Jun 2027 10:53:35.781   09 Jun 2027 10:53:37.901             2.120           209.531
       266   09 Jun 2027 10:54:25.499   09 Jun 2027 10:54:27.652             2.153           774.375
       267   09 Jun 2027 10:54:33.067   09 Jun 2027 10:54:33.730             0.663           169.219
       268   09 Jun 2027 10:54:50.158   09 Jun 2027 10:54:51.859             1.701           513.375
       269   09 Jun 2027 10:56:20.585   09 Jun 2027 10:56:31.344            10.759          2598.000
       270   09 Jun 2027 10:56:55.252   09 Jun 2027 10:56:59.173             3.921           556.094
       271   09 Jun 2027 10:57:24.233   09 Jun 2027 10:57:26.244             2.011           750.625
       272   09 Jun 2027 10:57:59.190   09 Jun 2027 10:58:00.820             1.630           738.469
       273   09 Jun 2027 10:58:11.915   09 Jun 2027 10:58:12.697             0.782           239.813
       274   10 Jun 2027 03:16:09.873   10 Jun 2027 03:17:46.949            97.076         48538.000
       275   10 Jun 2027 03:18:23.552   10 Jun 2027 03:18:26.998             3.446          1723.000
       276   10 Jun 2027 03:18:40.961   10 Jun 2027 03:18:44.674             3.713          1856.500
       277   10 Jun 2027 03:19:06.443   10 Jun 2027 03:19:16.733            10.290          5145.000
       278   10 Jun 2027 03:22:32.152   10 Jun 2027 03:22:49.319            17.167          8583.500
       279   10 Jun 2027 04:42:07.277   10 Jun 2027 04:42:31.176            23.899         11949.500
       280   10 Jun 2027 04:53:11.897   10 Jun 2027 04:53:50.285            38.388         19194.000
       281   10 Jun 2027 04:54:11.573   10 Jun 2027 04:54:21.197             9.624          4812.000
       282   10 Jun 2027 04:55:09.440   10 Jun 2027 04:55:28.267            18.827          9413.500
       283   10 Jun 2027 06:16:10.117   10 Jun 2027 06:16:43.630            33.513         16756.500
       284   10 Jun 2027 06:17:11.125   10 Jun 2027 06:17:31.242            20.117         10058.500
       285   10 Jun 2027 07:51:42.461   10 Jun 2027 07:51:53.126            10.665          5332.500
       286   10 Jun 2027 07:52:52.854   10 Jun 2027 07:53:58.463            65.609         32804.500
       287   10 Jun 2027 07:54:34.314   10 Jun 2027 07:54:45.537            11.223          4385.750
       288   10 Jun 2027 07:55:12.059   10 Jun 2027 07:55:13.529             1.470           132.031
       289   10 Jun 2027 07:55:40.608   10 Jun 2027 07:55:43.196             2.588           676.750
       290   10 Jun 2027 07:56:31.119   10 Jun 2027 07:56:33.189             2.070          1035.000
       291   10 Jun 2027 07:56:51.578   10 Jun 2027 07:56:58.970             7.392          1037.250
       292   10 Jun 2027 09:27:37.806   10 Jun 2027 09:27:47.539             9.733          4839.031
       293   10 Jun 2027 09:28:29.557   10 Jun 2027 09:28:30.067             0.510           255.000
       294   10 Jun 2027 09:28:30.963   10 Jun 2027 09:28:32.828             1.865           379.375
       295   10 Jun 2027 09:29:14.176   10 Jun 2027 09:29:16.483             2.307           479.125
       296   10 Jun 2027 09:31:46.442   10 Jun 2027 09:31:55.868             9.426          4002.781
       297   10 Jun 2027 09:32:23.088   10 Jun 2027 09:32:26.108             3.020           840.313
       298   10 Jun 2027 09:32:51.595   10 Jun 2027 09:32:54.051             2.456           796.469
       299   10 Jun 2027 09:33:00.813   10 Jun 2027 09:33:05.539             4.726           211.313
       300   10 Jun 2027 09:33:11.345   10 Jun 2027 09:33:15.206             3.861           175.844
       301   10 Jun 2027 09:33:51.994   10 Jun 2027 09:33:54.645             2.651           893.031
       302   10 Jun 2027 09:34:18.695   10 Jun 2027 09:34:22.003             3.308           440.094
       303   10 Jun 2027 09:34:48.014   10 Jun 2027 09:34:52.936             4.922           812.844
       304   10 Jun 2027 09:35:08.174   10 Jun 2027 09:35:11.332             3.158           476.188
       305   10 Jun 2027 11:04:39.228   10 Jun 2027 11:04:57.597            18.369          8775.125
       306   10 Jun 2027 11:05:04.452   10 Jun 2027 11:05:09.468             5.016           147.281
       307   10 Jun 2027 11:05:24.448   10 Jun 2027 11:05:26.523             2.075           136.938
       308   10 Jun 2027 11:06:59.587   10 Jun 2027 11:07:05.443             5.856          2645.313
       309   10 Jun 2027 11:07:23.582   10 Jun 2027 11:07:25.062             1.480           495.000
       310   10 Jun 2027 11:07:42.292   10 Jun 2027 11:07:42.679             0.387           193.500
       311   10 Jun 2027 11:08:01.138   10 Jun 2027 11:08:03.655             2.517           921.781
       312   10 Jun 2027 11:08:14.209   10 Jun 2027 11:08:14.209             0.000             0.000
       313   10 Jun 2027 11:08:24.028   10 Jun 2027 11:08:29.553             5.525           358.188
       314   10 Jun 2027 11:09:15.392   10 Jun 2027 11:09:19.252             3.860          1409.656
       315   10 Jun 2027 11:10:06.015   10 Jun 2027 11:10:12.158             6.143          1461.344
       316   10 Jun 2027 11:10:18.420   10 Jun 2027 11:10:20.889             2.469           195.688
       317   10 Jun 2027 11:10:41.800   10 Jun 2027 11:10:43.612             1.812           653.469
       318   11 Jun 2027 03:28:35.802   11 Jun 2027 03:30:20.151           104.349         52174.500
       319   11 Jun 2027 03:31:36.012   11 Jun 2027 03:31:37.294             1.282           641.000
       320   11 Jun 2027 03:33:03.959   11 Jun 2027 03:33:08.141             4.182          2091.000
       321   11 Jun 2027 03:34:33.821   11 Jun 2027 03:34:45.147            11.326          5663.000
       322   11 Jun 2027 04:53:31.418   11 Jun 2027 04:53:59.860            28.442         14221.000
       323   11 Jun 2027 05:05:14.205   11 Jun 2027 05:06:09.456            55.251         27625.500
       324   11 Jun 2027 06:27:26.819   11 Jun 2027 06:28:40.459            73.640         36820.000
       325   11 Jun 2027 06:29:55.766   11 Jun 2027 06:29:55.766             0.000             0.000
       326   11 Jun 2027 08:02:34.195   11 Jun 2027 08:03:46.393            72.198         35441.750
       327   11 Jun 2027 08:06:19.765   11 Jun 2027 08:06:30.034            10.269          4792.875
       328   11 Jun 2027 08:07:43.886   11 Jun 2027 08:07:50.883             6.997          2236.469
       329   11 Jun 2027 08:09:10.003   11 Jun 2027 08:09:12.629             2.626          1313.000
       330   11 Jun 2027 08:09:33.116   11 Jun 2027 08:09:33.551             0.435           217.500
       331   11 Jun 2027 08:10:32.267   11 Jun 2027 08:10:36.310             4.043          2021.500
       332   11 Jun 2027 09:39:47.547   11 Jun 2027 09:39:57.829            10.282          4541.375
       333   11 Jun 2027 09:40:56.201   11 Jun 2027 09:40:58.539             2.338          1074.125
       334   11 Jun 2027 09:41:08.334   11 Jun 2027 09:41:14.299             5.965           235.156
       335   11 Jun 2027 09:41:26.731   11 Jun 2027 09:41:30.010             3.279           388.500
       336   11 Jun 2027 09:41:40.746   11 Jun 2027 09:41:44.620             3.874            79.594
       337   11 Jun 2027 09:43:04.158   11 Jun 2027 09:43:12.731             8.573          2154.563
       338   11 Jun 2027 09:43:32.889   11 Jun 2027 09:43:37.605             4.716           509.281
       339   11 Jun 2027 09:44:53.546   11 Jun 2027 09:44:58.396             4.850          2036.375
       340   11 Jun 2027 09:45:54.310   11 Jun 2027 09:46:00.468             6.158          1632.875
       341   11 Jun 2027 09:46:43.927   11 Jun 2027 09:46:46.698             2.771          1261.875
       342   11 Jun 2027 09:46:50.505   11 Jun 2027 09:46:51.347             0.842            75.281
       343   11 Jun 2027 11:16:43.765   11 Jun 2027 11:16:58.617            14.852          6987.344
       344   11 Jun 2027 11:18:18.143   11 Jun 2027 11:18:23.118             4.975          2485.188
       345   11 Jun 2027 11:18:40.542   11 Jun 2027 11:18:42.702             2.160           544.500
       346   11 Jun 2027 11:18:56.436   11 Jun 2027 11:18:59.309             2.873           429.188
       347   11 Jun 2027 11:19:24.677   11 Jun 2027 11:19:25.796             1.119           494.750
       348   11 Jun 2027 11:19:40.155   11 Jun 2027 11:19:40.155             0.000             0.000
       349   11 Jun 2027 11:20:06.697   11 Jun 2027 11:20:18.284            11.587          1144.281
       350   11 Jun 2027 11:20:58.439   11 Jun 2027 11:21:03.362             4.923          1254.844
       351   11 Jun 2027 11:21:11.581   11 Jun 2027 11:21:13.494             1.913           241.312
       352   11 Jun 2027 11:22:39.435   11 Jun 2027 11:22:43.202             3.767          1883.500
       353   11 Jun 2027 11:22:50.071   11 Jun 2027 11:22:50.071             0.000             0.000
       354   12 Jun 2027 03:40:50.399   12 Jun 2027 03:42:42.938           112.539         56269.500
       355   12 Jun 2027 03:43:31.621   12 Jun 2027 03:43:42.764            11.143          5571.500
       356   12 Jun 2027 03:45:40.776   12 Jun 2027 03:45:57.149            16.373          8186.500
       357   12 Jun 2027 03:47:37.075   12 Jun 2027 03:47:40.534             3.459          1729.500
       358   12 Jun 2027 05:04:59.420   12 Jun 2027 05:05:59.890            60.470         30235.000
       359   12 Jun 2027 05:06:51.832   12 Jun 2027 05:06:51.832             0.000             0.000
       360   12 Jun 2027 05:07:08.727   12 Jun 2027 05:07:11.021             2.294          1147.000
       361   12 Jun 2027 05:17:11.106   12 Jun 2027 05:17:47.750            36.644         18322.000
       362   12 Jun 2027 06:39:12.426   12 Jun 2027 06:40:33.462            81.036         40518.000
       363   12 Jun 2027 06:41:15.581   12 Jun 2027 06:41:16.492             0.911           455.500
       364   12 Jun 2027 06:41:44.676   12 Jun 2027 06:41:54.797            10.121          5060.500
       365   12 Jun 2027 06:43:00.363   12 Jun 2027 06:43:00.363             0.000             0.000
       366   12 Jun 2027 06:44:07.952   12 Jun 2027 06:44:16.021             8.069          4034.500
       367   12 Jun 2027 08:14:03.650   12 Jun 2027 08:14:22.048            18.398          8560.031
       368   12 Jun 2027 08:15:43.905   12 Jun 2027 08:15:47.480             3.575          1626.000
       369   12 Jun 2027 08:16:07.160   12 Jun 2027 08:16:07.463             0.303           151.500
       370   12 Jun 2027 08:16:14.669   12 Jun 2027 08:16:17.970             3.301           600.813
       371   12 Jun 2027 08:18:20.219   12 Jun 2027 08:18:27.237             7.018          3370.875
       372   12 Jun 2027 08:19:44.078   12 Jun 2027 08:19:51.073             6.995          2229.250
       373   12 Jun 2027 08:21:23.393   12 Jun 2027 08:21:28.118             4.725          2208.156
       374   12 Jun 2027 08:21:47.937   12 Jun 2027 08:21:52.609             4.672           619.344
       375   12 Jun 2027 08:22:25.333   12 Jun 2027 08:22:34.342             9.009          1022.625
       376   12 Jun 2027 08:22:52.143   12 Jun 2027 08:22:53.334             1.191           498.156
       377   12 Jun 2027 09:51:49.559   12 Jun 2027 09:52:09.166            19.607          5870.688
       378   12 Jun 2027 09:52:46.238   12 Jun 2027 09:52:49.290             3.052           825.219
       379   12 Jun 2027 09:52:59.380   12 Jun 2027 09:53:01.303             1.923           315.313
       380   12 Jun 2027 09:53:10.065   12 Jun 2027 09:53:12.630             2.565           246.406
       381   12 Jun 2027 09:53:28.270   12 Jun 2027 09:53:29.591             1.321           488.750
       382   12 Jun 2027 09:54:03.010   12 Jun 2027 09:54:06.114             3.104          1024.062
       383   12 Jun 2027 09:55:02.405   12 Jun 2027 09:55:04.504             2.099           632.438
       384   12 Jun 2027 09:56:06.529   12 Jun 2027 09:56:09.286             2.757          1268.500
       385   12 Jun 2027 09:57:11.506   12 Jun 2027 09:57:13.456             1.950           975.000
       386   12 Jun 2027 09:57:39.140   12 Jun 2027 09:57:43.603             4.463          1772.000
       387   12 Jun 2027 09:58:06.668   12 Jun 2027 09:58:10.503             3.835           720.781
       388   12 Jun 2027 09:58:24.067   12 Jun 2027 09:58:26.924             2.857           405.156
       389   12 Jun 2027 09:59:02.279   12 Jun 2027 09:59:05.175             2.896           955.844
       390   12 Jun 2027 11:28:37.161   12 Jun 2027 11:28:50.667            13.506          6490.063
       391   12 Jun 2027 11:29:06.887   12 Jun 2027 11:29:08.252             1.365           506.875
       392   12 Jun 2027 11:29:58.147   12 Jun 2027 11:30:11.609            13.462            87.313
       393   12 Jun 2027 11:31:16.930   12 Jun 2027 11:31:23.198             6.268          1872.906
       394   12 Jun 2027 11:32:02.190   12 Jun 2027 11:32:08.593             6.403          1218.500
       395   12 Jun 2027 11:32:31.788   12 Jun 2027 11:32:33.325             1.537           724.844
       396   12 Jun 2027 11:32:59.381   12 Jun 2027 11:33:01.913             2.532           548.094
       397   12 Jun 2027 11:33:27.809   12 Jun 2027 11:33:35.027             7.218           719.219
       398   12 Jun 2027 11:34:08.821   12 Jun 2027 11:34:12.864             4.043          1056.062
       399   12 Jun 2027 11:34:39.127   12 Jun 2027 11:34:42.871             3.744           809.406
       400   12 Jun 2027 11:34:44.999   12 Jun 2027 11:34:53.463             8.464            35.594
       401   13 Jun 2027 03:52:58.712   13 Jun 2027 03:54:43.253           104.541         52270.500
       402   13 Jun 2027 03:56:06.641   13 Jun 2027 03:56:09.643             3.002          1501.000
       403   13 Jun 2027 03:56:30.827   13 Jun 2027 03:56:37.712             6.885          3442.500
       404   13 Jun 2027 03:57:09.832   13 Jun 2027 03:57:09.832             0.000             0.000
       405   13 Jun 2027 03:57:46.962   13 Jun 2027 03:58:06.622            19.660          9830.000
       406   13 Jun 2027 05:17:02.242   13 Jun 2027 05:18:01.018            58.776         29388.000
       407   13 Jun 2027 06:52:59.467   13 Jun 2027 06:55:05.257           125.790         62895.000
       408   13 Jun 2027 08:26:49.358   13 Jun 2027 08:27:13.189            23.831         11897.187
       409   13 Jun 2027 08:27:43.069   13 Jun 2027 08:27:44.013             0.944           405.563
       410   13 Jun 2027 08:28:11.593   13 Jun 2027 08:28:12.819             1.226           540.469
       411   13 Jun 2027 08:28:41.151   13 Jun 2027 08:28:42.076             0.925            37.281
       412   13 Jun 2027 08:30:20.214   13 Jun 2027 08:30:26.908             6.694          2978.250
       413   13 Jun 2027 08:31:43.676   13 Jun 2027 08:31:51.290             7.614          2125.375
       414   13 Jun 2027 08:32:42.534   13 Jun 2027 08:32:46.135             3.601          1601.375
       415   13 Jun 2027 08:33:23.766   13 Jun 2027 08:33:31.031             7.265          1117.437
       416   13 Jun 2027 08:34:01.250   13 Jun 2027 08:34:03.021             1.771           773.094
       417   13 Jun 2027 08:34:50.493   13 Jun 2027 08:34:53.604             3.111          1137.906
       418   13 Jun 2027 08:35:16.411   13 Jun 2027 08:35:18.231             1.820           712.719
       419   13 Jun 2027 10:03:52.805   13 Jun 2027 10:04:07.711            14.906          6785.344
       420   13 Jun 2027 10:04:28.860   13 Jun 2027 10:04:30.012             1.152           505.406
       421   13 Jun 2027 10:05:03.197   13 Jun 2027 10:05:06.321             3.124           866.656
       422   13 Jun 2027 10:05:29.605   13 Jun 2027 10:05:31.318             1.713           528.000
       423   13 Jun 2027 10:06:10.713   13 Jun 2027 10:06:15.286             4.573          1047.312
       424   13 Jun 2027 10:06:52.023   13 Jun 2027 10:06:53.977             1.954           918.562
       425   13 Jun 2027 10:07:47.146   13 Jun 2027 10:07:50.088             2.942          1034.062
       426   13 Jun 2027 10:08:02.895   13 Jun 2027 10:08:03.267             0.372            62.375
       427   13 Jun 2027 10:08:42.187   13 Jun 2027 10:08:47.675             5.488          1213.250
       428   13 Jun 2027 10:09:01.894   13 Jun 2027 10:09:01.894             0.000             0.000
       429   13 Jun 2027 10:09:26.643   13 Jun 2027 10:09:31.313             4.670          1217.750
       430   13 Jun 2027 10:09:50.664   13 Jun 2027 10:09:52.252             1.588           170.156
       431   13 Jun 2027 10:10:11.258   13 Jun 2027 10:10:14.048             2.790           556.187
       432   13 Jun 2027 10:10:36.480   13 Jun 2027 10:10:38.389             1.909           641.375
       433   13 Jun 2027 10:10:44.369   13 Jun 2027 10:10:44.750             0.381           186.875
       434   13 Jun 2027 10:10:46.591   13 Jun 2027 10:10:46.803             0.212            47.750
       435   13 Jun 2027 11:40:47.445   13 Jun 2027 11:40:59.300            11.855          5927.500
       436   13 Jun 2027 11:41:21.089   13 Jun 2027 11:41:23.383             2.294          1147.000
       437   13 Jun 2027 11:42:38.278   13 Jun 2027 11:42:43.909             5.631          2755.813
       438   13 Jun 2027 11:42:45.477   13 Jun 2027 11:42:48.628             3.151            49.000
       439   13 Jun 2027 11:43:30.525   13 Jun 2027 11:43:32.782             2.257          1049.156
       440   13 Jun 2027 11:44:28.178   13 Jun 2027 11:44:33.402             5.224          1574.875
       441   13 Jun 2027 11:45:21.752   13 Jun 2027 11:45:25.918             4.166          1493.469
       442   13 Jun 2027 11:46:37.266   13 Jun 2027 11:46:42.280             5.014          2133.375
