uniorb/output/strategy_1/Camera/Camera_KinoSat_110208.txt

KinoSat_110208
-------------------------
    Access    *     Start Time (UTCG)     *     Stop Time (UTCG)  *   Duration (s) *   Data (Mbytes)
         1   01 Jun 2027 03:32:21.437   01 Jun 2027 03:33:16.715            55.278         27639.000
         2   01 Jun 2027 03:33:48.593   01 Jun 2027 03:34:21.621            33.028         16514.000
         3   01 Jun 2027 03:34:47.828   01 Jun 2027 03:34:49.839             2.011          1005.500
         4   01 Jun 2027 03:35:04.107   01 Jun 2027 03:35:21.319            17.212          8606.000
         5   01 Jun 2027 03:36:14.764   01 Jun 2027 03:36:31.282            16.518          8259.000
         6   01 Jun 2027 03:38:29.226   01 Jun 2027 03:39:41.163            71.937         35968.500
         7   01 Jun 2027 05:09:06.656   01 Jun 2027 05:11:36.621           149.965         74982.500
         8   01 Jun 2027 05:13:20.536   01 Jun 2027 05:13:39.798            19.262          9631.000
         9   01 Jun 2027 05:13:59.529   01 Jun 2027 05:14:26.574            27.045         13522.500
        10   01 Jun 2027 05:15:35.585   01 Jun 2027 05:15:47.972            12.387          6193.500
        11   01 Jun 2027 06:47:11.416   01 Jun 2027 06:49:37.709           146.293         73146.500
        12   01 Jun 2027 06:49:59.933   01 Jun 2027 06:50:06.559             6.626          3313.000
        13   01 Jun 2027 06:50:17.831   01 Jun 2027 06:50:23.524             5.693          2846.500
        14   01 Jun 2027 06:51:19.902   01 Jun 2027 06:51:20.472             0.570           285.000
        15   01 Jun 2027 08:20:57.610   01 Jun 2027 08:22:49.429           111.819         55909.500
        16   01 Jun 2027 08:23:10.781   01 Jun 2027 08:23:29.874            19.093          9546.500
        17   01 Jun 2027 08:24:39.367   01 Jun 2027 08:24:53.259            13.892          6946.000
        18   01 Jun 2027 08:25:29.690   01 Jun 2027 08:25:31.640             1.950           975.000
        19   01 Jun 2027 08:25:47.125   01 Jun 2027 08:26:00.415            13.290          6645.000
        20   01 Jun 2027 08:27:30.199   01 Jun 2027 08:27:42.410            12.211          6105.500
        21   02 Jun 2027 03:44:21.533   02 Jun 2027 03:51:14.105           412.572        206286.000
        22   02 Jun 2027 05:21:14.910   02 Jun 2027 05:24:30.302           195.392         97696.000
        23   02 Jun 2027 05:24:34.938   02 Jun 2027 05:24:37.473             2.535          1267.500
        24   02 Jun 2027 05:25:16.025   02 Jun 2027 05:25:29.147            13.122          6561.000
        25   02 Jun 2027 05:26:06.606   02 Jun 2027 05:26:13.252             6.646          3323.000
        26   02 Jun 2027 05:27:21.127   02 Jun 2027 05:27:26.817             5.690          2845.000
        27   02 Jun 2027 05:27:33.495   02 Jun 2027 05:27:42.570             9.075          4537.500
        28   02 Jun 2027 06:58:24.514   02 Jun 2027 07:00:56.003           151.489         75744.500
        29   02 Jun 2027 07:01:12.840   02 Jun 2027 07:01:19.510             6.670          3335.000
        30   02 Jun 2027 07:02:17.008   02 Jun 2027 07:02:39.844            22.836         11418.000
        31   02 Jun 2027 07:03:10.005   02 Jun 2027 07:03:11.073             1.068           534.000
        32   02 Jun 2027 08:33:12.118   02 Jun 2027 08:34:23.596            71.478         35739.000
        33   02 Jun 2027 08:35:06.638   02 Jun 2027 08:36:28.569            81.931         40965.500
        34   02 Jun 2027 08:37:34.313   02 Jun 2027 08:37:47.421            13.108          6554.000
        35   03 Jun 2027 03:56:44.199   03 Jun 2027 04:03:33.313           409.114        204557.000
        36   03 Jun 2027 05:33:43.079   03 Jun 2027 05:37:12.999           209.920        104960.000
        37   03 Jun 2027 05:37:26.700   03 Jun 2027 05:37:26.869             0.169            84.500
        38   03 Jun 2027 05:37:57.874   03 Jun 2027 05:38:02.778             4.904          2452.000
        39   03 Jun 2027 05:38:33.324   03 Jun 2027 05:38:46.961            13.637          6818.500
        40   03 Jun 2027 05:39:17.798   03 Jun 2027 05:39:34.751            16.953          8476.500
        41   03 Jun 2027 07:10:37.120   03 Jun 2027 07:13:17.002           159.882         79941.000
        42   03 Jun 2027 07:13:25.866   03 Jun 2027 07:13:39.103            13.237          6618.500
        43   03 Jun 2027 07:14:08.739   03 Jun 2027 07:14:09.581             0.842           421.000
        44   03 Jun 2027 07:15:02.988   03 Jun 2027 07:15:13.626            10.638          5319.000
        45   03 Jun 2027 08:47:46.741   03 Jun 2027 08:49:57.845           131.104         65552.000
        46   04 Jun 2027 04:08:53.208   04 Jun 2027 04:15:37.851           404.643        202321.500
        47   04 Jun 2027 05:46:12.383   04 Jun 2027 05:50:02.260           229.877        114938.500
        48   04 Jun 2027 05:50:35.550   04 Jun 2027 05:50:39.866             4.316          2158.000
        49   04 Jun 2027 07:22:38.382   04 Jun 2027 07:25:30.781           172.399         86199.500
        50   04 Jun 2027 07:26:49.565   04 Jun 2027 07:27:04.562            14.997          7498.500
        51   04 Jun 2027 09:00:54.874   04 Jun 2027 09:01:36.752            41.878         20939.000
        52   05 Jun 2027 04:21:27.065   05 Jun 2027 04:27:43.862           376.797        188398.500
        53   05 Jun 2027 05:58:50.305   05 Jun 2027 06:02:24.128           213.823        106911.500
        54   05 Jun 2027 06:02:39.529   05 Jun 2027 06:02:57.421            17.892          8946.000
        55   05 Jun 2027 07:35:01.218   05 Jun 2027 07:37:13.499           132.281         66140.500
        56   05 Jun 2027 07:38:17.401   05 Jun 2027 07:38:41.510            24.109         12054.500
        57   06 Jun 2027 03:00:00.000   06 Jun 2027 03:03:51.631           231.631        115815.500
        58   06 Jun 2027 04:33:05.824   06 Jun 2027 04:36:16.890           191.066         95533.000
        59   06 Jun 2027 04:36:43.881   06 Jun 2027 04:36:44.136             0.255           127.500
        60   06 Jun 2027 04:37:19.788   06 Jun 2027 04:37:40.815            21.027         10513.500
        61   06 Jun 2027 06:11:05.196   06 Jun 2027 06:14:30.598           205.402        102701.000
        62   06 Jun 2027 07:46:56.460   06 Jun 2027 07:48:49.263           112.803         56401.500
        63   06 Jun 2027 07:50:13.130   06 Jun 2027 07:50:25.523            12.393          6196.500
        64   06 Jun 2027 07:50:58.038   06 Jun 2027 07:51:09.630            11.592          5796.000
        65   06 Jun 2027 07:51:57.345   06 Jun 2027 07:52:06.951             9.606          4803.000
        66   07 Jun 2027 03:08:25.606   07 Jun 2027 03:12:08.202           222.596        111298.000
        67   07 Jun 2027 03:12:42.113   07 Jun 2027 03:12:53.636            11.523          5761.500
        68   07 Jun 2027 03:13:40.312   07 Jun 2027 03:14:07.551            27.239         13619.500
        69   07 Jun 2027 03:15:18.915   07 Jun 2027 03:15:58.678            39.763         19881.500
        70   07 Jun 2027 04:45:15.232   07 Jun 2027 04:47:27.460           132.228         66114.000
        71   07 Jun 2027 04:48:59.694   07 Jun 2027 04:49:00.066             0.372           186.000
        72   07 Jun 2027 04:49:04.240   07 Jun 2027 04:49:36.393            32.153         16076.500
        73   07 Jun 2027 04:49:50.869   07 Jun 2027 04:50:22.269            31.400         15700.000
        74   07 Jun 2027 04:51:23.622   07 Jun 2027 04:51:32.554             8.932          4466.000
        75   07 Jun 2027 06:23:27.417   07 Jun 2027 06:25:45.167           137.750         68875.000
        76   07 Jun 2027 06:25:57.013   07 Jun 2027 06:26:08.541            11.528          5764.000
        77   07 Jun 2027 06:26:58.998   07 Jun 2027 06:27:12.486            13.488          6744.000
        78   07 Jun 2027 07:56:45.208   07 Jun 2027 07:58:01.191            75.983         37991.500
        79   07 Jun 2027 07:58:59.695   07 Jun 2027 07:59:15.728            16.033          8016.500
        80   07 Jun 2027 07:59:29.351   07 Jun 2027 07:59:40.834            11.483          5741.500
        81   07 Jun 2027 08:01:00.277   07 Jun 2027 08:01:11.773            11.496          5748.000
        82   07 Jun 2027 08:01:31.707   07 Jun 2027 08:01:36.786             5.079          2539.500
        83   07 Jun 2027 08:02:04.466   07 Jun 2027 08:02:07.780             3.314          1657.000
        84   07 Jun 2027 08:02:10.304   07 Jun 2027 08:02:16.726             6.422          3211.000
        85   07 Jun 2027 08:02:41.278   07 Jun 2027 08:02:46.049             4.771          2385.500
        86   07 Jun 2027 08:03:24.477   07 Jun 2027 08:03:33.051             8.574          4287.000
        87   07 Jun 2027 08:03:41.800   07 Jun 2027 08:03:46.255             4.455          2227.500
        88   07 Jun 2027 08:04:04.326   07 Jun 2027 08:04:21.066            16.740          8370.000
        89   08 Jun 2027 03:20:33.654   08 Jun 2027 03:24:20.835           227.181        113590.500
        90   08 Jun 2027 03:25:02.085   08 Jun 2027 03:25:34.850            32.765         16382.500
        91   08 Jun 2027 03:26:07.701   08 Jun 2027 03:27:12.777            65.076         32538.000
        92   08 Jun 2027 04:57:31.724   08 Jun 2027 05:00:22.405           170.681         85340.500
        93   08 Jun 2027 05:01:19.694   08 Jun 2027 05:01:41.910            22.216         11108.000
        94   08 Jun 2027 05:02:30.603   08 Jun 2027 05:02:36.367             5.764          2882.000
        95   08 Jun 2027 05:02:49.898   08 Jun 2027 05:03:07.701            17.803          8901.500
        96   08 Jun 2027 06:35:27.156   08 Jun 2027 06:38:04.438           157.282         78641.000
        97   08 Jun 2027 06:38:46.391   08 Jun 2027 06:39:01.315            14.924          7462.000
        98   08 Jun 2027 08:08:46.979   08 Jun 2027 08:09:34.277            47.298         23649.000
        99   08 Jun 2027 08:09:38.977   08 Jun 2027 08:10:04.359            25.382         12691.000
       100   08 Jun 2027 08:12:02.762   08 Jun 2027 08:12:18.877            16.115          8057.500
       101   08 Jun 2027 08:12:55.235   08 Jun 2027 08:12:55.817             0.582           291.000
       102   08 Jun 2027 08:13:11.472   08 Jun 2027 08:13:17.171             5.699          2849.500
       103   08 Jun 2027 08:13:54.963   08 Jun 2027 08:14:06.188            11.225          5612.500
       104   08 Jun 2027 08:14:52.085   08 Jun 2027 08:15:02.823            10.738          5369.000
       105   08 Jun 2027 08:15:04.996   08 Jun 2027 08:15:07.243             2.247          1123.500
       106   08 Jun 2027 08:15:43.486   08 Jun 2027 08:15:45.402             1.916           958.000
       107   09 Jun 2027 03:32:35.605   09 Jun 2027 03:37:02.467           266.862        133431.000
       108   09 Jun 2027 03:37:35.316   09 Jun 2027 03:37:42.758             7.442          3721.000
       109   09 Jun 2027 03:37:46.816   09 Jun 2027 03:38:01.338            14.522          7261.000
       110   09 Jun 2027 03:38:19.111   09 Jun 2027 03:39:34.272            75.161         37580.500
       111   09 Jun 2027 05:09:21.425   09 Jun 2027 05:11:50.893           149.468         74734.000
       112   09 Jun 2027 05:12:54.459   09 Jun 2027 05:13:23.278            28.819         14409.500
       113   09 Jun 2027 05:13:33.255   09 Jun 2027 05:13:35.729             2.474          1237.000
       114   09 Jun 2027 05:13:46.422   09 Jun 2027 05:13:47.781             1.359           679.500
       115   09 Jun 2027 05:14:07.653   09 Jun 2027 05:14:14.330             6.677          3338.500
       116   09 Jun 2027 05:14:37.436   09 Jun 2027 05:14:40.521             3.085          1542.500
       117   09 Jun 2027 05:15:08.989   09 Jun 2027 05:15:23.940            14.951          7475.500
       118   09 Jun 2027 06:47:26.385   09 Jun 2027 06:50:11.356           164.971         82485.500
       119   09 Jun 2027 08:21:13.393   09 Jun 2027 08:22:00.020            46.627         23313.500
       120   09 Jun 2027 08:23:27.830   09 Jun 2027 08:23:48.071            20.241         10120.500
       121   09 Jun 2027 08:25:11.728   09 Jun 2027 08:25:23.838            12.110          6055.000
       122   09 Jun 2027 08:25:48.030   09 Jun 2027 08:25:48.030             0.000             0.000
       123   09 Jun 2027 08:26:02.747   09 Jun 2027 08:26:15.172            12.425          6212.500
       124   09 Jun 2027 08:26:41.194   09 Jun 2027 08:26:42.767             1.573           786.500
       125   09 Jun 2027 08:27:15.229   09 Jun 2027 08:27:36.759            21.530         10765.000
       126   10 Jun 2027 03:44:36.194   10 Jun 2027 03:51:20.783           404.589        202294.500
       127   10 Jun 2027 03:51:34.238   10 Jun 2027 03:51:53.087            18.849          9424.500
       128   10 Jun 2027 05:21:30.127   10 Jun 2027 05:24:52.232           202.105        101052.500
       129   10 Jun 2027 05:25:30.586   10 Jun 2027 05:25:44.225            13.639          6819.500
       130   10 Jun 2027 05:25:45.960   10 Jun 2027 05:25:59.345            13.385          6692.500
       131   10 Jun 2027 05:26:07.961   10 Jun 2027 05:26:22.368            14.407          7203.500
       132   10 Jun 2027 05:27:34.548   10 Jun 2027 05:27:41.968             7.420          3710.000
       133   10 Jun 2027 06:58:39.366   10 Jun 2027 07:00:58.806           139.440         69720.000
       134   10 Jun 2027 07:01:10.954   10 Jun 2027 07:01:19.450             8.496          4248.000
       135   10 Jun 2027 07:01:34.113   10 Jun 2027 07:01:41.828             7.715          3857.500
       136   10 Jun 2027 07:02:32.266   10 Jun 2027 07:02:42.529            10.263          5131.500
       137   10 Jun 2027 07:03:27.449   10 Jun 2027 07:03:33.532             6.083          3041.500
       138   10 Jun 2027 08:33:28.815   10 Jun 2027 08:33:41.343            12.528          6264.000
       139   10 Jun 2027 08:33:56.330   10 Jun 2027 08:34:03.861             7.531          3765.500
       140   10 Jun 2027 08:34:18.027   10 Jun 2027 08:34:18.027             0.000             0.000
       141   10 Jun 2027 08:35:21.360   10 Jun 2027 08:35:26.209             4.849          2424.500
       142   10 Jun 2027 08:35:38.810   10 Jun 2027 08:35:47.714             8.904          4452.000
       143   10 Jun 2027 08:36:46.009   10 Jun 2027 08:36:58.825            12.816          6408.000
       144   10 Jun 2027 08:37:37.097   10 Jun 2027 08:37:49.939            12.842          6421.000
       145   10 Jun 2027 08:38:28.088   10 Jun 2027 08:38:38.938            10.850          5425.000
       146   11 Jun 2027 03:57:01.260   11 Jun 2027 04:03:48.201           406.941        203470.500
       147   11 Jun 2027 05:33:57.959   11 Jun 2027 05:36:57.220           179.261         89630.500
       148   11 Jun 2027 05:37:39.980   11 Jun 2027 05:37:56.388            16.408          8204.000
       149   11 Jun 2027 05:38:19.825   11 Jun 2027 05:38:27.887             8.062          4031.000
       150   11 Jun 2027 05:38:33.258   11 Jun 2027 05:38:41.954             8.696          4348.000
       151   11 Jun 2027 07:10:51.989   11 Jun 2027 07:13:18.379           146.390         73195.000
       152   11 Jun 2027 07:13:32.467   11 Jun 2027 07:13:39.301             6.834          3417.000
       153   11 Jun 2027 07:14:01.747   11 Jun 2027 07:14:07.796             6.049          3024.500
       154   11 Jun 2027 07:14:58.092   11 Jun 2027 07:15:15.549            17.457          8728.500
       155   11 Jun 2027 08:48:01.988   11 Jun 2027 08:48:40.261            38.273         19136.500
       156   11 Jun 2027 08:50:00.570   11 Jun 2027 08:50:03.599             3.029          1514.500
       157   12 Jun 2027 04:09:08.382   12 Jun 2027 04:15:27.325           378.943        189471.500
       158   12 Jun 2027 04:15:50.954   12 Jun 2027 04:15:52.771             1.817           908.500
       159   12 Jun 2027 05:46:29.458   12 Jun 2027 05:50:00.054           210.596        105298.000
       160   12 Jun 2027 05:50:25.617   12 Jun 2027 05:50:33.653             8.036          4018.000
       161   12 Jun 2027 05:50:36.000   12 Jun 2027 05:50:37.276             1.276           638.000
       162   12 Jun 2027 07:22:53.679   12 Jun 2027 07:25:24.897           151.218         75609.000
       163   12 Jun 2027 07:25:34.951   12 Jun 2027 07:25:47.926            12.975          6487.500
       164   12 Jun 2027 07:25:50.232   12 Jun 2027 07:25:58.140             7.908          3954.000
       165   12 Jun 2027 07:27:59.094   12 Jun 2027 07:27:59.433             0.339           169.500
       166   12 Jun 2027 09:01:10.053   12 Jun 2027 09:01:24.821            14.768          7384.000
       167   13 Jun 2027 04:21:42.062   13 Jun 2027 04:27:58.740           376.678        188339.000
       168   13 Jun 2027 05:59:05.025   13 Jun 2027 06:02:00.042           175.017         87508.500
       169   13 Jun 2027 07:35:15.648   13 Jun 2027 07:38:03.360           167.712         83856.000
       170   13 Jun 2027 07:38:13.231   13 Jun 2027 07:38:29.289            16.058          8029.000
       171   13 Jun 2027 07:39:35.159   13 Jun 2027 07:39:51.039            15.880          7940.000
