uniorb/output/strategy_1/Camera/Camera_KinoSat_111408.txt

KinoSat_111408
-------------------------
    Access    *     Start Time (UTCG)     *     Stop Time (UTCG)  *   Duration (s) *   Data (Mbytes)
         1   01 Jun 2027 04:31:28.045   01 Jun 2027 04:31:59.067            31.022         15511.000
         2   01 Jun 2027 04:32:17.613   01 Jun 2027 04:34:08.098           110.485         55242.500
         3   01 Jun 2027 04:35:06.428   01 Jun 2027 04:35:06.428             0.000             0.000
         4   01 Jun 2027 05:54:50.532   01 Jun 2027 05:56:05.325            74.793         37396.500
         5   01 Jun 2027 05:56:28.503   01 Jun 2027 05:56:59.516            31.013         15506.500
         6   01 Jun 2027 07:31:22.415   01 Jun 2027 07:33:31.445           129.030         64515.000
         7   01 Jun 2027 07:33:59.792   01 Jun 2027 07:34:13.553            13.761          6880.500
         8   01 Jun 2027 09:06:32.423   01 Jun 2027 09:07:54.314            81.891         40945.500
         9   01 Jun 2027 09:08:52.420   01 Jun 2027 09:08:52.420             0.000             0.000
        10   01 Jun 2027 09:09:29.985   01 Jun 2027 09:09:29.985             0.000             0.000
        11   01 Jun 2027 09:12:46.709   01 Jun 2027 09:13:08.975            22.266         11133.000
        12   01 Jun 2027 10:42:57.678   01 Jun 2027 10:44:06.620            68.942         34471.000
        13   01 Jun 2027 10:44:45.738   01 Jun 2027 10:45:42.172            56.434         28217.000
        14   01 Jun 2027 10:46:05.147   01 Jun 2027 10:46:20.608            15.461          7730.500
        15   01 Jun 2027 10:47:17.666   01 Jun 2027 10:47:29.398            11.732          5866.000
        16   01 Jun 2027 10:48:19.517   01 Jun 2027 10:48:19.517             0.000             0.000
        17   01 Jun 2027 10:48:28.544   01 Jun 2027 10:48:36.882             8.338          4169.000
        18   02 Jun 2027 03:05:14.907   02 Jun 2027 03:05:22.996             8.089          4044.500
        19   02 Jun 2027 03:06:16.187   02 Jun 2027 03:07:06.069            49.882         24941.000
        20   02 Jun 2027 03:07:18.081   02 Jun 2027 03:07:29.567            11.486          5743.000
        21   02 Jun 2027 03:08:24.457   02 Jun 2027 03:08:28.812             4.355          2177.500
        22   02 Jun 2027 03:08:41.088   02 Jun 2027 03:08:41.088             0.000             0.000
        23   02 Jun 2027 03:09:15.262   02 Jun 2027 03:09:36.351            21.089         10544.500
        24   02 Jun 2027 04:43:24.852   02 Jun 2027 04:44:03.869            39.017         19508.500
        25   02 Jun 2027 04:44:26.754   02 Jun 2027 04:44:41.888            15.134          7567.000
        26   02 Jun 2027 04:46:16.309   02 Jun 2027 04:46:30.603            14.294          7147.000
        27   02 Jun 2027 04:46:40.420   02 Jun 2027 04:46:46.212             5.792          2896.000
        28   02 Jun 2027 06:06:53.372   02 Jun 2027 06:07:48.202            54.830         27415.000
        29   02 Jun 2027 06:08:05.742   02 Jun 2027 06:08:30.230            24.488         12244.000
        30   02 Jun 2027 07:43:15.564   02 Jun 2027 07:45:05.852           110.288         55144.000
        31   02 Jun 2027 07:45:17.712   02 Jun 2027 07:45:27.004             9.292          4646.000
        32   02 Jun 2027 07:46:30.649   02 Jun 2027 07:46:43.888            13.239          6619.500
        33   02 Jun 2027 09:18:11.543   02 Jun 2027 09:19:28.222            76.679         38339.500
        34   02 Jun 2027 09:20:35.673   02 Jun 2027 09:21:06.528            30.855         15427.500
        35   02 Jun 2027 09:21:52.365   02 Jun 2027 09:21:52.365             0.000             0.000
        36   02 Jun 2027 09:23:47.296   02 Jun 2027 09:23:47.296             0.000             0.000
        37   02 Jun 2027 09:24:49.497   02 Jun 2027 09:25:09.091            19.594          9797.000
        38   02 Jun 2027 09:25:13.262   02 Jun 2027 09:25:16.363             3.101          1550.500
        39   02 Jun 2027 10:54:30.565   02 Jun 2027 10:56:34.609           124.044         62022.000
        40   02 Jun 2027 10:58:57.748   02 Jun 2027 10:59:09.369            11.621          5810.500
        41   03 Jun 2027 03:18:19.867   03 Jun 2027 03:19:45.333            85.466         42733.000
        42   03 Jun 2027 03:21:22.021   03 Jun 2027 03:21:24.452             2.431          1215.500
        43   03 Jun 2027 03:22:09.208   03 Jun 2027 03:22:17.914             8.706          4353.000
        44   03 Jun 2027 03:24:41.094   03 Jun 2027 03:24:42.547             1.453           726.500
        45   03 Jun 2027 03:24:58.609   03 Jun 2027 03:25:17.343            18.734          9367.000
        46   03 Jun 2027 03:25:20.365   03 Jun 2027 03:25:29.691             9.326          4663.000
        47   03 Jun 2027 04:44:10.040   03 Jun 2027 04:44:25.098            15.058          7529.000
        48   03 Jun 2027 04:44:39.489   03 Jun 2027 04:44:39.489             0.000             0.000
        49   03 Jun 2027 04:44:46.464   03 Jun 2027 04:45:00.000            13.535          6767.500
        50   03 Jun 2027 04:55:21.177   03 Jun 2027 04:56:05.327            44.150         22075.000
        51   03 Jun 2027 04:56:46.687   03 Jun 2027 04:56:47.552             0.865           432.500
        52   03 Jun 2027 04:57:30.091   03 Jun 2027 04:57:36.534             6.443          3221.500
        53   03 Jun 2027 06:18:17.265   03 Jun 2027 06:18:56.333            39.068         19534.000
        54   03 Jun 2027 06:19:18.444   03 Jun 2027 06:19:38.027            19.583          9791.500
        55   03 Jun 2027 06:22:15.241   03 Jun 2027 06:22:17.041             1.800           900.000
        56   03 Jun 2027 06:22:31.694   03 Jun 2027 06:22:34.947             3.253          1626.500
        57   03 Jun 2027 07:53:34.236   03 Jun 2027 07:54:12.808            38.572         19286.000
        58   03 Jun 2027 07:54:59.601   03 Jun 2027 07:56:02.640            63.039         31519.500
        59   03 Jun 2027 07:56:42.466   03 Jun 2027 07:57:16.623            34.157         17078.500
        60   03 Jun 2027 07:57:38.745   03 Jun 2027 07:57:46.559             7.814          3907.000
        61   03 Jun 2027 09:29:44.995   03 Jun 2027 09:31:31.911           106.916         53458.000
        62   03 Jun 2027 09:32:53.612   03 Jun 2027 09:32:54.124             0.512           256.000
        63   03 Jun 2027 09:36:37.649   03 Jun 2027 09:36:57.810            20.161         10080.500
        64   03 Jun 2027 11:06:50.238   03 Jun 2027 11:07:53.996            63.758         30610.967
        65   03 Jun 2027 11:08:42.550   03 Jun 2027 11:08:48.928             6.378          1300.531
        66   03 Jun 2027 11:08:55.560   03 Jun 2027 11:08:56.579             1.019           118.063
        67   03 Jun 2027 11:09:27.070   03 Jun 2027 11:09:33.681             6.611           770.438
        68   03 Jun 2027 11:11:21.262   03 Jun 2027 11:11:28.891             7.629          3347.125
        69   03 Jun 2027 11:12:18.972   03 Jun 2027 11:12:24.453             5.481          1565.031
        70   03 Jun 2027 11:12:36.530   03 Jun 2027 11:12:36.530             0.000             0.000
        71   03 Jun 2027 11:12:37.287   03 Jun 2027 11:12:38.769             1.482           391.031
        72   04 Jun 2027 03:30:49.471   04 Jun 2027 03:32:02.054            72.583         36291.500
        73   04 Jun 2027 03:33:15.256   04 Jun 2027 03:33:16.657             1.401           700.500
        74   04 Jun 2027 03:34:12.865   04 Jun 2027 03:34:24.042            11.177          5588.500
        75   04 Jun 2027 03:35:01.637   04 Jun 2027 03:35:01.637             0.000             0.000
        76   04 Jun 2027 03:35:20.845   04 Jun 2027 03:35:26.903             6.058          3029.000
        77   04 Jun 2027 03:35:34.450   04 Jun 2027 03:35:50.012            15.562          7781.000
        78   04 Jun 2027 03:36:18.626   04 Jun 2027 03:36:21.412             2.786          1393.000
        79   04 Jun 2027 04:55:41.037   04 Jun 2027 04:56:15.581            34.544         17272.000
        80   04 Jun 2027 05:07:23.827   04 Jun 2027 05:08:00.646            36.819         18409.500
        81   04 Jun 2027 06:29:37.037   04 Jun 2027 06:30:47.579            70.542         35271.000
        82   04 Jun 2027 06:32:15.824   04 Jun 2027 06:32:33.892            18.068          9034.000
        83   04 Jun 2027 08:04:40.545   04 Jun 2027 08:05:56.761            76.216         38077.031
        84   04 Jun 2027 08:08:28.164   04 Jun 2027 08:08:39.076            10.912          4731.344
        85   04 Jun 2027 08:09:53.035   04 Jun 2027 08:10:00.445             7.410          2257.688
        86   04 Jun 2027 08:10:33.048   04 Jun 2027 08:10:38.768             5.720           790.344
        87   04 Jun 2027 08:10:48.801   04 Jun 2027 08:10:49.236             0.435           184.875
        88   04 Jun 2027 09:42:03.716   04 Jun 2027 09:42:15.805            12.089          5215.781
        89   04 Jun 2027 09:42:49.707   04 Jun 2027 09:42:51.456             1.749           526.094
        90   04 Jun 2027 09:43:34.829   04 Jun 2027 09:43:36.942             2.113           870.312
        91   04 Jun 2027 09:44:20.636   04 Jun 2027 09:44:24.742             4.106          1338.688
        92   04 Jun 2027 09:45:30.448   04 Jun 2027 09:45:31.457             1.009           504.500
        93   04 Jun 2027 09:45:56.469   04 Jun 2027 09:46:00.341             3.872          1271.938
        94   04 Jun 2027 09:46:40.556   04 Jun 2027 09:46:43.436             2.880           598.875
        95   04 Jun 2027 09:48:21.286   04 Jun 2027 09:48:27.834             6.548          3057.813
        96   04 Jun 2027 09:48:58.111   04 Jun 2027 09:48:59.335             1.224           612.000
        97   04 Jun 2027 11:18:51.898   04 Jun 2027 11:19:07.147            15.249          7624.500
        98   04 Jun 2027 11:19:48.857   04 Jun 2027 11:19:55.955             7.098          3009.531
        99   04 Jun 2027 11:20:28.128   04 Jun 2027 11:20:35.461             7.333           530.281
       100   04 Jun 2027 11:20:53.393   04 Jun 2027 11:20:55.158             1.765           301.000
       101   04 Jun 2027 11:21:04.097   04 Jun 2027 11:21:04.497             0.400           200.000
       102   04 Jun 2027 11:21:26.872   04 Jun 2027 11:21:33.621             6.749           778.562
       103   04 Jun 2027 11:22:25.844   04 Jun 2027 11:22:34.927             9.083          1631.969
       104   04 Jun 2027 11:22:43.147   04 Jun 2027 11:22:45.597             2.450           256.875
       105   04 Jun 2027 11:23:44.744   04 Jun 2027 11:23:56.321            11.577          1759.844
       106   04 Jun 2027 11:24:23.383   04 Jun 2027 11:24:23.607             0.224           112.000
       107   04 Jun 2027 11:24:26.539   04 Jun 2027 11:24:28.473             1.934           637.906
       108   04 Jun 2027 11:24:52.540   04 Jun 2027 11:24:54.273             1.733           689.625
       109   04 Jun 2027 11:24:56.733   04 Jun 2027 11:24:57.618             0.885            76.875
       110   05 Jun 2027 03:42:49.931   05 Jun 2027 03:44:45.530           115.599         57799.500
       111   05 Jun 2027 03:45:01.157   05 Jun 2027 03:45:15.209            14.052          7026.000
       112   05 Jun 2027 03:45:39.029   05 Jun 2027 03:45:43.898             4.869          2434.500
       113   05 Jun 2027 03:45:49.634   05 Jun 2027 03:46:00.209            10.575          5287.500
       114   05 Jun 2027 03:49:48.287   05 Jun 2027 03:49:48.684             0.397           198.500
       115   05 Jun 2027 05:07:11.784   05 Jun 2027 05:07:51.514            39.730         19865.000
       116   05 Jun 2027 05:08:01.132   05 Jun 2027 05:08:13.918            12.786          6393.000
       117   05 Jun 2027 05:19:25.182   05 Jun 2027 05:19:56.824            31.642         15821.000
       118   05 Jun 2027 06:41:20.839   05 Jun 2027 06:42:33.956            73.117         36558.500
       119   05 Jun 2027 06:43:36.106   05 Jun 2027 06:43:36.106             0.000             0.000
       120   05 Jun 2027 06:44:05.972   05 Jun 2027 06:44:13.525             7.553          3776.500
       121   05 Jun 2027 06:46:34.942   05 Jun 2027 06:46:51.208            16.266          8133.000
       122   05 Jun 2027 08:16:08.866   05 Jun 2027 08:16:48.865            39.999         18547.438
       123   05 Jun 2027 08:18:57.400   05 Jun 2027 08:19:10.012            12.612          3678.531
       124   05 Jun 2027 08:20:28.570   05 Jun 2027 08:20:28.570             0.000             0.000
       125   05 Jun 2027 08:21:45.898   05 Jun 2027 08:21:53.150             7.252          3626.000
       126   05 Jun 2027 08:22:54.420   05 Jun 2027 08:23:01.113             6.693          3100.438
       127   05 Jun 2027 08:24:35.240   05 Jun 2027 08:24:41.784             6.544          2814.875
       128   05 Jun 2027 08:25:04.189   05 Jun 2027 08:25:04.341             0.152            76.000
       129   05 Jun 2027 09:53:58.374   05 Jun 2027 09:54:18.298            19.924          6253.594
       130   05 Jun 2027 09:57:01.314   05 Jun 2027 09:57:11.492            10.178          4389.469
       131   05 Jun 2027 09:57:35.725   05 Jun 2027 09:57:37.467             1.742           754.000
       132   05 Jun 2027 09:58:08.618   05 Jun 2027 09:58:14.154             5.536           331.250
       133   05 Jun 2027 09:58:15.128   05 Jun 2027 09:58:16.978             1.850            16.250
       134   05 Jun 2027 09:58:56.800   05 Jun 2027 09:59:01.072             4.272           207.063
       135   05 Jun 2027 09:59:26.703   05 Jun 2027 09:59:29.355             2.652           800.969
       136   05 Jun 2027 09:59:38.355   05 Jun 2027 09:59:41.154             2.799            34.563
       137   05 Jun 2027 09:59:57.538   05 Jun 2027 10:00:00.393             2.855           512.000
       138   05 Jun 2027 10:00:47.956   05 Jun 2027 10:00:49.747             1.791           895.500
       139   05 Jun 2027 10:01:08.759   05 Jun 2027 10:01:11.466             2.707          1013.281
       140   05 Jun 2027 11:30:42.785   05 Jun 2027 11:30:57.336            14.551          6952.563
       141   05 Jun 2027 11:31:19.681   05 Jun 2027 11:31:21.305             1.624           698.281
       142   05 Jun 2027 11:31:29.163   05 Jun 2027 11:31:29.991             0.828           245.563
       143   05 Jun 2027 11:31:41.056   05 Jun 2027 11:31:43.845             2.789           284.750
       144   05 Jun 2027 11:32:03.494   05 Jun 2027 11:32:07.164             3.670           614.031
       145   05 Jun 2027 11:33:25.663   05 Jun 2027 11:33:30.559             4.896          1875.750
       146   05 Jun 2027 11:34:08.925   05 Jun 2027 11:34:25.637            16.712          1154.719
       147   05 Jun 2027 11:34:35.441   05 Jun 2027 11:34:35.570             0.129            64.500
       148   05 Jun 2027 11:35:02.053   05 Jun 2027 11:35:07.133             5.080          1049.781
       149   05 Jun 2027 11:36:01.911   05 Jun 2027 11:36:03.642             1.731           865.500
       150   05 Jun 2027 11:36:27.321   05 Jun 2027 11:36:31.205             3.884          1586.281
       151   05 Jun 2027 11:36:53.428   05 Jun 2027 11:36:54.898             1.470           650.625
       152   05 Jun 2027 11:37:11.260   05 Jun 2027 11:37:11.260             0.000             0.000
       153   05 Jun 2027 11:37:28.734   05 Jun 2027 11:37:29.081             0.347           173.500
       154   06 Jun 2027 03:55:09.483   06 Jun 2027 03:56:54.798           105.315         52657.500
       155   06 Jun 2027 03:57:16.036   06 Jun 2027 03:57:17.165             1.129           564.500
       156   06 Jun 2027 03:58:57.848   06 Jun 2027 03:58:57.848             0.000             0.000
       157   06 Jun 2027 03:59:17.803   06 Jun 2027 03:59:55.724            37.921         18960.500
       158   06 Jun 2027 05:19:10.524   06 Jun 2027 05:20:21.060            70.536         35268.000
       159   06 Jun 2027 05:20:52.636   06 Jun 2027 05:20:58.926             6.290          3145.000
       160   06 Jun 2027 06:55:07.216   06 Jun 2027 06:56:47.114            99.898         49949.000
       161   06 Jun 2027 06:59:01.717   06 Jun 2027 06:59:03.818             2.101          1050.500
       162   06 Jun 2027 08:28:57.709   06 Jun 2027 08:29:21.639            23.930          9715.688
       163   06 Jun 2027 08:30:24.777   06 Jun 2027 08:30:26.383             1.606           398.375
       164   06 Jun 2027 08:30:51.118   06 Jun 2027 08:30:53.325             2.207           233.031
       165   06 Jun 2027 08:32:28.503   06 Jun 2027 08:32:37.623             9.120          2657.344
       166   06 Jun 2027 08:34:49.961   06 Jun 2027 08:34:57.794             7.833          3911.437
       167   06 Jun 2027 08:35:39.578   06 Jun 2027 08:35:39.578             0.000             0.000
       168   06 Jun 2027 08:36:45.131   06 Jun 2027 08:36:51.399             6.268          2641.906
       169   06 Jun 2027 08:37:04.512   06 Jun 2027 08:37:05.827             1.315           409.781
       170   06 Jun 2027 10:06:05.124   06 Jun 2027 10:06:20.697            15.573          7114.656
       171   06 Jun 2027 10:06:47.230   06 Jun 2027 10:06:53.036             5.806           246.688
       172   06 Jun 2027 10:07:04.257   06 Jun 2027 10:07:04.977             0.720           350.656
       173   06 Jun 2027 10:07:23.947   06 Jun 2027 10:07:24.936             0.989           355.563
       174   06 Jun 2027 10:09:59.168   06 Jun 2027 10:10:08.785             9.617          3688.563
       175   06 Jun 2027 10:10:52.240   06 Jun 2027 10:10:55.291             3.051          1357.969
       176   06 Jun 2027 10:11:56.693   06 Jun 2027 10:12:03.256             6.563          1918.812
       177   06 Jun 2027 10:12:28.128   06 Jun 2027 10:12:35.029             6.901           688.625
       178   06 Jun 2027 10:13:02.911   06 Jun 2027 10:13:05.017             2.106           863.625
       179   06 Jun 2027 10:13:11.983   06 Jun 2027 10:13:13.762             1.779           217.687
       180   06 Jun 2027 11:43:08.196   06 Jun 2027 11:43:20.025            11.829          5914.500
       181   06 Jun 2027 11:43:33.116   06 Jun 2027 11:43:34.241             1.125           561.250
       182   06 Jun 2027 11:43:58.567   06 Jun 2027 11:44:10.356            11.789           528.844
       183   06 Jun 2027 11:45:32.625   06 Jun 2027 11:45:38.540             5.915          2014.344
       184   06 Jun 2027 11:46:40.968   06 Jun 2027 11:46:45.784             4.816          1733.000
       185   06 Jun 2027 11:47:23.429   06 Jun 2027 11:47:30.028             6.599           958.625
       186   06 Jun 2027 11:47:45.203   06 Jun 2027 11:47:53.210             8.007           301.531
       187   06 Jun 2027 11:48:06.518   06 Jun 2027 11:48:07.881             1.363           415.875
       188   06 Jun 2027 11:48:30.168   06 Jun 2027 11:48:32.587             2.419           519.969
       189   07 Jun 2027 04:07:43.420   07 Jun 2027 04:09:14.823            91.403         45701.500
       190   07 Jun 2027 04:09:58.139   07 Jun 2027 04:10:03.591             5.452          2726.000
       191   07 Jun 2027 04:10:17.774   07 Jun 2027 04:10:20.865             3.091          1545.500
       192   07 Jun 2027 04:10:26.632   07 Jun 2027 04:10:42.079            15.447          7723.500
       193   07 Jun 2027 05:31:04.941   07 Jun 2027 05:32:38.103            93.162         46581.000
       194   07 Jun 2027 07:07:29.086   07 Jun 2027 07:09:24.198           115.112         57556.000
       195   07 Jun 2027 07:10:17.719   07 Jun 2027 07:10:25.870             8.151          3468.156
       196   07 Jun 2027 08:41:11.854   07 Jun 2027 08:41:29.259            17.405          8669.187
       197   07 Jun 2027 08:42:56.493   07 Jun 2027 08:42:56.493             0.000             0.000
       198   07 Jun 2027 08:43:10.143   07 Jun 2027 08:43:17.838             7.695          1805.344
       199   07 Jun 2027 08:43:28.221   07 Jun 2027 08:43:28.221             0.000             0.000
       200   07 Jun 2027 08:44:13.176   07 Jun 2027 08:44:16.657             3.481          1522.875
       201   07 Jun 2027 08:44:50.641   07 Jun 2027 08:45:00.607             9.966          1062.000
       202   07 Jun 2027 08:45:39.377   07 Jun 2027 08:45:42.462             3.085          1010.906
       203   07 Jun 2027 08:46:12.896   07 Jun 2027 08:46:17.547             4.651           823.438
       204   07 Jun 2027 08:46:43.897   07 Jun 2027 08:46:44.252             0.355           177.500
       205   07 Jun 2027 08:48:01.718   07 Jun 2027 08:48:06.848             5.130          2565.000
       206   07 Jun 2027 08:48:15.017   07 Jun 2027 08:48:16.386             1.369           571.531
       207   07 Jun 2027 08:48:53.031   07 Jun 2027 08:48:53.031             0.000             0.000
       208   07 Jun 2027 08:49:05.108   07 Jun 2027 08:49:09.951             4.843          1522.562
       209   07 Jun 2027 10:18:31.649   07 Jun 2027 10:18:46.019            14.370          6042.406
       210   07 Jun 2027 10:19:03.544   07 Jun 2027 10:19:03.693             0.149            65.375
       211   07 Jun 2027 10:19:14.637   07 Jun 2027 10:19:19.174             4.537           342.000
       212   07 Jun 2027 10:20:26.838   07 Jun 2027 10:20:32.557             5.719          1505.625
       213   07 Jun 2027 10:20:53.535   07 Jun 2027 10:21:00.416             6.881           655.562
       214   07 Jun 2027 10:21:15.131   07 Jun 2027 10:21:16.930             1.799           445.344
       215   07 Jun 2027 10:21:43.933   07 Jun 2027 10:21:45.121             1.188           349.063
       216   07 Jun 2027 10:22:40.470   07 Jun 2027 10:22:43.477             3.007           148.594
       217   07 Jun 2027 10:22:51.396   07 Jun 2027 10:22:52.468             1.072           247.469
       218   07 Jun 2027 10:23:08.135   07 Jun 2027 10:23:08.135             0.000             0.000
       219   07 Jun 2027 10:23:21.390   07 Jun 2027 10:23:25.483             4.093           783.625
       220   07 Jun 2027 10:23:47.960   07 Jun 2027 10:23:48.243             0.283           141.500
       221   07 Jun 2027 10:24:49.847   07 Jun 2027 10:24:54.928             5.081          2379.344
       222   07 Jun 2027 11:55:28.421   07 Jun 2027 11:55:47.985            19.564          8074.219
       223   07 Jun 2027 11:57:05.149   07 Jun 2027 11:57:10.843             5.694          2147.062
       224   07 Jun 2027 11:57:24.589   07 Jun 2027 11:57:27.773             3.184           429.563
       225   07 Jun 2027 11:58:03.418   07 Jun 2027 11:58:06.669             3.251           828.219
       226   07 Jun 2027 11:58:10.475   07 Jun 2027 11:58:16.267             5.792           118.937
       227   07 Jun 2027 11:58:24.321   07 Jun 2027 11:58:24.903             0.582           251.688
       228   07 Jun 2027 11:58:33.136   07 Jun 2027 11:58:33.782             0.646            48.750
       229   07 Jun 2027 11:59:45.656   07 Jun 2027 11:59:49.385             3.729          1864.500
       230   07 Jun 2027 11:59:51.791   07 Jun 2027 11:59:55.857             4.066           381.563
       231   08 Jun 2027 04:19:58.279   08 Jun 2027 04:21:46.334           108.055         54027.500
       232   08 Jun 2027 05:42:52.192   08 Jun 2027 05:44:18.262            86.070         43035.000
       233   08 Jun 2027 07:19:32.442   08 Jun 2027 07:21:28.356           115.914         57957.000
       234   08 Jun 2027 07:21:57.797   08 Jun 2027 07:22:17.300            19.503          9603.031
       235   08 Jun 2027 08:54:31.454   08 Jun 2027 08:54:47.347            15.893          7250.437
       236   08 Jun 2027 08:55:16.572   08 Jun 2027 08:55:25.161             8.589           441.750
       237   08 Jun 2027 08:55:45.358   08 Jun 2027 08:55:47.057             1.699           563.344
       238   08 Jun 2027 08:56:18.358   08 Jun 2027 08:56:26.524             8.166           932.188
       239   08 Jun 2027 08:56:47.401   08 Jun 2027 08:56:49.693             2.292           606.781
       240   08 Jun 2027 08:57:48.304   08 Jun 2027 08:57:49.132             0.828           414.000
       241   08 Jun 2027 08:58:01.403   08 Jun 2027 08:58:05.247             3.844          1504.563
       242   08 Jun 2027 09:00:04.698   08 Jun 2027 09:00:09.213             4.515          2257.500
       243   08 Jun 2027 09:00:25.629   08 Jun 2027 09:00:29.673             4.044          1957.125
       244   08 Jun 2027 09:00:43.045   08 Jun 2027 09:00:46.544             3.499           380.094
       245   08 Jun 2027 09:01:16.996   08 Jun 2027 09:01:20.141             3.145           696.344
       246   08 Jun 2027 10:30:39.706   08 Jun 2027 10:30:52.338            12.632          6034.156
       247   08 Jun 2027 10:31:11.279   08 Jun 2027 10:31:16.138             4.859           591.906
       248   08 Jun 2027 10:31:51.514   08 Jun 2027 10:31:54.134             2.620          1105.500
       249   08 Jun 2027 10:32:52.997   08 Jun 2027 10:32:59.080             6.083          1839.469
       250   08 Jun 2027 10:33:17.708   08 Jun 2027 10:33:19.071             1.363           468.844
       251   08 Jun 2027 10:33:45.586   08 Jun 2027 10:33:51.123             5.537           669.437
       252   08 Jun 2027 10:34:42.474   08 Jun 2027 10:34:43.898             1.424           712.000
       253   08 Jun 2027 10:35:09.674   08 Jun 2027 10:35:13.700             4.026          1045.688
       254   08 Jun 2027 10:36:32.943   08 Jun 2027 10:36:38.576             5.633          2420.719
       255   08 Jun 2027 10:37:07.931   08 Jun 2027 10:37:10.237             2.306           917.344
       256   09 Jun 2027 04:31:44.388   09 Jun 2027 04:32:15.957            31.569         15784.500
       257   09 Jun 2027 04:32:33.970   09 Jun 2027 04:33:56.999            83.029         41514.500
       258   09 Jun 2027 04:34:45.477   09 Jun 2027 04:34:48.523             3.046          1523.000
       259   09 Jun 2027 04:35:02.726   09 Jun 2027 04:35:03.680             0.954           477.000
       260   09 Jun 2027 04:35:20.973   09 Jun 2027 04:35:35.660            14.687          7343.500
       261   09 Jun 2027 05:55:06.765   09 Jun 2027 05:56:15.585            68.820         34410.000
       262   09 Jun 2027 05:56:35.130   09 Jun 2027 05:56:40.845             5.715          2857.500
       263   09 Jun 2027 07:31:38.723   09 Jun 2027 07:33:22.326           103.603         51801.500
       264   09 Jun 2027 07:34:01.204   09 Jun 2027 07:34:06.585             5.381          2690.500
       265   09 Jun 2027 07:34:38.369   09 Jun 2027 07:34:48.793            10.424          5082.219
       266   09 Jun 2027 09:06:49.123   09 Jun 2027 09:07:05.997            16.874          6331.500
       267   09 Jun 2027 09:08:12.457   09 Jun 2027 09:08:16.421             3.964          1982.000
       268   09 Jun 2027 09:08:19.690   09 Jun 2027 09:08:21.261             1.571           197.031
       269   09 Jun 2027 09:08:22.254   09 Jun 2027 09:08:23.704             1.450            31.031
       270   09 Jun 2027 09:09:46.321   09 Jun 2027 09:09:46.321             0.000             0.000
       271   09 Jun 2027 09:10:03.749   09 Jun 2027 09:10:08.056             4.307          1662.500
       272   09 Jun 2027 09:10:44.651   09 Jun 2027 09:10:44.651             0.000             0.000
       273   09 Jun 2027 09:12:04.855   09 Jun 2027 09:12:14.584             9.729          3649.969
       274   09 Jun 2027 09:13:22.850   09 Jun 2027 09:13:25.406             2.556          1278.000
       275   09 Jun 2027 10:43:12.057   09 Jun 2027 10:43:28.091            16.034          6622.844
       276   09 Jun 2027 10:44:21.222   09 Jun 2027 10:44:31.663            10.441          1400.781
       277   09 Jun 2027 10:45:05.901   09 Jun 2027 10:45:09.564             3.663           444.063
       278   09 Jun 2027 10:45:24.109   09 Jun 2027 10:45:24.842             0.733            73.656
       279   09 Jun 2027 10:45:44.264   09 Jun 2027 10:45:47.154             2.890           403.281
       280   09 Jun 2027 10:45:58.897   09 Jun 2027 10:46:00.534             1.637           308.719
       281   09 Jun 2027 10:46:31.260   09 Jun 2027 10:46:35.166             3.906           392.437
       282   09 Jun 2027 10:46:58.475   09 Jun 2027 10:47:02.329             3.854           712.781
       283   09 Jun 2027 10:47:25.958   09 Jun 2027 10:47:33.624             7.666           738.406
       284   09 Jun 2027 10:47:44.142   09 Jun 2027 10:47:47.526             3.384           328.688
       285   09 Jun 2027 10:48:27.206   09 Jun 2027 10:48:30.295             3.089          1232.687
       286   09 Jun 2027 10:48:43.443   09 Jun 2027 10:48:43.918             0.475           237.500
       287   09 Jun 2027 10:48:51.726   09 Jun 2027 10:48:52.567             0.841           364.406
       288   09 Jun 2027 10:48:58.778   09 Jun 2027 10:49:02.879             4.101            52.219
       289   10 Jun 2027 03:06:32.499   10 Jun 2027 03:07:28.134            55.635         27817.500
       290   10 Jun 2027 03:07:45.499   10 Jun 2027 03:07:52.983             7.484          3742.000
       291   10 Jun 2027 03:08:26.878   10 Jun 2027 03:08:43.397            16.519          8259.500
       292   10 Jun 2027 03:08:52.750   10 Jun 2027 03:08:59.156             6.406          3203.000
       293   10 Jun 2027 03:09:05.055   10 Jun 2027 03:09:05.618             0.563           281.500
       294   10 Jun 2027 03:10:28.913   10 Jun 2027 03:10:29.858             0.945           472.500
       295   10 Jun 2027 03:10:57.797   10 Jun 2027 03:11:00.732             2.935          1467.500
       296   10 Jun 2027 03:11:28.100   10 Jun 2027 03:11:34.276             6.176          3088.000
       297   10 Jun 2027 04:43:41.187   10 Jun 2027 04:44:20.258            39.071         19535.500
       298   10 Jun 2027 04:44:42.181   10 Jun 2027 04:44:56.361            14.180          7090.000
       299   10 Jun 2027 04:45:02.284   10 Jun 2027 04:45:13.943            11.659          5829.500
       300   10 Jun 2027 04:45:53.700   10 Jun 2027 04:46:00.281             6.581          3290.500
       301   10 Jun 2027 04:47:08.496   10 Jun 2027 04:47:14.058             5.562          2781.000
       302   10 Jun 2027 06:07:36.393   10 Jun 2027 06:08:33.912            57.519         28759.500
       303   10 Jun 2027 06:10:06.438   10 Jun 2027 06:10:06.438             0.000             0.000
       304   10 Jun 2027 07:43:31.277   10 Jun 2027 07:45:10.516            99.239         49619.500
       305   10 Jun 2027 07:45:22.675   10 Jun 2027 07:45:24.200             1.525           762.500
       306   10 Jun 2027 07:46:14.456   10 Jun 2027 07:46:14.456             0.000             0.000
       307   10 Jun 2027 07:47:17.612   10 Jun 2027 07:47:25.387             7.775          3887.500
       308   10 Jun 2027 07:47:31.951   10 Jun 2027 07:47:34.075             2.124           265.844
       309   10 Jun 2027 09:18:26.715   10 Jun 2027 09:18:36.564             9.849          4903.719
       310   10 Jun 2027 09:18:53.842   10 Jun 2027 09:18:53.905             0.063            31.500
       311   10 Jun 2027 09:20:20.604   10 Jun 2027 09:20:27.091             6.487          3125.500
       312   10 Jun 2027 09:21:07.680   10 Jun 2027 09:21:13.531             5.851           852.969
       313   10 Jun 2027 09:22:10.495   10 Jun 2027 09:22:13.427             2.932          1443.219
       314   10 Jun 2027 09:22:34.810   10 Jun 2027 09:22:36.100             1.290           411.000
       315   10 Jun 2027 09:25:05.196   10 Jun 2027 09:25:14.464             9.268          4293.594
       316   10 Jun 2027 10:54:46.532   10 Jun 2027 10:55:02.818            16.286          6485.375
       317   10 Jun 2027 10:56:53.789   10 Jun 2027 10:56:58.896             5.107          1830.344
       318   10 Jun 2027 10:57:01.391   10 Jun 2027 10:57:05.972             4.581            77.969
       319   10 Jun 2027 10:57:40.712   10 Jun 2027 10:57:42.468             1.756           763.656
       320   10 Jun 2027 10:59:04.411   10 Jun 2027 10:59:13.755             9.344          2456.313
       321   10 Jun 2027 11:00:05.113   10 Jun 2027 11:00:17.359            12.246          1578.031
       322   10 Jun 2027 11:01:04.234   10 Jun 2027 11:01:07.612             3.378          1464.844
       323   10 Jun 2027 11:01:09.806   10 Jun 2027 11:01:10.527             0.721            20.062
       324   11 Jun 2027 03:18:36.144   11 Jun 2027 03:20:06.708            90.564         45282.000
       325   11 Jun 2027 03:23:08.561   11 Jun 2027 03:23:11.469             2.908          1454.000
       326   11 Jun 2027 03:23:48.989   11 Jun 2027 03:24:07.727            18.738          9369.000
       327   11 Jun 2027 03:25:37.470   11 Jun 2027 03:25:44.509             7.039          3519.500
       328   11 Jun 2027 03:26:10.851   11 Jun 2027 03:26:13.484             2.633          1316.500
       329   11 Jun 2027 04:44:23.864   11 Jun 2027 04:44:35.559            11.695          5847.500
       330   11 Jun 2027 04:55:37.220   11 Jun 2027 04:56:21.782            44.562         22281.000
       331   11 Jun 2027 04:56:37.109   11 Jun 2027 04:56:58.888            21.779         10889.500
       332   11 Jun 2027 04:58:16.076   11 Jun 2027 04:58:32.024            15.948          7974.000
       333   11 Jun 2027 06:18:13.805   11 Jun 2027 06:19:11.907            58.102         29051.000
       334   11 Jun 2027 06:20:06.694   11 Jun 2027 06:20:17.127            10.433          5216.500
       335   11 Jun 2027 06:22:32.935   11 Jun 2027 06:22:32.935             0.000             0.000
       336   11 Jun 2027 07:53:48.923   11 Jun 2027 07:54:30.406            41.483         20741.500
       337   11 Jun 2027 07:55:15.907   11 Jun 2027 07:55:55.612            39.705         19852.500
       338   11 Jun 2027 07:56:18.927   11 Jun 2027 07:56:23.756             4.829          1180.126
       339   11 Jun 2027 07:58:08.008   11 Jun 2027 07:58:11.687             3.679          1839.500
       340   11 Jun 2027 07:59:26.854   11 Jun 2027 07:59:32.273             5.419          2709.500
       341   11 Jun 2027 07:59:38.739   11 Jun 2027 07:59:38.739             0.000             0.000
       342   11 Jun 2027 09:30:00.622   11 Jun 2027 09:30:12.311            11.689          5332.438
       343   11 Jun 2027 09:33:12.815   11 Jun 2027 09:33:23.607            10.792          5051.375
       344   11 Jun 2027 09:34:11.313   11 Jun 2027 09:34:14.985             3.672          1103.531
       345   11 Jun 2027 09:34:34.349   11 Jun 2027 09:34:38.984             4.635           125.969
       346   11 Jun 2027 09:35:19.235   11 Jun 2027 09:35:23.277             4.042          1024.531
       347   11 Jun 2027 09:35:37.201   11 Jun 2027 09:35:38.259             1.058           384.594
       348   11 Jun 2027 09:35:58.431   11 Jun 2027 09:35:59.248             0.817           408.500
       349   11 Jun 2027 09:36:59.471   11 Jun 2027 09:37:05.377             5.906          1950.688
       350   11 Jun 2027 11:07:06.846   11 Jun 2027 11:07:24.804            17.958          8373.313
       351   11 Jun 2027 11:09:27.429   11 Jun 2027 11:09:34.490             7.061          3530.500
       352   11 Jun 2027 11:10:07.553   11 Jun 2027 11:10:13.678             6.125          1203.406
       353   11 Jun 2027 11:10:27.589   11 Jun 2027 11:10:27.589             0.000             0.000
       354   11 Jun 2027 11:10:37.920   11 Jun 2027 11:10:41.169             3.249           757.562
       355   11 Jun 2027 11:10:49.565   11 Jun 2027 11:10:50.528             0.963           262.375
       356   11 Jun 2027 11:11:37.356   11 Jun 2027 11:11:43.427             6.071          1364.937
       357   11 Jun 2027 11:12:44.440   11 Jun 2027 11:12:49.373             4.933          1906.656
       358   11 Jun 2027 11:12:52.368   11 Jun 2027 11:12:52.634             0.266            78.031
       359   11 Jun 2027 11:13:07.556   11 Jun 2027 11:13:09.443             1.887           466.312
       360   11 Jun 2027 11:13:10.156   11 Jun 2027 11:13:10.676             0.520            22.281
       361   12 Jun 2027 03:31:05.548   12 Jun 2027 03:33:03.027           117.479         58739.500
       362   12 Jun 2027 03:35:11.446   12 Jun 2027 03:35:16.104             4.658          2329.000
       363   12 Jun 2027 03:36:33.223   12 Jun 2027 03:36:59.688            26.465         13232.500
       364   12 Jun 2027 03:37:52.305   12 Jun 2027 03:37:53.308             1.003           501.500
       365   12 Jun 2027 04:55:56.893   12 Jun 2027 04:56:31.628            34.735         17367.500
       366   12 Jun 2027 05:07:39.801   12 Jun 2027 05:08:32.620            52.819         26409.500
       367   12 Jun 2027 06:29:54.280   12 Jun 2027 06:31:02.990            68.710         34355.000
       368   12 Jun 2027 06:31:53.360   12 Jun 2027 06:32:08.930            15.570          7785.000
       369   12 Jun 2027 06:32:20.400   12 Jun 2027 06:32:20.400             0.000             0.000
       370   12 Jun 2027 06:32:38.829   12 Jun 2027 06:32:51.484            12.655          6327.500
       371   12 Jun 2027 08:04:55.552   12 Jun 2027 08:05:26.265            30.713         14694.188
       372   12 Jun 2027 08:06:26.922   12 Jun 2027 08:06:32.853             5.931          1881.844
       373   12 Jun 2027 08:10:07.672   12 Jun 2027 08:10:23.372            15.700          6657.063
       374   12 Jun 2027 08:10:37.216   12 Jun 2027 08:10:37.715             0.499           225.437
       375   12 Jun 2027 08:11:21.950   12 Jun 2027 08:11:24.664             2.714          1357.000
       376   12 Jun 2027 08:12:52.564   12 Jun 2027 08:13:02.555             9.991          2483.656
       377   12 Jun 2027 09:42:20.661   12 Jun 2027 09:42:28.842             8.181          4040.531
       378   12 Jun 2027 09:43:16.684   12 Jun 2027 09:43:17.517             0.833           416.500
       379   12 Jun 2027 09:43:22.652   12 Jun 2027 09:43:26.271             3.619           576.375
       380   12 Jun 2027 09:44:22.092   12 Jun 2027 09:44:28.306             6.214            46.625
       381   12 Jun 2027 09:45:31.569   12 Jun 2027 09:45:38.103             6.534           823.687
       382   12 Jun 2027 09:46:33.536   12 Jun 2027 09:46:37.256             3.720          1559.000
       383   12 Jun 2027 09:46:55.639   12 Jun 2027 09:46:58.624             2.985           574.469
       384   12 Jun 2027 09:47:42.055   12 Jun 2027 09:47:47.016             4.961          1252.469
       385   12 Jun 2027 09:47:53.076   12 Jun 2027 09:47:56.898             3.822           159.219
       386   12 Jun 2027 09:48:09.885   12 Jun 2027 09:48:11.520             1.635           295.313
       387   12 Jun 2027 09:48:38.096   12 Jun 2027 09:48:41.902             3.806           724.656
       388   12 Jun 2027 09:49:13.847   12 Jun 2027 09:49:16.361             2.514           785.000
       389   12 Jun 2027 09:49:33.479   12 Jun 2027 09:49:38.875             5.396           534.937
       390   12 Jun 2027 11:19:08.210   12 Jun 2027 11:19:32.360            24.150          9661.187
       391   12 Jun 2027 11:21:17.532   12 Jun 2027 11:21:22.192             4.660          1573.156
       392   12 Jun 2027 11:21:43.295   12 Jun 2027 11:21:50.122             6.827           659.469
       393   12 Jun 2027 11:22:28.684   12 Jun 2027 11:22:33.338             4.654          1107.094
       394   12 Jun 2027 11:22:36.487   12 Jun 2027 11:22:37.149             0.662            98.406
       395   12 Jun 2027 11:23:03.813   12 Jun 2027 11:23:06.194             2.381           714.531
       396   12 Jun 2027 11:23:30.220   12 Jun 2027 11:23:33.460             3.240           750.812
       397   12 Jun 2027 11:23:54.540   12 Jun 2027 11:23:57.113             2.573           658.750
       398   12 Jun 2027 11:24:29.035   12 Jun 2027 11:24:33.900             4.865           939.469
       399   12 Jun 2027 11:24:50.997   12 Jun 2027 11:24:52.599             1.602           382.625
       400   12 Jun 2027 11:25:16.775   12 Jun 2027 11:25:22.378             5.603           369.813
       401   13 Jun 2027 03:43:06.724   13 Jun 2027 03:45:06.826           120.102         60051.000
       402   13 Jun 2027 03:45:55.319   13 Jun 2027 03:45:58.719             3.400          1700.000
       403   13 Jun 2027 03:47:21.235   13 Jun 2027 03:47:36.413            15.178          7589.000
       404   13 Jun 2027 03:50:05.186   13 Jun 2027 03:50:10.812             5.626          2813.000
       405   13 Jun 2027 05:07:28.737   13 Jun 2027 05:08:18.763            50.026         25013.000
       406   13 Jun 2027 05:19:41.653   13 Jun 2027 05:20:12.241            30.588         15294.000
       407   13 Jun 2027 06:41:35.929   13 Jun 2027 06:42:49.789            73.860         36930.000
       408   13 Jun 2027 06:43:39.214   13 Jun 2027 06:44:10.583            31.369         15684.500
       409   13 Jun 2027 06:45:55.876   13 Jun 2027 06:45:55.876             0.000             0.000
       410   13 Jun 2027 06:46:06.206   13 Jun 2027 06:46:14.793             8.587          4293.500
       411   13 Jun 2027 06:47:05.465   13 Jun 2027 06:47:16.925            11.460          5730.000
       412   13 Jun 2027 08:16:24.356   13 Jun 2027 08:16:52.339            27.983         12837.125
       413   13 Jun 2027 08:19:14.730   13 Jun 2027 08:19:28.369            13.639          3721.687
       414   13 Jun 2027 08:22:02.034   13 Jun 2027 08:22:09.703             7.669          3834.500
       415   13 Jun 2027 08:22:14.586   13 Jun 2027 08:22:16.701             2.115          1047.969
       416   13 Jun 2027 08:23:09.313   13 Jun 2027 08:23:11.533             2.220           951.844
       417   13 Jun 2027 08:23:20.532   13 Jun 2027 08:23:20.532             0.000             0.000
       418   13 Jun 2027 08:24:18.676   13 Jun 2027 08:24:22.991             4.315          2098.219
       419   13 Jun 2027 08:25:07.002   13 Jun 2027 08:25:07.002             0.000             0.000
       420   13 Jun 2027 08:25:18.710   13 Jun 2027 08:25:21.879             3.169          1574.844
       421   13 Jun 2027 09:54:14.750   13 Jun 2027 09:54:28.770            14.020          5694.781
       422   13 Jun 2027 09:55:09.422   13 Jun 2027 09:55:11.321             1.899           924.000
       423   13 Jun 2027 09:55:25.509   13 Jun 2027 09:55:29.669             4.160           443.375
       424   13 Jun 2027 09:55:40.669   13 Jun 2027 09:55:41.607             0.938           316.656
       425   13 Jun 2027 09:55:55.333   13 Jun 2027 09:55:57.721             2.388            72.563
       426   13 Jun 2027 09:56:04.838   13 Jun 2027 09:56:05.809             0.971            68.594
       427   13 Jun 2027 09:57:13.854   13 Jun 2027 09:57:17.091             3.237          1618.500
       428   13 Jun 2027 09:58:16.047   13 Jun 2027 09:58:21.400             5.353          2163.469
       429   13 Jun 2027 09:58:34.597   13 Jun 2027 09:58:38.780             4.183           213.437
       430   13 Jun 2027 09:59:05.321   13 Jun 2027 09:59:09.791             4.470           412.094
       431   13 Jun 2027 09:59:13.310   13 Jun 2027 09:59:17.933             4.623            61.063
       432   13 Jun 2027 09:59:42.144   13 Jun 2027 09:59:50.993             8.849           756.594
       433   13 Jun 2027 09:59:54.598   13 Jun 2027 09:59:58.016             3.418            72.875
       434   13 Jun 2027 10:00:12.173   13 Jun 2027 10:00:15.442             3.269           442.406
       435   13 Jun 2027 10:01:02.811   13 Jun 2027 10:01:05.676             2.865          1076.750
       436   13 Jun 2027 10:01:24.508   13 Jun 2027 10:01:25.975             1.467           588.500
       437   13 Jun 2027 11:30:59.475   13 Jun 2027 11:31:14.325            14.850          7209.906
       438   13 Jun 2027 11:31:50.392   13 Jun 2027 11:31:55.525             5.133          1127.094
       439   13 Jun 2027 11:33:44.281   13 Jun 2027 11:33:50.531             6.250          2922.062
       440   13 Jun 2027 11:33:58.558   13 Jun 2027 11:34:00.526             1.968           149.156
       441   13 Jun 2027 11:34:45.250   13 Jun 2027 11:34:50.432             5.182          1142.438
       442   13 Jun 2027 11:35:15.576   13 Jun 2027 11:35:16.943             1.367           683.500
       443   13 Jun 2027 11:35:31.532   13 Jun 2027 11:35:33.430             1.898           558.156
       444   13 Jun 2027 11:36:38.295   13 Jun 2027 11:36:41.652             3.357          1678.500
       445   13 Jun 2027 11:36:44.060   13 Jun 2027 11:36:46.872             2.812           423.781
       446   13 Jun 2027 11:37:19.389   13 Jun 2027 11:37:22.131             2.742          1016.156
