uniorb/output/strategy_1/Camera/Camera_KinoSat_111609.txt

KinoSat_111609
-------------------------
    Access    *     Start Time (UTCG)     *     Stop Time (UTCG)  *   Duration (s) *   Data (Mbytes)
         1   01 Jun 2027 04:13:25.203   01 Jun 2027 04:15:24.580           119.377         59688.500
         2   01 Jun 2027 04:16:28.153   01 Jun 2027 04:16:51.538            23.385         11692.500
         3   01 Jun 2027 04:17:50.347   01 Jun 2027 04:18:11.548            21.201         10600.500
         4   01 Jun 2027 04:19:21.035   01 Jun 2027 04:19:21.934             0.899           449.500
         5   01 Jun 2027 04:20:15.365   01 Jun 2027 04:20:47.862            32.497         16248.500
         6   01 Jun 2027 05:38:34.825   01 Jun 2027 05:39:54.777            79.952         39976.000
         7   01 Jun 2027 05:50:09.822   01 Jun 2027 05:51:05.785            55.963         27981.500
         8   01 Jun 2027 07:12:45.495   01 Jun 2027 07:13:44.120            58.625         29312.500
         9   01 Jun 2027 07:14:22.776   01 Jun 2027 07:15:37.272            74.496         37248.000
        10   01 Jun 2027 08:47:54.502   01 Jun 2027 08:49:01.574            67.072         33536.000
        11   01 Jun 2027 08:49:37.276   01 Jun 2027 08:49:57.313            20.037         10018.500
        12   01 Jun 2027 08:52:32.787   01 Jun 2027 08:52:32.787             0.000             0.000
        13   01 Jun 2027 10:24:41.948   01 Jun 2027 10:26:33.636           111.688         55844.000
        14   01 Jun 2027 10:27:56.304   01 Jun 2027 10:27:56.304             0.000             0.000
        15   01 Jun 2027 10:31:18.119   01 Jun 2027 10:32:07.780            49.661         24830.500
        16   02 Jun 2027 04:25:41.227   02 Jun 2027 04:27:15.851            94.624         47312.000
        17   02 Jun 2027 04:28:22.187   02 Jun 2027 04:28:25.022             2.835          1417.500
        18   02 Jun 2027 04:29:27.196   02 Jun 2027 04:29:37.168             9.972          4986.000
        19   02 Jun 2027 04:30:48.574   02 Jun 2027 04:31:23.656            35.082         17541.000
        20   02 Jun 2027 04:32:29.389   02 Jun 2027 04:32:43.461            14.072          7036.000
        21   02 Jun 2027 05:49:53.924   02 Jun 2027 05:50:36.164            42.240         21120.000
        22   02 Jun 2027 05:51:44.286   02 Jun 2027 05:52:05.501            21.215         10607.500
        23   02 Jun 2027 06:02:07.575   02 Jun 2027 06:03:03.283            55.708         27854.000
        24   02 Jun 2027 07:24:21.282   02 Jun 2027 07:25:29.310            68.028         34014.000
        25   02 Jun 2027 07:26:17.809   02 Jun 2027 07:27:04.002            46.193         23096.500
        26   02 Jun 2027 08:59:14.529   02 Jun 2027 09:00:23.403            68.874         34437.000
        27   02 Jun 2027 09:01:36.985   02 Jun 2027 09:01:39.086             2.101          1050.500
        28   02 Jun 2027 10:36:49.370   02 Jun 2027 10:38:33.573           104.203         52101.500
        29   02 Jun 2027 10:42:58.831   02 Jun 2027 10:43:40.534            41.703         20851.500
        30   03 Jun 2027 03:01:02.149   03 Jun 2027 03:01:27.965            25.816         12908.000
        31   03 Jun 2027 03:02:14.920   03 Jun 2027 03:02:18.028             3.108          1554.000
        32   03 Jun 2027 03:02:48.224   03 Jun 2027 03:02:48.311             0.087            43.500
        33   03 Jun 2027 03:03:04.625   03 Jun 2027 03:03:10.109             5.484          2742.000
        34   03 Jun 2027 03:03:34.949   03 Jun 2027 03:03:34.949             0.000             0.000
        35   03 Jun 2027 03:03:40.814   03 Jun 2027 03:03:41.787             0.973           486.500
        36   03 Jun 2027 04:37:47.552   03 Jun 2027 04:39:20.396            92.844         46422.000
        37   03 Jun 2027 04:39:27.042   03 Jun 2027 04:39:38.653            11.611          5805.500
        38   03 Jun 2027 04:40:59.222   03 Jun 2027 04:41:26.219            26.997         13498.500
        39   03 Jun 2027 04:43:25.265   03 Jun 2027 04:43:26.138             0.873           436.500
        40   03 Jun 2027 04:43:34.104   03 Jun 2027 04:43:44.014             9.910          4955.000
        41   03 Jun 2027 06:01:59.860   03 Jun 2027 06:02:39.220            39.360         19680.000
        42   03 Jun 2027 06:03:42.374   03 Jun 2027 06:03:51.804             9.430          4715.000
        43   03 Jun 2027 06:14:30.918   03 Jun 2027 06:14:34.874             3.956          1978.000
        44   03 Jun 2027 07:35:50.259   03 Jun 2027 07:38:05.205           134.946         67473.000
        45   03 Jun 2027 07:40:29.149   03 Jun 2027 07:40:44.977            15.828          7914.000
        46   03 Jun 2027 09:10:44.830   03 Jun 2027 09:12:54.099           129.269         64634.500
        47   03 Jun 2027 09:14:42.546   03 Jun 2027 09:14:42.546             0.000             0.000
        48   03 Jun 2027 09:16:39.046   03 Jun 2027 09:17:21.966            42.920         21460.000
        49   03 Jun 2027 10:48:45.080   03 Jun 2027 10:49:07.270            22.190         11095.000
        50   03 Jun 2027 10:49:33.669   03 Jun 2027 10:50:16.005            42.336         20026.627
        51   03 Jun 2027 10:50:19.936   03 Jun 2027 10:50:21.913             1.977           122.844
        52   03 Jun 2027 10:51:43.397   03 Jun 2027 10:51:58.902            15.505          2471.250
        53   03 Jun 2027 10:52:27.476   03 Jun 2027 10:52:29.210             1.734           841.344
        54   03 Jun 2027 10:54:00.194   03 Jun 2027 10:54:06.000             5.806          2330.937
        55   04 Jun 2027 03:11:39.405   04 Jun 2027 03:11:49.082             9.677          4838.500
        56   04 Jun 2027 03:12:01.337   04 Jun 2027 03:13:02.439            61.102         30551.000
        57   04 Jun 2027 03:13:17.447   04 Jun 2027 03:13:26.521             9.074          4537.000
        58   04 Jun 2027 03:15:51.113   04 Jun 2027 03:16:00.856             9.743          4871.500
        59   04 Jun 2027 04:50:25.808   04 Jun 2027 04:51:29.100            63.292         31646.000
        60   04 Jun 2027 04:52:10.490   04 Jun 2027 04:52:13.791             3.301          1650.500
        61   04 Jun 2027 04:53:20.195   04 Jun 2027 04:53:46.025            25.830         12915.000
        62   04 Jun 2027 06:13:56.310   04 Jun 2027 06:14:26.959            30.649         15324.500
        63   04 Jun 2027 06:15:05.814   04 Jun 2027 06:15:32.603            26.789         13394.500
        64   04 Jun 2027 07:50:08.636   04 Jun 2027 07:52:05.914           117.278         58189.437
        65   04 Jun 2027 09:23:41.582   04 Jun 2027 09:24:01.754            20.172          6938.406
        66   04 Jun 2027 09:25:25.969   04 Jun 2027 09:25:29.325             3.356           972.188
        67   04 Jun 2027 09:26:44.899   04 Jun 2027 09:26:44.899             0.000             0.000
        68   04 Jun 2027 09:27:23.246   04 Jun 2027 09:27:34.007            10.761          3357.312
        69   04 Jun 2027 09:28:20.561   04 Jun 2027 09:28:22.914             2.353           168.344
        70   04 Jun 2027 09:29:36.316   04 Jun 2027 09:29:42.697             6.381          1811.219
        71   04 Jun 2027 09:30:12.696   04 Jun 2027 09:30:16.994             4.298           726.625
        72   04 Jun 2027 09:30:49.426   04 Jun 2027 09:30:53.200             3.774           591.344
        73   04 Jun 2027 09:31:52.704   04 Jun 2027 09:32:00.319             7.615          1839.500
        74   04 Jun 2027 09:32:07.268   04 Jun 2027 09:32:07.699             0.431           138.094
        75   04 Jun 2027 09:32:13.513   04 Jun 2027 09:32:14.129             0.616            49.375
        76   04 Jun 2027 11:01:07.433   04 Jun 2027 11:01:25.405            17.972          7931.813
        77   04 Jun 2027 11:01:38.378   04 Jun 2027 11:01:42.529             4.151           335.813
        78   04 Jun 2027 11:03:22.956   04 Jun 2027 11:03:24.706             1.750           875.000
        79   04 Jun 2027 11:05:22.129   04 Jun 2027 11:05:22.129             0.000             0.000
        80   04 Jun 2027 11:05:33.029   04 Jun 2027 11:05:40.875             7.846          3923.000
        81   04 Jun 2027 11:06:11.656   04 Jun 2027 11:06:17.598             5.942          2611.406
        82   04 Jun 2027 11:07:18.568   04 Jun 2027 11:07:22.704             4.136          1905.313
        83   04 Jun 2027 11:07:41.721   04 Jun 2027 11:07:43.700             1.979           594.281
        84   05 Jun 2027 03:24:06.982   05 Jun 2027 03:24:35.265            28.283         14141.500
        85   05 Jun 2027 03:24:39.880   05 Jun 2027 03:25:43.032            63.152         31576.000
        86   05 Jun 2027 03:25:56.586   05 Jun 2027 03:25:56.699             0.113            56.500
        87   05 Jun 2027 03:28:07.969   05 Jun 2027 03:28:25.221            17.252          8626.000
        88   05 Jun 2027 03:29:10.935   05 Jun 2027 03:29:11.819             0.884           442.000
        89   05 Jun 2027 05:02:07.533   05 Jun 2027 05:03:39.910            92.377         46188.500
        90   05 Jun 2027 05:03:58.781   05 Jun 2027 05:04:09.144            10.363          5181.500
        91   05 Jun 2027 05:05:09.229   05 Jun 2027 05:05:15.711             6.482          3241.000
        92   05 Jun 2027 05:06:24.877   05 Jun 2027 05:06:30.592             5.715          2857.500
        93   05 Jun 2027 06:25:47.775   05 Jun 2027 06:27:07.031            79.256         39628.000
        94   05 Jun 2027 08:02:14.962   05 Jun 2027 08:03:19.035            64.073         30348.812
        95   05 Jun 2027 08:03:55.521   05 Jun 2027 08:04:02.744             7.223           809.406
        96   05 Jun 2027 08:04:49.759   05 Jun 2027 08:04:55.484             5.725          1469.219
        97   05 Jun 2027 09:34:26.149   05 Jun 2027 09:34:32.465             6.316          3158.000
        98   05 Jun 2027 09:36:55.158   05 Jun 2027 09:37:12.311            17.153          3745.281
        99   05 Jun 2027 09:39:14.606   05 Jun 2027 09:39:20.925             6.319          2326.969
       100   05 Jun 2027 09:39:54.378   05 Jun 2027 09:39:57.271             2.893           974.750
       101   05 Jun 2027 09:42:38.579   05 Jun 2027 09:42:49.392            10.813          4713.500
       102   05 Jun 2027 09:43:18.045   05 Jun 2027 09:43:20.274             2.229           542.813
       103   05 Jun 2027 09:43:33.215   05 Jun 2027 09:43:38.531             5.316           404.406
       104   05 Jun 2027 09:43:51.226   05 Jun 2027 09:43:51.226             0.000             0.000
       105   05 Jun 2027 09:43:54.455   05 Jun 2027 09:43:59.341             4.886           308.719
       106   05 Jun 2027 09:44:00.970   05 Jun 2027 09:44:02.650             1.680            50.906
       107   05 Jun 2027 09:44:11.189   05 Jun 2027 09:44:13.829             2.640           266.844
       108   05 Jun 2027 11:13:18.380   05 Jun 2027 11:13:32.225            13.845          5833.656
       109   05 Jun 2027 11:15:04.097   05 Jun 2027 11:15:08.944             4.847          1873.500
       110   05 Jun 2027 11:16:05.493   05 Jun 2027 11:16:08.605             3.112          1269.656
       111   05 Jun 2027 11:17:06.733   05 Jun 2027 11:17:10.828             4.095          1557.406
       112   05 Jun 2027 11:17:35.927   05 Jun 2027 11:17:36.990             1.063           484.562
       113   05 Jun 2027 11:17:44.397   05 Jun 2027 11:17:44.397             0.000             0.000
       114   05 Jun 2027 11:17:55.064   05 Jun 2027 11:17:56.357             1.293           435.781
       115   05 Jun 2027 11:18:26.423   05 Jun 2027 11:18:31.227             4.804           764.188
       116   05 Jun 2027 11:19:27.751   05 Jun 2027 11:19:35.356             7.605          1766.375
       117   05 Jun 2027 11:19:53.870   05 Jun 2027 11:19:54.238             0.368           184.000
       118   06 Jun 2027 03:36:13.047   06 Jun 2027 03:37:16.521            63.474         31737.000
       119   06 Jun 2027 03:37:23.656   06 Jun 2027 03:38:03.770            40.114         20057.000
       120   06 Jun 2027 03:38:25.339   06 Jun 2027 03:38:47.357            22.018         11009.000
       121   06 Jun 2027 03:39:52.073   06 Jun 2027 03:40:11.397            19.324          9662.000
       122   06 Jun 2027 05:15:21.242   06 Jun 2027 05:16:44.871            83.629         41814.500
       123   06 Jun 2027 05:17:50.147   06 Jun 2027 05:18:07.579            17.432          8716.000
       124   06 Jun 2027 06:37:54.210   06 Jun 2027 06:38:57.067            62.857         31428.500
       125   06 Jun 2027 06:39:21.045   06 Jun 2027 06:39:42.871            21.826         10913.000
       126   06 Jun 2027 08:14:22.798   06 Jun 2027 08:14:44.462            21.664         10832.000
       127   06 Jun 2027 08:15:25.043   06 Jun 2027 08:15:29.488             4.445          1696.375
       128   06 Jun 2027 08:17:03.354   06 Jun 2027 08:17:09.400             6.046          2933.312
       129   06 Jun 2027 09:49:31.398   06 Jun 2027 09:49:39.930             8.532          4158.500
       130   06 Jun 2027 09:50:06.114   06 Jun 2027 09:50:09.851             3.737           803.906
       131   06 Jun 2027 09:50:45.404   06 Jun 2027 09:50:48.746             3.342           171.406
       132   06 Jun 2027 09:53:03.933   06 Jun 2027 09:53:14.116            10.183          4224.594
       133   06 Jun 2027 09:53:16.795   06 Jun 2027 09:53:17.636             0.841            59.344
       134   06 Jun 2027 09:53:49.764   06 Jun 2027 09:53:51.511             1.747           794.187
       135   06 Jun 2027 09:54:06.665   06 Jun 2027 09:54:07.588             0.923           420.500
       136   06 Jun 2027 09:54:15.142   06 Jun 2027 09:54:15.949             0.807           147.687
       137   06 Jun 2027 09:54:30.322   06 Jun 2027 09:54:31.799             1.477            63.281
       138   06 Jun 2027 09:55:34.808   06 Jun 2027 09:55:39.036             4.228          1707.563
       139   06 Jun 2027 09:55:41.838   06 Jun 2027 09:55:43.175             1.337            84.094
       140   06 Jun 2027 09:55:57.848   06 Jun 2027 09:55:59.284             1.436           458.531
       141   06 Jun 2027 09:56:05.609   06 Jun 2027 09:56:08.180             2.571           116.125
       142   06 Jun 2027 11:25:52.640   06 Jun 2027 11:26:04.995            12.355          5636.469
       143   06 Jun 2027 11:26:24.398   06 Jun 2027 11:26:27.769             3.371           363.906
       144   06 Jun 2027 11:27:30.362   06 Jun 2027 11:27:33.728             3.366          1669.500
       145   06 Jun 2027 11:28:01.353   06 Jun 2027 11:28:04.984             3.631           759.750
       146   06 Jun 2027 11:29:22.537   06 Jun 2027 11:29:30.843             8.306          2382.219
       147   06 Jun 2027 11:29:52.910   06 Jun 2027 11:29:55.434             2.524           397.437
       148   06 Jun 2027 11:30:12.591   06 Jun 2027 11:30:15.147             2.556           463.125
       149   06 Jun 2027 11:31:12.987   06 Jun 2027 11:31:21.718             8.731          1622.031
       150   06 Jun 2027 11:31:26.362   06 Jun 2027 11:31:28.082             1.720           144.219
       151   06 Jun 2027 11:31:45.880   06 Jun 2027 11:31:49.017             3.137           556.187
       152   07 Jun 2027 03:48:16.828   07 Jun 2027 03:48:58.053            41.225         20612.500
       153   07 Jun 2027 03:49:20.982   07 Jun 2027 03:50:36.114            75.132         37566.000
       154   07 Jun 2027 03:51:57.391   07 Jun 2027 03:52:02.123             4.732          2366.000
       155   07 Jun 2027 03:53:43.047   07 Jun 2027 03:53:53.313            10.266          5133.000
       156   07 Jun 2027 05:26:29.486   07 Jun 2027 05:27:06.683            37.197         18598.500
       157   07 Jun 2027 05:27:24.498   07 Jun 2027 05:28:01.666            37.168         18584.000
       158   07 Jun 2027 05:28:06.871   07 Jun 2027 05:28:14.817             7.946          3973.000
       159   07 Jun 2027 05:28:46.568   07 Jun 2027 05:28:48.415             1.847           923.500
       160   07 Jun 2027 06:49:56.996   07 Jun 2027 06:51:29.191            92.195         46097.500
       161   07 Jun 2027 08:26:25.600   07 Jun 2027 08:26:53.682            28.082         13748.187
       162   07 Jun 2027 08:29:00.952   07 Jun 2027 08:29:09.209             8.257          3372.562
       163   07 Jun 2027 10:01:37.989   07 Jun 2027 10:01:47.177             9.188          3589.188
       164   07 Jun 2027 10:02:50.133   07 Jun 2027 10:02:54.698             4.565          1967.375
       165   07 Jun 2027 10:03:04.708   07 Jun 2027 10:03:06.642             1.934           263.500
       166   07 Jun 2027 10:03:51.438   07 Jun 2027 10:03:54.166             2.728          1255.063
       167   07 Jun 2027 10:05:10.113   07 Jun 2027 10:05:13.891             3.778          1780.000
       168   07 Jun 2027 10:05:29.198   07 Jun 2027 10:05:31.536             2.338           140.687
       169   07 Jun 2027 10:05:53.534   07 Jun 2027 10:05:54.986             1.452           648.125
       170   07 Jun 2027 10:06:04.498   07 Jun 2027 10:06:09.518             5.020           297.250
       171   07 Jun 2027 10:06:23.819   07 Jun 2027 10:06:26.569             2.750           446.906
       172   07 Jun 2027 10:07:05.597   07 Jun 2027 10:07:09.279             3.682          1219.625
       173   07 Jun 2027 10:07:33.593   07 Jun 2027 10:07:35.250             1.657           295.281
       174   07 Jun 2027 10:07:54.001   07 Jun 2027 10:07:55.299             1.298           585.969
       175   07 Jun 2027 10:08:13.604   07 Jun 2027 10:08:13.840             0.236           118.000
       176   07 Jun 2027 11:37:32.809   07 Jun 2027 11:37:47.518            14.709          6965.562
       177   07 Jun 2027 11:38:00.567   07 Jun 2027 11:38:06.728             6.161           124.125
       178   07 Jun 2027 11:40:10.271   07 Jun 2027 11:40:18.776             8.505          3437.375
       179   07 Jun 2027 11:40:57.213   07 Jun 2027 11:40:59.771             2.558           890.187
       180   07 Jun 2027 11:41:13.768   07 Jun 2027 11:41:14.130             0.362           181.000
       181   07 Jun 2027 11:41:52.088   07 Jun 2027 11:41:58.090             6.002          1431.000
       182   07 Jun 2027 11:42:46.415   07 Jun 2027 11:42:51.022             4.607          1510.156
       183   07 Jun 2027 11:43:28.386   07 Jun 2027 11:43:31.035             2.649          1167.625
       184   08 Jun 2027 04:01:21.529   08 Jun 2027 04:03:08.808           107.279         53639.500
       185   08 Jun 2027 04:03:17.339   08 Jun 2027 04:03:21.049             3.710          1855.000
       186   08 Jun 2027 04:03:23.938   08 Jun 2027 04:03:25.418             1.480           740.000
       187   08 Jun 2027 04:06:15.469   08 Jun 2027 04:06:16.264             0.795           397.500
       188   08 Jun 2027 04:08:17.359   08 Jun 2027 04:08:59.270            41.911         20955.500
       189   08 Jun 2027 05:27:33.488   08 Jun 2027 05:27:56.726            23.238         11619.000
       190   08 Jun 2027 05:38:26.015   08 Jun 2027 05:39:44.032            78.017         39008.500
       191   08 Jun 2027 05:40:35.078   08 Jun 2027 05:40:40.657             5.579          2789.500
       192   08 Jun 2027 07:02:23.868   08 Jun 2027 07:04:07.128           103.260         51573.000
       193   08 Jun 2027 07:04:16.286   08 Jun 2027 07:04:19.193             2.907           221.250
       194   08 Jun 2027 08:38:09.039   08 Jun 2027 08:38:24.533            15.494          7716.000
       195   08 Jun 2027 08:40:46.028   08 Jun 2027 08:40:54.844             8.816          4391.531
       196   08 Jun 2027 08:42:19.099   08 Jun 2027 08:42:24.818             5.719          2632.969
       197   08 Jun 2027 10:12:52.348   08 Jun 2027 10:13:03.362            11.014          4191.500
       198   08 Jun 2027 10:14:51.096   08 Jun 2027 10:14:57.013             5.917          2521.781
       199   08 Jun 2027 10:18:41.793   08 Jun 2027 10:18:41.793             0.000             0.000
       200   08 Jun 2027 10:19:47.829   08 Jun 2027 10:20:08.395            20.566          7701.844
       201   08 Jun 2027 11:49:39.742   08 Jun 2027 11:49:54.275            14.533          7266.500
       202   08 Jun 2027 11:50:29.197   08 Jun 2027 11:50:37.593             8.396          1487.813
       203   08 Jun 2027 11:51:13.916   08 Jun 2027 11:51:16.568             2.652           867.906
       204   08 Jun 2027 11:53:44.163   08 Jun 2027 11:53:54.974            10.811          4220.000
       205   08 Jun 2027 11:54:11.829   08 Jun 2027 11:54:12.727             0.898           449.000
       206   08 Jun 2027 11:54:48.069   08 Jun 2027 11:54:49.067             0.998           499.000
       207   08 Jun 2027 11:55:43.232   08 Jun 2027 11:55:48.907             5.675          2375.813
       208   09 Jun 2027 04:13:43.010   09 Jun 2027 04:14:59.963            76.953         38476.500
       209   09 Jun 2027 04:15:28.061   09 Jun 2027 04:15:34.124             6.063          3031.500
       210   09 Jun 2027 04:17:42.599   09 Jun 2027 04:17:44.426             1.827           913.500
       211   09 Jun 2027 04:18:06.615   09 Jun 2027 04:18:27.277            20.662         10331.000
       212   09 Jun 2027 04:19:32.347   09 Jun 2027 04:19:38.002             5.655          2827.500
       213   09 Jun 2027 04:19:52.538   09 Jun 2027 04:19:52.538             0.000             0.000
       214   09 Jun 2027 04:20:33.245   09 Jun 2027 04:20:59.736            26.491         13245.500
       215   09 Jun 2027 05:38:48.135   09 Jun 2027 05:39:46.913            58.778         29389.000
       216   09 Jun 2027 05:50:26.938   09 Jun 2027 05:51:15.787            48.849         24424.500
       217   09 Jun 2027 07:13:00.085   09 Jun 2027 07:14:00.161            60.076         30038.000
       218   09 Jun 2027 07:14:40.121   09 Jun 2027 07:15:20.157            40.036         20018.000
       219   09 Jun 2027 07:17:18.894   09 Jun 2027 07:17:18.894             0.000             0.000
       220   09 Jun 2027 08:48:03.753   09 Jun 2027 08:48:19.851            16.098          7706.843
       221   09 Jun 2027 08:49:08.894   09 Jun 2027 08:49:15.908             7.014          1293.875
       222   09 Jun 2027 08:49:53.360   09 Jun 2027 08:49:55.733             2.373           761.125
       223   09 Jun 2027 08:52:45.759   09 Jun 2027 08:52:55.791            10.032          4775.875
       224   09 Jun 2027 08:53:04.460   09 Jun 2027 08:53:05.040             0.580           270.906
       225   09 Jun 2027 08:53:40.974   09 Jun 2027 08:53:43.887             2.913          1019.969
       226   09 Jun 2027 08:54:07.827   09 Jun 2027 08:54:09.761             1.934           420.656
       227   09 Jun 2027 08:54:43.440   09 Jun 2027 08:54:44.935             1.495           747.500
       228   09 Jun 2027 10:25:00.548   09 Jun 2027 10:25:13.527            12.979          4732.125
       229   09 Jun 2027 10:25:39.469   09 Jun 2027 10:25:40.150             0.681           228.125
       230   09 Jun 2027 10:25:52.630   09 Jun 2027 10:25:57.459             4.829           287.781
       231   09 Jun 2027 10:26:08.742   09 Jun 2027 10:26:12.748             4.006           293.813
       232   09 Jun 2027 10:26:36.552   09 Jun 2027 10:26:38.830             2.278           607.062
       233   09 Jun 2027 10:28:25.139   09 Jun 2027 10:28:25.139             0.000             0.000
       234   09 Jun 2027 10:30:40.492   09 Jun 2027 10:30:55.108            14.616          7154.250
       235   09 Jun 2027 10:31:37.269   09 Jun 2027 10:31:41.448             4.179          1122.906
       236   09 Jun 2027 10:32:02.004   09 Jun 2027 10:32:03.832             1.828           642.375
       237   10 Jun 2027 04:25:59.807   10 Jun 2027 04:27:53.817           114.010         57005.000
       238   10 Jun 2027 04:30:38.051   10 Jun 2027 04:31:01.982            23.931         11965.500
       239   10 Jun 2027 04:31:03.179   10 Jun 2027 04:31:10.048             6.869          3434.500
       240   10 Jun 2027 04:32:47.139   10 Jun 2027 04:33:00.183            13.044          6522.000
       241   10 Jun 2027 05:50:09.213   10 Jun 2027 05:51:19.553            70.340         35170.000
       242   10 Jun 2027 05:51:27.694   10 Jun 2027 05:51:27.694             0.000             0.000
       243   10 Jun 2027 06:02:24.272   10 Jun 2027 06:02:46.282            22.010         11005.000
       244   10 Jun 2027 07:24:30.013   10 Jun 2027 07:25:46.886            76.873         38436.500
       245   10 Jun 2027 07:26:33.639   10 Jun 2027 07:27:00.842            27.203         13212.875
       246   10 Jun 2027 07:29:19.956   10 Jun 2027 07:29:19.956             0.000             0.000
       247   10 Jun 2027 08:59:28.516   10 Jun 2027 08:59:45.440            16.924          7391.906
       248   10 Jun 2027 09:00:49.247   10 Jun 2027 09:00:53.978             4.731          1419.719
       249   10 Jun 2027 09:02:39.579   10 Jun 2027 09:02:48.865             9.286          2785.344
       250   10 Jun 2027 09:04:56.261   10 Jun 2027 09:05:04.399             8.138          3692.062
       251   10 Jun 2027 10:37:04.916   10 Jun 2027 10:37:21.625            16.709          5438.625
       252   10 Jun 2027 10:38:02.318   10 Jun 2027 10:38:04.297             1.979           433.219
       253   10 Jun 2027 10:40:10.122   10 Jun 2027 10:40:17.869             7.747          2459.063
       254   10 Jun 2027 10:40:44.691   10 Jun 2027 10:40:47.054             2.363           838.187
       255   10 Jun 2027 10:42:38.265   10 Jun 2027 10:42:43.961             5.696          2848.000
       256   10 Jun 2027 10:43:30.087   10 Jun 2027 10:43:36.382             6.295          2068.781
       257   10 Jun 2027 10:43:58.793   10 Jun 2027 10:44:01.738             2.945           700.344
       258   11 Jun 2027 03:00:00.000   11 Jun 2027 03:00:13.438            13.438          6719.000
       259   11 Jun 2027 03:00:29.545   11 Jun 2027 03:00:33.446             3.901          1950.500
       260   11 Jun 2027 03:01:16.979   11 Jun 2027 03:01:30.104            13.125          6562.500
       261   11 Jun 2027 03:01:48.480   11 Jun 2027 03:01:48.480             0.000             0.000
       262   11 Jun 2027 03:01:55.098   11 Jun 2027 03:01:57.279             2.181          1090.500
       263   11 Jun 2027 03:03:49.076   11 Jun 2027 03:03:51.614             2.538          1269.000
       264   11 Jun 2027 03:03:56.572   11 Jun 2027 03:03:58.977             2.405          1202.500
       265   11 Jun 2027 03:04:44.627   11 Jun 2027 03:04:49.098             4.471          2235.500
       266   11 Jun 2027 04:38:07.039   11 Jun 2027 04:39:55.701           108.662         54331.000
       267   11 Jun 2027 04:40:24.072   11 Jun 2027 04:40:24.899             0.827           413.500
       268   11 Jun 2027 04:41:01.303   11 Jun 2027 04:41:11.098             9.795          4897.500
       269   11 Jun 2027 04:41:41.193   11 Jun 2027 04:41:44.456             3.263          1631.500
       270   11 Jun 2027 04:41:46.961   11 Jun 2027 04:42:00.696            13.735          6867.500
       271   11 Jun 2027 04:42:27.333   11 Jun 2027 04:42:29.033             1.700           850.000
       272   11 Jun 2027 06:02:16.220   11 Jun 2027 06:03:21.072            64.852         32426.000
       273   11 Jun 2027 06:03:28.592   11 Jun 2027 06:03:58.097            29.505         14752.500
       274   11 Jun 2027 07:36:05.967   11 Jun 2027 07:37:34.572            88.605         44302.500
       275   11 Jun 2027 07:38:00.438   11 Jun 2027 07:38:08.434             7.996          3998.000
       276   11 Jun 2027 07:40:28.664   11 Jun 2027 07:40:28.664             0.000             0.000
       277   11 Jun 2027 07:41:02.345   11 Jun 2027 07:41:02.345             0.000             0.000
       278   11 Jun 2027 07:41:23.897   11 Jun 2027 07:41:31.224             7.327          3663.500
       279   11 Jun 2027 09:10:58.844   11 Jun 2027 09:11:13.207            14.363          6781.500
       280   11 Jun 2027 09:14:36.004   11 Jun 2027 09:14:36.004             0.000             0.000
       281   11 Jun 2027 09:14:41.543   11 Jun 2027 09:14:55.870            14.327          5454.469
       282   11 Jun 2027 09:16:56.171   11 Jun 2027 09:17:04.929             8.758          3608.906
       283   11 Jun 2027 09:17:38.894   11 Jun 2027 09:17:42.521             3.627           880.531
       284   11 Jun 2027 09:18:41.002   11 Jun 2027 09:18:45.421             4.419          1827.531
       285   11 Jun 2027 09:19:39.210   11 Jun 2027 09:19:42.671             3.461          1325.688
       286   11 Jun 2027 09:19:52.635   11 Jun 2027 09:19:54.970             2.335            56.156
       287   11 Jun 2027 10:49:03.484   11 Jun 2027 10:49:23.241            19.757          7024.969
       288   11 Jun 2027 10:51:57.669   11 Jun 2027 10:51:57.669             0.000             0.000
       289   11 Jun 2027 10:53:12.750   11 Jun 2027 10:53:30.055            17.305          6981.719
       290   11 Jun 2027 10:54:00.350   11 Jun 2027 10:54:03.012             2.662           872.688
       291   11 Jun 2027 10:54:33.621   11 Jun 2027 10:54:34.924             1.303           651.500
       292   11 Jun 2027 10:54:43.673   11 Jun 2027 10:54:44.851             1.178           524.344
       293   11 Jun 2027 10:55:04.276   11 Jun 2027 10:55:07.250             2.974           582.625
       294   11 Jun 2027 10:55:26.899   11 Jun 2027 10:55:27.333             0.434           206.406
       295   11 Jun 2027 10:55:37.785   11 Jun 2027 10:55:39.757             1.972           181.062
       296   11 Jun 2027 10:55:49.664   11 Jun 2027 10:55:51.426             1.762           240.219
       297   12 Jun 2027 03:11:57.011   12 Jun 2027 03:12:04.182             7.171          3585.500
       298   12 Jun 2027 03:12:28.544   12 Jun 2027 03:13:19.601            51.057         25528.500
       299   12 Jun 2027 03:13:24.457   12 Jun 2027 03:13:50.798            26.341         13170.500
       300   12 Jun 2027 03:14:24.602   12 Jun 2027 03:14:29.284             4.682          2341.000
       301   12 Jun 2027 03:14:59.408   12 Jun 2027 03:15:08.748             9.340          4670.000
       302   12 Jun 2027 03:15:18.722   12 Jun 2027 03:15:25.989             7.267          3633.500
       303   12 Jun 2027 03:17:21.200   12 Jun 2027 03:17:32.366            11.166          5583.000
       304   12 Jun 2027 04:50:43.506   12 Jun 2027 04:51:44.288            60.782         30391.000
       305   12 Jun 2027 04:52:28.554   12 Jun 2027 04:52:53.819            25.265         12632.500
       306   12 Jun 2027 04:53:47.948   12 Jun 2027 04:53:52.464             4.516          2258.000
       307   12 Jun 2027 06:14:14.046   12 Jun 2027 06:14:58.966            44.920         22460.000
       308   12 Jun 2027 06:15:48.875   12 Jun 2027 06:16:21.733            32.858         16429.000
       309   12 Jun 2027 07:50:14.611   12 Jun 2027 07:51:25.946            71.335         35521.875
       310   12 Jun 2027 07:53:21.109   12 Jun 2027 07:53:21.109             0.000             0.000
       311   12 Jun 2027 09:23:58.380   12 Jun 2027 09:24:11.161            12.781          5917.125
       312   12 Jun 2027 09:25:44.480   12 Jun 2027 09:25:48.213             3.733          1004.719
       313   12 Jun 2027 09:27:03.017   12 Jun 2027 09:27:14.075            11.058          2337.625
       314   12 Jun 2027 09:30:25.866   12 Jun 2027 09:30:37.945            12.079          5911.656
       315   12 Jun 2027 09:31:05.157   12 Jun 2027 09:31:07.419             2.262           586.406
       316   12 Jun 2027 09:32:10.203   12 Jun 2027 09:32:15.734             5.531          1912.156
       317   12 Jun 2027 11:01:25.999   12 Jun 2027 11:01:42.030            16.031          5774.063
       318   12 Jun 2027 11:03:54.296   12 Jun 2027 11:04:03.634             9.338          2371.094
       319   12 Jun 2027 11:04:37.867   12 Jun 2027 11:04:39.848             1.981           630.000
       320   12 Jun 2027 11:04:45.353   12 Jun 2027 11:04:45.827             0.474           172.031
       321   12 Jun 2027 11:05:31.870   12 Jun 2027 11:05:34.418             2.548          1260.969
       322   12 Jun 2027 11:05:43.042   12 Jun 2027 11:05:45.575             2.533            12.469
       323   12 Jun 2027 11:06:00.727   12 Jun 2027 11:06:03.476             2.749           473.500
       324   12 Jun 2027 11:06:36.501   12 Jun 2027 11:06:39.937             3.436           399.812
       325   12 Jun 2027 11:07:27.527   12 Jun 2027 11:07:30.211             2.684          1332.187
       326   12 Jun 2027 11:07:39.382   12 Jun 2027 11:07:40.450             1.068           174.469
       327   12 Jun 2027 11:07:58.433   12 Jun 2027 11:07:59.507             1.074           493.344
       328   12 Jun 2027 11:08:05.073   12 Jun 2027 11:08:13.176             8.103           173.938
       329   13 Jun 2027 03:24:23.590   13 Jun 2027 03:24:51.043            27.453         13726.500
       330   13 Jun 2027 03:24:54.836   13 Jun 2027 03:26:13.800            78.964         39482.000
       331   13 Jun 2027 03:26:35.455   13 Jun 2027 03:26:43.430             7.975          3987.500
       332   13 Jun 2027 03:28:46.591   13 Jun 2027 03:29:09.875            23.284         11642.000
       333   13 Jun 2027 05:02:24.433   13 Jun 2027 05:03:19.159            54.726         27363.000
       334   13 Jun 2027 05:04:05.931   13 Jun 2027 05:04:13.150             7.219          3609.500
       335   13 Jun 2027 05:05:13.584   13 Jun 2027 05:05:20.678             7.094          3547.000
       336   13 Jun 2027 05:07:14.997   13 Jun 2027 05:07:17.268             2.271          1135.500
       337   13 Jun 2027 06:26:03.949   13 Jun 2027 06:27:01.837            57.888         28944.000
       338   13 Jun 2027 06:28:27.155   13 Jun 2027 06:28:30.847             3.692          1846.000
       339   13 Jun 2027 08:02:30.854   13 Jun 2027 08:03:44.099            73.245         35979.469
       340   13 Jun 2027 08:04:03.586   13 Jun 2027 08:04:05.680             2.094           222.625
       341   13 Jun 2027 08:04:19.457   13 Jun 2027 08:04:21.218             1.761           430.531
       342   13 Jun 2027 09:34:40.315   13 Jun 2027 09:34:49.916             9.601          4800.500
       343   13 Jun 2027 09:36:37.570   13 Jun 2027 09:36:41.850             4.280          2135.406
       344   13 Jun 2027 09:38:18.967   13 Jun 2027 09:38:18.967             0.000             0.000
       345   13 Jun 2027 09:38:24.281   13 Jun 2027 09:38:29.400             5.119          2242.500
       346   13 Jun 2027 09:38:44.886   13 Jun 2027 09:38:47.962             3.076           301.375
       347   13 Jun 2027 09:41:38.219   13 Jun 2027 09:41:38.219             0.000             0.000
       348   13 Jun 2027 09:42:59.340   13 Jun 2027 09:43:17.038            17.698          7320.969
       349   13 Jun 2027 09:43:45.977   13 Jun 2027 09:43:49.793             3.816           904.344
       350   13 Jun 2027 09:44:22.801   13 Jun 2027 09:44:26.159             3.358          1031.500
       351   13 Jun 2027 11:13:35.766   13 Jun 2027 11:13:50.216            14.450          7030.969
       352   13 Jun 2027 11:15:21.290   13 Jun 2027 11:15:25.438             4.148          1230.437
       353   13 Jun 2027 11:15:56.662   13 Jun 2027 11:16:07.645            10.983           507.375
       354   13 Jun 2027 11:16:36.608   13 Jun 2027 11:16:40.971             4.363           774.187
       355   13 Jun 2027 11:17:56.175   13 Jun 2027 11:18:01.119             4.944          2137.812
       356   13 Jun 2027 11:18:01.146   13 Jun 2027 11:18:04.825             3.679             0.844
       357   13 Jun 2027 11:18:10.950   13 Jun 2027 11:18:11.740             0.790           191.406
       358   13 Jun 2027 11:18:28.300   13 Jun 2027 11:18:31.456             3.156           517.500
       359   13 Jun 2027 11:18:36.465   13 Jun 2027 11:18:36.723             0.258           129.000
       360   13 Jun 2027 11:18:47.616   13 Jun 2027 11:18:47.616             0.000             0.000
       361   13 Jun 2027 11:19:43.538   13 Jun 2027 11:19:54.838            11.300          2115.500
       362   13 Jun 2027 11:20:10.471   13 Jun 2027 11:20:16.912             6.441           380.250
