uniorb/output/strategy_1/Camera/Camera_KinoSat_111010.txt

KinoSat_111010
-------------------------
    Access    *     Start Time (UTCG)     *     Stop Time (UTCG)  *   Duration (s) *   Data (Mbytes)
         1   01 Jun 2027 04:14:57.617   01 Jun 2027 04:16:29.285            91.668         45834.000
         2   01 Jun 2027 04:16:53.893   01 Jun 2027 04:16:55.923             2.030          1015.000
         3   01 Jun 2027 05:51:34.048   01 Jun 2027 05:53:16.679           102.631         51315.500
         4   01 Jun 2027 05:54:16.232   01 Jun 2027 05:54:34.444            18.212          9106.000
         5   01 Jun 2027 07:26:44.230   01 Jun 2027 07:29:30.413           166.183         83091.500
         6   01 Jun 2027 07:30:30.051   01 Jun 2027 07:30:30.801             0.750           375.000
         7   01 Jun 2027 07:32:21.491   01 Jun 2027 07:32:33.763            12.272          6136.000
         8   01 Jun 2027 07:32:46.441   01 Jun 2027 07:32:52.832             6.391          3195.500
         9   01 Jun 2027 07:33:06.069   01 Jun 2027 07:33:19.887            13.818          6909.000
        10   01 Jun 2027 09:03:01.817   01 Jun 2027 09:05:03.913           122.096         61048.000
        11   01 Jun 2027 09:05:48.689   01 Jun 2027 09:05:59.246            10.557          5278.500
        12   01 Jun 2027 09:08:26.778   01 Jun 2027 09:08:48.198            21.420         10710.000
        13   01 Jun 2027 10:40:31.242   01 Jun 2027 10:41:40.155            68.913         34456.500
        14   01 Jun 2027 10:42:14.279   01 Jun 2027 10:43:20.527            66.248         33124.000
        15   01 Jun 2027 10:44:06.620   01 Jun 2027 10:44:06.859             0.239           119.500
        16   02 Jun 2027 03:03:34.941   02 Jun 2027 03:04:17.108            42.167         21083.500
        17   02 Jun 2027 03:05:10.586   02 Jun 2027 03:05:28.201            17.615          8807.500
        18   02 Jun 2027 03:06:16.259   02 Jun 2027 03:06:16.259             0.000             0.000
        19   02 Jun 2027 03:06:17.233   02 Jun 2027 03:06:17.375             0.142            71.000
        20   02 Jun 2027 03:06:49.360   02 Jun 2027 03:07:00.242            10.882          5441.000
        21   02 Jun 2027 03:07:06.069   02 Jun 2027 03:07:10.378             4.309          2154.500
        22   02 Jun 2027 04:27:32.989   02 Jun 2027 04:27:52.389            19.400          9700.000
        23   02 Jun 2027 04:28:52.608   02 Jun 2027 04:28:54.101             1.493           746.500
        24   02 Jun 2027 04:30:14.760   02 Jun 2027 04:30:15.142             0.382           191.000
        25   02 Jun 2027 06:03:18.525   02 Jun 2027 06:05:00.651           102.126         51063.000
        26   02 Jun 2027 06:06:02.255   02 Jun 2027 06:06:25.924            23.669         11834.500
        27   02 Jun 2027 06:07:03.317   02 Jun 2027 06:07:30.888            27.571         13785.500
        28   02 Jun 2027 07:38:12.992   02 Jun 2027 07:39:59.324           106.332         53166.000
        29   02 Jun 2027 07:40:57.853   02 Jun 2027 07:41:21.266            23.413         11706.500
        30   02 Jun 2027 07:44:46.500   02 Jun 2027 07:45:07.818            21.318         10659.000
        31   02 Jun 2027 09:14:43.809   02 Jun 2027 09:17:08.851           145.042         72521.000
        32   02 Jun 2027 09:17:21.283   02 Jun 2027 09:17:25.517             4.234          2117.000
        33   02 Jun 2027 09:20:40.238   02 Jun 2027 09:20:48.541             8.303          4151.500
        34   02 Jun 2027 10:53:02.256   02 Jun 2027 10:55:01.782           119.526         59763.000
        35   02 Jun 2027 10:56:34.609   02 Jun 2027 10:56:39.924             5.315          2657.500
        36   03 Jun 2027 03:04:06.952   03 Jun 2027 03:04:11.718             4.766          2383.000
        37   03 Jun 2027 03:04:51.623   03 Jun 2027 03:05:17.569            25.946         12973.000
        38   03 Jun 2027 03:15:31.163   03 Jun 2027 03:16:44.478            73.315         36657.500
        39   03 Jun 2027 04:38:07.403   03 Jun 2027 04:38:10.921             3.518          1759.000
        40   03 Jun 2027 04:38:42.398   03 Jun 2027 04:38:53.987            11.589          5794.500
        41   03 Jun 2027 04:39:39.213   03 Jun 2027 04:39:48.568             9.355          4677.500
        42   03 Jun 2027 04:40:53.182   03 Jun 2027 04:40:53.777             0.595           297.500
        43   03 Jun 2027 04:41:03.555   03 Jun 2027 04:41:03.555             0.000             0.000
        44   03 Jun 2027 04:41:08.315   03 Jun 2027 04:41:34.160            25.845         12922.500
        45   03 Jun 2027 06:13:35.083   03 Jun 2027 06:14:28.266            53.183         26591.500
        46   03 Jun 2027 06:15:05.730   03 Jun 2027 06:15:13.002             7.272          3636.000
        47   03 Jun 2027 06:15:30.476   03 Jun 2027 06:15:33.234             2.758          1379.000
        48   03 Jun 2027 06:15:47.314   03 Jun 2027 06:16:02.018            14.704          7352.000
        49   03 Jun 2027 06:17:53.117   03 Jun 2027 06:17:55.199             2.082          1041.000
        50   03 Jun 2027 06:18:30.986   03 Jun 2027 06:18:37.541             6.555          3277.500
        51   03 Jun 2027 06:18:46.723   03 Jun 2027 06:18:59.558            12.835          6417.500
        52   03 Jun 2027 07:49:58.012   03 Jun 2027 07:51:59.629           121.617         60808.500
        53   03 Jun 2027 07:56:02.640   03 Jun 2027 07:56:20.202            17.562          8781.000
        54   03 Jun 2027 07:56:49.992   03 Jun 2027 07:57:11.345            21.353         10676.500
        55   03 Jun 2027 07:57:30.004   03 Jun 2027 07:57:30.172             0.168            84.000
        56   03 Jun 2027 09:27:03.986   03 Jun 2027 09:29:25.156           141.170         70585.000
        57   03 Jun 2027 09:30:41.630   03 Jun 2027 09:30:44.713             3.083          1541.500
        58   03 Jun 2027 11:04:59.541   03 Jun 2027 11:06:03.809            64.268         30334.374
        59   03 Jun 2027 11:06:41.157   03 Jun 2027 11:06:42.824             1.667           648.781
        60   03 Jun 2027 11:06:49.336   03 Jun 2027 11:06:50.238             0.902           203.500
        61   03 Jun 2027 11:07:10.501   03 Jun 2027 11:07:13.281             2.780           303.125
        62   03 Jun 2027 11:08:20.334   03 Jun 2027 11:08:21.540             1.206           603.000
        63   03 Jun 2027 11:08:32.514   03 Jun 2027 11:08:36.863             4.349          1219.000
        64   04 Jun 2027 03:15:50.654   04 Jun 2027 03:15:58.504             7.850          3925.000
        65   04 Jun 2027 03:16:00.065   04 Jun 2027 03:16:01.653             1.588           794.000
        66   04 Jun 2027 03:16:14.473   04 Jun 2027 03:16:36.667            22.194         11097.000
        67   04 Jun 2027 03:27:34.430   04 Jun 2027 03:28:33.241            58.811         29405.500
        68   04 Jun 2027 04:49:48.295   04 Jun 2027 04:50:41.463            53.168         26584.000
        69   04 Jun 2027 04:54:08.762   04 Jun 2027 04:54:08.762             0.000             0.000
        70   04 Jun 2027 06:24:43.945   04 Jun 2027 06:26:43.008           119.063         59531.500
        71   04 Jun 2027 06:30:32.541   04 Jun 2027 06:30:40.034             7.493          3746.500
        72   04 Jun 2027 06:30:48.091   04 Jun 2027 06:31:02.093            14.002          7001.000
        73   04 Jun 2027 06:31:11.130   04 Jun 2027 06:31:11.721             0.591           295.500
        74   04 Jun 2027 08:02:14.594   04 Jun 2027 08:03:38.185            83.591         40300.186
        75   04 Jun 2027 08:04:16.706   04 Jun 2027 08:04:21.240             4.534           844.719
        76   04 Jun 2027 08:04:46.959   04 Jun 2027 08:04:49.635             2.676           803.719
        77   04 Jun 2027 08:05:16.280   04 Jun 2027 08:05:19.617             3.337           727.406
        78   04 Jun 2027 08:09:24.684   04 Jun 2027 08:09:33.888             9.204          4602.000
        79   04 Jun 2027 09:38:59.830   04 Jun 2027 09:39:23.333            23.503         11700.094
        80   04 Jun 2027 09:40:11.753   04 Jun 2027 09:40:15.618             3.865           491.969
        81   04 Jun 2027 09:41:22.706   04 Jun 2027 09:41:26.864             4.158          1945.844
        82   04 Jun 2027 09:42:32.296   04 Jun 2027 09:42:35.965             3.669          1834.500
        83   04 Jun 2027 09:43:06.367   04 Jun 2027 09:43:11.168             4.801          1112.719
        84   04 Jun 2027 09:43:22.585   04 Jun 2027 09:43:30.099             7.514           263.000
        85   04 Jun 2027 09:44:06.210   04 Jun 2027 09:44:13.927             7.717           980.656
        86   04 Jun 2027 09:44:58.614   04 Jun 2027 09:45:00.102             1.488           744.000
        87   04 Jun 2027 11:16:58.836   04 Jun 2027 11:17:17.319            18.483          9114.344
        88   04 Jun 2027 11:18:12.878   04 Jun 2027 11:18:16.807             3.929          1432.969
        89   04 Jun 2027 11:18:38.955   04 Jun 2027 11:18:41.040             2.085           350.563
        90   04 Jun 2027 11:18:51.248   04 Jun 2027 11:18:51.248             0.000             0.000
        91   04 Jun 2027 11:19:27.402   04 Jun 2027 11:19:32.255             4.853          1448.813
        92   04 Jun 2027 11:19:36.605   04 Jun 2027 11:19:45.439             8.834           135.937
        93   04 Jun 2027 11:20:21.990   04 Jun 2027 11:20:23.974             1.984           802.563
        94   04 Jun 2027 11:20:55.158   04 Jun 2027 11:20:56.945             1.787           844.688
        95   05 Jun 2027 03:27:23.786   05 Jun 2027 03:27:59.144            35.358         17679.000
        96   05 Jun 2027 03:28:17.191   05 Jun 2027 03:28:37.163            19.972          9986.000
        97   05 Jun 2027 03:29:22.854   05 Jun 2027 03:29:22.854             0.000             0.000
        98   05 Jun 2027 03:39:39.609   05 Jun 2027 03:40:07.223            27.614         13807.000
        99   05 Jun 2027 05:01:20.447   05 Jun 2027 05:02:40.040            79.593         39796.500
       100   05 Jun 2027 05:04:02.450   05 Jun 2027 05:04:26.171            23.721         11860.500
       101   05 Jun 2027 05:07:05.207   05 Jun 2027 05:07:05.207             0.000             0.000
       102   05 Jun 2027 06:36:13.772   05 Jun 2027 06:37:36.356            82.584         41292.000
       103   05 Jun 2027 06:38:21.184   05 Jun 2027 06:38:31.202            10.018          5009.000
       104   05 Jun 2027 06:40:24.063   05 Jun 2027 06:40:37.382            13.319          6659.500
       105   05 Jun 2027 06:41:53.413   05 Jun 2027 06:41:53.413             0.000             0.000
       106   05 Jun 2027 06:42:55.657   05 Jun 2027 06:43:22.250            26.593         13296.500
       107   05 Jun 2027 06:45:07.905   05 Jun 2027 06:45:09.972             2.067          1033.500
       108   05 Jun 2027 06:45:33.133   05 Jun 2027 06:45:34.331             1.198           599.000
       109   05 Jun 2027 08:14:09.144   05 Jun 2027 08:14:55.368            46.224         23112.000
       110   05 Jun 2027 08:16:18.596   05 Jun 2027 08:16:27.497             8.901          3444.000
       111   05 Jun 2027 08:18:57.400   05 Jun 2027 08:19:10.012            12.612          3678.531
       112   05 Jun 2027 08:19:42.717   05 Jun 2027 08:19:42.717             0.000             0.000
       113   05 Jun 2027 08:20:05.006   05 Jun 2027 08:20:06.613             1.607           803.500
       114   05 Jun 2027 08:20:58.237   05 Jun 2027 08:21:05.502             7.265          2419.750
       115   05 Jun 2027 08:21:28.223   05 Jun 2027 08:21:28.798             0.575           287.500
       116   05 Jun 2027 09:50:56.311   05 Jun 2027 09:51:03.397             7.086          3543.000
       117   05 Jun 2027 09:51:28.972   05 Jun 2027 09:51:40.418            11.446          5543.688
       118   05 Jun 2027 09:52:21.227   05 Jun 2027 09:52:25.376             4.149          1243.281
       119   05 Jun 2027 09:53:28.875   05 Jun 2027 09:53:32.213             3.338           827.500
       120   05 Jun 2027 09:53:59.570   05 Jun 2027 09:54:05.049             5.479           778.344
       121   05 Jun 2027 09:54:21.654   05 Jun 2027 09:54:25.537             3.883           360.250
       122   05 Jun 2027 09:55:07.100   05 Jun 2027 09:55:09.977             2.877          1216.313
       123   05 Jun 2027 09:55:38.733   05 Jun 2027 09:55:41.991             3.258           898.625
       124   05 Jun 2027 09:56:32.225   05 Jun 2027 09:56:36.891             4.666          1324.781
       125   05 Jun 2027 09:56:48.785   05 Jun 2027 09:56:49.543             0.758           210.406
       126   05 Jun 2027 09:56:57.037   05 Jun 2027 09:56:57.630             0.593           234.187
       127   05 Jun 2027 09:57:27.003   05 Jun 2027 09:57:33.550             6.547           917.906
       128   05 Jun 2027 11:28:46.745   05 Jun 2027 11:29:04.059            17.314          7290.187
       129   05 Jun 2027 11:29:31.770   05 Jun 2027 11:29:33.312             1.542           678.188
       130   05 Jun 2027 11:30:40.197   05 Jun 2027 11:30:45.313             5.116          2081.500
       131   05 Jun 2027 11:31:05.181   05 Jun 2027 11:31:06.375             1.194           597.000
       132   05 Jun 2027 11:31:22.992   05 Jun 2027 11:31:26.161             3.169           543.156
       133   05 Jun 2027 11:31:56.700   05 Jun 2027 11:32:01.359             4.659           940.750
       134   05 Jun 2027 11:33:05.156   05 Jun 2027 11:33:08.706             3.550          1775.000
       135   06 Jun 2027 03:39:19.350   06 Jun 2027 03:40:19.834            60.484         30242.000
       136   06 Jun 2027 03:40:41.790   06 Jun 2027 03:40:42.354             0.564           282.000
       137   06 Jun 2027 05:15:19.067   06 Jun 2027 05:17:55.181           156.114         78057.000
       138   06 Jun 2027 06:49:07.099   06 Jun 2027 06:50:40.562            93.463         46731.500
       139   06 Jun 2027 06:51:46.900   06 Jun 2027 06:52:02.069            15.169          7584.500
       140   06 Jun 2027 06:52:28.907   06 Jun 2027 06:52:36.684             7.777          3326.562
       141   06 Jun 2027 06:56:38.035   06 Jun 2027 06:56:47.526             9.491          4745.500
       142   06 Jun 2027 06:57:10.774   06 Jun 2027 06:57:12.931             2.157          1078.500
       143   06 Jun 2027 08:26:20.162   06 Jun 2027 08:26:43.637            23.475          9667.219
       144   06 Jun 2027 08:27:11.321   06 Jun 2027 08:27:13.828             2.507           489.062
       145   06 Jun 2027 08:27:54.837   06 Jun 2027 08:27:56.779             1.942           971.000
       146   06 Jun 2027 08:28:21.453   06 Jun 2027 08:28:24.418             2.965           919.375
       147   06 Jun 2027 08:29:16.063   06 Jun 2027 08:29:21.639             5.576          1417.313
       148   06 Jun 2027 08:30:08.931   06 Jun 2027 08:30:12.029             3.098          1261.969
       149   06 Jun 2027 08:30:31.386   06 Jun 2027 08:30:32.404             1.018           302.875
       150   06 Jun 2027 08:30:53.502   06 Jun 2027 08:30:56.054             2.552           314.250
       151   06 Jun 2027 08:31:03.059   06 Jun 2027 08:31:08.290             5.231           218.906
       152   06 Jun 2027 08:32:22.266   06 Jun 2027 08:32:26.675             4.409          2011.562
       153   06 Jun 2027 10:03:33.088   06 Jun 2027 10:03:48.687            15.599          7631.969
       154   06 Jun 2027 10:04:20.746   06 Jun 2027 10:04:25.715             4.969           897.438
       155   06 Jun 2027 10:05:34.690   06 Jun 2027 10:05:37.790             3.100           839.125
       156   06 Jun 2027 10:05:50.883   06 Jun 2027 10:05:51.500             0.617           104.188
       157   06 Jun 2027 10:06:21.438   06 Jun 2027 10:06:27.865             6.427           935.563
       158   06 Jun 2027 10:06:39.336   06 Jun 2027 10:06:40.184             0.848           358.469
       159   06 Jun 2027 10:06:53.036   06 Jun 2027 10:06:57.019             3.983           401.625
       160   06 Jun 2027 10:08:12.003   06 Jun 2027 10:08:19.444             7.441          1868.000
       161   06 Jun 2027 10:09:19.217   06 Jun 2027 10:09:23.103             3.886          1867.438
       162   06 Jun 2027 11:40:14.180   06 Jun 2027 11:40:31.952            17.772          7331.375
       163   06 Jun 2027 11:41:47.420   06 Jun 2027 11:41:52.447             5.027          2141.187
       164   06 Jun 2027 11:42:06.441   06 Jun 2027 11:42:12.950             6.509           437.313
       165   06 Jun 2027 11:43:02.296   06 Jun 2027 11:43:05.660             3.364          1466.031
       166   06 Jun 2027 11:43:57.281   06 Jun 2027 11:44:10.356            13.075          1613.156
       167   07 Jun 2027 03:51:11.263   07 Jun 2027 03:52:12.797            61.534         30767.000
       168   07 Jun 2027 03:52:21.704   07 Jun 2027 03:52:21.704             0.000             0.000
       169   07 Jun 2027 03:52:38.191   07 Jun 2027 03:52:43.252             5.061          2530.500
       170   07 Jun 2027 03:52:52.014   07 Jun 2027 03:52:56.372             4.358          2179.000
       171   07 Jun 2027 03:53:43.192   07 Jun 2027 03:53:43.192             0.000             0.000
       172   07 Jun 2027 05:27:32.692   07 Jun 2027 05:29:52.430           139.738         69869.000
       173   07 Jun 2027 05:30:48.611   07 Jun 2027 05:31:04.763            16.152          8076.000
       174   07 Jun 2027 07:01:36.369   07 Jun 2027 07:03:28.519           112.150         56075.000
       175   07 Jun 2027 07:03:40.183   07 Jun 2027 07:03:45.552             5.369          2447.219
       176   07 Jun 2027 07:07:58.293   07 Jun 2027 07:08:09.982            11.689          5844.500
       177   07 Jun 2027 07:08:59.522   07 Jun 2027 07:09:06.445             6.923          3456.281
       178   07 Jun 2027 07:09:22.334   07 Jun 2027 07:09:23.713             1.379           496.531
       179   07 Jun 2027 08:38:42.362   07 Jun 2027 08:39:07.386            25.024         12512.000
       180   07 Jun 2027 08:40:16.820   07 Jun 2027 08:40:21.820             5.000          2430.969
       181   07 Jun 2027 08:40:41.231   07 Jun 2027 08:40:44.554             3.323           511.594
       182   07 Jun 2027 08:41:01.886   07 Jun 2027 08:41:10.815             8.929           531.469
       183   07 Jun 2027 08:41:29.294   07 Jun 2027 08:41:30.594             1.300           358.406
       184   07 Jun 2027 08:41:43.483   07 Jun 2027 08:41:44.338             0.855           314.844
       185   07 Jun 2027 08:43:01.106   07 Jun 2027 08:43:06.411             5.305          2398.656
       186   07 Jun 2027 08:43:35.866   07 Jun 2027 08:43:42.049             6.183           920.469
       187   07 Jun 2027 08:43:55.753   07 Jun 2027 08:43:57.090             1.337           384.469
       188   07 Jun 2027 08:44:07.194   07 Jun 2027 08:44:10.038             2.844           315.750
       189   07 Jun 2027 08:44:37.158   07 Jun 2027 08:44:47.391            10.233           847.500
       190   07 Jun 2027 10:15:39.939   07 Jun 2027 10:15:56.699            16.760          8066.469
       191   07 Jun 2027 10:17:13.932   07 Jun 2027 10:17:19.798             5.866          2413.531
       192   07 Jun 2027 10:17:44.196   07 Jun 2027 10:17:47.142             2.946           663.219
       193   07 Jun 2027 10:18:36.003   07 Jun 2027 10:18:39.376             3.373          1339.031
       194   07 Jun 2027 10:19:33.466   07 Jun 2027 10:19:37.346             3.880          1656.406
       195   07 Jun 2027 10:19:44.566   07 Jun 2027 10:19:45.632             1.066           225.625
       196   07 Jun 2027 11:52:26.433   07 Jun 2027 11:52:50.636            24.203          9530.656
       197   07 Jun 2027 11:53:06.661   07 Jun 2027 11:53:06.661             0.000             0.000
       198   07 Jun 2027 11:53:56.934   07 Jun 2027 11:54:03.691             6.757          1929.094
       199   07 Jun 2027 11:55:05.656   07 Jun 2027 11:55:08.326             2.670          1335.000
       200   07 Jun 2027 11:55:35.263   07 Jun 2027 11:55:38.463             3.200          1430.313
       201   07 Jun 2027 11:56:34.853   07 Jun 2027 11:56:40.076             5.223          1238.875
       202   08 Jun 2027 04:03:13.963   08 Jun 2027 04:04:04.672            50.709         25354.500
       203   08 Jun 2027 04:04:22.319   08 Jun 2027 04:04:24.802             2.483          1241.500
       204   08 Jun 2027 04:04:29.884   08 Jun 2027 04:04:38.250             8.366          4183.000
       205   08 Jun 2027 05:39:39.291   08 Jun 2027 05:41:43.346           124.055         62027.500
       206   08 Jun 2027 05:43:03.796   08 Jun 2027 05:43:07.890             4.094          2047.000
       207   08 Jun 2027 07:14:47.344   08 Jun 2027 07:16:50.365           123.021         61510.500
       208   08 Jun 2027 07:20:48.378   08 Jun 2027 07:21:01.554            13.176          6588.000
       209   08 Jun 2027 07:21:24.758   08 Jun 2027 07:21:29.556             4.798          2399.000
       210   08 Jun 2027 08:51:08.202   08 Jun 2027 08:51:32.722            24.520         11396.031
       211   08 Jun 2027 08:52:56.110   08 Jun 2027 08:52:59.201             3.091          1164.156
       212   08 Jun 2027 08:53:28.361   08 Jun 2027 08:53:32.785             4.424           788.875
       213   08 Jun 2027 08:54:21.641   08 Jun 2027 08:54:24.368             2.727          1080.562
       214   08 Jun 2027 08:54:44.908   08 Jun 2027 08:54:47.347             2.439           616.187
       215   08 Jun 2027 08:54:52.504   08 Jun 2027 08:54:53.870             1.366            68.719
       216   08 Jun 2027 08:55:34.508   08 Jun 2027 08:55:37.168             2.660          1269.938
       217   08 Jun 2027 08:56:08.524   08 Jun 2027 08:56:11.017             2.493           596.219
       218   08 Jun 2027 08:56:37.042   08 Jun 2027 08:56:37.042             0.000             0.000
       219   08 Jun 2027 10:28:41.855   08 Jun 2027 10:28:57.813            15.958          7169.281
       220   08 Jun 2027 10:29:10.929   08 Jun 2027 10:29:11.778             0.849           330.687
       221   08 Jun 2027 10:29:57.957   08 Jun 2027 10:30:01.124             3.167          1251.062
       222   08 Jun 2027 10:30:36.207   08 Jun 2027 10:30:39.706             3.499           622.625
       223   08 Jun 2027 10:31:01.208   08 Jun 2027 10:31:04.364             3.156           453.750
       224   08 Jun 2027 10:31:16.138   08 Jun 2027 10:31:17.645             1.507           224.375
       225   08 Jun 2027 10:31:20.251   08 Jun 2027 10:31:21.654             1.403            42.344
       226   08 Jun 2027 10:31:42.057   08 Jun 2027 10:31:42.313             0.256           124.281
       227   08 Jun 2027 10:31:54.134   08 Jun 2027 10:31:54.207             0.073            36.500
       228   08 Jun 2027 10:32:06.597   08 Jun 2027 10:32:06.597             0.000             0.000
       229   08 Jun 2027 10:32:07.620   08 Jun 2027 10:32:11.024             3.404           752.063
       230   08 Jun 2027 10:32:18.556   08 Jun 2027 10:32:18.556             0.000             0.000
       231   08 Jun 2027 10:32:30.070   08 Jun 2027 10:32:33.735             3.665           595.187
       232   09 Jun 2027 04:15:12.375   09 Jun 2027 04:16:00.530            48.155         24077.500
       233   09 Jun 2027 04:16:45.817   09 Jun 2027 04:16:45.817             0.000             0.000
       234   09 Jun 2027 04:17:13.929   09 Jun 2027 04:17:49.654            35.725         17862.500
       235   09 Jun 2027 05:51:49.241   09 Jun 2027 05:54:06.547           137.306         68653.000
       236   09 Jun 2027 07:26:59.311   09 Jun 2027 07:28:49.041           109.730         54003.719
       237   09 Jun 2027 07:30:24.225   09 Jun 2027 07:30:30.535             6.310          2974.500
       238   09 Jun 2027 07:30:46.964   09 Jun 2027 07:30:53.558             6.594            25.781
       239   09 Jun 2027 07:32:40.418   09 Jun 2027 07:32:48.323             7.905          3339.375
       240   09 Jun 2027 09:03:16.518   09 Jun 2027 09:03:40.109            23.591         11078.781
       241   09 Jun 2027 09:04:37.278   09 Jun 2027 09:04:41.022             3.744          1646.719
       242   09 Jun 2027 09:05:21.667   09 Jun 2027 09:05:26.635             4.968           713.313
       243   09 Jun 2027 09:05:47.769   09 Jun 2027 09:05:49.339             1.570           660.438
       244   09 Jun 2027 09:06:11.043   09 Jun 2027 09:06:12.342             1.299           465.687
       245   09 Jun 2027 09:06:25.726   09 Jun 2027 09:06:28.762             3.036           377.937
       246   09 Jun 2027 09:07:10.292   09 Jun 2027 09:07:13.086             2.794          1175.688
       247   09 Jun 2027 09:07:32.629   09 Jun 2027 09:07:38.382             5.753           416.562
       248   09 Jun 2027 09:07:43.015   09 Jun 2027 09:07:44.616             1.601            94.688
       249   09 Jun 2027 09:08:37.239   09 Jun 2027 09:08:37.239             0.000             0.000
       250   09 Jun 2027 10:40:47.050   09 Jun 2027 10:41:04.174            17.124          8287.563
       251   09 Jun 2027 10:41:31.849   09 Jun 2027 10:41:32.849             1.000           494.188
       252   09 Jun 2027 10:42:46.323   09 Jun 2027 10:42:50.935             4.612          1736.688
       253   09 Jun 2027 10:44:02.447   09 Jun 2027 10:44:08.013             5.566          2162.719
       254   09 Jun 2027 10:44:09.898   09 Jun 2027 10:44:11.007             1.109            58.906
       255   09 Jun 2027 10:44:33.074   09 Jun 2027 10:44:40.806             7.732           687.000
       256   09 Jun 2027 10:45:04.680   09 Jun 2027 10:45:05.901             1.221           610.500
       257   09 Jun 2027 10:45:06.452   09 Jun 2027 10:45:09.564             3.112           152.781
       258   10 Jun 2027 03:03:49.888   10 Jun 2027 03:04:25.898            36.010         18005.000
       259   10 Jun 2027 03:04:57.412   10 Jun 2027 03:05:07.772            10.360          5180.000
       260   10 Jun 2027 03:05:15.857   10 Jun 2027 03:05:16.904             1.047           523.500
       261   10 Jun 2027 03:05:43.049   10 Jun 2027 03:05:52.268             9.219          4609.500
       262   10 Jun 2027 03:06:32.896   10 Jun 2027 03:07:03.568            30.672         15336.000
       263   10 Jun 2027 04:27:48.452   10 Jun 2027 04:28:19.218            30.766         15383.000
       264   10 Jun 2027 06:03:33.271   10 Jun 2027 06:05:15.175           101.904         50952.000
       265   10 Jun 2027 06:07:11.803   10 Jun 2027 06:07:28.091            16.288          8144.000
       266   10 Jun 2027 07:38:27.792   10 Jun 2027 07:40:09.622           101.830         50915.000
       267   10 Jun 2027 07:40:58.786   10 Jun 2027 07:41:10.956            12.170          2021.625
       268   10 Jun 2027 07:41:37.845   10 Jun 2027 07:41:39.932             2.087           728.938
       269   10 Jun 2027 07:42:04.777   10 Jun 2027 07:42:06.824             2.047           738.969
       270   10 Jun 2027 07:43:56.875   10 Jun 2027 07:43:57.446             0.571           285.500
       271   10 Jun 2027 07:44:17.041   10 Jun 2027 07:44:18.087             1.046           523.000
       272   10 Jun 2027 07:44:36.553   10 Jun 2027 07:44:42.546             5.993          2996.500
       273   10 Jun 2027 07:45:39.579   10 Jun 2027 07:45:42.176             2.597          1298.500
       274   10 Jun 2027 09:14:59.406   10 Jun 2027 09:15:22.244            22.838         10525.500
       275   10 Jun 2027 09:16:50.277   10 Jun 2027 09:16:53.129             2.852          1075.437
       276   10 Jun 2027 09:17:40.188   10 Jun 2027 09:17:44.753             4.565          1361.281
       277   10 Jun 2027 09:18:39.517   10 Jun 2027 09:18:43.693             4.176          1544.844
       278   10 Jun 2027 09:19:08.908   10 Jun 2027 09:19:14.819             5.911           787.969
       279   10 Jun 2027 09:20:14.850   10 Jun 2027 09:20:19.019             4.169          1875.969
       280   10 Jun 2027 10:53:17.173   10 Jun 2027 10:53:31.436            14.263          6843.281
       281   10 Jun 2027 10:54:15.104   10 Jun 2027 10:54:20.974             5.870          1227.312
       282   10 Jun 2027 10:55:30.066   10 Jun 2027 10:55:33.448             3.382          1080.531
       283   10 Jun 2027 10:56:14.788   10 Jun 2027 10:56:19.087             4.299           818.313
       284   10 Jun 2027 10:56:50.316   10 Jun 2027 10:56:53.789             3.473           648.437
       285   10 Jun 2027 10:56:58.896   10 Jun 2027 10:56:59.846             0.950            82.531
       286   11 Jun 2027 03:04:20.822   11 Jun 2027 03:04:52.804            31.982         15991.000
       287   11 Jun 2027 03:15:46.363   11 Jun 2027 03:16:39.811            53.448         26724.000
       288   11 Jun 2027 03:16:44.180   11 Jun 2027 03:16:54.846            10.666          5333.000
       289   11 Jun 2027 03:18:02.351   11 Jun 2027 03:18:17.539            15.188          7594.000
       290   11 Jun 2027 04:38:23.693   11 Jun 2027 04:38:48.168            24.475         12237.500
       291   11 Jun 2027 04:39:38.826   11 Jun 2027 04:39:46.562             7.736          3868.000
       292   11 Jun 2027 04:42:44.359   11 Jun 2027 04:42:51.862             7.503          3751.500
       293   11 Jun 2027 04:42:59.833   11 Jun 2027 04:43:04.821             4.988          2494.000
       294   11 Jun 2027 06:13:48.121   11 Jun 2027 06:14:43.383            55.262         27631.000
       295   11 Jun 2027 06:15:18.886   11 Jun 2027 06:15:40.158            21.272         10636.000
       296   11 Jun 2027 06:15:48.072   11 Jun 2027 06:16:13.492            25.420         12710.000
       297   11 Jun 2027 06:19:14.665   11 Jun 2027 06:19:55.052            40.387         20193.500
       298   11 Jun 2027 07:50:13.692   11 Jun 2027 07:51:31.082            77.390         37958.718
       299   11 Jun 2027 07:52:01.609   11 Jun 2027 07:52:05.487             3.878           953.813
       300   11 Jun 2027 07:52:12.640   11 Jun 2027 07:52:14.327             1.687           146.000
       301   11 Jun 2027 07:53:12.160   11 Jun 2027 07:53:12.371             0.211           105.500
       302   11 Jun 2027 07:53:14.505   11 Jun 2027 07:53:19.292             4.787          1719.406
       303   11 Jun 2027 07:55:55.612   11 Jun 2027 07:56:04.901             9.289          4594.438
       304   11 Jun 2027 07:56:36.833   11 Jun 2027 07:56:43.661             6.828           934.844
       305   11 Jun 2027 07:57:38.099   11 Jun 2027 07:57:41.227             3.128          1564.000
       306   11 Jun 2027 09:27:19.868   11 Jun 2027 09:27:39.734            19.866          9742.219
       307   11 Jun 2027 09:28:05.511   11 Jun 2027 09:28:12.267             6.756           280.500
       308   11 Jun 2027 09:28:48.530   11 Jun 2027 09:28:54.080             5.550           244.063
       309   11 Jun 2027 09:29:09.744   11 Jun 2027 09:29:13.590             3.846           149.750
       310   11 Jun 2027 09:29:40.674   11 Jun 2027 09:29:42.012             1.338           503.125
       311   11 Jun 2027 09:30:36.807   11 Jun 2027 09:30:40.601             3.794          1704.000
       312   11 Jun 2027 09:30:56.374   11 Jun 2027 09:30:58.634             2.260           130.938
       313   11 Jun 2027 09:31:27.046   11 Jun 2027 09:31:30.308             3.262           887.875
       314   11 Jun 2027 09:32:13.163   11 Jun 2027 09:32:16.025             2.862          1317.937
       315   11 Jun 2027 09:33:18.749   11 Jun 2027 09:33:22.726             3.977          1960.125
       316   11 Jun 2027 11:05:14.950   11 Jun 2027 11:05:30.734            15.784          6176.750
       317   11 Jun 2027 11:06:00.775   11 Jun 2027 11:06:02.680             1.905           938.781
       318   11 Jun 2027 11:06:54.623   11 Jun 2027 11:06:56.926             2.303           672.438
       319   11 Jun 2027 11:07:04.459   11 Jun 2027 11:07:04.896             0.437           217.312
       320   11 Jun 2027 11:08:23.689   11 Jun 2027 11:08:30.147             6.458          2148.719
       321   12 Jun 2027 03:15:59.074   12 Jun 2027 03:16:52.980            53.906         26953.000
       322   12 Jun 2027 03:27:48.005   12 Jun 2027 03:28:48.065            60.060         30030.000
       323   12 Jun 2027 04:50:03.069   12 Jun 2027 04:50:56.040            52.971         26485.500
       324   12 Jun 2027 04:54:23.036   12 Jun 2027 04:54:32.164             9.128          4564.000
       325   12 Jun 2027 06:24:57.455   12 Jun 2027 06:26:35.380            97.925         48962.500
       326   12 Jun 2027 06:27:25.006   12 Jun 2027 06:27:49.620            24.614         12307.000
       327   12 Jun 2027 06:30:40.136   12 Jun 2027 06:30:49.510             9.374          4687.000
       328   12 Jun 2027 06:31:46.520   12 Jun 2027 06:31:58.425            11.905          5952.500
       329   12 Jun 2027 08:02:29.348   12 Jun 2027 08:03:07.840            38.492         18325.094
       330   12 Jun 2027 08:03:21.859   12 Jun 2027 08:03:27.660             5.801           334.625
       331   12 Jun 2027 08:03:41.888   12 Jun 2027 08:03:43.778             1.890           362.375
       332   12 Jun 2027 08:04:31.903   12 Jun 2027 08:04:33.563             1.660           823.687
       333   12 Jun 2027 08:05:21.564   12 Jun 2027 08:05:26.265             4.701          1500.031
       334   12 Jun 2027 08:05:34.747   12 Jun 2027 08:05:34.769             0.022            11.000
       335   12 Jun 2027 08:05:59.633   12 Jun 2027 08:06:05.654             6.021           995.000
       336   12 Jun 2027 08:06:13.071   12 Jun 2027 08:06:14.790             1.719            42.469
       337   12 Jun 2027 08:07:03.646   12 Jun 2027 08:07:12.447             8.801          1147.625
       338   12 Jun 2027 08:08:17.561   12 Jun 2027 08:08:22.255             4.694          1764.531
       339   12 Jun 2027 08:08:39.694   12 Jun 2027 08:08:43.806             4.112           381.406
       340   12 Jun 2027 08:09:41.701   12 Jun 2027 08:09:47.611             5.910          1480.281
       341   12 Jun 2027 09:39:15.287   12 Jun 2027 09:39:36.279            20.992         10049.281
       342   12 Jun 2027 09:40:01.486   12 Jun 2027 09:40:04.757             3.271           701.969
       343   12 Jun 2027 09:40:10.664   12 Jun 2027 09:40:11.816             1.152            24.781
       344   12 Jun 2027 09:40:36.283   12 Jun 2027 09:40:38.141             1.858           361.562
       345   12 Jun 2027 09:41:24.170   12 Jun 2027 09:41:30.685             6.515           454.656
       346   12 Jun 2027 09:42:47.924   12 Jun 2027 09:42:54.961             7.037          2016.313
       347   12 Jun 2027 09:43:29.715   12 Jun 2027 09:43:33.245             3.530          1044.813
       348   12 Jun 2027 09:43:52.528   12 Jun 2027 09:43:54.465             1.937           403.094
       349   12 Jun 2027 09:44:50.737   12 Jun 2027 09:44:57.471             6.734          1626.469
       350   12 Jun 2027 09:45:08.438   12 Jun 2027 09:45:09.828             1.390           221.656
       351   12 Jun 2027 09:45:15.081   12 Jun 2027 09:45:16.008             0.927           164.156
       352   12 Jun 2027 09:45:31.579   12 Jun 2027 09:45:38.103             6.524           486.594
       353   12 Jun 2027 09:45:47.975   12 Jun 2027 09:45:48.888             0.913           308.500
       354   12 Jun 2027 11:17:14.879   12 Jun 2027 11:17:30.579            15.700          7177.469
       355   12 Jun 2027 11:18:01.210   12 Jun 2027 11:18:05.565             4.355           858.406
       356   12 Jun 2027 11:19:02.048   12 Jun 2027 11:19:07.852             5.804          1592.469
       357   12 Jun 2027 11:19:42.291   12 Jun 2027 11:19:44.483             2.192          1076.219
       358   12 Jun 2027 11:20:19.867   12 Jun 2027 11:20:24.275             4.408          1084.750
       359   12 Jun 2027 11:20:27.191   12 Jun 2027 11:20:31.095             3.904            91.125
       360   12 Jun 2027 11:21:12.884   12 Jun 2027 11:21:16.485             3.601          1292.531
       361   13 Jun 2027 03:27:39.046   13 Jun 2027 03:28:15.541            36.495         18247.500
       362   13 Jun 2027 03:39:54.716   13 Jun 2027 03:40:22.359            27.643         13821.500
       363   13 Jun 2027 05:01:34.769   13 Jun 2027 05:02:55.002            80.233         40116.500
       364   13 Jun 2027 05:03:43.268   13 Jun 2027 05:03:49.968             6.700          3350.000
       365   13 Jun 2027 05:05:15.135   13 Jun 2027 05:05:45.148            30.013         15006.500
       366   13 Jun 2027 06:36:28.353   13 Jun 2027 06:38:21.622           113.269         56634.500
       367   13 Jun 2027 06:40:50.737   13 Jun 2027 06:40:50.737             0.000             0.000
       368   13 Jun 2027 06:43:11.409   13 Jun 2027 06:43:18.048             6.639          3319.500
       369   13 Jun 2027 06:44:53.987   13 Jun 2027 06:45:10.444            16.457          8228.500
       370   13 Jun 2027 06:45:32.781   13 Jun 2027 06:45:37.461             4.680          2340.000
       371   13 Jun 2027 06:45:48.007   13 Jun 2027 06:45:51.352             3.345          1672.500
       372   13 Jun 2027 08:14:24.252   13 Jun 2027 08:15:04.573            40.321         19650.875
       373   13 Jun 2027 08:15:24.583   13 Jun 2027 08:15:27.869             3.286           483.906
       374   13 Jun 2027 08:16:16.343   13 Jun 2027 08:16:19.935             3.592           720.250
       375   13 Jun 2027 08:17:32.584   13 Jun 2027 08:17:39.439             6.855          1992.969
       376   13 Jun 2027 08:18:49.848   13 Jun 2027 08:18:59.028             9.180          2200.281
       377   13 Jun 2027 08:19:40.671   13 Jun 2027 08:19:44.685             4.014          1198.094
       378   13 Jun 2027 08:20:53.073   13 Jun 2027 08:20:58.856             5.783          2078.688
       379   13 Jun 2027 08:21:42.401   13 Jun 2027 08:21:43.669             1.268           634.000
       380   13 Jun 2027 09:51:11.858   13 Jun 2027 09:51:17.175             5.317          2658.500
       381   13 Jun 2027 09:51:44.743   13 Jun 2027 09:51:58.689            13.946          6054.250
       382   13 Jun 2027 09:52:31.415   13 Jun 2027 09:52:34.091             2.676          1022.687
       383   13 Jun 2027 09:53:40.851   13 Jun 2027 09:53:47.514             6.663          2058.500
       384   13 Jun 2027 09:54:15.192   13 Jun 2027 09:54:20.089             4.897           764.063
       385   13 Jun 2027 09:54:55.070   13 Jun 2027 09:54:59.273             4.203           567.406
       386   13 Jun 2027 09:55:22.219   13 Jun 2027 09:55:22.219             0.000             0.000
       387   13 Jun 2027 09:56:16.517   13 Jun 2027 09:56:21.479             4.962          2386.500
       388   13 Jun 2027 09:56:40.498   13 Jun 2027 09:56:42.615             2.117           472.406
       389   13 Jun 2027 09:57:00.734   13 Jun 2027 09:57:02.903             2.169           254.844
       390   13 Jun 2027 09:57:37.801   13 Jun 2027 09:57:40.965             3.164          1033.656
       391   13 Jun 2027 11:29:02.192   13 Jun 2027 11:29:15.589            13.397          6673.375
       392   13 Jun 2027 11:29:18.913   13 Jun 2027 11:29:21.170             2.257           103.875
       393   13 Jun 2027 11:30:00.945   13 Jun 2027 11:30:04.570             3.625          1139.531
       394   13 Jun 2027 11:31:12.660   13 Jun 2027 11:31:17.514             4.854          2127.812
       395   13 Jun 2027 11:31:37.907   13 Jun 2027 11:31:41.042             3.135           513.969
       396   13 Jun 2027 11:31:44.024   13 Jun 2027 11:31:44.384             0.360            35.781
       397   13 Jun 2027 11:32:38.238   13 Jun 2027 11:32:41.293             3.055           838.187
       398   13 Jun 2027 11:32:50.735   13 Jun 2027 11:32:52.520             1.785           106.719
