uniorb/output/strategy_1/Camera/Camera_KinoSat_111104.txt

KinoSat_111104
-------------------------
    Access    *     Start Time (UTCG)     *     Stop Time (UTCG)  *   Duration (s) *   Data (Mbytes)
         1   01 Jun 2027 03:33:33.071   01 Jun 2027 03:34:44.165            71.094         35547.000
         2   01 Jun 2027 03:45:07.447   01 Jun 2027 03:46:22.875            75.428         37714.000
         3   01 Jun 2027 05:07:44.926   01 Jun 2027 05:08:43.256            58.330         29165.000
         4   01 Jun 2027 05:09:30.696   01 Jun 2027 05:09:42.649            11.953          5976.500
         5   01 Jun 2027 05:09:47.412   01 Jun 2027 05:09:47.412             0.000             0.000
         6   01 Jun 2027 05:09:50.519   01 Jun 2027 05:10:00.197             9.678          4839.000
         7   01 Jun 2027 05:12:17.982   01 Jun 2027 05:12:19.017             1.035           517.500
         8   01 Jun 2027 06:42:53.890   01 Jun 2027 06:44:07.564            73.674         36837.000
         9   01 Jun 2027 06:44:36.534   01 Jun 2027 06:45:00.546            24.012         12006.000
        10   01 Jun 2027 06:46:08.845   01 Jun 2027 06:46:19.931            11.086          5543.000
        11   01 Jun 2027 06:46:27.301   01 Jun 2027 06:46:28.817             1.516           758.000
        12   01 Jun 2027 06:47:46.887   01 Jun 2027 06:47:49.283             2.396          1198.000
        13   01 Jun 2027 06:48:26.148   01 Jun 2027 06:48:26.148             0.000             0.000
        14   01 Jun 2027 06:48:35.213   01 Jun 2027 06:48:42.291             7.078          3539.000
        15   01 Jun 2027 06:49:03.621   01 Jun 2027 06:49:12.117             8.496          4248.000
        16   01 Jun 2027 08:19:40.819   01 Jun 2027 08:21:28.571           107.752         53876.000
        17   01 Jun 2027 08:22:10.137   01 Jun 2027 08:22:24.085            13.948          6974.000
        18   01 Jun 2027 08:22:46.120   01 Jun 2027 08:22:47.912             1.792           896.000
        19   01 Jun 2027 08:23:52.741   01 Jun 2027 08:24:12.397            19.656          9828.000
        20   01 Jun 2027 08:26:40.023   01 Jun 2027 08:26:51.315            11.292          5646.000
        21   01 Jun 2027 08:26:54.683   01 Jun 2027 08:27:00.153             5.470          2735.000
        22   01 Jun 2027 09:56:41.840   01 Jun 2027 09:58:42.604           120.764         60382.000
        23   01 Jun 2027 10:00:25.863   01 Jun 2027 10:00:32.591             6.728          3364.000
        24   01 Jun 2027 11:34:35.593   01 Jun 2027 11:36:48.138           132.545         66272.500
        25   01 Jun 2027 11:37:20.496   01 Jun 2027 11:37:38.308            17.812          8906.000
        26   02 Jun 2027 03:44:52.888   02 Jun 2027 03:45:13.638            20.750         10375.000
        27   02 Jun 2027 03:45:43.298   02 Jun 2027 03:46:11.512            28.214         14107.000
        28   02 Jun 2027 03:57:06.549   02 Jun 2027 03:58:04.779            58.230         29115.000
        29   02 Jun 2027 05:19:20.808   02 Jun 2027 05:20:28.266            67.458         33729.000
        30   02 Jun 2027 05:21:16.784   02 Jun 2027 05:21:24.801             8.017          4008.500
        31   02 Jun 2027 05:21:59.178   02 Jun 2027 05:22:15.893            16.715          8357.500
        32   02 Jun 2027 06:54:13.947   02 Jun 2027 06:55:58.635           104.688         52344.000
        33   02 Jun 2027 06:56:39.265   02 Jun 2027 06:56:39.895             0.630           315.000
        34   02 Jun 2027 06:57:05.985   02 Jun 2027 06:57:24.698            18.713          9356.500
        35   02 Jun 2027 06:58:07.774   02 Jun 2027 06:58:09.345             1.571           785.500
        36   02 Jun 2027 07:01:13.372   02 Jun 2027 07:01:13.372             0.000             0.000
        37   02 Jun 2027 07:02:17.384   02 Jun 2027 07:02:34.356            16.972          8486.000
        38   02 Jun 2027 07:02:39.844   02 Jun 2027 07:02:39.844             0.000             0.000
        39   02 Jun 2027 08:31:48.590   02 Jun 2027 08:33:44.398           115.808         57904.000
        40   02 Jun 2027 08:37:21.096   02 Jun 2027 08:37:51.982            30.886         15443.000
        41   02 Jun 2027 08:38:25.253   02 Jun 2027 08:38:28.522             3.269          1634.500
        42   02 Jun 2027 08:38:33.756   02 Jun 2027 08:38:40.386             6.630          3315.000
        43   02 Jun 2027 10:08:31.499   02 Jun 2027 10:10:38.401           126.902         63451.000
        44   02 Jun 2027 10:12:54.985   02 Jun 2027 10:12:57.593             2.608          1304.000
        45   02 Jun 2027 10:13:03.320   02 Jun 2027 10:13:06.471             3.151          1575.500
        46   02 Jun 2027 11:46:35.491   02 Jun 2027 11:48:14.788            99.297         49648.500
        47   02 Jun 2027 11:48:22.776   02 Jun 2027 11:48:26.436             3.660          1830.000
        48   02 Jun 2027 11:48:49.108   02 Jun 2027 11:48:58.270             9.162          4581.000
        49   03 Jun 2027 03:56:58.664   03 Jun 2027 03:57:44.397            45.733         22866.500
        50   03 Jun 2027 04:09:22.083   03 Jun 2027 04:09:39.253            17.170          8585.000
        51   03 Jun 2027 05:30:49.587   03 Jun 2027 05:32:54.573           124.986         62493.000
        52   03 Jun 2027 05:33:14.994   03 Jun 2027 05:33:14.994             0.000             0.000
        53   03 Jun 2027 05:36:22.116   03 Jun 2027 05:36:49.572            27.456         13728.000
        54   03 Jun 2027 07:05:43.846   03 Jun 2027 07:07:48.850           125.004         62502.000
        55   03 Jun 2027 07:08:03.692   03 Jun 2027 07:08:10.295             6.603          3301.500
        56   03 Jun 2027 07:08:41.651   03 Jun 2027 07:08:41.651             0.000             0.000
        57   03 Jun 2027 07:09:26.307   03 Jun 2027 07:09:34.813             8.506          4253.000
        58   03 Jun 2027 07:12:28.414   03 Jun 2027 07:12:37.108             8.694          4347.000
        59   03 Jun 2027 07:14:14.633   03 Jun 2027 07:14:14.633             0.000             0.000
        60   03 Jun 2027 07:14:40.670   03 Jun 2027 07:14:50.133             9.463          4731.500
        61   03 Jun 2027 08:43:43.683   03 Jun 2027 08:45:43.222           119.539         59769.500
        62   03 Jun 2027 08:48:10.705   03 Jun 2027 08:48:28.347            17.642          8821.000
        63   03 Jun 2027 08:49:44.392   03 Jun 2027 08:49:45.939             1.547           773.500
        64   03 Jun 2027 08:49:48.436   03 Jun 2027 08:49:48.436             0.000             0.000
        65   03 Jun 2027 08:50:13.867   03 Jun 2027 08:50:20.789             6.922          3461.000
        66   03 Jun 2027 08:50:29.711   03 Jun 2027 08:50:42.470            12.759          6379.500
        67   03 Jun 2027 08:50:50.785   03 Jun 2027 08:50:52.317             1.532           766.000
        68   03 Jun 2027 10:20:39.420   03 Jun 2027 10:21:50.878            71.458         34760.280
        69   03 Jun 2027 10:23:11.254   03 Jun 2027 10:23:13.240             1.986           993.000
        70   03 Jun 2027 10:24:42.176   03 Jun 2027 10:24:47.673             5.497          2748.500
        71   03 Jun 2027 10:26:27.971   03 Jun 2027 10:26:28.993             1.022           511.000
        72   03 Jun 2027 10:26:46.265   03 Jun 2027 10:26:53.116             6.851          3425.500
        73   03 Jun 2027 11:58:13.005   03 Jun 2027 11:58:30.002            16.997          8498.500
        74   03 Jun 2027 11:58:39.341   03 Jun 2027 11:58:40.830             1.489           476.406
        75   03 Jun 2027 11:59:05.962   03 Jun 2027 11:59:14.143             8.181           785.375
        76   04 Jun 2027 04:08:54.918   04 Jun 2027 04:09:46.109            51.191         25595.500
        77   04 Jun 2027 05:45:07.810   04 Jun 2027 05:47:14.913           127.103         63551.500
        78   04 Jun 2027 07:18:39.626   04 Jun 2027 07:21:01.188           141.562         70781.000
        79   04 Jun 2027 07:21:11.949   04 Jun 2027 07:21:20.010             8.061          4030.500
        80   04 Jun 2027 07:22:56.589   04 Jun 2027 07:22:56.589             0.000             0.000
        81   04 Jun 2027 07:25:30.118   04 Jun 2027 07:25:33.526             3.408          1704.000
        82   04 Jun 2027 07:27:13.275   04 Jun 2027 07:27:14.253             0.978           489.000
        83   04 Jun 2027 08:56:05.655   04 Jun 2027 08:56:33.388            27.733         12990.874
        84   04 Jun 2027 08:58:36.648   04 Jun 2027 08:58:40.728             4.080          1910.250
        85   04 Jun 2027 08:59:21.764   04 Jun 2027 08:59:22.010             0.246            28.062
        86   04 Jun 2027 08:59:41.319   04 Jun 2027 08:59:43.322             2.003           598.250
        87   04 Jun 2027 09:01:09.189   04 Jun 2027 09:01:15.038             5.849          2650.719
        88   04 Jun 2027 09:01:39.483   04 Jun 2027 09:01:44.262             4.779           763.906
        89   04 Jun 2027 09:02:10.925   04 Jun 2027 09:02:14.596             3.671           833.219
        90   04 Jun 2027 09:02:28.093   04 Jun 2027 09:02:31.092             2.999           421.781
        91   04 Jun 2027 09:02:33.420   04 Jun 2027 09:02:36.486             3.066            72.750
        92   04 Jun 2027 10:33:08.432   04 Jun 2027 10:33:26.543            18.111          7128.969
        93   04 Jun 2027 10:34:06.971   04 Jun 2027 10:34:12.162             5.191           889.500
        94   04 Jun 2027 10:34:34.727   04 Jun 2027 10:34:36.506             1.779           453.031
        95   04 Jun 2027 10:34:57.075   04 Jun 2027 10:35:00.005             2.930           642.781
        96   04 Jun 2027 10:35:22.967   04 Jun 2027 10:35:24.463             1.496           670.625
        97   04 Jun 2027 10:35:42.584   04 Jun 2027 10:35:43.746             1.162           312.250
        98   04 Jun 2027 10:35:47.187   04 Jun 2027 10:35:50.336             3.149           107.531
        99   04 Jun 2027 10:36:30.549   04 Jun 2027 10:36:34.028             3.479          1159.625
       100   04 Jun 2027 10:37:04.690   04 Jun 2027 10:37:07.331             2.641           827.188
       101   04 Jun 2027 10:38:09.759   04 Jun 2027 10:38:18.340             8.581          1459.094
       102   04 Jun 2027 10:38:42.010   04 Jun 2027 10:38:44.573             2.563           739.687
       103   04 Jun 2027 10:38:50.269   04 Jun 2027 10:38:55.975             5.706            53.187
       104   05 Jun 2027 03:00:00.000   05 Jun 2027 03:00:42.581            42.581         21290.500
       105   05 Jun 2027 04:20:46.678   05 Jun 2027 04:21:23.900            37.222         18611.000
       106   05 Jun 2027 04:22:45.198   05 Jun 2027 04:22:52.761             7.563          3781.500
       107   05 Jun 2027 05:57:13.338   05 Jun 2027 05:59:22.656           129.318         64659.000
       108   05 Jun 2027 05:59:53.800   05 Jun 2027 05:59:57.278             3.478          1739.000
       109   05 Jun 2027 07:29:22.848   05 Jun 2027 07:29:32.801             9.953          4976.500
       110   05 Jun 2027 07:31:17.987   05 Jun 2027 07:33:01.139           103.152         51576.000
       111   05 Jun 2027 07:36:01.132   05 Jun 2027 07:36:17.232            16.100          8050.000
       112   05 Jun 2027 07:38:03.185   05 Jun 2027 07:38:08.058             4.873          2436.500
       113   05 Jun 2027 07:38:10.593   05 Jun 2027 07:38:14.039             3.446          1723.000
       114   05 Jun 2027 07:39:09.008   05 Jun 2027 07:39:10.405             1.397           698.500
       115   05 Jun 2027 09:08:16.934   05 Jun 2027 09:08:36.397            19.463          8981.031
       116   05 Jun 2027 09:10:38.318   05 Jun 2027 09:10:42.500             4.182          2042.531
       117   05 Jun 2027 09:10:58.856   05 Jun 2027 09:11:00.250             1.394           511.125
       118   05 Jun 2027 09:11:06.390   05 Jun 2027 09:11:09.342             2.952            76.125
       119   05 Jun 2027 09:11:56.108   05 Jun 2027 09:11:58.873             2.765          1176.000
       120   05 Jun 2027 09:12:38.646   05 Jun 2027 09:12:44.144             5.498          1242.906
       121   05 Jun 2027 09:12:57.050   05 Jun 2027 09:12:57.050             0.000             0.000
       122   05 Jun 2027 09:12:59.632   05 Jun 2027 09:13:03.206             3.574           459.437
       123   05 Jun 2027 09:13:08.908   05 Jun 2027 09:13:14.067             5.159           178.188
       124   05 Jun 2027 09:13:31.268   05 Jun 2027 09:13:31.268             0.000             0.000
       125   05 Jun 2027 09:13:44.264   05 Jun 2027 09:13:49.443             5.179           943.656
       126   05 Jun 2027 09:14:48.772   05 Jun 2027 09:14:51.680             2.908           999.250
       127   05 Jun 2027 10:45:20.782   05 Jun 2027 10:45:35.914            15.132          6955.063
       128   05 Jun 2027 10:46:06.543   05 Jun 2027 10:46:09.642             3.099           941.562
       129   05 Jun 2027 10:46:17.633   05 Jun 2027 10:46:21.579             3.946           129.094
       130   05 Jun 2027 10:46:42.246   05 Jun 2027 10:46:43.538             1.292           440.812
       131   05 Jun 2027 10:47:25.646   05 Jun 2027 10:47:28.215             2.569          1104.969
       132   05 Jun 2027 10:47:47.749   05 Jun 2027 10:47:49.449             1.700           343.063
       133   05 Jun 2027 10:48:32.401   05 Jun 2027 10:48:35.630             3.229           745.813
       134   05 Jun 2027 10:48:48.221   05 Jun 2027 10:48:51.027             2.806           384.969
       135   05 Jun 2027 10:48:54.998   05 Jun 2027 10:48:57.139             2.141           124.094
       136   05 Jun 2027 10:49:34.782   05 Jun 2027 10:49:37.234             2.452          1176.344
       137   06 Jun 2027 03:09:55.643   06 Jun 2027 03:10:58.670            63.027         31513.500
       138   06 Jun 2027 03:11:58.200   06 Jun 2027 03:11:58.200             0.000             0.000
       139   06 Jun 2027 03:12:27.963   06 Jun 2027 03:12:39.249            11.286          5643.000
       140   06 Jun 2027 03:13:06.241   06 Jun 2027 03:13:12.007             5.766          2883.000
       141   06 Jun 2027 04:32:52.228   06 Jun 2027 04:33:06.850            14.622          7311.000
       142   06 Jun 2027 04:33:32.530   06 Jun 2027 04:33:39.857             7.327          3663.500
       143   06 Jun 2027 04:34:15.469   06 Jun 2027 04:34:26.114            10.645          5322.500
       144   06 Jun 2027 04:34:55.877   06 Jun 2027 04:35:22.636            26.759         13379.500
       145   06 Jun 2027 06:09:21.005   06 Jun 2027 06:10:53.247            92.242         46121.000
       146   06 Jun 2027 06:11:27.483   06 Jun 2027 06:11:27.483             0.000             0.000
       147   06 Jun 2027 06:11:45.378   06 Jun 2027 06:11:56.515            11.137          5568.500
       148   06 Jun 2027 07:44:28.634   06 Jun 2027 07:45:59.677            91.043         45521.500
       149   06 Jun 2027 07:46:39.066   06 Jun 2027 07:46:42.217             3.151          1575.500
       150   06 Jun 2027 07:46:51.825   06 Jun 2027 07:46:56.460             4.635          1206.561
       151   06 Jun 2027 07:48:16.039   06 Jun 2027 07:48:20.785             4.746          2356.062
       152   06 Jun 2027 07:50:31.417   06 Jun 2027 07:50:31.417             0.000             0.000
       153   06 Jun 2027 07:50:53.496   06 Jun 2027 07:50:58.038             4.542          2271.000
       154   06 Jun 2027 07:51:10.424   06 Jun 2027 07:51:12.888             2.464          1232.000
       155   06 Jun 2027 09:20:50.271   06 Jun 2027 09:21:13.822            23.551          8921.844
       156   06 Jun 2027 09:22:40.661   06 Jun 2027 09:22:48.164             7.503          1719.375
       157   06 Jun 2027 09:22:57.643   06 Jun 2027 09:22:58.305             0.662           209.344
       158   06 Jun 2027 09:23:07.236   06 Jun 2027 09:23:09.328             2.092           279.094
       159   06 Jun 2027 09:23:20.440   06 Jun 2027 09:23:23.047             2.607           300.938
       160   06 Jun 2027 09:25:16.521   06 Jun 2027 09:25:23.815             7.294          3403.844
       161   06 Jun 2027 09:25:43.985   06 Jun 2027 09:25:53.677             9.692           630.312
       162   06 Jun 2027 09:26:20.652   06 Jun 2027 09:26:21.664             1.012           377.438
       163   06 Jun 2027 09:26:51.092   06 Jun 2027 09:26:54.724             3.632           831.000
       164   06 Jun 2027 10:58:15.986   06 Jun 2027 10:58:35.508            19.522          9172.281
       165   06 Jun 2027 10:58:41.989   06 Jun 2027 10:58:45.578             3.589            72.906
       166   06 Jun 2027 10:59:06.297   06 Jun 2027 10:59:13.248             6.951           645.562
       167   06 Jun 2027 11:00:15.025   06 Jun 2027 11:00:18.651             3.626          1736.406
       168   06 Jun 2027 11:00:44.395   06 Jun 2027 11:00:46.477             2.082           321.625
       169   06 Jun 2027 11:00:56.365   06 Jun 2027 11:00:58.621             2.256            27.469
       170   06 Jun 2027 11:01:28.962   06 Jun 2027 11:01:32.204             3.242           944.750
       171   06 Jun 2027 11:02:28.734   06 Jun 2027 11:02:34.423             5.689          1659.312
       172   06 Jun 2027 11:02:39.050   06 Jun 2027 11:02:40.479             1.429           144.594
       173   07 Jun 2027 03:21:27.264   07 Jun 2027 03:22:04.976            37.712         18856.000
       174   07 Jun 2027 03:22:17.399   07 Jun 2027 03:23:00.369            42.970         21485.000
       175   07 Jun 2027 03:23:32.964   07 Jun 2027 03:23:35.885             2.921          1460.500
       176   07 Jun 2027 03:24:50.051   07 Jun 2027 03:24:57.910             7.859          3929.500
       177   07 Jun 2027 03:25:01.387   07 Jun 2027 03:25:01.931             0.544           272.000
       178   07 Jun 2027 04:44:55.189   07 Jun 2027 04:45:30.946            35.757         17878.500
       179   07 Jun 2027 04:45:53.522   07 Jun 2027 04:45:57.583             4.061          2030.500
       180   07 Jun 2027 06:21:24.019   07 Jun 2027 06:22:29.853            65.834         32917.000
       181   07 Jun 2027 06:24:20.464   07 Jun 2027 06:24:49.008            28.544         14272.000
       182   07 Jun 2027 07:56:35.629   07 Jun 2027 07:57:56.614            80.985         40373.781
       183   07 Jun 2027 07:59:24.337   07 Jun 2027 07:59:30.553             6.216          2670.313
       184   07 Jun 2027 08:01:41.977   07 Jun 2027 08:01:53.253            11.276          4066.625
       185   07 Jun 2027 08:02:00.580   07 Jun 2027 08:02:02.094             1.514           141.313
       186   07 Jun 2027 08:02:31.355   07 Jun 2027 08:02:33.475             2.120           914.406
       187   07 Jun 2027 08:02:52.244   07 Jun 2027 08:02:53.555             1.311           586.531
       188   07 Jun 2027 09:32:31.531   07 Jun 2027 09:32:54.774            23.243          9054.187
       189   07 Jun 2027 09:33:26.350   07 Jun 2027 09:33:28.874             2.524           803.031
       190   07 Jun 2027 09:34:06.404   07 Jun 2027 09:34:15.905             9.501          1172.813
       191   07 Jun 2027 09:34:40.801   07 Jun 2027 09:34:41.554             0.753           131.906
       192   07 Jun 2027 09:35:17.490   07 Jun 2027 09:35:18.173             0.683           227.656
       193   07 Jun 2027 09:35:43.935   07 Jun 2027 09:35:46.235             2.300           805.063
       194   07 Jun 2027 09:36:51.524   07 Jun 2027 09:37:00.214             8.690          2035.250
       195   07 Jun 2027 09:37:17.113   07 Jun 2027 09:37:18.372             1.259           466.781
       196   07 Jun 2027 09:37:38.596   07 Jun 2027 09:37:42.589             3.993           406.844
       197   07 Jun 2027 09:38:31.296   07 Jun 2027 09:38:36.105             4.809          1476.687
       198   07 Jun 2027 11:10:23.408   07 Jun 2027 11:10:37.344            13.936          6776.625
       199   07 Jun 2027 11:11:14.014   07 Jun 2027 11:11:18.450             4.436           998.406
       200   07 Jun 2027 11:12:11.836   07 Jun 2027 11:12:16.666             4.830          1345.625
       201   07 Jun 2027 11:13:13.647   07 Jun 2027 11:13:16.812             3.165          1514.500
       202   07 Jun 2027 11:13:37.816   07 Jun 2027 11:13:42.614             4.798           656.375
       203   07 Jun 2027 11:14:32.757   07 Jun 2027 11:14:36.164             3.407          1418.281
       204   07 Jun 2027 11:14:40.749   07 Jun 2027 11:14:41.436             0.687           143.281
       205   08 Jun 2027 03:22:31.431   08 Jun 2027 03:22:54.672            23.241         11620.500
       206   08 Jun 2027 03:33:24.700   08 Jun 2027 03:34:31.644            66.944         33472.000
       207   08 Jun 2027 03:35:02.186   08 Jun 2027 03:35:06.657             4.471          2235.500
       208   08 Jun 2027 03:35:34.792   08 Jun 2027 03:36:14.991            40.199         20099.500
       209   08 Jun 2027 04:57:21.879   08 Jun 2027 04:57:39.857            17.978          8989.000
       210   08 Jun 2027 04:57:54.341   08 Jun 2027 04:58:13.844            19.503          9751.500
       211   08 Jun 2027 04:59:47.405   08 Jun 2027 04:59:57.606            10.201          5100.500
       212   08 Jun 2027 06:33:08.075   08 Jun 2027 06:34:31.461            83.386         41693.000
       213   08 Jun 2027 06:35:12.869   08 Jun 2027 06:35:22.158             9.289          4644.500
       214   08 Jun 2027 06:35:48.005   08 Jun 2027 06:35:52.831             4.826          2413.000
       215   08 Jun 2027 06:36:27.031   08 Jun 2027 06:36:38.006            10.975          5487.500
       216   08 Jun 2027 08:07:51.117   08 Jun 2027 08:08:32.407            41.290         20644.938
       217   08 Jun 2027 08:10:01.332   08 Jun 2027 08:10:08.137             6.805          2778.906
       218   08 Jun 2027 08:10:40.386   08 Jun 2027 08:10:45.998             5.612           979.656
       219   08 Jun 2027 08:11:13.536   08 Jun 2027 08:11:13.536             0.000             0.000
       220   08 Jun 2027 08:11:19.548   08 Jun 2027 08:11:19.548             0.000             0.000
       221   08 Jun 2027 08:12:37.131   08 Jun 2027 08:12:44.685             7.554          2853.344
       222   08 Jun 2027 08:13:17.171   08 Jun 2027 08:13:22.936             5.765           653.125
       223   08 Jun 2027 08:13:52.221   08 Jun 2027 08:13:54.926             2.705           915.156
       224   08 Jun 2027 08:13:55.566   08 Jun 2027 08:13:56.170             0.604            18.844
       225   08 Jun 2027 08:15:07.243   08 Jun 2027 08:15:17.926            10.683          2155.406
       226   08 Jun 2027 09:44:37.285   08 Jun 2027 09:44:53.133            15.848          7518.875
       227   08 Jun 2027 09:45:02.595   08 Jun 2027 09:45:04.889             2.294           173.062
       228   08 Jun 2027 09:45:38.916   08 Jun 2027 09:45:41.163             2.247          1051.250
       229   08 Jun 2027 09:46:45.617   08 Jun 2027 09:46:46.897             1.280           614.531
       230   08 Jun 2027 09:47:20.887   08 Jun 2027 09:47:23.690             2.803          1024.719
       231   08 Jun 2027 09:47:39.486   08 Jun 2027 09:47:45.489             6.003           482.937
       232   08 Jun 2027 09:48:06.790   08 Jun 2027 09:48:09.203             2.413           662.969
       233   08 Jun 2027 09:48:55.962   08 Jun 2027 09:48:59.900             3.938          1409.438
       234   08 Jun 2027 09:49:30.635   08 Jun 2027 09:49:34.423             3.788           960.469
       235   08 Jun 2027 09:49:47.415   08 Jun 2027 09:49:49.100             1.685           406.000
       236   08 Jun 2027 09:50:27.164   08 Jun 2027 09:50:29.801             2.637          1189.500
       237   08 Jun 2027 09:50:50.161   08 Jun 2027 09:50:59.160             8.999           380.500
       238   08 Jun 2027 11:22:53.016   08 Jun 2027 11:23:09.282            16.266          7792.812
       239   08 Jun 2027 11:24:31.313   08 Jun 2027 11:24:37.069             5.756          2563.469
       240   08 Jun 2027 11:25:01.602   08 Jun 2027 11:25:05.086             3.484           587.406
       241   08 Jun 2027 11:25:17.780   08 Jun 2027 11:25:17.780             0.000             0.000
       242   08 Jun 2027 11:25:39.442   08 Jun 2027 11:25:42.002             2.560          1073.625
       243   08 Jun 2027 11:26:42.643   08 Jun 2027 11:26:45.775             3.132          1566.000
       244   09 Jun 2027 03:33:46.801   09 Jun 2027 03:34:25.391            38.590         19295.000
       245   09 Jun 2027 03:45:23.003   09 Jun 2027 03:46:51.021            88.018         44009.000
       246   09 Jun 2027 05:07:59.183   09 Jun 2027 05:08:58.127            58.944         29472.000
       247   09 Jun 2027 05:09:37.624   09 Jun 2027 05:09:45.242             7.618          3809.000
       248   09 Jun 2027 05:10:44.784   09 Jun 2027 05:10:53.561             8.777          4388.500
       249   09 Jun 2027 05:12:07.849   09 Jun 2027 05:12:07.849             0.000             0.000
       250   09 Jun 2027 05:12:20.145   09 Jun 2027 05:12:32.708            12.563          6281.500
       251   09 Jun 2027 06:43:08.978   09 Jun 2027 06:44:23.151            74.173         37086.500
       252   09 Jun 2027 06:44:51.507   09 Jun 2027 06:45:11.563            20.056         10028.000
       253   09 Jun 2027 06:45:40.020   09 Jun 2027 06:45:48.316             8.296          4148.000
       254   09 Jun 2027 08:19:56.853   09 Jun 2027 08:20:35.217            38.364         17497.125
       255   09 Jun 2027 08:20:47.597   09 Jun 2027 08:20:50.195             2.598            77.750
       256   09 Jun 2027 08:22:01.428   09 Jun 2027 08:22:05.477             4.049          2024.500
       257   09 Jun 2027 08:23:02.974   09 Jun 2027 08:23:09.046             6.072          1998.312
       258   09 Jun 2027 08:24:10.033   09 Jun 2027 08:24:14.516             4.483          1786.969
       259   09 Jun 2027 08:24:55.184   09 Jun 2027 08:24:57.269             2.085           864.313
       260   09 Jun 2027 08:25:18.937   09 Jun 2027 08:25:20.854             1.917           603.250
       261   09 Jun 2027 08:25:33.133   09 Jun 2027 08:25:39.651             6.518           290.469
       262   09 Jun 2027 08:26:31.059   09 Jun 2027 08:26:40.341             9.282          1606.500
       263   09 Jun 2027 09:56:57.774   09 Jun 2027 09:57:13.252            15.478          7739.000
       264   09 Jun 2027 09:57:19.103   09 Jun 2027 09:57:21.042             1.939           783.594
       265   09 Jun 2027 09:58:13.764   09 Jun 2027 09:58:18.191             4.427          1230.219
       266   09 Jun 2027 09:59:30.104   09 Jun 2027 09:59:34.424             4.320          2092.562
       267   09 Jun 2027 10:00:13.786   09 Jun 2027 10:00:21.022             7.236           614.469
       268   09 Jun 2027 10:00:55.383   09 Jun 2027 10:00:57.711             2.328          1073.781
       269   09 Jun 2027 10:01:16.633   09 Jun 2027 10:01:18.761             2.128           591.312
       270   09 Jun 2027 10:01:35.934   09 Jun 2027 10:01:41.871             5.937           532.125
       271   09 Jun 2027 10:02:58.005   09 Jun 2027 10:03:04.793             6.788          2126.938
       272   09 Jun 2027 11:34:51.176   09 Jun 2027 11:34:59.594             8.418          4209.000
       273   09 Jun 2027 11:35:17.351   09 Jun 2027 11:35:23.498             6.147          2810.094
       274   09 Jun 2027 11:35:26.013   09 Jun 2027 11:35:26.105             0.092            46.000
       275   09 Jun 2027 11:36:10.501   09 Jun 2027 11:36:17.157             6.656          1419.969
       276   09 Jun 2027 11:36:33.026   09 Jun 2027 11:36:34.489             1.463            76.406
       277   09 Jun 2027 11:36:36.385   09 Jun 2027 11:36:40.063             3.678            59.250
       278   09 Jun 2027 11:37:01.706   09 Jun 2027 11:37:02.793             1.087           543.500
       279   09 Jun 2027 11:37:18.779   09 Jun 2027 11:37:24.660             5.881           614.313
       280   09 Jun 2027 11:38:01.514   09 Jun 2027 11:38:05.918             4.404          1026.406
       281   09 Jun 2027 11:38:21.756   09 Jun 2027 11:38:25.496             3.740           494.937
       282   10 Jun 2027 03:45:08.327   10 Jun 2027 03:46:26.746            78.419         39209.500
       283   10 Jun 2027 03:57:22.078   10 Jun 2027 03:58:19.694            57.616         28808.000
       284   10 Jun 2027 05:19:34.868   10 Jun 2027 05:20:43.853            68.985         34492.500
       285   10 Jun 2027 05:21:31.738   10 Jun 2027 05:22:02.528            30.790         15395.000
       286   10 Jun 2027 06:54:28.664   10 Jun 2027 06:56:10.318           101.654         50827.000
       287   10 Jun 2027 06:56:54.334   10 Jun 2027 06:57:00.658             6.324          3162.000
       288   10 Jun 2027 06:57:18.269   10 Jun 2027 06:57:23.770             5.501          2139.406
       289   10 Jun 2027 06:58:25.927   10 Jun 2027 06:58:30.377             4.450          1942.406
       290   10 Jun 2027 07:02:32.481   10 Jun 2027 07:02:46.766            14.285          6587.656
       291   10 Jun 2027 08:32:03.636   10 Jun 2027 08:32:22.153            18.517          7895.969
       292   10 Jun 2027 08:34:00.914   10 Jun 2027 08:34:08.626             7.712          2105.156
       293   10 Jun 2027 08:34:58.569   10 Jun 2027 08:34:58.569             0.000             0.000
       294   10 Jun 2027 08:35:03.887   10 Jun 2027 08:35:09.259             5.372          1726.906
       295   10 Jun 2027 08:35:57.613   10 Jun 2027 08:36:08.325            10.712           901.469
       296   10 Jun 2027 08:36:42.605   10 Jun 2027 08:36:46.009             3.404          1071.250
       297   10 Jun 2027 08:37:37.197   10 Jun 2027 08:37:40.302             3.105          1365.375
       298   10 Jun 2027 08:38:31.385   10 Jun 2027 08:38:38.938             7.553          1488.969
       299   10 Jun 2027 08:38:43.756   10 Jun 2027 08:38:48.621             4.865           146.156
       300   10 Jun 2027 10:08:46.844   10 Jun 2027 10:09:06.177            19.333          7813.031
       301   10 Jun 2027 10:09:48.630   10 Jun 2027 10:09:51.405             2.775          1165.531
       302   10 Jun 2027 10:10:38.940   10 Jun 2027 10:10:40.957             2.017           589.781
       303   10 Jun 2027 10:11:09.320   10 Jun 2027 10:11:10.351             1.031           417.594
       304   10 Jun 2027 10:12:13.723   10 Jun 2027 10:12:20.774             7.051          1834.000
       305   10 Jun 2027 10:13:17.743   10 Jun 2027 10:13:21.050             3.307          1653.500
       306   10 Jun 2027 10:13:39.082   10 Jun 2027 10:13:40.737             1.655           649.594
       307   10 Jun 2027 10:13:56.649   10 Jun 2027 10:13:59.381             2.732           356.562
       308   10 Jun 2027 10:14:46.885   10 Jun 2027 10:14:50.948             4.063          1245.563
       309   10 Jun 2027 10:15:15.533   10 Jun 2027 10:15:19.852             4.319           768.281
       310   10 Jun 2027 11:46:50.527   10 Jun 2027 11:47:12.826            22.299          8091.906
       311   10 Jun 2027 11:47:20.784   10 Jun 2027 11:47:21.673             0.889            57.781
       312   10 Jun 2027 11:48:13.913   10 Jun 2027 11:48:18.256             4.343          1426.156
       313   10 Jun 2027 11:48:37.556   10 Jun 2027 11:48:39.884             2.328           496.688
       314   10 Jun 2027 11:49:50.735   10 Jun 2027 11:49:56.827             6.092          2173.719
       315   11 Jun 2027 03:57:13.702   11 Jun 2027 03:58:01.127            47.425         23712.500
       316   11 Jun 2027 03:58:04.004   11 Jun 2027 03:58:05.350             1.346           673.000
       317   11 Jun 2027 04:09:42.859   11 Jun 2027 04:09:54.057            11.198          5599.000
       318   11 Jun 2027 05:31:04.267   11 Jun 2027 05:33:10.513           126.246         63123.000
       319   11 Jun 2027 05:34:44.380   11 Jun 2027 05:34:44.380             0.000             0.000
       320   11 Jun 2027 05:35:14.603   11 Jun 2027 05:35:35.098            20.495         10247.500
       321   11 Jun 2027 05:36:19.448   11 Jun 2027 05:36:26.286             6.838          3419.000
       322   11 Jun 2027 07:05:59.095   11 Jun 2027 07:08:04.861           125.766         62883.000
       323   11 Jun 2027 07:09:36.598   11 Jun 2027 07:09:41.365             4.767          2383.500
       324   11 Jun 2027 07:09:50.405   11 Jun 2027 07:09:50.405             0.000             0.000
       325   11 Jun 2027 07:10:02.348   11 Jun 2027 07:10:03.552             1.204           602.000
       326   11 Jun 2027 07:10:36.363   11 Jun 2027 07:10:40.746             4.383          2191.500
       327   11 Jun 2027 07:11:08.432   11 Jun 2027 07:11:11.615             3.183          1591.500
       328   11 Jun 2027 07:13:46.016   11 Jun 2027 07:13:54.072             8.056          4028.000
       329   11 Jun 2027 07:14:03.097   11 Jun 2027 07:14:04.384             1.287           643.500
       330   11 Jun 2027 07:14:55.462   11 Jun 2027 07:14:58.092             2.630          1315.000
       331   11 Jun 2027 08:43:59.398   11 Jun 2027 08:44:22.123            22.725         10902.313
       332   11 Jun 2027 08:44:59.494   11 Jun 2027 08:45:08.576             9.082          1063.813
       333   11 Jun 2027 08:45:24.444   11 Jun 2027 08:45:25.315             0.871           289.531
       334   11 Jun 2027 08:46:17.143   11 Jun 2027 08:46:19.907             2.764           910.250
       335   11 Jun 2027 08:47:11.377   11 Jun 2027 08:47:13.921             2.544           847.625
       336   11 Jun 2027 08:47:30.657   11 Jun 2027 08:47:33.576             2.919           208.844
       337   11 Jun 2027 08:47:48.047   11 Jun 2027 08:47:52.380             4.333           452.219
       338   11 Jun 2027 08:48:14.750   11 Jun 2027 08:48:17.896             3.146           404.438
       339   11 Jun 2027 08:48:21.527   11 Jun 2027 08:48:21.994             0.467           104.125
       340   11 Jun 2027 08:49:59.110   11 Jun 2027 08:50:03.599             4.489          2244.500
       341   11 Jun 2027 08:51:07.565   11 Jun 2027 08:51:16.957             9.392          2090.750
       342   11 Jun 2027 10:20:53.910   11 Jun 2027 10:21:14.521            20.611          8291.906
       343   11 Jun 2027 10:22:42.927   11 Jun 2027 10:22:48.215             5.288          2492.656
       344   11 Jun 2027 10:23:15.477   11 Jun 2027 10:23:15.727             0.250           125.000
       345   11 Jun 2027 10:23:56.181   11 Jun 2027 10:23:57.751             1.570           785.000
       346   11 Jun 2027 10:24:09.259   11 Jun 2027 10:24:12.489             3.230           972.875
       347   11 Jun 2027 10:25:02.180   11 Jun 2027 10:25:06.360             4.180          1552.844
       348   11 Jun 2027 10:25:10.914   11 Jun 2027 10:25:12.131             1.217           142.312
       349   11 Jun 2027 10:25:39.119   11 Jun 2027 10:25:41.368             2.249           843.375
       350   11 Jun 2027 10:26:42.602   11 Jun 2027 10:26:43.903             1.301           650.500
       351   11 Jun 2027 10:27:14.668   11 Jun 2027 10:27:21.184             6.516          2224.469
       352   11 Jun 2027 11:58:28.043   11 Jun 2027 11:58:41.300            13.257          6374.531
       353   11 Jun 2027 11:58:54.981   11 Jun 2027 11:58:55.352             0.371           185.500
       354   11 Jun 2027 11:59:20.826   11 Jun 2027 11:59:29.034             8.208          1038.094
       355   12 Jun 2027 04:09:10.536   12 Jun 2027 04:10:02.867            52.331         26165.500
       356   12 Jun 2027 05:45:22.332   12 Jun 2027 05:47:11.388           109.056         54528.000
       357   12 Jun 2027 05:47:20.554   12 Jun 2027 05:47:57.354            36.800         18400.000
       358   12 Jun 2027 07:18:55.663   12 Jun 2027 07:20:56.413           120.750         60375.000
       359   12 Jun 2027 07:21:26.078   12 Jun 2027 07:21:35.859             9.781          4205.281
       360   12 Jun 2027 07:25:49.770   12 Jun 2027 07:25:49.770             0.000             0.000
       361   12 Jun 2027 07:25:57.196   12 Jun 2027 07:26:02.199             5.003          2501.500
       362   12 Jun 2027 07:26:32.249   12 Jun 2027 07:26:36.925             4.676          2338.000
       363   12 Jun 2027 07:26:47.064   12 Jun 2027 07:26:57.208            10.144          4583.188
       364   12 Jun 2027 07:27:16.064   12 Jun 2027 07:27:17.653             1.589           589.250
       365   12 Jun 2027 08:56:21.523   12 Jun 2027 08:56:44.353            22.830         11190.656
       366   12 Jun 2027 08:58:51.494   12 Jun 2027 08:58:52.833             1.339           669.500
       367   12 Jun 2027 09:00:13.290   12 Jun 2027 09:00:25.048            11.758          3754.469
       368   12 Jun 2027 09:00:51.029   12 Jun 2027 09:00:54.537             3.508           402.812
       369   12 Jun 2027 09:01:24.821   12 Jun 2027 09:01:27.909             3.088           708.750
       370   12 Jun 2027 09:01:54.667   12 Jun 2027 09:01:54.667             0.000             0.000
       371   12 Jun 2027 09:02:30.596   12 Jun 2027 09:02:35.863             5.267          1811.000
       372   12 Jun 2027 09:03:02.283   12 Jun 2027 09:03:08.540             6.257           587.375
       373   12 Jun 2027 10:33:23.335   12 Jun 2027 10:33:42.464            19.129          7705.375
       374   12 Jun 2027 10:34:26.569   12 Jun 2027 10:34:26.810             0.241            95.656
       375   12 Jun 2027 10:35:13.669   12 Jun 2027 10:35:15.181             1.512           721.531
       376   12 Jun 2027 10:36:34.347   12 Jun 2027 10:36:41.132             6.785          2473.937
       377   12 Jun 2027 10:36:53.431   12 Jun 2027 10:36:54.267             0.836           384.344
       378   12 Jun 2027 10:37:10.153   12 Jun 2027 10:37:12.628             2.475           496.438
       379   12 Jun 2027 10:37:21.673   12 Jun 2027 10:37:23.307             1.634           101.844
       380   12 Jun 2027 10:37:39.367   12 Jun 2027 10:37:42.060             2.693           501.875
       381   12 Jun 2027 10:38:43.535   12 Jun 2027 10:38:50.870             7.335          1894.500
       382   13 Jun 2027 03:00:00.000   13 Jun 2027 03:00:08.137             8.137          4068.500
       383   13 Jun 2027 03:01:00.527   13 Jun 2027 03:01:09.843             9.316          4658.000
       384   13 Jun 2027 03:01:49.982   13 Jun 2027 03:02:10.847            20.865         10432.500
       385   13 Jun 2027 04:21:01.344   13 Jun 2027 04:21:38.723            37.379         18689.500
       386   13 Jun 2027 04:21:56.921   13 Jun 2027 04:22:30.003            33.082         16541.000
       387   13 Jun 2027 05:57:28.880   13 Jun 2027 05:59:21.218           112.338         56169.000
       388   13 Jun 2027 07:29:39.350   13 Jun 2027 07:29:46.295             6.945          3472.500
       389   13 Jun 2027 07:31:34.268   13 Jun 2027 07:33:30.555           116.287         58143.500
       390   13 Jun 2027 07:34:10.328   13 Jun 2027 07:34:21.317            10.989          5051.875
       391   13 Jun 2027 07:35:21.778   13 Jun 2027 07:35:25.364             3.586          1793.000
       392   13 Jun 2027 07:37:20.304   13 Jun 2027 07:37:28.123             7.819          3681.000
       393   13 Jun 2027 07:38:34.352   13 Jun 2027 07:38:34.739             0.387           193.500
       394   13 Jun 2027 09:08:32.252   13 Jun 2027 09:08:48.803            16.551          8198.375
       395   13 Jun 2027 09:10:31.235   13 Jun 2027 09:10:34.025             2.790          1239.031
       396   13 Jun 2027 09:11:00.963   13 Jun 2027 09:11:01.924             0.961           310.969
       397   13 Jun 2027 09:11:19.288   13 Jun 2027 09:11:21.763             2.475           542.625
       398   13 Jun 2027 09:12:33.382   13 Jun 2027 09:12:38.563             5.181          2238.094
       399   13 Jun 2027 09:13:01.178   13 Jun 2027 09:13:01.178             0.000             0.000
       400   13 Jun 2027 09:13:12.720   13 Jun 2027 09:13:14.286             1.566           783.000
       401   13 Jun 2027 09:13:31.629   13 Jun 2027 09:13:33.593             1.964           826.375
       402   13 Jun 2027 09:14:32.330   13 Jun 2027 09:14:34.139             1.809           904.500
       403   13 Jun 2027 09:15:09.594   13 Jun 2027 09:15:13.905             4.311          1944.750
       404   13 Jun 2027 10:45:41.752   13 Jun 2027 10:45:56.993            15.241          6848.875
       405   13 Jun 2027 10:46:30.220   13 Jun 2027 10:46:32.275             2.055          1027.000
       406   13 Jun 2027 10:47:06.662   13 Jun 2027 10:47:10.799             4.137           733.656
       407   13 Jun 2027 10:47:34.225   13 Jun 2027 10:47:41.601             7.376           732.063
       408   13 Jun 2027 10:47:51.512   13 Jun 2027 10:47:55.265             3.753           309.719
       409   13 Jun 2027 10:48:35.501   13 Jun 2027 10:48:38.982             3.481          1217.844
       410   13 Jun 2027 10:48:50.986   13 Jun 2027 10:48:51.605             0.619           309.500
       411   13 Jun 2027 10:48:59.146   13 Jun 2027 10:49:00.194             1.048           295.156
       412   13 Jun 2027 10:49:10.754   13 Jun 2027 10:49:11.798             1.044           148.875
       413   13 Jun 2027 10:49:49.442   13 Jun 2027 10:49:53.617             4.175          1176.375
       414   13 Jun 2027 10:50:06.006   13 Jun 2027 10:50:10.007             4.001           249.469
