uniorb/output/strategy_1/Camera/Camera_KinoSat_110309.txt

KinoSat_110309
-------------------------
    Access    *     Start Time (UTCG)     *     Stop Time (UTCG)  *   Duration (s) *   Data (Mbytes)
         1   01 Jun 2027 03:18:23.544   01 Jun 2027 03:19:49.921            86.377         43188.500
         2   01 Jun 2027 03:21:38.156   01 Jun 2027 03:22:01.289            23.133         11566.500
         3   01 Jun 2027 03:22:51.670   01 Jun 2027 03:23:07.097            15.427          7713.500
         4   01 Jun 2027 03:24:06.441   01 Jun 2027 03:24:13.666             7.225          3612.500
         5   01 Jun 2027 03:24:17.166   01 Jun 2027 03:24:22.641             5.475          2737.500
         6   01 Jun 2027 03:25:11.966   01 Jun 2027 03:25:16.420             4.454          2227.000
         7   01 Jun 2027 04:54:31.693   01 Jun 2027 04:56:57.512           145.819         72909.500
         8   01 Jun 2027 04:56:57.964   01 Jun 2027 04:57:23.975            26.011         13005.500
         9   01 Jun 2027 04:57:54.390   01 Jun 2027 04:58:07.239            12.849          6424.500
        10   01 Jun 2027 05:00:02.049   01 Jun 2027 05:00:20.519            18.470          9235.000
        11   01 Jun 2027 05:00:41.838   01 Jun 2027 05:00:53.947            12.109          6054.500
        12   01 Jun 2027 05:01:04.088   01 Jun 2027 05:01:11.374             7.286          3643.000
        13   01 Jun 2027 06:32:15.941   01 Jun 2027 06:34:58.022           162.081         81040.500
        14   01 Jun 2027 06:35:24.553   01 Jun 2027 06:35:30.831             6.278          3139.000
        15   01 Jun 2027 06:35:58.493   01 Jun 2027 06:36:18.342            19.849          9924.500
        16   01 Jun 2027 08:08:21.397   01 Jun 2027 08:10:57.601           156.204         78102.000
        17   01 Jun 2027 08:11:45.184   01 Jun 2027 08:12:12.918            27.734         13867.000
        18   02 Jun 2027 03:30:40.994   02 Jun 2027 03:36:08.687           327.693        163846.500
        19   02 Jun 2027 03:36:56.203   02 Jun 2027 03:37:17.116            20.913         10456.500
        20   02 Jun 2027 05:07:04.071   02 Jun 2027 05:10:10.308           186.237         93118.500
        21   02 Jun 2027 05:10:39.056   02 Jun 2027 05:10:39.265             0.209           104.500
        22   02 Jun 2027 05:11:03.549   02 Jun 2027 05:11:18.727            15.178          7589.000
        23   02 Jun 2027 05:11:26.867   02 Jun 2027 05:11:34.950             8.083          4041.500
        24   02 Jun 2027 06:44:21.229   02 Jun 2027 06:46:48.960           147.731         73865.500
        25   02 Jun 2027 06:47:34.740   02 Jun 2027 06:47:53.567            18.827          9413.500
        26   02 Jun 2027 06:48:10.726   02 Jun 2027 06:48:14.527             3.801          1900.500
        27   02 Jun 2027 08:20:34.204   02 Jun 2027 08:23:13.898           159.694         79847.000
        28   02 Jun 2027 08:23:37.721   02 Jun 2027 08:23:38.444             0.723           361.500
        29   02 Jun 2027 08:24:43.459   02 Jun 2027 08:25:07.926            24.467         12233.500
        30   03 Jun 2027 03:42:18.799   03 Jun 2027 03:48:42.146           383.347        191673.500
        31   03 Jun 2027 03:48:55.888   03 Jun 2027 03:49:26.032            30.144         15072.000
        32   03 Jun 2027 05:18:38.299   03 Jun 2027 05:22:16.463           218.164        109082.000
        33   03 Jun 2027 05:23:25.002   03 Jun 2027 05:23:30.053             5.051          2525.500
        34   03 Jun 2027 05:23:57.066   03 Jun 2027 05:24:17.707            20.641         10320.500
        35   03 Jun 2027 06:56:54.240   03 Jun 2027 06:59:23.985           149.745         74872.500
        36   03 Jun 2027 06:59:33.743   03 Jun 2027 06:59:36.583             2.840          1420.000
        37   03 Jun 2027 07:00:05.812   03 Jun 2027 07:00:28.385            22.573         11286.500
        38   03 Jun 2027 08:32:14.845   03 Jun 2027 08:34:41.861           147.016         73508.000
        39   03 Jun 2027 08:35:37.451   03 Jun 2027 08:35:43.047             5.596          2798.000
        40   03 Jun 2027 08:36:07.698   03 Jun 2027 08:36:25.113            17.415          8707.500
        41   03 Jun 2027 08:37:00.927   03 Jun 2027 08:37:10.783             9.856          4928.000
        42   03 Jun 2027 08:37:40.981   03 Jun 2027 08:37:45.045             4.064          2032.000
        43   04 Jun 2027 03:53:52.342   04 Jun 2027 03:59:28.806           336.464        168232.000
        44   04 Jun 2027 04:01:16.283   04 Jun 2027 04:01:26.593            10.310          5155.000
        45   04 Jun 2027 05:30:58.234   04 Jun 2027 05:33:48.356           170.122         85061.000
        46   04 Jun 2027 05:34:19.418   04 Jun 2027 05:34:42.898            23.480         11740.000
        47   04 Jun 2027 05:37:03.357   04 Jun 2027 05:37:20.613            17.256          8628.000
        48   04 Jun 2027 07:08:56.479   04 Jun 2027 07:11:42.947           166.468         83234.000
        49   04 Jun 2027 07:12:03.661   04 Jun 2027 07:12:10.031             6.370          3185.000
        50   04 Jun 2027 08:42:05.335   04 Jun 2027 08:43:03.817            58.482         29241.000
        51   04 Jun 2027 08:43:19.827   04 Jun 2027 08:43:35.979            16.152          8076.000
        52   04 Jun 2027 08:44:51.090   04 Jun 2027 08:44:59.832             8.742          4371.000
        53   04 Jun 2027 08:46:06.251   04 Jun 2027 08:46:25.559            19.308          9654.000
        54   04 Jun 2027 08:46:55.266   04 Jun 2027 08:47:05.955            10.689          5344.500
        55   04 Jun 2027 08:47:56.623   04 Jun 2027 08:48:02.050             5.427          2713.500
        56   04 Jun 2027 08:49:17.384   04 Jun 2027 08:49:34.311            16.927          8463.500
        57   04 Jun 2027 08:49:45.055   04 Jun 2027 08:49:50.723             5.668          2834.000
        58   05 Jun 2027 04:06:11.920   05 Jun 2027 04:11:37.321           325.401        162700.500
        59   05 Jun 2027 04:12:26.711   05 Jun 2027 04:12:48.842            22.131         11065.500
        60   05 Jun 2027 04:13:30.326   05 Jun 2027 04:13:30.799             0.473           236.500
        61   05 Jun 2027 05:42:59.636   05 Jun 2027 05:46:18.138           198.502         99251.000
        62   05 Jun 2027 05:46:25.747   05 Jun 2027 05:46:32.778             7.031          3515.500
        63   05 Jun 2027 05:47:36.171   05 Jun 2027 05:47:45.969             9.798          4899.000
        64   05 Jun 2027 05:48:29.433   05 Jun 2027 05:49:00.279            30.846         15423.000
        65   05 Jun 2027 07:20:56.730   05 Jun 2027 07:23:21.175           144.445         72222.500
        66   05 Jun 2027 07:23:24.862   05 Jun 2027 07:23:39.561            14.699          7349.500
        67   05 Jun 2027 08:54:32.481   05 Jun 2027 08:54:57.688            25.207         12603.500
        68   05 Jun 2027 08:55:09.168   05 Jun 2027 08:55:30.466            21.298         10649.000
        69   05 Jun 2027 08:57:30.315   05 Jun 2027 08:57:46.294            15.979          7989.500
        70   05 Jun 2027 08:58:26.915   05 Jun 2027 08:58:30.032             3.117          1558.500
        71   05 Jun 2027 08:58:55.214   05 Jun 2027 08:59:21.018            25.804         12902.000
        72   05 Jun 2027 09:00:52.088   05 Jun 2027 09:01:02.803            10.715          5357.500
        73   05 Jun 2027 09:01:57.153   05 Jun 2027 09:01:59.585             2.432          1216.000
        74   06 Jun 2027 04:18:05.756   06 Jun 2027 04:24:00.147           354.391        177195.500
        75   06 Jun 2027 04:24:09.443   06 Jun 2027 04:24:26.438            16.995          8497.500
        76   06 Jun 2027 04:25:19.617   06 Jun 2027 04:25:22.817             3.200          1600.000
        77   06 Jun 2027 05:54:50.229   06 Jun 2027 05:58:39.586           229.357        114678.500
        78   06 Jun 2027 05:59:44.559   06 Jun 2027 06:00:00.711            16.152          8076.000
        79   06 Jun 2027 06:00:43.127   06 Jun 2027 06:00:43.617             0.490           245.000
        80   06 Jun 2027 06:00:49.853   06 Jun 2027 06:01:11.345            21.492         10746.000
        81   06 Jun 2027 07:32:58.823   06 Jun 2027 07:35:18.593           139.770         69885.000
        82   06 Jun 2027 07:35:41.567   06 Jun 2027 07:35:43.441             1.874           937.000
        83   06 Jun 2027 07:35:52.427   06 Jun 2027 07:35:53.846             1.419           709.500
        84   06 Jun 2027 07:36:07.928   06 Jun 2027 07:36:12.243             4.315          2157.500
        85   06 Jun 2027 09:06:49.526   06 Jun 2027 09:07:26.834            37.308         18654.000
        86   06 Jun 2027 09:08:32.689   06 Jun 2027 09:08:41.995             9.306          4653.000
        87   06 Jun 2027 09:09:55.689   06 Jun 2027 09:10:28.394            32.705         16352.500
        88   06 Jun 2027 09:11:59.147   06 Jun 2027 09:11:59.740             0.593           296.500
        89   06 Jun 2027 09:12:25.853   06 Jun 2027 09:12:32.097             6.244          3122.000
        90   06 Jun 2027 09:12:37.299   06 Jun 2027 09:12:45.135             7.836          3918.000
        91   07 Jun 2027 03:00:00.000   07 Jun 2027 03:00:22.843            22.843         11421.500
        92   07 Jun 2027 03:00:35.275   07 Jun 2027 03:01:35.513            60.238         30119.000
        93   07 Jun 2027 04:30:12.607   07 Jun 2027 04:34:52.863           280.256        140128.000
        94   07 Jun 2027 04:35:21.978   07 Jun 2027 04:35:29.186             7.208          3604.000
        95   07 Jun 2027 04:35:44.282   07 Jun 2027 04:35:50.338             6.056          3028.000
        96   07 Jun 2027 04:36:43.769   07 Jun 2027 04:37:01.321            17.552          8776.000
        97   07 Jun 2027 06:07:15.518   07 Jun 2027 06:09:51.490           155.972         77986.000
        98   07 Jun 2027 06:10:15.996   07 Jun 2027 06:10:27.869            11.873          5936.500
        99   07 Jun 2027 06:10:41.589   07 Jun 2027 06:11:01.574            19.985          9992.500
       100   07 Jun 2027 06:11:14.619   07 Jun 2027 06:11:16.816             2.197          1098.500
       101   07 Jun 2027 06:11:45.998   07 Jun 2027 06:11:58.792            12.794          6397.000
       102   07 Jun 2027 06:12:35.471   07 Jun 2027 06:12:37.365             1.894           947.000
       103   07 Jun 2027 06:13:01.898   07 Jun 2027 06:13:04.671             2.773          1386.500
       104   07 Jun 2027 07:44:12.232   07 Jun 2027 07:46:34.059           141.827         70913.500
       105   07 Jun 2027 07:47:15.944   07 Jun 2027 07:47:23.336             7.392          3696.000
       106   07 Jun 2027 07:47:46.849   07 Jun 2027 07:47:53.278             6.429          3214.500
       107   07 Jun 2027 07:48:54.940   07 Jun 2027 07:49:05.090            10.150          5075.000
       108   07 Jun 2027 09:19:16.637   07 Jun 2027 09:19:40.801            24.164         12082.000
       109   07 Jun 2027 09:20:59.387   07 Jun 2027 09:21:25.093            25.706         12853.000
       110   07 Jun 2027 09:22:55.990   07 Jun 2027 09:23:17.654            21.664         10832.000
       111   08 Jun 2027 03:03:45.723   08 Jun 2027 03:07:18.098           212.375        106187.500
       112   08 Jun 2027 03:07:49.465   08 Jun 2027 03:08:16.704            27.239         13619.500
       113   08 Jun 2027 03:08:21.094   08 Jun 2027 03:08:23.940             2.846          1423.000
       114   08 Jun 2027 03:09:25.731   08 Jun 2027 03:09:46.174            20.443         10221.500
       115   08 Jun 2027 03:10:15.561   08 Jun 2027 03:10:38.213            22.652         11326.000
       116   08 Jun 2027 03:12:17.813   08 Jun 2027 03:12:18.940             1.127           563.500
       117   08 Jun 2027 03:13:31.791   08 Jun 2027 03:13:34.251             2.460          1230.000
       118   08 Jun 2027 04:42:38.885   08 Jun 2027 04:44:39.947           121.062         60531.000
       119   08 Jun 2027 04:44:54.323   08 Jun 2027 04:45:20.972            26.649         13324.500
       120   08 Jun 2027 04:45:56.345   08 Jun 2027 04:46:04.860             8.515          4257.500
       121   08 Jun 2027 04:46:06.653   08 Jun 2027 04:46:16.726            10.073          5036.500
       122   08 Jun 2027 04:47:52.407   08 Jun 2027 04:48:16.201            23.794         11897.000
       123   08 Jun 2027 04:48:28.260   08 Jun 2027 04:48:36.638             8.378          4189.000
       124   08 Jun 2027 06:19:35.589   08 Jun 2027 06:21:47.979           132.390         66195.000
       125   08 Jun 2027 06:22:18.069   08 Jun 2027 06:22:31.890            13.821          6910.500
       126   08 Jun 2027 06:23:11.656   08 Jun 2027 06:23:33.530            21.874         10937.000
       127   08 Jun 2027 06:23:59.678   08 Jun 2027 06:24:02.315             2.637          1318.500
       128   08 Jun 2027 06:24:26.841   08 Jun 2027 06:24:43.115            16.274          8137.000
       129   08 Jun 2027 07:56:25.679   08 Jun 2027 07:58:23.381           117.702         58851.000
       130   08 Jun 2027 07:58:52.707   08 Jun 2027 07:59:02.514             9.807          4903.500
       131   08 Jun 2027 08:00:02.662   08 Jun 2027 08:00:24.303            21.641         10820.500
       132   08 Jun 2027 09:34:31.412   08 Jun 2027 09:34:56.754            25.342         12671.000
       133   09 Jun 2027 03:18:38.338   09 Jun 2027 03:22:56.433           258.095        129047.500
       134   09 Jun 2027 03:25:26.597   09 Jun 2027 03:25:31.233             4.636          2318.000
       135   09 Jun 2027 04:54:47.989   09 Jun 2027 04:56:57.848           129.859         64929.500
       136   09 Jun 2027 04:57:12.265   09 Jun 2027 04:57:30.804            18.539          9269.500
       137   09 Jun 2027 04:58:28.507   09 Jun 2027 04:58:38.917            10.410          5205.000
       138   09 Jun 2027 04:59:06.661   09 Jun 2027 04:59:28.056            21.395         10697.500
       139   09 Jun 2027 05:00:46.994   09 Jun 2027 05:01:01.382            14.388          7194.000
       140   09 Jun 2027 06:32:31.127   09 Jun 2027 06:34:45.564           134.437         67218.500
       141   09 Jun 2027 06:35:33.903   09 Jun 2027 06:36:01.637            27.734         13867.000
       142   09 Jun 2027 06:36:40.223   09 Jun 2027 06:36:45.399             5.176          2588.000
       143   09 Jun 2027 08:08:36.342   09 Jun 2027 08:10:00.366            84.024         42012.000
       144   09 Jun 2027 08:11:48.033   09 Jun 2027 08:12:06.354            18.321          9160.500
       145   09 Jun 2027 08:12:37.409   09 Jun 2027 08:12:40.130             2.721          1360.500
       146   10 Jun 2027 03:30:55.843   10 Jun 2027 03:34:58.820           242.977        121488.500
       147   10 Jun 2027 03:35:21.048   10 Jun 2027 03:35:41.305            20.257         10128.500
       148   10 Jun 2027 03:35:54.799   10 Jun 2027 03:36:24.546            29.747         14873.500
       149   10 Jun 2027 03:37:19.666   10 Jun 2027 03:37:31.796            12.130          6065.000
       150   10 Jun 2027 05:07:18.384   10 Jun 2027 05:10:19.495           181.111         90555.500
       151   10 Jun 2027 05:11:14.829   10 Jun 2027 05:11:18.893             4.064          2032.000
       152   10 Jun 2027 05:12:02.870   10 Jun 2027 05:12:08.029             5.159          2579.500
       153   10 Jun 2027 05:12:11.507   10 Jun 2027 05:12:24.384            12.877          6438.500
       154   10 Jun 2027 05:12:58.650   10 Jun 2027 05:13:11.763            13.113          6556.500
       155   10 Jun 2027 06:44:35.887   10 Jun 2027 06:46:43.865           127.978         63989.000
       156   10 Jun 2027 06:46:54.351   10 Jun 2027 06:47:03.772             9.421          4710.500
       157   10 Jun 2027 06:47:39.869   10 Jun 2027 06:48:00.598            20.729         10364.500
       158   10 Jun 2027 06:48:33.123   10 Jun 2027 06:48:37.217             4.094          2047.000
       159   10 Jun 2027 06:49:10.822   10 Jun 2027 06:49:12.755             1.933           966.500
       160   10 Jun 2027 08:20:48.718   10 Jun 2027 08:21:45.143            56.425         28212.500
       161   10 Jun 2027 08:23:31.505   10 Jun 2027 08:23:44.004            12.499          6249.500
       162   10 Jun 2027 08:24:17.019   10 Jun 2027 08:24:24.698             7.679          3839.500
       163   10 Jun 2027 08:24:33.672   10 Jun 2027 08:24:48.120            14.448          7224.000
       164   11 Jun 2027 03:42:32.954   11 Jun 2027 03:47:01.047           268.093        134046.500
       165   11 Jun 2027 03:47:12.718   11 Jun 2027 03:47:17.860             5.142          2571.000
       166   11 Jun 2027 03:47:46.661   11 Jun 2027 03:47:53.817             7.156          3578.000
       167   11 Jun 2027 03:48:25.831   11 Jun 2027 03:48:53.893            28.062         14031.000
       168   11 Jun 2027 03:49:18.129   11 Jun 2027 03:49:40.809            22.680         11340.000
       169   11 Jun 2027 05:18:52.928   11 Jun 2027 05:22:12.016           199.088         99544.000
       170   11 Jun 2027 05:23:01.266   11 Jun 2027 05:23:04.615             3.349          1674.500
       171   11 Jun 2027 06:57:09.323   11 Jun 2027 06:59:49.189           159.866         79933.000
       172   11 Jun 2027 06:59:58.997   11 Jun 2027 07:00:20.291            21.294         10647.000
       173   11 Jun 2027 08:32:29.899   11 Jun 2027 08:33:15.948            46.049         23024.500
       174   11 Jun 2027 08:34:11.024   11 Jun 2027 08:34:15.658             4.634          2317.000
       175   11 Jun 2027 08:35:55.413   11 Jun 2027 08:36:21.133            25.720         12860.000
       176   11 Jun 2027 08:37:01.782   11 Jun 2027 08:37:13.735            11.953          5976.500
       177   11 Jun 2027 08:37:49.942   11 Jun 2027 08:37:55.631             5.689          2844.500
       178   12 Jun 2027 03:54:06.881   12 Jun 2027 03:59:03.086           296.205        148102.500
       179   12 Jun 2027 04:00:24.310   12 Jun 2027 04:00:30.074             5.764          2882.000
       180   12 Jun 2027 04:00:58.107   12 Jun 2027 04:01:41.395            43.288         21644.000
       181   12 Jun 2027 05:31:13.021   12 Jun 2027 05:34:24.847           191.826         95913.000
       182   12 Jun 2027 05:34:27.849   12 Jun 2027 05:34:32.268             4.419          2209.500
       183   12 Jun 2027 05:34:39.636   12 Jun 2027 05:34:43.473             3.837          1918.500
       184   12 Jun 2027 05:36:27.531   12 Jun 2027 05:36:45.291            17.760          8880.000
       185   12 Jun 2027 05:37:27.968   12 Jun 2027 05:37:35.374             7.406          3703.000
       186   12 Jun 2027 07:09:11.211   12 Jun 2027 07:11:40.218           149.007         74503.500
       187   12 Jun 2027 07:12:07.627   12 Jun 2027 07:12:14.073             6.446          3223.000
       188   12 Jun 2027 08:42:20.072   12 Jun 2027 08:43:05.301            45.229         22614.500
       189   12 Jun 2027 08:43:34.739   12 Jun 2027 08:43:51.204            16.465          8232.500
       190   12 Jun 2027 08:45:08.055   12 Jun 2027 08:45:18.647            10.592          5296.000
       191   12 Jun 2027 08:46:24.738   12 Jun 2027 08:46:40.286            15.548          7774.000
       192   12 Jun 2027 08:46:43.394   12 Jun 2027 08:47:01.607            18.213          9106.500
       193   12 Jun 2027 08:48:26.163   12 Jun 2027 08:48:29.491             3.328          1664.000
       194   12 Jun 2027 08:49:31.973   12 Jun 2027 08:49:49.517            17.544          8772.000
       195   12 Jun 2027 08:50:01.733   12 Jun 2027 08:50:05.614             3.881          1940.500
       196   13 Jun 2027 04:06:26.690   13 Jun 2027 04:11:51.957           325.267        162633.500
       197   13 Jun 2027 04:12:41.145   13 Jun 2027 04:12:58.843            17.698          8849.000
       198   13 Jun 2027 04:13:32.690   13 Jun 2027 04:13:40.996             8.306          4153.000
       199   13 Jun 2027 04:13:45.086   13 Jun 2027 04:13:45.563             0.477           238.500
       200   13 Jun 2027 05:43:14.268   13 Jun 2027 05:46:02.186           167.918         83959.000
       201   13 Jun 2027 05:46:14.408   13 Jun 2027 05:46:47.521            33.113         16556.500
       202   13 Jun 2027 05:48:44.812   13 Jun 2027 05:49:37.091            52.279         26139.500
       203   13 Jun 2027 07:21:11.436   13 Jun 2027 07:23:54.452           163.016         81508.000
       204   13 Jun 2027 08:54:47.387   13 Jun 2027 08:55:12.426            25.039         12519.500
       205   13 Jun 2027 08:56:47.110   13 Jun 2027 08:57:07.988            20.878         10439.000
       206   13 Jun 2027 08:57:36.904   13 Jun 2027 08:57:50.557            13.653          6826.500
       207   13 Jun 2027 08:58:35.152   13 Jun 2027 08:58:41.645             6.493          3246.500
       208   13 Jun 2027 08:59:16.637   13 Jun 2027 08:59:36.051            19.414          9707.000
       209   13 Jun 2027 09:00:49.300   13 Jun 2027 09:00:54.641             5.341          2670.500
       210   13 Jun 2027 09:01:42.645   13 Jun 2027 09:01:56.304            13.659          6829.500
