uniorb/output/strategy_1/Camera/Camera_KinoSat_110905.txt

KinoSat_110905
-------------------------
    Access    *     Start Time (UTCG)     *     Stop Time (UTCG)  *   Duration (s) *   Data (Mbytes)
         1   01 Jun 2027 03:30:50.628   01 Jun 2027 03:31:55.966            65.338         32669.000
         2   01 Jun 2027 03:32:10.499   01 Jun 2027 03:32:13.255             2.756          1378.000
         3   01 Jun 2027 03:32:33.684   01 Jun 2027 03:32:37.358             3.674          1837.000
         4   01 Jun 2027 05:07:28.336   01 Jun 2027 05:09:47.412           139.076         69538.000
         5   01 Jun 2027 05:09:50.519   01 Jun 2027 05:10:00.197             9.678          4839.000
         6   01 Jun 2027 06:42:23.469   01 Jun 2027 06:44:05.726           102.257         51128.500
         7   01 Jun 2027 06:46:19.931   01 Jun 2027 06:46:27.301             7.370          3685.000
         8   01 Jun 2027 06:47:49.283   01 Jun 2027 06:48:06.999            17.716          8858.000
         9   01 Jun 2027 08:18:35.549   01 Jun 2027 08:20:50.722           135.173         67586.500
        10   01 Jun 2027 08:22:31.262   01 Jun 2027 08:22:35.190             3.928          1964.000
        11   01 Jun 2027 08:23:05.457   01 Jun 2027 08:23:07.206             1.749           874.500
        12   01 Jun 2027 08:23:50.152   01 Jun 2027 08:23:51.786             1.634           817.000
        13   01 Jun 2027 09:56:18.702   01 Jun 2027 09:58:06.941           108.239         54119.500
        14   01 Jun 2027 10:00:32.591   01 Jun 2027 10:00:43.912            11.321          5660.500
        15   01 Jun 2027 11:32:22.952   01 Jun 2027 11:34:29.126           126.174         63087.000
        16   01 Jun 2027 11:34:42.399   01 Jun 2027 11:34:49.133             6.734          3367.000
        17   01 Jun 2027 11:35:39.690   01 Jun 2027 11:35:39.690             0.000             0.000
        18   01 Jun 2027 11:36:25.971   01 Jun 2027 11:36:37.116            11.145          5572.500
        19   02 Jun 2027 03:43:04.433   02 Jun 2027 03:43:14.467            10.034          5017.000
        20   02 Jun 2027 03:44:20.247   02 Jun 2027 03:44:37.758            17.511          8755.500
        21   02 Jun 2027 03:46:11.512   02 Jun 2027 03:46:12.072             0.560           280.000
        22   02 Jun 2027 05:19:36.339   02 Jun 2027 05:21:55.967           139.628         69814.000
        23   02 Jun 2027 05:22:56.568   02 Jun 2027 05:23:08.546            11.978          5989.000
        24   02 Jun 2027 06:54:46.214   02 Jun 2027 06:56:29.984           103.770         51885.000
        25   02 Jun 2027 06:56:51.394   02 Jun 2027 06:57:09.731            18.337          9168.500
        26   02 Jun 2027 06:57:38.978   02 Jun 2027 06:57:42.008             3.030          1515.000
        27   02 Jun 2027 07:00:48.458   02 Jun 2027 07:00:50.848             2.390          1195.000
        28   02 Jun 2027 07:01:04.690   02 Jun 2027 07:01:18.188            13.498          6749.000
        29   02 Jun 2027 08:31:11.434   02 Jun 2027 08:33:31.358           139.924         69962.000
        30   02 Jun 2027 10:08:25.196   02 Jun 2027 10:09:31.797            66.601         33300.500
        31   02 Jun 2027 10:09:44.260   02 Jun 2027 10:10:45.381            61.121         30560.500
        32   02 Jun 2027 10:12:41.836   02 Jun 2027 10:12:46.066             4.230          2115.000
        33   02 Jun 2027 11:44:40.755   02 Jun 2027 11:46:28.235           107.480         53740.000
        34   02 Jun 2027 11:48:14.788   02 Jun 2027 11:48:22.776             7.988          3994.000
        35   03 Jun 2027 03:55:39.546   03 Jun 2027 03:56:10.626            31.080         15540.000
        36   03 Jun 2027 03:57:44.397   03 Jun 2027 03:58:12.762            28.365         14182.500
        37   03 Jun 2027 05:31:29.256   03 Jun 2027 05:33:34.716           125.460         62730.000
        38   03 Jun 2027 05:34:42.581   03 Jun 2027 05:34:43.999             1.418           709.000
        39   03 Jun 2027 07:06:25.838   03 Jun 2027 07:08:41.651           135.813         67906.500
        40   03 Jun 2027 07:09:54.450   03 Jun 2027 07:10:02.128             7.678          3839.000
        41   03 Jun 2027 07:10:57.552   03 Jun 2027 07:11:06.357             8.805          4402.500
        42   03 Jun 2027 07:13:27.216   03 Jun 2027 07:13:31.108             3.892          1946.000
        43   03 Jun 2027 08:42:43.883   03 Jun 2027 08:44:57.869           133.986         66993.000
        44   03 Jun 2027 08:47:46.777   03 Jun 2027 08:47:59.423            12.646          6323.000
        45   03 Jun 2027 10:20:59.774   03 Jun 2027 10:22:12.458            72.684         36342.000
        46   03 Jun 2027 10:23:00.545   03 Jun 2027 10:23:05.558             5.013          2242.843
        47   03 Jun 2027 10:24:31.287   03 Jun 2027 10:24:37.149             5.862          2570.406
        48   03 Jun 2027 11:56:19.755   03 Jun 2027 11:56:41.958            22.203         10242.500
        49   03 Jun 2027 11:57:10.990   03 Jun 2027 11:57:13.388             2.398           586.500
        50   03 Jun 2027 11:58:30.002   03 Jun 2027 11:58:36.245             6.243          2296.031
        51   03 Jun 2027 11:58:42.884   03 Jun 2027 11:58:43.974             1.090           110.719
        52   03 Jun 2027 11:59:22.254   03 Jun 2027 11:59:25.159             2.905          1125.625
        53   04 Jun 2027 04:06:31.448   04 Jun 2027 04:07:07.200            35.752         17876.000
        54   04 Jun 2027 04:07:39.291   04 Jun 2027 04:07:44.030             4.739          2369.500
        55   04 Jun 2027 04:08:44.457   04 Jun 2027 04:08:49.527             5.070          2535.000
        56   04 Jun 2027 04:10:44.551   04 Jun 2027 04:10:44.551             0.000             0.000
        57   04 Jun 2027 05:41:47.996   04 Jun 2027 05:42:21.279            33.283         16641.500
        58   04 Jun 2027 05:43:13.162   04 Jun 2027 05:45:04.153           110.991         55495.500
        59   04 Jun 2027 05:46:20.565   04 Jun 2027 05:46:26.834             6.269          3134.500
        60   04 Jun 2027 07:17:58.998   04 Jun 2027 07:20:06.917           127.919         63959.500
        61   04 Jun 2027 07:20:40.343   04 Jun 2027 07:20:53.789            13.446          6723.000
        62   04 Jun 2027 07:21:37.960   04 Jun 2027 07:21:48.668            10.708          3698.312
        63   04 Jun 2027 07:24:50.576   04 Jun 2027 07:24:51.596             1.020           510.000
        64   04 Jun 2027 08:55:03.213   04 Jun 2027 08:55:37.988            34.775         15942.625
        65   04 Jun 2027 08:56:20.169   04 Jun 2027 08:56:25.777             5.608          1166.031
        66   04 Jun 2027 08:57:08.582   04 Jun 2027 08:57:11.116             2.534           894.344
        67   04 Jun 2027 08:58:23.458   04 Jun 2027 08:58:29.384             5.926          1565.938
        68   04 Jun 2027 08:59:09.382   04 Jun 2027 08:59:14.205             4.823          1249.937
        69   04 Jun 2027 08:59:16.990   04 Jun 2027 08:59:20.743             3.753            23.906
        70   04 Jun 2027 09:00:16.162   04 Jun 2027 09:00:16.162             0.000             0.000
        71   04 Jun 2027 09:00:47.284   04 Jun 2027 09:00:54.874             7.590          2704.406
        72   04 Jun 2027 09:01:15.038   04 Jun 2027 09:01:15.133             0.095            47.500
        73   04 Jun 2027 10:33:02.413   04 Jun 2027 10:33:16.656            14.243          7121.500
        74   04 Jun 2027 10:33:55.086   04 Jun 2027 10:34:01.454             6.368          1384.875
        75   04 Jun 2027 10:34:36.506   04 Jun 2027 10:34:40.002             3.496          1035.844
        76   04 Jun 2027 10:35:01.507   04 Jun 2027 10:35:02.679             1.172           582.469
        77   04 Jun 2027 10:35:18.440   04 Jun 2027 10:35:22.097             3.657           335.000
        78   04 Jun 2027 10:35:32.592   04 Jun 2027 10:35:32.592             0.000             0.000
        79   04 Jun 2027 10:35:42.584   04 Jun 2027 10:35:45.015             2.431           613.031
        80   04 Jun 2027 10:35:53.441   04 Jun 2027 10:36:03.156             9.715           195.438
        81   04 Jun 2027 10:36:34.711   04 Jun 2027 10:36:36.874             2.163           986.094
        82   05 Jun 2027 04:17:50.384   05 Jun 2027 04:18:41.272            50.888         25444.000
        83   05 Jun 2027 04:18:59.640   05 Jun 2027 04:19:01.254             1.614           807.000
        84   05 Jun 2027 04:20:18.894   05 Jun 2027 04:20:36.488            17.594          8797.000
        85   05 Jun 2027 04:22:59.862   05 Jun 2027 04:23:02.456             2.594          1297.000
        86   05 Jun 2027 05:52:54.860   05 Jun 2027 05:54:37.984           103.124         51562.000
        87   05 Jun 2027 05:54:57.794   05 Jun 2027 05:55:22.860            25.066         12533.000
        88   05 Jun 2027 05:59:04.363   05 Jun 2027 05:59:09.905             5.542          2771.000
        89   05 Jun 2027 05:59:22.656   05 Jun 2027 05:59:28.840             6.184          3092.000
        90   05 Jun 2027 07:30:15.879   05 Jun 2027 07:32:10.047           114.168         57084.000
        91   05 Jun 2027 07:34:30.026   05 Jun 2027 07:34:35.258             5.232          2616.000
        92   05 Jun 2027 07:34:47.664   05 Jun 2027 07:35:01.148            13.484          5419.594
        93   05 Jun 2027 07:35:06.448   05 Jun 2027 07:35:09.470             3.022           165.625
        94   05 Jun 2027 07:36:58.245   05 Jun 2027 07:37:05.420             7.175          3201.750
        95   05 Jun 2027 09:07:04.991   05 Jun 2027 09:07:31.879            26.888         11278.594
        96   05 Jun 2027 09:08:13.716   05 Jun 2027 09:08:16.410             2.694          1188.781
        97   05 Jun 2027 09:08:34.120   05 Jun 2027 09:08:36.397             2.277           553.437
        98   05 Jun 2027 09:08:55.931   05 Jun 2027 09:08:56.915             0.984           456.781
        99   05 Jun 2027 09:08:57.018   05 Jun 2027 09:08:57.055             0.037             3.219
       100   05 Jun 2027 09:09:32.957   05 Jun 2027 09:09:34.019             1.062           473.250
       101   05 Jun 2027 09:10:07.785   05 Jun 2027 09:10:10.067             2.282          1016.562
       102   05 Jun 2027 09:10:38.168   05 Jun 2027 09:10:38.318             0.150            75.000
       103   05 Jun 2027 09:10:42.500   05 Jun 2027 09:10:47.031             4.531           880.344
       104   05 Jun 2027 09:11:03.988   05 Jun 2027 09:11:05.515             1.527           529.906
       105   05 Jun 2027 09:11:25.067   05 Jun 2027 09:11:35.513            10.446           583.656
       106   05 Jun 2027 09:11:58.873   05 Jun 2027 09:11:58.931             0.058            29.000
       107   05 Jun 2027 09:12:17.887   05 Jun 2027 09:12:23.061             5.174           873.031
       108   05 Jun 2027 09:13:06.584   05 Jun 2027 09:13:08.908             2.324          1162.000
       109   05 Jun 2027 10:45:01.911   05 Jun 2027 10:45:18.669            16.758          8379.000
       110   05 Jun 2027 10:45:43.800   05 Jun 2027 10:45:50.534             6.734          1367.906
       111   05 Jun 2027 10:46:22.889   05 Jun 2027 10:46:27.532             4.643           525.281
       112   05 Jun 2027 10:46:42.246   05 Jun 2027 10:46:43.538             1.292           440.812
       113   05 Jun 2027 10:47:25.646   05 Jun 2027 10:47:28.215             2.569          1104.969
       114   05 Jun 2027 10:47:47.749   05 Jun 2027 10:47:49.449             1.700           343.063
       115   05 Jun 2027 10:48:08.535   05 Jun 2027 10:48:11.323             2.788             4.281
       116   05 Jun 2027 10:48:22.242   05 Jun 2027 10:48:24.398             2.156           339.844
       117   05 Jun 2027 10:48:35.630   05 Jun 2027 10:48:36.230             0.600           300.000
       118   05 Jun 2027 10:48:44.305   05 Jun 2027 10:48:44.946             0.641           303.343
       119   05 Jun 2027 10:48:51.027   05 Jun 2027 10:48:54.893             3.866            87.687
       120   06 Jun 2027 03:07:33.963   06 Jun 2027 03:08:11.422            37.459         18729.500
       121   06 Jun 2027 04:29:34.648   06 Jun 2027 04:30:04.130            29.482         14741.000
       122   06 Jun 2027 04:30:44.439   06 Jun 2027 04:30:49.559             5.120          2560.000
       123   06 Jun 2027 04:31:37.211   06 Jun 2027 04:31:50.673            13.462          6731.000
       124   06 Jun 2027 04:33:06.850   06 Jun 2027 04:33:18.783            11.933          5966.500
       125   06 Jun 2027 06:04:23.074   06 Jun 2027 06:06:09.869           106.795         53397.500
       126   06 Jun 2027 06:06:51.709   06 Jun 2027 06:06:52.275             0.566           283.000
       127   06 Jun 2027 06:07:11.116   06 Jun 2027 06:07:20.105             8.989          4494.500
       128   06 Jun 2027 06:07:51.266   06 Jun 2027 06:07:56.645             5.379          2689.500
       129   06 Jun 2027 06:08:39.026   06 Jun 2027 06:08:46.055             7.029          3514.500
       130   06 Jun 2027 06:08:52.690   06 Jun 2027 06:09:06.041            13.351          6675.500
       131   06 Jun 2027 06:13:04.934   06 Jun 2027 06:13:15.385            10.451          5225.500
       132   06 Jun 2027 07:42:11.646   06 Jun 2027 07:43:45.693            94.047         46863.594
       133   06 Jun 2027 07:44:18.853   06 Jun 2027 07:44:24.583             5.730           984.031
       134   06 Jun 2027 07:44:35.212   06 Jun 2027 07:44:36.300             1.088           332.156
       135   06 Jun 2027 07:45:03.009   06 Jun 2027 07:45:03.805             0.796           398.000
       136   06 Jun 2027 07:45:35.303   06 Jun 2027 07:45:45.971            10.668          1420.969
       137   06 Jun 2027 07:46:31.584   06 Jun 2027 07:46:36.488             4.904          1425.406
       138   06 Jun 2027 07:48:10.428   06 Jun 2027 07:48:16.446             6.018          2855.063
       139   06 Jun 2027 09:18:56.126   06 Jun 2027 09:19:01.886             5.760          2880.000
       140   06 Jun 2027 09:19:25.458   06 Jun 2027 09:19:42.526            17.068          8414.406
       141   06 Jun 2027 09:20:11.204   06 Jun 2027 09:20:14.275             3.071           635.906
       142   06 Jun 2027 09:20:58.751   06 Jun 2027 09:21:05.045             6.294            64.687
       143   06 Jun 2027 09:21:55.371   06 Jun 2027 09:21:59.870             4.499           927.875
       144   06 Jun 2027 09:23:53.381   06 Jun 2027 09:23:59.582             6.201          3100.500
       145   06 Jun 2027 09:24:32.315   06 Jun 2027 09:24:36.586             4.271          1141.563
       146   06 Jun 2027 09:24:46.586   06 Jun 2027 09:24:50.683             4.097           312.500
       147   06 Jun 2027 09:24:57.471   06 Jun 2027 09:24:58.046             0.575            55.531
       148   06 Jun 2027 09:25:23.815   06 Jun 2027 09:25:30.292             6.477           718.188
       149   06 Jun 2027 10:57:03.504   06 Jun 2027 10:57:21.520            18.016          8611.906
       150   06 Jun 2027 10:58:07.299   06 Jun 2027 10:58:10.157             2.858          1429.000
       151   06 Jun 2027 10:58:39.656   06 Jun 2027 10:58:41.989             2.333           923.438
       152   06 Jun 2027 10:59:19.460   06 Jun 2027 10:59:25.252             5.792          1170.969
       153   06 Jun 2027 10:59:54.131   06 Jun 2027 10:59:57.191             3.060           902.469
       154   06 Jun 2027 10:59:59.039   06 Jun 2027 11:00:09.711            10.672            57.750
       155   06 Jun 2027 11:00:55.486   06 Jun 2027 11:00:58.621             3.135          1430.469
       156   07 Jun 2027 03:07:23.645   07 Jun 2027 03:07:37.953            14.308          7154.000
       157   07 Jun 2027 03:08:27.419   07 Jun 2027 03:08:50.614            23.195         11597.500
       158   07 Jun 2027 04:43:20.496   07 Jun 2027 04:44:48.231            87.735         43867.500
       159   07 Jun 2027 04:45:57.583   07 Jun 2027 04:45:57.583             0.000             0.000
       160   07 Jun 2027 06:17:11.481   07 Jun 2027 06:18:57.137           105.656         52828.000
       161   07 Jun 2027 06:19:51.000   07 Jun 2027 06:19:51.364             0.364           182.000
       162   07 Jun 2027 06:20:09.994   07 Jun 2027 06:20:27.224            17.230          8615.000
       163   07 Jun 2027 06:22:45.264   07 Jun 2027 06:22:54.300             9.036          4518.000
       164   07 Jun 2027 06:24:05.699   07 Jun 2027 06:24:19.748            14.049          7024.500
       165   07 Jun 2027 06:24:41.363   07 Jun 2027 06:24:41.562             0.199            99.500
       166   07 Jun 2027 07:54:18.098   07 Jun 2027 07:55:37.557            79.459         38329.875
       167   07 Jun 2027 07:55:43.596   07 Jun 2027 07:55:43.754             0.158            31.438
       168   07 Jun 2027 07:55:44.142   07 Jun 2027 07:55:45.659             1.517            12.125
       169   07 Jun 2027 07:56:15.955   07 Jun 2027 07:56:15.955             0.000             0.000
       170   07 Jun 2027 07:56:50.656   07 Jun 2027 07:56:50.656             0.000             0.000
       171   07 Jun 2027 07:57:58.887   07 Jun 2027 07:58:08.798             9.911          4100.594
       172   07 Jun 2027 07:58:50.917   07 Jun 2027 07:58:50.949             0.032            16.000
       173   07 Jun 2027 07:59:31.845   07 Jun 2027 07:59:40.834             8.989          2220.500
       174   07 Jun 2027 07:59:52.811   07 Jun 2027 07:59:54.995             2.184           182.094
       175   07 Jun 2027 08:00:02.674   07 Jun 2027 08:00:06.080             3.406           239.969
       176   07 Jun 2027 08:00:57.756   07 Jun 2027 08:00:59.914             2.158          1079.000
       177   07 Jun 2027 09:31:20.381   07 Jun 2027 09:31:39.981            19.600          9488.344
       178   07 Jun 2027 09:32:05.457   07 Jun 2027 09:32:07.361             1.904           685.781
       179   07 Jun 2027 09:32:56.704   07 Jun 2027 09:33:00.591             3.887          1541.969
       180   07 Jun 2027 09:33:28.874   07 Jun 2027 09:33:31.414             2.540           883.844
       181   07 Jun 2027 09:33:48.041   07 Jun 2027 09:33:50.474             2.433           519.594
       182   07 Jun 2027 09:34:22.576   07 Jun 2027 09:34:24.906             2.330          1003.187
       183   07 Jun 2027 09:34:40.976   07 Jun 2027 09:34:41.554             0.578           289.000
       184   07 Jun 2027 09:34:52.469   07 Jun 2027 09:34:52.469             0.000             0.000
       185   07 Jun 2027 09:35:07.832   07 Jun 2027 09:35:09.993             2.161           974.906
       186   07 Jun 2027 09:35:18.173   07 Jun 2027 09:35:19.788             1.615           255.625
       187   07 Jun 2027 09:35:59.178   07 Jun 2027 09:36:01.592             2.414          1207.000
       188   07 Jun 2027 09:37:05.653   07 Jun 2027 09:37:10.226             4.573          2025.844
       189   07 Jun 2027 11:08:17.610   07 Jun 2027 11:08:35.367            17.757          7033.156
       190   07 Jun 2027 11:08:40.391   07 Jun 2027 11:08:40.729             0.338           155.187
       191   07 Jun 2027 11:09:19.712   07 Jun 2027 11:09:23.377             3.665           913.875
       192   07 Jun 2027 11:11:10.180   07 Jun 2027 11:11:18.450             8.270          3136.406
       193   07 Jun 2027 11:12:32.477   07 Jun 2027 11:12:36.407             3.930          1965.000
       194   07 Jun 2027 11:12:41.953   07 Jun 2027 11:12:43.944             1.991           199.625
       195   07 Jun 2027 11:12:44.960   07 Jun 2027 11:12:46.788             1.828            31.750
       196   07 Jun 2027 11:13:02.038   07 Jun 2027 11:13:02.749             0.711           154.531
       197   08 Jun 2027 03:19:17.906   08 Jun 2027 03:19:36.807            18.901          9450.500
       198   08 Jun 2027 03:20:50.644   08 Jun 2027 03:20:51.341             0.697           348.500
       199   08 Jun 2027 04:55:42.199   08 Jun 2027 04:57:54.341           132.142         66071.000
       200   08 Jun 2027 06:29:10.041   08 Jun 2027 06:31:08.224           118.183         59091.500
       201   08 Jun 2027 06:32:47.440   08 Jun 2027 06:33:01.577            14.137          7068.500
       202   08 Jun 2027 06:34:17.657   08 Jun 2027 06:34:20.778             3.121          1560.500
       203   08 Jun 2027 06:36:38.006   08 Jun 2027 06:36:38.360             0.354           177.000
       204   08 Jun 2027 06:36:39.348   08 Jun 2027 06:36:45.645             6.297          3148.500
       205   08 Jun 2027 06:37:06.160   08 Jun 2027 06:37:06.160             0.000             0.000
       206   08 Jun 2027 08:06:43.913   08 Jun 2027 08:07:31.830            47.917         23426.218
       207   08 Jun 2027 08:08:37.792   08 Jun 2027 08:08:43.820             6.028          1819.062
       208   08 Jun 2027 08:09:53.114   08 Jun 2027 08:09:54.836             1.722           404.688
       209   08 Jun 2027 08:10:24.844   08 Jun 2027 08:10:26.528             1.684           635.688
       210   08 Jun 2027 08:10:57.248   08 Jun 2027 08:10:58.012             0.764           207.562
       211   08 Jun 2027 08:11:27.744   08 Jun 2027 08:11:28.956             1.212           606.000
       212   08 Jun 2027 08:12:02.762   08 Jun 2027 08:12:02.762             0.000             0.000
       213   08 Jun 2027 08:12:41.400   08 Jun 2027 08:12:47.898             6.498          2268.531
       214   08 Jun 2027 09:43:37.923   08 Jun 2027 09:43:45.830             7.907          3953.500
       215   08 Jun 2027 09:44:00.326   08 Jun 2027 09:44:12.712            12.386          5957.562
       216   08 Jun 2027 09:45:05.276   08 Jun 2027 09:45:08.056             2.780          1390.000
       217   08 Jun 2027 09:45:22.700   08 Jun 2027 09:45:23.630             0.930           465.000
       218   08 Jun 2027 09:45:46.042   08 Jun 2027 09:45:49.090             3.048           900.625
       219   08 Jun 2027 09:46:36.069   08 Jun 2027 09:46:41.337             5.268           456.281
       220   08 Jun 2027 09:46:42.619   08 Jun 2027 09:46:43.984             1.365            40.062
       221   08 Jun 2027 09:47:11.823   08 Jun 2027 09:47:14.097             2.274           818.937
       222   08 Jun 2027 09:47:23.690   08 Jun 2027 09:47:25.190             1.500           205.688
       223   08 Jun 2027 09:47:33.354   08 Jun 2027 09:47:39.486             6.132           175.000
       224   08 Jun 2027 09:48:10.860   08 Jun 2027 09:48:16.407             5.547           980.438
       225   08 Jun 2027 09:48:24.252   08 Jun 2027 09:48:25.380             1.128            32.125
       226   08 Jun 2027 09:48:53.913   08 Jun 2027 09:48:55.962             2.049           723.188
       227   08 Jun 2027 11:20:31.526   08 Jun 2027 11:20:50.533            19.007          8838.812
       228   08 Jun 2027 11:21:12.119   08 Jun 2027 11:21:13.346             1.227           112.906
       229   08 Jun 2027 11:21:35.084   08 Jun 2027 11:21:41.873             6.789           679.313
       230   08 Jun 2027 11:21:56.186   08 Jun 2027 11:22:03.783             7.597           353.375
       231   08 Jun 2027 11:22:55.017   08 Jun 2027 11:22:57.707             2.690          1345.000
       232   08 Jun 2027 11:23:21.829   08 Jun 2027 11:23:25.607             3.778           850.156
       233   08 Jun 2027 11:23:46.472   08 Jun 2027 11:23:48.884             2.412           652.031
       234   08 Jun 2027 11:24:09.671   08 Jun 2027 11:24:18.612             8.941           547.375
       235   08 Jun 2027 11:24:43.977   08 Jun 2027 11:24:44.893             0.916           403.438
       236   09 Jun 2027 03:31:05.235   09 Jun 2027 03:31:34.954            29.719         14859.500
       237   09 Jun 2027 03:32:29.300   09 Jun 2027 03:32:36.118             6.818          3409.000
       238   09 Jun 2027 03:32:49.563   09 Jun 2027 03:32:53.164             3.601          1800.500
       239   09 Jun 2027 03:33:12.188   09 Jun 2027 03:33:13.448             1.260           630.000
       240   09 Jun 2027 05:07:43.700   09 Jun 2027 05:10:08.136           144.436         72218.000
       241   09 Jun 2027 05:10:44.453   09 Jun 2027 05:10:44.784             0.331           165.500
       242   09 Jun 2027 06:42:38.755   09 Jun 2027 06:44:17.300            98.545         49272.500
       243   09 Jun 2027 06:45:11.563   09 Jun 2027 06:45:12.545             0.982           491.000
       244   09 Jun 2027 06:45:17.064   09 Jun 2027 06:45:30.311            13.247          6623.500
       245   09 Jun 2027 06:48:21.473   09 Jun 2027 06:48:29.185             7.712          3856.000
       246   09 Jun 2027 06:49:14.162   09 Jun 2027 06:49:14.532             0.370           185.000
       247   09 Jun 2027 06:49:33.082   09 Jun 2027 06:49:36.734             3.652          1826.000
       248   09 Jun 2027 08:18:51.362   09 Jun 2027 08:19:33.398            42.036         20124.563
       249   09 Jun 2027 08:21:05.751   09 Jun 2027 08:21:12.684             6.933          2458.562
       250   09 Jun 2027 08:21:18.846   09 Jun 2027 08:21:26.693             7.847             9.969
       251   09 Jun 2027 08:21:43.468   09 Jun 2027 08:21:44.398             0.930           389.062
       252   09 Jun 2027 08:22:27.708   09 Jun 2027 08:22:35.125             7.417          1353.438
       253   09 Jun 2027 08:23:23.156   09 Jun 2027 08:23:26.633             3.477          1485.063
       254   09 Jun 2027 08:23:49.820   09 Jun 2027 08:23:49.820             0.000             0.000
       255   09 Jun 2027 08:23:54.858   09 Jun 2027 08:23:54.858             0.000             0.000
       256   09 Jun 2027 08:24:36.445   09 Jun 2027 08:24:42.201             5.756          2144.219
       257   09 Jun 2027 08:25:23.838   09 Jun 2027 08:25:30.073             6.235          1039.969
       258   09 Jun 2027 09:56:34.644   09 Jun 2027 09:56:54.044            19.400          9603.344
       259   09 Jun 2027 09:57:30.441   09 Jun 2027 09:57:30.441             0.000             0.000
       260   09 Jun 2027 09:57:33.233   09 Jun 2027 09:57:35.849             2.616          1139.938
       261   09 Jun 2027 09:57:47.802   09 Jun 2027 09:57:48.580             0.778           373.531
       262   09 Jun 2027 09:59:28.445   09 Jun 2027 09:59:32.698             4.253          1770.625
       263   09 Jun 2027 09:59:54.123   09 Jun 2027 09:59:56.795             2.672           669.531
       264   09 Jun 2027 10:00:05.138   09 Jun 2027 10:00:07.917             2.779            59.281
       265   09 Jun 2027 10:00:21.022   09 Jun 2027 10:00:21.022             0.000             0.000
       266   09 Jun 2027 10:00:55.383   09 Jun 2027 10:00:59.270             3.887          1299.906
       267   09 Jun 2027 11:32:40.967   09 Jun 2027 11:32:57.837            16.870          7223.469
       268   09 Jun 2027 11:33:58.819   09 Jun 2027 11:34:02.832             4.013          1905.688
       269   09 Jun 2027 11:34:46.129   09 Jun 2027 11:34:50.911             4.782          1170.875
       270   09 Jun 2027 11:35:09.498   09 Jun 2027 11:35:09.498             0.000             0.000
       271   09 Jun 2027 11:35:23.498   09 Jun 2027 11:35:26.013             2.515           570.687
       272   09 Jun 2027 11:36:30.581   09 Jun 2027 11:36:36.385             5.804          2017.750
       273   10 Jun 2027 03:43:19.471   10 Jun 2027 03:43:55.704            36.233         18116.500
       274   10 Jun 2027 03:44:07.333   10 Jun 2027 03:44:11.334             4.001          2000.500
       275   10 Jun 2027 03:44:35.128   10 Jun 2027 03:44:52.592            17.464          8732.000
       276   10 Jun 2027 03:46:26.746   10 Jun 2027 03:46:26.746             0.000             0.000
       277   10 Jun 2027 05:19:51.281   10 Jun 2027 05:22:10.596           139.315         69657.500
       278   10 Jun 2027 05:23:07.222   10 Jun 2027 05:23:23.226            16.004          8002.000
       279   10 Jun 2027 06:55:01.331   10 Jun 2027 06:56:30.137            88.806         44403.000
       280   10 Jun 2027 06:56:54.095   10 Jun 2027 06:57:18.269            24.174         11248.157
       281   10 Jun 2027 06:59:14.155   10 Jun 2027 06:59:22.481             8.326          3621.437
       282   10 Jun 2027 07:00:25.439   10 Jun 2027 07:00:29.476             4.037          1954.000
       283   10 Jun 2027 07:01:36.844   10 Jun 2027 07:01:37.935             1.091           545.500
       284   10 Jun 2027 08:31:26.564   10 Jun 2027 08:31:52.886            26.322         11537.594
       285   10 Jun 2027 08:32:37.730   10 Jun 2027 08:32:44.928             7.198           224.781
       286   10 Jun 2027 08:32:58.033   10 Jun 2027 08:33:02.289             4.256           298.219
       287   10 Jun 2027 08:35:28.766   10 Jun 2027 08:35:38.810            10.044          4565.062
       288   10 Jun 2027 08:35:47.714   10 Jun 2027 08:35:57.613             9.899           278.250
       289   10 Jun 2027 08:36:19.603   10 Jun 2027 08:36:21.620             2.017           687.188
       290   10 Jun 2027 08:37:09.656   10 Jun 2027 08:37:11.834             2.178          1089.000
       291   10 Jun 2027 10:08:41.368   10 Jun 2027 10:09:02.323            20.955          8753.437
       292   10 Jun 2027 10:09:53.181   10 Jun 2027 10:09:59.850             6.669           819.281
       293   10 Jun 2027 10:10:16.310   10 Jun 2027 10:10:20.067             3.757           376.813
       294   10 Jun 2027 10:10:34.051   10 Jun 2027 10:10:36.638             2.587           165.125
       295   10 Jun 2027 10:10:55.957   10 Jun 2027 10:10:57.717             1.760           302.906
       296   10 Jun 2027 10:11:16.797   10 Jun 2027 10:11:16.797             0.000             0.000
       297   10 Jun 2027 10:12:04.612   10 Jun 2027 10:12:11.418             6.806          2008.000
       298   10 Jun 2027 10:12:56.690   10 Jun 2027 10:12:56.690             0.000             0.000
       299   10 Jun 2027 10:13:01.005   10 Jun 2027 10:13:03.385             2.380          1190.000
       300   10 Jun 2027 10:13:06.365   10 Jun 2027 10:13:07.643             1.278           430.063
       301   10 Jun 2027 11:44:55.811   10 Jun 2027 11:45:09.383            13.572          6611.812
       302   10 Jun 2027 11:45:38.913   10 Jun 2027 11:45:41.890             2.977           463.000
       303   10 Jun 2027 11:46:43.010   10 Jun 2027 11:46:46.014             3.004          1214.344
       304   10 Jun 2027 11:46:52.329   10 Jun 2027 11:46:54.014             1.685           197.344
       305   10 Jun 2027 11:47:30.614   10 Jun 2027 11:47:31.917             1.303           651.500
       306   10 Jun 2027 11:48:03.244   10 Jun 2027 11:48:07.833             4.589          1226.750
       307   10 Jun 2027 11:48:34.070   10 Jun 2027 11:48:37.556             3.486           629.906
       308   10 Jun 2027 11:49:03.760   10 Jun 2027 11:49:03.760             0.000             0.000
       309   10 Jun 2027 11:49:13.340   10 Jun 2027 11:49:18.206             4.866          1118.250
       310   11 Jun 2027 03:55:22.010   11 Jun 2027 03:55:51.429            29.419         14709.500
       311   11 Jun 2027 03:55:58.270   11 Jun 2027 03:56:06.624             8.354          4177.000
       312   11 Jun 2027 03:56:25.358   11 Jun 2027 03:56:37.208            11.850          5925.000
       313   11 Jun 2027 03:58:01.127   11 Jun 2027 03:58:04.004             2.877          1438.500
       314   11 Jun 2027 03:58:05.350   11 Jun 2027 03:58:27.990            22.640         11320.000
       315   11 Jun 2027 05:31:44.232   11 Jun 2027 05:33:37.669           113.437         56718.500
       316   11 Jun 2027 05:34:44.380   11 Jun 2027 05:34:56.950            12.570          6285.000
       317   11 Jun 2027 07:06:40.340   11 Jun 2027 07:08:44.638           124.298         62149.000
       318   11 Jun 2027 07:08:45.236   11 Jun 2027 07:08:49.245             4.009          1495.188
       319   11 Jun 2027 07:10:07.779   11 Jun 2027 07:10:10.813             3.034          1517.000
       320   11 Jun 2027 07:10:30.012   11 Jun 2027 07:10:33.112             3.100          1537.156
       321   11 Jun 2027 07:12:57.145   11 Jun 2027 07:12:57.145             0.000             0.000
       322   11 Jun 2027 07:13:17.319   11 Jun 2027 07:13:18.837             1.518           759.000
       323   11 Jun 2027 08:42:59.203   11 Jun 2027 08:43:29.048            29.845         14353.625
       324   11 Jun 2027 08:44:36.502   11 Jun 2027 08:44:40.857             4.355          2107.938
       325   11 Jun 2027 08:45:46.801   11 Jun 2027 08:45:49.837             3.036           989.531
       326   11 Jun 2027 08:45:55.637   11 Jun 2027 08:45:59.093             3.456           161.875
       327   11 Jun 2027 08:46:03.930   11 Jun 2027 08:46:04.130             0.200            83.219
       328   11 Jun 2027 08:47:07.204   11 Jun 2027 08:47:10.425             3.221          1564.406
       329   11 Jun 2027 08:47:23.974   11 Jun 2027 08:47:24.052             0.078            39.000
       330   11 Jun 2027 08:47:28.507   11 Jun 2027 08:47:30.657             2.150           523.625
       331   11 Jun 2027 08:48:10.153   11 Jun 2027 08:48:12.633             2.480          1234.250
       332   11 Jun 2027 08:49:18.314   11 Jun 2027 08:49:23.842             5.528          1986.375
       333   11 Jun 2027 10:21:14.521   11 Jun 2027 10:21:30.790            16.269          7457.156
       334   11 Jun 2027 10:22:00.639   11 Jun 2027 10:22:05.535             4.896           932.781
       335   11 Jun 2027 10:23:15.727   11 Jun 2027 10:23:19.651             3.924          1542.219
       336   11 Jun 2027 10:23:45.147   11 Jun 2027 10:23:46.427             1.280           572.406
       337   11 Jun 2027 10:24:04.205   11 Jun 2027 10:24:04.205             0.000             0.000
       338   11 Jun 2027 10:24:57.517   11 Jun 2027 10:25:02.180             4.663          1916.750
       339   11 Jun 2027 11:56:34.721   11 Jun 2027 11:56:53.837            19.116          8879.875
       340   11 Jun 2027 11:57:57.170   11 Jun 2027 11:58:05.541             8.371          1502.031
       341   11 Jun 2027 11:58:54.254   11 Jun 2027 11:58:59.047             4.793          1519.344
       342   11 Jun 2027 11:59:54.019   11 Jun 2027 11:59:57.970             3.951          1717.875
       343   12 Jun 2027 04:06:45.793   12 Jun 2027 04:07:29.498            43.705         21852.500
       344   12 Jun 2027 04:07:37.553   12 Jun 2027 04:07:55.305            17.752          8876.000
       345   12 Jun 2027 05:42:02.919   12 Jun 2027 05:42:36.739            33.820         16910.000
       346   12 Jun 2027 05:43:28.175   12 Jun 2027 05:45:18.384           110.209         55104.500
       347   12 Jun 2027 07:18:13.705   12 Jun 2027 07:20:05.391           111.686         55843.000
       348   12 Jun 2027 07:20:56.413   12 Jun 2027 07:21:12.625            16.212          8106.000
       349   12 Jun 2027 07:21:26.078   12 Jun 2027 07:21:26.078             0.000             0.000
       350   12 Jun 2027 07:21:35.859   12 Jun 2027 07:21:37.025             1.166           583.000
       351   12 Jun 2027 07:21:53.143   12 Jun 2027 07:22:00.643             7.500          3438.187
       352   12 Jun 2027 07:23:35.696   12 Jun 2027 07:23:37.369             1.673           836.500
       353   12 Jun 2027 07:25:47.032   12 Jun 2027 07:25:48.613             1.581           790.500
       354   12 Jun 2027 08:55:18.576   12 Jun 2027 08:55:44.714            26.138         12687.031
       355   12 Jun 2027 08:56:35.802   12 Jun 2027 08:56:40.633             4.831          1194.656
       356   12 Jun 2027 08:57:25.786   12 Jun 2027 08:57:29.290             3.504           967.031
       357   12 Jun 2027 08:58:42.294   12 Jun 2027 08:58:51.494             9.200          1679.719
       358   12 Jun 2027 08:59:37.168   12 Jun 2027 08:59:40.181             3.013          1427.312
       359   12 Jun 2027 08:59:45.929   12 Jun 2027 08:59:47.135             1.206           179.625
       360   12 Jun 2027 09:00:13.012   12 Jun 2027 09:00:16.902             3.890           548.313
       361   12 Jun 2027 09:00:27.441   12 Jun 2027 09:00:29.993             2.552           222.000
       362   12 Jun 2027 09:01:13.253   12 Jun 2027 09:01:13.554             0.301           150.500
       363   12 Jun 2027 09:01:24.821   12 Jun 2027 09:01:27.909             3.088          1447.250
       364   12 Jun 2027 10:33:17.592   12 Jun 2027 10:33:35.187            17.595          8771.063
       365   12 Jun 2027 10:34:18.035   12 Jun 2027 10:34:21.975             3.940          1339.000
       366   12 Jun 2027 10:34:52.274   12 Jun 2027 10:34:55.036             2.762           413.563
       367   12 Jun 2027 10:35:13.012   12 Jun 2027 10:35:13.669             0.657           328.500
       368   12 Jun 2027 10:35:26.087   12 Jun 2027 10:35:28.091             2.004           549.125
       369   12 Jun 2027 10:35:59.005   12 Jun 2027 10:36:01.775             2.770           735.562
       370   12 Jun 2027 10:36:09.024   12 Jun 2027 10:36:18.622             9.598           225.938
       371   12 Jun 2027 10:36:21.907   12 Jun 2027 10:36:31.370             9.463           102.656
       372   12 Jun 2027 10:36:45.097   12 Jun 2027 10:36:46.605             1.508           335.938
       373   13 Jun 2027 04:18:05.402   13 Jun 2027 04:19:14.894            69.492         34746.000
       374   13 Jun 2027 04:22:30.003   13 Jun 2027 04:22:42.260            12.257          6128.500
       375   13 Jun 2027 04:22:46.232   13 Jun 2027 04:22:50.712             4.480          2240.000
       376   13 Jun 2027 05:53:09.399   13 Jun 2027 05:54:52.765           103.366         51683.000
       377   13 Jun 2027 05:56:24.934   13 Jun 2027 05:56:46.951            22.017         11008.500
       378   13 Jun 2027 05:56:59.009   13 Jun 2027 05:57:00.911             1.902           951.000
       379   13 Jun 2027 05:59:00.540   13 Jun 2027 05:59:03.504             2.964          1482.000
       380   13 Jun 2027 05:59:17.543   13 Jun 2027 05:59:19.095             1.552           776.000
       381   13 Jun 2027 05:59:25.252   13 Jun 2027 05:59:37.724            12.472          6236.000
       382   13 Jun 2027 06:00:05.161   13 Jun 2027 06:00:11.236             6.075          3037.500
       383   13 Jun 2027 07:30:31.688   13 Jun 2027 07:32:27.751           116.063         58031.500
       384   13 Jun 2027 07:33:30.555   13 Jun 2027 07:33:41.935            11.380          4761.594
       385   13 Jun 2027 07:34:07.981   13 Jun 2027 07:34:09.536             1.555           773.844
       386   13 Jun 2027 07:36:48.668   13 Jun 2027 07:36:53.192             4.524          2262.000
       387   13 Jun 2027 07:37:07.195   13 Jun 2027 07:37:12.866             5.671          2835.500
       388   13 Jun 2027 09:07:20.103   13 Jun 2027 09:07:45.870            25.767         11332.813
       389   13 Jun 2027 09:09:11.949   13 Jun 2027 09:09:19.291             7.342          2374.156
       390   13 Jun 2027 09:10:17.349   13 Jun 2027 09:10:18.166             0.817           408.500
       391   13 Jun 2027 09:10:22.685   13 Jun 2027 09:10:25.716             3.031           645.875
       392   13 Jun 2027 09:11:01.924   13 Jun 2027 09:11:04.951             3.027           959.031
       393   13 Jun 2027 09:11:17.963   13 Jun 2027 09:11:17.963             0.000             0.000
       394   13 Jun 2027 09:12:25.487   13 Jun 2027 09:12:25.779             0.292           146.000
       395   13 Jun 2027 09:12:43.174   13 Jun 2027 09:12:49.165             5.991          2745.000
       396   13 Jun 2027 09:13:05.864   13 Jun 2027 09:13:10.011             4.147           521.844
       397   13 Jun 2027 09:13:31.629   13 Jun 2027 09:13:31.629             0.000             0.000
       398   13 Jun 2027 10:45:17.224   13 Jun 2027 10:45:32.207            14.983          6997.438
       399   13 Jun 2027 10:46:42.806   13 Jun 2027 10:46:48.544             5.738          2184.531
       400   13 Jun 2027 10:47:10.799   13 Jun 2027 10:47:13.979             3.180           579.500
       401   13 Jun 2027 10:48:22.346   13 Jun 2027 10:48:26.801             4.455          2134.094
       402   13 Jun 2027 10:48:36.647   13 Jun 2027 10:48:38.982             2.335           307.687
       403   13 Jun 2027 10:48:50.784   13 Jun 2027 10:48:51.605             0.821           368.812
       404   13 Jun 2027 10:48:59.146   13 Jun 2027 10:48:59.146             0.000             0.000
       405   13 Jun 2027 10:49:11.798   13 Jun 2027 10:49:13.268             1.470           631.031
