uniorb/output/strategy_1/Camera/Camera_KinoSat_111107.txt

KinoSat_111107
-------------------------
    Access    *     Start Time (UTCG)     *     Stop Time (UTCG)  *   Duration (s) *   Data (Mbytes)
         1   01 Jun 2027 03:16:31.469   01 Jun 2027 03:17:02.638            31.169         15584.500
         2   01 Jun 2027 03:17:37.927   01 Jun 2027 03:19:04.748            86.821         43410.500
         3   01 Jun 2027 03:19:50.757   01 Jun 2027 03:19:50.757             0.000             0.000
         4   01 Jun 2027 04:39:53.125   01 Jun 2027 04:40:40.623            47.498         23749.000
         5   01 Jun 2027 04:40:52.644   01 Jun 2027 04:41:05.519            12.875          6437.500
         6   01 Jun 2027 06:16:25.909   01 Jun 2027 06:18:19.058           113.149         56574.500
         7   01 Jun 2027 06:19:07.149   01 Jun 2027 06:19:20.342            13.193          6596.500
         8   01 Jun 2027 07:51:36.379   01 Jun 2027 07:53:45.997           129.618         64809.000
         9   01 Jun 2027 07:55:05.014   01 Jun 2027 07:55:05.014             0.000             0.000
        10   01 Jun 2027 07:56:42.725   01 Jun 2027 07:56:47.576             4.851          2425.500
        11   01 Jun 2027 07:57:29.743   01 Jun 2027 07:57:34.354             4.611          2305.500
        12   01 Jun 2027 07:57:38.438   01 Jun 2027 07:57:50.428            11.990          5995.000
        13   01 Jun 2027 09:27:58.174   01 Jun 2027 09:29:44.224           106.050         53025.000
        14   01 Jun 2027 09:30:04.738   01 Jun 2027 09:30:11.848             7.110          3555.000
        15   01 Jun 2027 09:30:31.285   01 Jun 2027 09:30:52.332            21.047         10523.500
        16   01 Jun 2027 09:33:01.173   01 Jun 2027 09:33:04.569             3.396          1698.000
        17   01 Jun 2027 11:05:16.158   01 Jun 2027 11:06:45.670            89.512         44756.000
        18   01 Jun 2027 11:07:16.241   01 Jun 2027 11:08:20.758            64.517         32258.500
        19   02 Jun 2027 03:28:28.161   02 Jun 2027 03:29:07.142            38.981         19490.500
        20   02 Jun 2027 03:29:29.590   02 Jun 2027 03:30:30.534            60.944         30472.000
        21   02 Jun 2027 03:31:30.550   02 Jun 2027 03:31:44.055            13.505          6752.500
        22   02 Jun 2027 04:52:22.705   02 Jun 2027 04:52:53.785            31.080         15540.000
        23   02 Jun 2027 04:53:17.033   02 Jun 2027 04:53:28.884            11.851          5925.500
        24   02 Jun 2027 06:28:17.569   02 Jun 2027 06:29:24.775            67.206         33603.000
        25   02 Jun 2027 06:30:32.799   02 Jun 2027 06:31:02.018            29.219         14609.500
        26   02 Jun 2027 06:31:34.531   02 Jun 2027 06:31:45.414            10.883          5441.500
        27   02 Jun 2027 06:32:10.959   02 Jun 2027 06:32:21.287            10.328          5164.000
        28   02 Jun 2027 08:03:11.845   02 Jun 2027 08:05:01.521           109.676         54838.000
        29   02 Jun 2027 08:06:17.858   02 Jun 2027 08:06:22.885             5.027          2513.500
        30   02 Jun 2027 08:08:59.421   02 Jun 2027 08:09:21.727            22.306         11153.000
        31   02 Jun 2027 08:09:34.322   02 Jun 2027 08:09:35.680             1.358           679.000
        32   02 Jun 2027 08:09:40.515   02 Jun 2027 08:09:42.491             1.976           988.000
        33   02 Jun 2027 08:10:05.030   02 Jun 2027 08:10:12.562             7.532          3766.000
        34   02 Jun 2027 08:10:17.020   02 Jun 2027 08:10:21.138             4.118          2059.000
        35   02 Jun 2027 09:39:33.566   02 Jun 2027 09:40:37.881            64.315         32157.500
        36   02 Jun 2027 09:41:33.605   02 Jun 2027 09:42:16.209            42.604         21302.000
        37   02 Jun 2027 09:44:44.038   02 Jun 2027 09:45:01.804            17.766          8883.000
        38   02 Jun 2027 09:45:41.458   02 Jun 2027 09:45:52.781            11.323          5661.500
        39   02 Jun 2027 11:17:50.478   02 Jun 2027 11:19:44.975           114.497         57248.500
        40   03 Jun 2027 03:29:08.387   03 Jun 2027 03:29:26.161            17.774          8887.000
        41   03 Jun 2027 03:40:24.246   03 Jun 2027 03:42:03.846            99.600         49800.000
        42   03 Jun 2027 05:03:00.206   03 Jun 2027 05:03:46.393            46.187         23093.500
        43   03 Jun 2027 05:05:16.988   03 Jun 2027 05:05:30.532            13.544          6772.000
        44   03 Jun 2027 05:07:35.656   03 Jun 2027 05:07:35.656             0.000             0.000
        45   03 Jun 2027 06:38:34.879   03 Jun 2027 06:39:18.206            43.327         21663.500
        46   03 Jun 2027 06:40:01.344   03 Jun 2027 06:40:23.097            21.753         10876.500
        47   03 Jun 2027 06:41:25.534   03 Jun 2027 06:42:11.004            45.470         22735.000
        48   03 Jun 2027 06:43:30.864   03 Jun 2027 06:43:31.895             1.031           515.500
        49   03 Jun 2027 06:44:14.103   03 Jun 2027 06:44:29.053            14.950          7475.000
        50   03 Jun 2027 08:14:47.323   03 Jun 2027 08:16:41.302           113.979         56989.500
        51   03 Jun 2027 08:18:31.939   03 Jun 2027 08:18:46.836            14.897          7448.500
        52   03 Jun 2027 08:20:11.756   03 Jun 2027 08:20:17.080             5.324          2662.000
        53   03 Jun 2027 08:20:48.816   03 Jun 2027 08:20:52.729             3.913          1956.500
        54   03 Jun 2027 09:51:53.702   03 Jun 2027 09:53:19.656            85.954         42977.000
        55   03 Jun 2027 09:54:14.653   03 Jun 2027 09:54:26.061            11.408          5704.000
        56   03 Jun 2027 09:55:54.459   03 Jun 2027 09:55:56.410             1.951           975.500
        57   03 Jun 2027 09:57:34.664   03 Jun 2027 09:57:39.759             5.095          2547.500
        58   03 Jun 2027 11:29:51.742   03 Jun 2027 11:30:15.415            23.673         11836.500
        59   03 Jun 2027 11:30:46.068   03 Jun 2027 11:30:51.571             5.503          1471.719
        60   03 Jun 2027 11:32:03.226   03 Jun 2027 11:32:10.949             7.723          2239.219
        61   03 Jun 2027 11:33:16.956   03 Jun 2027 11:33:21.403             4.447          2062.719
        62   03 Jun 2027 11:33:22.908   03 Jun 2027 11:33:23.222             0.314            47.031
        63   04 Jun 2027 03:40:43.244   04 Jun 2027 03:41:27.551            44.307         22153.500
        64   04 Jun 2027 03:52:26.787   04 Jun 2027 03:53:13.169            46.382         23191.000
        65   04 Jun 2027 05:14:42.159   04 Jun 2027 05:15:48.887            66.728         33364.000
        66   04 Jun 2027 05:16:39.427   04 Jun 2027 05:17:01.537            22.110         11055.000
        67   04 Jun 2027 05:18:52.606   04 Jun 2027 05:18:52.606             0.000             0.000
        68   04 Jun 2027 05:19:10.237   04 Jun 2027 05:19:13.159             2.922          1461.000
        69   04 Jun 2027 06:49:41.681   04 Jun 2027 06:51:34.587           112.906         56453.000
        70   04 Jun 2027 06:51:49.000   04 Jun 2027 06:52:05.669            16.669          8334.500
        71   04 Jun 2027 06:57:38.437   04 Jun 2027 06:57:53.482            15.045          7522.500
        72   04 Jun 2027 08:27:07.311   04 Jun 2027 08:27:39.741            32.430         16215.000
        73   04 Jun 2027 08:27:48.677   04 Jun 2027 08:27:51.701             3.024          1512.000
        74   04 Jun 2027 08:30:00.843   04 Jun 2027 08:30:09.067             8.224          4045.282
        75   04 Jun 2027 08:31:10.882   04 Jun 2027 08:31:17.783             6.901          1931.719
        76   04 Jun 2027 08:31:39.355   04 Jun 2027 08:31:41.720             2.365           487.000
        77   04 Jun 2027 08:33:05.163   04 Jun 2027 08:33:05.163             0.000             0.000
        78   04 Jun 2027 08:33:21.775   04 Jun 2027 08:33:29.996             8.221          2897.062
        79   04 Jun 2027 10:03:54.471   04 Jun 2027 10:04:15.870            21.399          8441.719
        80   04 Jun 2027 10:05:21.632   04 Jun 2027 10:05:22.053             0.421           210.500
        81   04 Jun 2027 10:05:28.024   04 Jun 2027 10:05:31.593             3.569           640.531
        82   04 Jun 2027 10:06:09.913   04 Jun 2027 10:06:10.660             0.747            11.844
        83   04 Jun 2027 10:07:10.470   04 Jun 2027 10:07:15.530             5.060          1701.875
        84   04 Jun 2027 10:07:39.492   04 Jun 2027 10:07:43.289             3.797           673.500
        85   04 Jun 2027 10:07:52.275   04 Jun 2027 10:07:56.221             3.946            49.937
        86   04 Jun 2027 10:09:08.348   04 Jun 2027 10:09:13.216             4.868          2253.969
        87   04 Jun 2027 10:10:10.801   04 Jun 2027 10:10:15.196             4.395          1799.531
        88   04 Jun 2027 11:41:52.207   04 Jun 2027 11:42:08.991            16.784          8359.156
        89   04 Jun 2027 11:42:46.508   04 Jun 2027 11:42:48.733             2.225           839.906
        90   04 Jun 2027 11:42:56.088   04 Jun 2027 11:42:57.784             1.696            86.937
        91   04 Jun 2027 11:43:27.332   04 Jun 2027 11:43:29.246             1.914           923.375
        92   04 Jun 2027 11:44:05.147   04 Jun 2027 11:44:07.495             2.348          1050.750
        93   04 Jun 2027 11:45:00.970   04 Jun 2027 11:45:09.603             8.633          1403.875
        94   05 Jun 2027 03:52:15.447   05 Jun 2027 03:53:20.111            64.664         32332.000
        95   05 Jun 2027 04:04:28.094   05 Jun 2027 04:04:59.712            31.618         15809.000
        96   05 Jun 2027 05:26:22.198   05 Jun 2027 05:27:35.515            73.317         36658.500
        97   05 Jun 2027 05:28:25.146   05 Jun 2027 05:29:03.683            38.537         19268.500
        98   05 Jun 2027 07:01:10.458   05 Jun 2027 07:03:05.312           114.854         57427.000
        99   05 Jun 2027 07:03:16.262   05 Jun 2027 07:03:16.262             0.000             0.000
       100   05 Jun 2027 07:04:38.119   05 Jun 2027 07:04:38.119             0.000             0.000
       101   05 Jun 2027 07:05:01.445   05 Jun 2027 07:05:10.583             9.138          4569.000
       102   05 Jun 2027 07:08:19.324   05 Jun 2027 07:08:35.412            16.088          7843.000
       103   05 Jun 2027 08:39:01.365   05 Jun 2027 08:39:24.361            22.996         10779.969
       104   05 Jun 2027 08:41:00.736   05 Jun 2027 08:41:01.781             1.045           522.500
       105   05 Jun 2027 08:41:40.623   05 Jun 2027 08:41:52.519            11.896          3703.031
       106   05 Jun 2027 08:41:59.211   05 Jun 2027 08:42:00.069             0.858           209.125
       107   05 Jun 2027 08:42:25.464   05 Jun 2027 08:42:28.538             3.074           775.406
       108   05 Jun 2027 08:42:38.429   05 Jun 2027 08:42:41.756             3.327           194.969
       109   05 Jun 2027 08:43:12.909   05 Jun 2027 08:43:15.868             2.959           590.656
       110   05 Jun 2027 08:44:15.271   05 Jun 2027 08:44:21.645             6.374          1801.594
       111   05 Jun 2027 08:44:43.371   05 Jun 2027 08:44:44.695             1.324           392.156
       112   05 Jun 2027 08:45:38.103   05 Jun 2027 08:45:41.441             3.338          1669.000
       113   05 Jun 2027 08:46:05.649   05 Jun 2027 08:46:11.367             5.718           756.500
       114   05 Jun 2027 08:46:26.610   05 Jun 2027 08:46:26.655             0.045            22.500
       115   05 Jun 2027 10:15:46.037   05 Jun 2027 10:16:07.041            21.004          7771.969
       116   05 Jun 2027 10:16:17.600   05 Jun 2027 10:16:23.294             5.694            52.812
       117   05 Jun 2027 10:18:16.737   05 Jun 2027 10:18:19.196             2.459           373.281
       118   05 Jun 2027 10:18:42.066   05 Jun 2027 10:18:49.148             7.082           409.500
       119   05 Jun 2027 10:19:06.230   05 Jun 2027 10:19:07.653             1.423           362.844
       120   05 Jun 2027 10:19:58.988   05 Jun 2027 10:20:04.023             5.035          1562.844
       121   05 Jun 2027 10:20:17.126   05 Jun 2027 10:20:18.178             1.052           342.656
       122   05 Jun 2027 10:21:13.342   05 Jun 2027 10:21:19.999             6.657          1678.281
       123   05 Jun 2027 10:22:05.478   05 Jun 2027 10:22:10.432             4.954          1421.219
       124   05 Jun 2027 11:53:54.844   05 Jun 2027 11:54:10.031            15.187          7020.875
       125   05 Jun 2027 11:54:21.724   05 Jun 2027 11:54:24.486             2.762           365.406
       126   05 Jun 2027 11:55:45.085   05 Jun 2027 11:55:50.166             5.081          2204.781
       127   05 Jun 2027 11:56:20.629   05 Jun 2027 11:56:23.040             2.411           827.156
       128   05 Jun 2027 11:57:37.773   05 Jun 2027 11:57:42.046             4.273          2136.500
       129   05 Jun 2027 11:57:48.248   05 Jun 2027 11:57:50.792             2.544           232.781
       130   06 Jun 2027 04:04:13.114   06 Jun 2027 04:05:28.403            75.289         37644.500
       131   06 Jun 2027 05:40:10.635   06 Jun 2027 05:41:35.589            84.954         42477.000
       132   06 Jun 2027 05:41:58.740   06 Jun 2027 05:42:57.426            58.686         29343.000
       133   06 Jun 2027 07:13:58.982   06 Jun 2027 07:15:39.154           100.172         50086.000
       134   06 Jun 2027 07:16:16.114   06 Jun 2027 07:16:27.985            11.871          5552.719
       135   06 Jun 2027 07:16:47.181   06 Jun 2027 07:16:48.435             1.254           552.406
       136   06 Jun 2027 07:17:43.260   06 Jun 2027 07:17:46.939             3.679          1446.500
       137   06 Jun 2027 07:18:06.003   06 Jun 2027 07:18:06.985             0.982           478.719
       138   06 Jun 2027 07:18:33.567   06 Jun 2027 07:18:34.779             1.212           606.000
       139   06 Jun 2027 07:21:33.113   06 Jun 2027 07:21:33.113             0.000             0.000
       140   06 Jun 2027 07:21:44.707   06 Jun 2027 07:21:56.613            11.906          5953.000
       141   06 Jun 2027 08:51:08.540   06 Jun 2027 08:51:26.204            17.664          8061.031
       142   06 Jun 2027 08:52:32.577   06 Jun 2027 08:52:36.397             3.820          1405.656
       143   06 Jun 2027 08:52:51.331   06 Jun 2027 08:52:53.378             2.047           213.375
       144   06 Jun 2027 08:53:27.714   06 Jun 2027 08:53:31.244             3.530           918.125
       145   06 Jun 2027 08:53:52.429   06 Jun 2027 08:53:52.934             0.505           252.500
       146   06 Jun 2027 08:55:13.044   06 Jun 2027 08:55:19.520             6.476          2891.656
       147   06 Jun 2027 08:55:59.819   06 Jun 2027 08:56:02.515             2.696          1020.219
       148   06 Jun 2027 08:56:30.811   06 Jun 2027 08:56:30.811             0.000             0.000
       149   06 Jun 2027 08:56:32.587   06 Jun 2027 08:56:35.059             2.472           922.594
       150   06 Jun 2027 08:56:45.727   06 Jun 2027 08:56:50.955             5.228            88.844
       151   06 Jun 2027 08:57:56.166   06 Jun 2027 08:58:00.181             4.015          1769.906
       152   06 Jun 2027 08:58:15.561   06 Jun 2027 08:58:16.969             1.408           480.625
       153   06 Jun 2027 08:58:18.942   06 Jun 2027 08:58:20.189             1.247            61.656
       154   06 Jun 2027 10:28:11.927   06 Jun 2027 10:28:17.373             5.446          2723.000
       155   06 Jun 2027 10:28:37.020   06 Jun 2027 10:28:51.364            14.344          5392.844
       156   06 Jun 2027 10:30:10.890   06 Jun 2027 10:30:16.763             5.873          2346.750
       157   06 Jun 2027 10:30:30.285   06 Jun 2027 10:30:35.044             4.759           226.375
       158   06 Jun 2027 10:30:51.077   06 Jun 2027 10:30:52.354             1.277           445.469
       159   06 Jun 2027 10:31:01.635   06 Jun 2027 10:31:02.991             1.356           290.031
       160   06 Jun 2027 10:31:46.660   06 Jun 2027 10:31:53.353             6.693          1314.437
       161   06 Jun 2027 10:32:05.161   06 Jun 2027 10:32:06.286             1.125           350.031
       162   06 Jun 2027 10:32:39.676   06 Jun 2027 10:32:42.561             2.885          1043.437
       163   06 Jun 2027 10:33:16.152   06 Jun 2027 10:33:19.792             3.640           838.344
       164   06 Jun 2027 10:33:58.188   06 Jun 2027 10:33:59.510             1.322           661.000
       165   07 Jun 2027 04:16:05.659   07 Jun 2027 04:17:31.019            85.360         42680.000
       166   07 Jun 2027 05:52:27.999   07 Jun 2027 05:54:48.745           140.746         70373.000
       167   07 Jun 2027 07:26:20.195   07 Jun 2027 07:28:14.396           114.201         57100.500
       168   07 Jun 2027 07:29:14.586   07 Jun 2027 07:29:19.373             4.787          2070.031
       169   07 Jun 2027 07:32:41.681   07 Jun 2027 07:32:55.424            13.743          6197.000
       170   07 Jun 2027 07:33:42.133   07 Jun 2027 07:33:43.571             1.438           719.000
       171   07 Jun 2027 07:34:04.835   07 Jun 2027 07:34:04.835             0.000             0.000
       172   07 Jun 2027 09:03:35.189   07 Jun 2027 09:04:01.967            26.778         10070.250
       173   07 Jun 2027 09:04:54.264   07 Jun 2027 09:04:56.944             2.680          1253.781
       174   07 Jun 2027 09:06:19.140   07 Jun 2027 09:06:23.667             4.527          1681.656
       175   07 Jun 2027 09:06:32.451   07 Jun 2027 09:06:33.647             1.196           170.625
       176   07 Jun 2027 09:07:14.371   07 Jun 2027 09:07:14.636             0.265           132.500
       177   07 Jun 2027 09:07:55.364   07 Jun 2027 09:08:00.862             5.498          2196.000
       178   07 Jun 2027 09:08:30.262   07 Jun 2027 09:08:31.787             1.525           762.500
       179   07 Jun 2027 09:09:34.201   07 Jun 2027 09:09:40.361             6.160          2106.688
       180   07 Jun 2027 10:40:36.777   07 Jun 2027 10:40:51.421            14.644          7082.687
       181   07 Jun 2027 10:41:37.077   07 Jun 2027 10:41:43.439             6.362          1367.344
       182   07 Jun 2027 10:42:10.591   07 Jun 2027 10:42:11.619             1.028           514.000
       183   07 Jun 2027 10:42:45.116   07 Jun 2027 10:42:48.669             3.553          1095.063
       184   07 Jun 2027 10:43:53.848   07 Jun 2027 10:43:58.633             4.785          1866.563
       185   07 Jun 2027 10:44:02.431   07 Jun 2027 10:44:03.668             1.237           118.687
       186   07 Jun 2027 10:44:11.013   07 Jun 2027 10:44:12.883             1.870           229.531
       187   07 Jun 2027 10:44:44.297   07 Jun 2027 10:44:46.321             2.024           981.687
       188   07 Jun 2027 10:45:20.701   07 Jun 2027 10:45:27.040             6.339          1074.375
       189   07 Jun 2027 10:45:51.776   07 Jun 2027 10:45:53.985             2.209           760.000
       190   08 Jun 2027 03:04:24.526   08 Jun 2027 03:04:39.615            15.089          7544.500
       191   08 Jun 2027 03:04:39.668   08 Jun 2027 03:05:22.476            42.808         21404.000
       192   08 Jun 2027 03:06:43.081   08 Jun 2027 03:06:58.242            15.161          7580.500
       193   08 Jun 2027 03:07:58.425   08 Jun 2027 03:07:58.425             0.000             0.000
       194   08 Jun 2027 04:27:54.677   08 Jun 2027 04:28:39.813            45.136         22568.000
       195   08 Jun 2027 06:04:31.389   08 Jun 2027 06:06:25.597           114.208         57104.000
       196   08 Jun 2027 06:07:01.428   08 Jun 2027 06:07:11.051             9.623          4811.500
       197   08 Jun 2027 06:07:34.738   08 Jun 2027 06:07:40.491             5.753          2876.500
       198   08 Jun 2027 07:39:37.992   08 Jun 2027 07:40:47.735            69.743         34871.500
       199   08 Jun 2027 07:41:30.164   08 Jun 2027 07:42:07.669            37.505         17471.344
       200   08 Jun 2027 07:44:20.309   08 Jun 2027 07:44:29.200             8.891          4115.625
       201   08 Jun 2027 07:44:51.966   08 Jun 2027 07:44:53.783             1.817           565.281
       202   08 Jun 2027 07:46:20.802   08 Jun 2027 07:46:26.876             6.074          2700.031
       203   08 Jun 2027 09:15:58.635   08 Jun 2027 09:16:15.632            16.997          8390.656
       204   08 Jun 2027 09:16:48.774   08 Jun 2027 09:16:49.460             0.686           277.937
       205   08 Jun 2027 09:17:26.020   08 Jun 2027 09:17:33.628             7.608           345.625
       206   08 Jun 2027 09:17:55.576   08 Jun 2027 09:18:02.653             7.077           593.750
       207   08 Jun 2027 09:18:13.394   08 Jun 2027 09:18:15.073             1.679           191.813
       208   08 Jun 2027 09:18:30.294   08 Jun 2027 09:18:31.707             1.413            13.437
       209   08 Jun 2027 09:18:59.069   08 Jun 2027 09:19:01.573             2.504           855.063
       210   08 Jun 2027 09:19:50.487   08 Jun 2027 09:19:54.257             3.770          1352.656
       211   08 Jun 2027 09:20:30.513   08 Jun 2027 09:20:33.927             3.414          1133.000
       212   08 Jun 2027 09:20:36.333   08 Jun 2027 09:20:37.958             1.625            33.281
       213   08 Jun 2027 09:21:38.686   08 Jun 2027 09:21:43.055             4.369          1731.687
       214   08 Jun 2027 09:22:11.272   08 Jun 2027 09:22:13.200             1.928           881.781
       215   08 Jun 2027 10:53:28.716   08 Jun 2027 10:53:44.549            15.833          7550.469
       216   08 Jun 2027 10:54:15.240   08 Jun 2027 10:54:17.700             2.460           959.094
       217   08 Jun 2027 10:54:34.497   08 Jun 2027 10:54:36.899             2.402           524.906
       218   08 Jun 2027 10:54:50.272   08 Jun 2027 10:54:56.608             6.336           363.625
       219   08 Jun 2027 10:55:14.416   08 Jun 2027 10:55:17.384             2.968           479.969
       220   08 Jun 2027 10:55:26.830   08 Jun 2027 10:55:32.460             5.630           295.187
       221   08 Jun 2027 10:56:36.928   08 Jun 2027 10:56:46.190             9.262          1969.063
       222   08 Jun 2027 10:57:45.394   08 Jun 2027 10:57:50.266             4.872          1850.125
       223   09 Jun 2027 03:17:36.415   09 Jun 2027 03:19:51.134           134.719         67359.500
       224   09 Jun 2027 04:40:08.133   09 Jun 2027 04:40:55.513            47.380         23690.000
       225   09 Jun 2027 06:16:42.044   09 Jun 2027 06:17:51.134            69.090         34545.000
       226   09 Jun 2027 06:18:14.762   09 Jun 2027 06:18:14.762             0.000             0.000
       227   09 Jun 2027 06:19:12.432   09 Jun 2027 06:19:35.134            22.702         11351.000
       228   09 Jun 2027 06:20:01.268   09 Jun 2027 06:20:09.854             8.586          4293.000
       229   09 Jun 2027 07:51:51.778   09 Jun 2027 07:53:02.383            70.605         33743.844
       230   09 Jun 2027 07:53:15.007   09 Jun 2027 07:53:15.007             0.000             0.000
       231   09 Jun 2027 07:54:02.921   09 Jun 2027 07:54:03.206             0.285           142.500
       232   09 Jun 2027 07:54:48.597   09 Jun 2027 07:55:04.800            16.203          3030.031
       233   09 Jun 2027 07:56:58.983   09 Jun 2027 07:56:58.983             0.000             0.000
       234   09 Jun 2027 07:57:14.309   09 Jun 2027 07:57:22.503             8.194          4000.250
       235   09 Jun 2027 07:58:26.715   09 Jun 2027 07:58:26.715             0.000             0.000
       236   09 Jun 2027 09:28:13.151   09 Jun 2027 09:28:31.838            18.687          9057.719
       237   09 Jun 2027 09:28:47.250   09 Jun 2027 09:28:47.367             0.117            19.562
       238   09 Jun 2027 09:29:38.028   09 Jun 2027 09:29:42.878             4.850           888.000
       239   09 Jun 2027 09:30:25.538   09 Jun 2027 09:30:28.448             2.910          1117.625
       240   09 Jun 2027 09:30:34.224   09 Jun 2027 09:30:34.839             0.615           174.312
       241   09 Jun 2027 09:32:28.963   09 Jun 2027 09:32:36.276             7.313          3234.500
       242   09 Jun 2027 09:33:20.558   09 Jun 2027 09:33:26.628             6.070          1218.531
       243   09 Jun 2027 09:33:41.937   09 Jun 2027 09:33:44.820             2.883           478.406
       244   09 Jun 2027 09:34:05.719   09 Jun 2027 09:34:07.398             1.679           653.094
       245   09 Jun 2027 11:05:31.221   09 Jun 2027 11:05:47.330            16.109          7603.031
       246   09 Jun 2027 11:06:53.566   09 Jun 2027 11:07:03.122             9.556          2034.125
       247   09 Jun 2027 11:07:05.724   09 Jun 2027 11:07:08.904             3.180            81.313
       248   09 Jun 2027 11:08:13.598   09 Jun 2027 11:08:17.793             4.195          1926.250
       249   09 Jun 2027 11:08:38.623   09 Jun 2027 11:08:41.476             2.853           619.500
       250   09 Jun 2027 11:09:35.485   09 Jun 2027 11:09:44.443             8.958          1417.531
       251   10 Jun 2027 03:28:43.620   10 Jun 2027 03:29:22.623            39.003         19501.500
       252   10 Jun 2027 03:29:44.519   10 Jun 2027 03:30:57.139            72.620         36310.000
       253   10 Jun 2027 03:31:29.363   10 Jun 2027 03:31:42.842            13.479          6739.500
       254   10 Jun 2027 03:32:07.946   10 Jun 2027 03:32:16.362             8.416          4208.000
       255   10 Jun 2027 04:52:09.990   10 Jun 2027 04:52:44.932            34.942         17471.000
       256   10 Jun 2027 04:53:20.119   10 Jun 2027 04:53:20.119             0.000             0.000
       257   10 Jun 2027 04:53:34.234   10 Jun 2027 04:53:45.566            11.332          5666.000
       258   10 Jun 2027 06:28:32.445   10 Jun 2027 06:30:18.172           105.727         52863.500
       259   10 Jun 2027 06:32:22.403   10 Jun 2027 06:32:22.403             0.000             0.000
       260   10 Jun 2027 08:03:26.029   10 Jun 2027 08:04:19.431            53.402         25190.000
       261   10 Jun 2027 08:05:02.731   10 Jun 2027 08:05:07.334             4.603          1353.125
       262   10 Jun 2027 08:05:34.174   10 Jun 2027 08:05:35.178             1.004           501.500
       263   10 Jun 2027 08:07:00.023   10 Jun 2027 08:07:01.865             1.842           921.000
       264   10 Jun 2027 08:07:28.118   10 Jun 2027 08:07:33.498             5.380          2436.438
       265   10 Jun 2027 08:08:58.453   10 Jun 2027 08:09:05.090             6.637          2067.250
       266   10 Jun 2027 08:09:21.619   10 Jun 2027 08:09:22.869             1.250           297.938
       267   10 Jun 2027 08:10:25.063   10 Jun 2027 08:10:32.633             7.570          1908.312
       268   10 Jun 2027 09:39:49.815   10 Jun 2027 09:40:11.824            22.009          8894.469
       269   10 Jun 2027 09:40:53.169   10 Jun 2027 09:40:58.448             5.279          1187.156
       270   10 Jun 2027 09:41:59.290   10 Jun 2027 09:42:06.347             7.057           349.344
       271   10 Jun 2027 09:42:40.114   10 Jun 2027 09:42:45.174             5.060           395.156
       272   10 Jun 2027 09:42:50.234   10 Jun 2027 09:42:51.784             1.550           101.750
       273   10 Jun 2027 09:44:11.007   10 Jun 2027 09:44:19.440             8.433          1893.125
       274   10 Jun 2027 09:44:30.033   10 Jun 2027 09:44:34.247             4.214           331.031
       275   10 Jun 2027 09:45:53.797   10 Jun 2027 09:46:01.901             8.104          2208.281
       276   10 Jun 2027 11:18:06.261   10 Jun 2027 11:18:25.104            18.843          6879.688
       277   10 Jun 2027 11:18:43.795   10 Jun 2027 11:18:43.795             0.000             0.000
       278   10 Jun 2027 11:19:48.347   10 Jun 2027 11:19:54.482             6.135          2513.781
       279   10 Jun 2027 11:20:17.468   10 Jun 2027 11:20:19.162             1.694           661.844
       280   10 Jun 2027 11:20:48.199   10 Jun 2027 11:20:51.279             3.080           907.406
       281   10 Jun 2027 11:20:53.547   10 Jun 2027 11:20:55.184             1.637            70.875
       282   11 Jun 2027 03:29:22.286   11 Jun 2027 03:29:41.676            19.390          9695.000
       283   11 Jun 2027 03:30:14.981   11 Jun 2027 03:30:23.799             8.818          4409.000
       284   11 Jun 2027 03:40:39.544   11 Jun 2027 03:42:10.156            90.612         45306.000
       285   11 Jun 2027 05:03:15.209   11 Jun 2027 05:04:01.877            46.668         23334.000
       286   11 Jun 2027 05:04:46.457   11 Jun 2027 05:04:46.457             0.000             0.000
       287   11 Jun 2027 05:05:05.646   11 Jun 2027 05:05:18.525            12.879          6439.500
       288   11 Jun 2027 05:06:18.703   11 Jun 2027 05:06:18.703             0.000             0.000
       289   11 Jun 2027 05:07:05.787   11 Jun 2027 05:07:15.594             9.807          4903.500
       290   11 Jun 2027 05:07:44.553   11 Jun 2027 05:07:52.934             8.381          4190.500
       291   11 Jun 2027 06:38:50.120   11 Jun 2027 06:39:36.407            46.287         23143.500
       292   11 Jun 2027 06:40:16.493   11 Jun 2027 06:41:05.737            49.244         24622.000
       293   11 Jun 2027 06:43:22.663   11 Jun 2027 06:43:30.232             7.569          3784.500
       294   11 Jun 2027 06:43:42.744   11 Jun 2027 06:43:46.500             3.756          1878.000
       295   11 Jun 2027 06:44:02.284   11 Jun 2027 06:44:19.328            17.044          8522.000
       296   11 Jun 2027 06:44:28.852   11 Jun 2027 06:44:31.687             2.835          1417.500
       297   11 Jun 2027 08:15:03.010   11 Jun 2027 08:15:33.971            30.961         15480.500
       298   11 Jun 2027 08:16:06.735   11 Jun 2027 08:16:17.843            11.108          1871.875
       299   11 Jun 2027 08:16:30.178   11 Jun 2027 08:16:31.721             1.543           262.344
       300   11 Jun 2027 08:16:50.630   11 Jun 2027 08:16:51.728             1.098           435.812
       301   11 Jun 2027 08:17:34.598   11 Jun 2027 08:17:37.975             3.377          1208.656
       302   11 Jun 2027 08:18:25.188   11 Jun 2027 08:18:26.634             1.446           599.875
       303   11 Jun 2027 08:19:26.528   11 Jun 2027 08:19:36.621            10.093          1691.969
       304   11 Jun 2027 08:19:58.112   11 Jun 2027 08:20:02.322             4.210           467.062
       305   11 Jun 2027 08:20:12.249   11 Jun 2027 08:20:13.133             0.884           267.594
       306   11 Jun 2027 08:20:26.619   11 Jun 2027 08:20:27.848             1.229           401.688
       307   11 Jun 2027 08:21:04.220   11 Jun 2027 08:21:09.138             4.918           976.406
       308   11 Jun 2027 08:21:21.308   11 Jun 2027 08:21:24.569             3.261           380.313
       309   11 Jun 2027 08:21:44.426   11 Jun 2027 08:21:46.166             1.740           620.531
       310   11 Jun 2027 08:22:22.882   11 Jun 2027 08:22:27.042             4.160          1147.375
       311   11 Jun 2027 08:22:35.951   11 Jun 2027 08:22:37.319             1.368            36.219
       312   11 Jun 2027 09:52:09.336   11 Jun 2027 09:52:26.941            17.605          8007.625
       313   11 Jun 2027 09:53:42.033   11 Jun 2027 09:53:47.354             5.321          1337.594
       314   11 Jun 2027 09:54:43.936   11 Jun 2027 09:54:47.604             3.668          1724.125
       315   11 Jun 2027 09:55:16.040   11 Jun 2027 09:55:19.380             3.340           677.938
       316   11 Jun 2027 09:55:58.215   11 Jun 2027 09:56:03.637             5.422           991.812
       317   11 Jun 2027 09:56:30.609   11 Jun 2027 09:56:35.068             4.459           670.281
       318   11 Jun 2027 09:56:49.694   11 Jun 2027 09:56:51.668             1.974           297.156
       319   11 Jun 2027 09:58:04.527   11 Jun 2027 09:58:09.398             4.871          2276.844
       320   11 Jun 2027 09:58:15.848   11 Jun 2027 09:58:17.287             1.439           162.187
       321   11 Jun 2027 11:30:07.213   11 Jun 2027 11:30:21.495            14.282          7141.000
       322   11 Jun 2027 11:30:25.152   11 Jun 2027 11:30:30.595             5.443          1677.156
       323   11 Jun 2027 11:30:33.375   11 Jun 2027 11:30:34.246             0.871            66.688
       324   11 Jun 2027 11:30:41.266   11 Jun 2027 11:30:42.564             1.298           136.625
       325   11 Jun 2027 11:31:47.451   11 Jun 2027 11:31:50.931             3.480          1740.000
       326   11 Jun 2027 11:32:00.900   11 Jun 2027 11:32:04.371             3.471           599.250
       327   11 Jun 2027 11:32:28.536   11 Jun 2027 11:32:30.033             1.497           472.094
       328   11 Jun 2027 11:32:46.615   11 Jun 2027 11:32:50.890             4.275           335.000
       329   11 Jun 2027 11:32:56.834   11 Jun 2027 11:32:57.094             0.260            38.687
       330   11 Jun 2027 11:33:55.150   11 Jun 2027 11:33:57.757             2.607          1303.500
       331   11 Jun 2027 11:34:02.930   11 Jun 2027 11:34:03.430             0.500           197.500
       332   12 Jun 2027 03:40:58.492   12 Jun 2027 03:41:42.785            44.293         22146.500
       333   12 Jun 2027 03:52:42.049   12 Jun 2027 03:53:44.058            62.009         31004.500
       334   12 Jun 2027 05:14:57.607   12 Jun 2027 05:16:03.922            66.315         33157.500
       335   12 Jun 2027 05:16:54.514   12 Jun 2027 05:17:18.330            23.816         11908.000
       336   12 Jun 2027 05:19:25.543   12 Jun 2027 05:19:28.878             3.335          1667.500
       337   12 Jun 2027 06:49:56.667   12 Jun 2027 06:51:49.756           113.089         56544.500
       338   12 Jun 2027 06:53:05.203   12 Jun 2027 06:53:11.729             6.526          3263.000
       339   12 Jun 2027 06:53:16.445   12 Jun 2027 06:53:24.556             8.111          3267.000
       340   12 Jun 2027 06:56:30.641   12 Jun 2027 06:56:42.954            12.313          5802.812
       341   12 Jun 2027 08:27:23.017   12 Jun 2027 08:27:39.853            16.836          8418.000
       342   12 Jun 2027 08:28:09.132   12 Jun 2027 08:28:12.784             3.652          1472.125
       343   12 Jun 2027 08:28:34.380   12 Jun 2027 08:28:35.436             1.056           354.531
       344   12 Jun 2027 08:28:42.688   12 Jun 2027 08:28:45.659             2.971            62.594
       345   12 Jun 2027 08:29:28.729   12 Jun 2027 08:29:31.819             3.090           822.781
       346   12 Jun 2027 08:29:49.080   12 Jun 2027 08:29:51.646             2.566           539.406
       347   12 Jun 2027 08:30:21.279   12 Jun 2027 08:30:23.653             2.374           890.500
       348   12 Jun 2027 08:30:42.964   12 Jun 2027 08:30:43.401             0.437           218.500
       349   12 Jun 2027 08:31:17.114   12 Jun 2027 08:31:20.896             3.782          1415.875
       350   12 Jun 2027 08:31:23.977   12 Jun 2027 08:31:28.154             4.177            50.719
       351   12 Jun 2027 08:32:06.610   12 Jun 2027 08:32:12.555             5.945          1201.750
       352   12 Jun 2027 08:33:13.062   12 Jun 2027 08:33:17.885             4.823          1714.813
       353   12 Jun 2027 08:33:44.694   12 Jun 2027 08:33:44.694             0.000             0.000
       354   12 Jun 2027 08:34:07.886   12 Jun 2027 08:34:14.494             6.608          1522.812
       355   12 Jun 2027 08:34:31.695   12 Jun 2027 08:34:36.966             5.271           537.531
       356   12 Jun 2027 10:04:09.578   12 Jun 2027 10:04:25.485            15.907          7456.188
       357   12 Jun 2027 10:04:49.213   12 Jun 2027 10:04:52.636             3.423           741.500
       358   12 Jun 2027 10:05:16.767   12 Jun 2027 10:05:24.334             7.567           399.313
       359   12 Jun 2027 10:05:35.887   12 Jun 2027 10:05:37.758             1.871           361.031
       360   12 Jun 2027 10:06:46.326   12 Jun 2027 10:06:52.389             6.063          2142.750
       361   12 Jun 2027 10:07:54.093   12 Jun 2027 10:07:59.531             5.438          1928.250
       362   12 Jun 2027 10:08:26.147   12 Jun 2027 10:08:28.238             2.091           831.750
       363   12 Jun 2027 10:08:38.511   12 Jun 2027 10:08:40.747             2.236           321.031
       364   12 Jun 2027 10:08:56.470   12 Jun 2027 10:08:58.389             1.919           491.344
       365   12 Jun 2027 10:09:37.826   12 Jun 2027 10:09:40.217             2.391          1123.687
       366   12 Jun 2027 10:10:10.317   12 Jun 2027 10:10:13.654             3.337           395.969
       367   12 Jun 2027 10:10:17.356   12 Jun 2027 10:10:23.674             6.318           115.687
       368   12 Jun 2027 11:42:07.776   12 Jun 2027 11:42:19.956            12.180          6090.000
       369   12 Jun 2027 11:42:38.368   12 Jun 2027 11:42:42.747             4.379          1121.531
       370   12 Jun 2027 11:43:07.798   12 Jun 2027 11:43:10.564             2.766           546.188
       371   12 Jun 2027 11:43:42.785   12 Jun 2027 11:43:46.959             4.174           901.063
       372   12 Jun 2027 11:44:04.454   12 Jun 2027 11:44:04.454             0.000             0.000
       373   12 Jun 2027 11:44:19.797   12 Jun 2027 11:44:22.948             3.151          1026.188
       374   12 Jun 2027 11:44:50.232   12 Jun 2027 11:44:58.504             8.272           573.156
       375   12 Jun 2027 11:45:33.681   12 Jun 2027 11:45:35.435             1.754           877.000
       376   13 Jun 2027 03:52:31.114   13 Jun 2027 03:53:15.078            43.964         21982.000
       377   13 Jun 2027 03:54:34.606   13 Jun 2027 03:54:34.606             0.000             0.000
       378   13 Jun 2027 04:04:43.638   13 Jun 2027 04:05:15.183            31.545         15772.500
       379   13 Jun 2027 05:26:35.897   13 Jun 2027 05:27:50.762            74.865         37432.500
       380   13 Jun 2027 05:28:39.969   13 Jun 2027 05:29:20.267            40.298         20149.000
       381   13 Jun 2027 05:31:08.471   13 Jun 2027 05:31:08.471             0.000             0.000
       382   13 Jun 2027 05:31:55.157   13 Jun 2027 05:31:55.943             0.786           393.000
       383   13 Jun 2027 07:01:24.741   13 Jun 2027 07:03:21.329           116.588         58294.000
       384   13 Jun 2027 07:04:09.651   13 Jun 2027 07:04:21.901            12.250          6125.000
       385   13 Jun 2027 07:04:29.340   13 Jun 2027 07:04:34.382             5.042          2474.655
       386   13 Jun 2027 07:05:25.941   13 Jun 2027 07:05:27.299             1.358           679.000
       387   13 Jun 2027 07:08:35.403   13 Jun 2027 07:08:35.403             0.000             0.000
       388   13 Jun 2027 07:08:54.554   13 Jun 2027 07:08:57.151             2.597          1298.500
       389   13 Jun 2027 07:09:21.865   13 Jun 2027 07:09:21.865             0.000             0.000
       390   13 Jun 2027 07:10:18.652   13 Jun 2027 07:10:35.428            16.776          8388.000
       391   13 Jun 2027 08:39:17.172   13 Jun 2027 08:39:41.961            24.789         11863.781
       392   13 Jun 2027 08:42:13.061   13 Jun 2027 08:42:24.211            11.150          4721.875
       393   13 Jun 2027 08:43:38.188   13 Jun 2027 08:43:43.765             5.577          2250.781
       394   13 Jun 2027 08:44:11.773   13 Jun 2027 08:44:16.254             4.481           685.812
       395   13 Jun 2027 08:44:52.028   13 Jun 2027 08:44:58.443             6.415          1065.594
       396   13 Jun 2027 08:45:17.498   13 Jun 2027 08:45:22.249             4.751           578.031
       397   13 Jun 2027 08:45:47.578   13 Jun 2027 08:45:50.894             3.316           791.531
       398   13 Jun 2027 08:45:59.496   13 Jun 2027 08:46:00.953             1.457           267.344
       399   13 Jun 2027 08:46:17.765   13 Jun 2027 08:46:19.119             1.354           523.281
       400   13 Jun 2027 08:46:40.208   13 Jun 2027 08:46:41.878             1.670           659.031
       401   13 Jun 2027 10:16:01.363   13 Jun 2027 10:16:21.939            20.576          8087.906
       402   13 Jun 2027 10:16:39.332   13 Jun 2027 10:16:40.287             0.955           474.469
       403   13 Jun 2027 10:18:21.780   13 Jun 2027 10:18:26.451             4.671          1981.312
       404   13 Jun 2027 10:18:44.664   13 Jun 2027 10:18:51.232             6.568           569.156
       405   13 Jun 2027 10:19:16.220   13 Jun 2027 10:19:17.889             1.669           780.875
       406   13 Jun 2027 10:20:13.840   13 Jun 2027 10:20:18.280             4.440          1567.781
       407   13 Jun 2027 10:20:31.676   13 Jun 2027 10:20:34.525             2.849           303.094
       408   13 Jun 2027 10:22:00.579   13 Jun 2027 10:22:06.132             5.553          2584.344
       409   13 Jun 2027 10:22:31.724   13 Jun 2027 10:22:40.478             8.754           728.687
       410   13 Jun 2027 11:54:11.301   13 Jun 2027 11:54:24.495            13.194          6494.750
       411   13 Jun 2027 11:54:44.294   13 Jun 2027 11:54:44.784             0.490           240.656
       412   13 Jun 2027 11:55:33.944   13 Jun 2027 11:55:36.839             2.895          1295.781
       413   13 Jun 2027 11:55:54.234   13 Jun 2027 11:55:54.234             0.000             0.000
       414   13 Jun 2027 11:56:20.452   13 Jun 2027 11:56:23.221             2.769          1050.875
       415   13 Jun 2027 11:56:44.707   13 Jun 2027 11:56:44.707             0.000             0.000
       416   13 Jun 2027 11:57:00.158   13 Jun 2027 11:57:02.324             2.166          1030.688
       417   13 Jun 2027 11:57:21.683   13 Jun 2027 11:57:27.184             5.501           145.437
       418   13 Jun 2027 11:57:45.936   13 Jun 2027 11:57:51.788             5.852           586.000
       419   13 Jun 2027 11:58:05.653   13 Jun 2027 11:58:05.653             0.000             0.000
       420   13 Jun 2027 11:58:15.714   13 Jun 2027 11:58:15.829             0.115            57.500
