uniorb/output/strategy_1/Camera/Camera_KinoSat_111907.txt

KinoSat_111907
-------------------------
    Access    *     Start Time (UTCG)     *     Stop Time (UTCG)  *   Duration (s) *   Data (Mbytes)
         1   01 Jun 2027 04:19:10.645   01 Jun 2027 04:19:34.828            24.183         12091.500
         2   01 Jun 2027 04:19:37.778   01 Jun 2027 04:20:54.608            76.830         38415.000
         3   01 Jun 2027 04:20:58.772   01 Jun 2027 04:21:42.107            43.335         21667.500
         4   01 Jun 2027 05:57:33.640   01 Jun 2027 05:59:57.335           143.695         71847.500
         5   01 Jun 2027 06:01:00.087   01 Jun 2027 06:01:02.462             2.375          1187.500
         6   01 Jun 2027 06:02:23.899   01 Jun 2027 06:02:41.693            17.794          8897.000
         7   01 Jun 2027 07:21:37.122   01 Jun 2027 07:23:25.167           108.045         54022.500
         8   01 Jun 2027 07:23:37.553   01 Jun 2027 07:23:37.680             0.127            63.500
         9   01 Jun 2027 08:55:23.499   01 Jun 2027 08:56:08.188            44.689         22344.500
        10   01 Jun 2027 08:57:37.037   01 Jun 2027 08:59:09.069            92.032         46016.000
        11   01 Jun 2027 09:00:52.042   01 Jun 2027 09:00:52.042             0.000             0.000
        12   01 Jun 2027 10:31:23.852   01 Jun 2027 10:32:53.153            89.301         44650.500
        13   01 Jun 2027 10:33:18.807   01 Jun 2027 10:33:24.245             5.438          2719.000
        14   01 Jun 2027 10:39:17.619   01 Jun 2027 10:39:53.567            35.948         17974.000
        15   02 Jun 2027 03:00:00.000   02 Jun 2027 03:00:39.145            39.145         19572.500
        16   02 Jun 2027 04:31:45.289   02 Jun 2027 04:32:33.750            48.461         24230.500
        17   02 Jun 2027 04:32:43.334   02 Jun 2027 04:33:18.424            35.090         17545.000
        18   02 Jun 2027 04:35:12.168   02 Jun 2027 04:35:30.899            18.731          9365.500
        19   02 Jun 2027 04:36:16.407   02 Jun 2027 04:36:16.407             0.000             0.000
        20   02 Jun 2027 06:10:07.676   02 Jun 2027 06:12:10.036           122.360         61180.000
        21   02 Jun 2027 06:12:58.034   02 Jun 2027 06:13:00.780             2.746          1373.000
        22   02 Jun 2027 06:14:02.532   02 Jun 2027 06:14:02.532             0.000             0.000
        23   02 Jun 2027 06:14:45.816   02 Jun 2027 06:14:48.009             2.193          1096.500
        24   02 Jun 2027 07:33:32.201   02 Jun 2027 07:35:08.176            95.975         47987.500
        25   02 Jun 2027 09:09:51.049   02 Jun 2027 09:11:54.872           123.823         61911.500
        26   02 Jun 2027 09:12:52.975   02 Jun 2027 09:13:19.758            26.783         13391.500
        27   02 Jun 2027 10:44:23.419   02 Jun 2027 10:45:24.748            61.329         30664.500
        28   02 Jun 2027 10:48:07.260   02 Jun 2027 10:48:08.777             1.517           758.500
        29   02 Jun 2027 10:50:52.115   02 Jun 2027 10:51:53.679            61.564         30782.000
        30   03 Jun 2027 03:05:40.606   03 Jun 2027 03:06:08.198            27.592         13796.000
        31   03 Jun 2027 03:06:49.283   03 Jun 2027 03:07:10.662            21.379         10689.500
        32   03 Jun 2027 03:08:39.447   03 Jun 2027 03:08:39.447             0.000             0.000
        33   03 Jun 2027 03:09:15.257   03 Jun 2027 03:09:24.199             8.942          4471.000
        34   03 Jun 2027 03:09:39.149   03 Jun 2027 03:09:44.518             5.369          2684.500
        35   03 Jun 2027 03:10:27.613   03 Jun 2027 03:10:45.928            18.315          9157.500
        36   03 Jun 2027 03:11:13.511   03 Jun 2027 03:11:18.859             5.348          2674.000
        37   03 Jun 2027 03:12:42.836   03 Jun 2027 03:12:51.975             9.139          4569.500
        38   03 Jun 2027 04:43:42.456   03 Jun 2027 04:43:48.604             6.148          3074.000
        39   03 Jun 2027 04:43:59.380   03 Jun 2027 04:45:07.091            67.711         33855.500
        40   03 Jun 2027 04:45:55.019   03 Jun 2027 04:46:00.738             5.719          2859.500
        41   03 Jun 2027 04:46:42.843   03 Jun 2027 04:47:04.163            21.320         10660.000
        42   03 Jun 2027 04:47:21.978   03 Jun 2027 04:47:24.805             2.827          1413.500
        43   03 Jun 2027 06:21:46.334   03 Jun 2027 06:23:02.958            76.624         38312.000
        44   03 Jun 2027 06:24:33.411   03 Jun 2027 06:24:44.417            11.006          5503.000
        45   03 Jun 2027 07:45:24.124   03 Jun 2027 07:47:11.190           107.066         53533.000
        46   03 Jun 2027 07:47:19.541   03 Jun 2027 07:47:19.541             0.000             0.000
        47   03 Jun 2027 09:21:52.795   03 Jun 2027 09:23:50.305           117.510         58755.000
        48   03 Jun 2027 09:24:18.639   03 Jun 2027 09:24:33.091            14.452          7226.000
        49   03 Jun 2027 10:58:01.420   03 Jun 2027 10:58:01.420             0.000             0.000
        50   03 Jun 2027 11:01:03.020   03 Jun 2027 11:01:03.020             0.000             0.000
        51   03 Jun 2027 11:02:50.042   03 Jun 2027 11:03:48.299            58.257         29128.500
        52   04 Jun 2027 03:17:42.328   04 Jun 2027 03:18:08.475            26.147         13073.500
        53   04 Jun 2027 03:18:47.903   04 Jun 2027 03:19:24.567            36.664         18332.000
        54   04 Jun 2027 03:19:32.280   04 Jun 2027 03:19:52.476            20.196         10098.000
        55   04 Jun 2027 03:22:10.297   04 Jun 2027 03:22:18.338             8.041          4020.500
        56   04 Jun 2027 03:22:50.810   04 Jun 2027 03:22:54.919             4.109          2054.500
        57   04 Jun 2027 03:23:36.969   04 Jun 2027 03:23:46.940             9.971          4985.500
        58   04 Jun 2027 04:55:51.242   04 Jun 2027 04:56:50.997            59.755         29877.500
        59   04 Jun 2027 04:57:00.442   04 Jun 2027 04:57:31.732            31.290         15645.000
        60   04 Jun 2027 04:58:32.796   04 Jun 2027 04:58:32.796             0.000             0.000
        61   04 Jun 2027 04:58:46.632   04 Jun 2027 04:58:47.082             0.450           225.000
        62   04 Jun 2027 04:59:06.970   04 Jun 2027 04:59:12.514             5.544          2772.000
        63   04 Jun 2027 05:01:12.087   04 Jun 2027 05:01:16.868             4.781          2390.500
        64   04 Jun 2027 06:34:09.800   04 Jun 2027 06:34:39.959            30.159         15079.500
        65   04 Jun 2027 06:34:58.652   04 Jun 2027 06:36:21.666            83.014         41507.000
        66   04 Jun 2027 07:57:33.016   04 Jun 2027 07:58:53.316            80.300         40150.000
        67   04 Jun 2027 08:00:09.043   04 Jun 2027 08:00:09.043             0.000             0.000
        68   04 Jun 2027 08:00:20.299   04 Jun 2027 08:00:23.080             2.781          1390.500
        69   04 Jun 2027 09:34:03.467   04 Jun 2027 09:34:22.147            18.680          7289.656
        70   04 Jun 2027 11:09:13.632   04 Jun 2027 11:09:36.878            23.246         10913.844
        71   04 Jun 2027 11:15:30.315   04 Jun 2027 11:15:50.635            20.320         10160.000
        72   05 Jun 2027 03:29:40.347   05 Jun 2027 03:31:27.958           107.611         53805.500
        73   05 Jun 2027 03:31:46.542   05 Jun 2027 03:31:50.318             3.776          1888.000
        74   05 Jun 2027 03:32:51.088   05 Jun 2027 03:32:51.668             0.580           290.000
        75   05 Jun 2027 03:35:36.581   05 Jun 2027 03:35:46.126             9.545          4772.500
        76   05 Jun 2027 03:36:18.704   05 Jun 2027 03:36:21.829             3.125          1562.500
        77   05 Jun 2027 05:07:56.571   05 Jun 2027 05:08:05.710             9.139          4569.500
        78   05 Jun 2027 05:08:58.098   05 Jun 2027 05:10:24.358            86.260         43130.000
        79   05 Jun 2027 05:10:41.317   05 Jun 2027 05:10:58.260            16.943          8471.500
        80   05 Jun 2027 05:12:51.201   05 Jun 2027 05:12:54.086             2.885          1442.500
        81   05 Jun 2027 05:13:18.470   05 Jun 2027 05:13:24.303             5.833          2916.500
        82   05 Jun 2027 05:13:59.150   05 Jun 2027 05:14:05.577             6.427          3213.500
        83   05 Jun 2027 06:46:06.732   05 Jun 2027 06:46:45.551            38.819         19409.500
        84   05 Jun 2027 06:47:11.270   05 Jun 2027 06:47:54.611            43.341         21670.500
        85   05 Jun 2027 06:48:00.363   05 Jun 2027 06:48:21.670            21.307         10653.500
        86   05 Jun 2027 08:10:13.238   05 Jun 2027 08:10:54.024            40.786         20393.000
        87   05 Jun 2027 08:12:44.493   05 Jun 2027 08:12:44.914             0.421           210.500
        88   05 Jun 2027 09:47:26.203   05 Jun 2027 09:47:54.031            27.828         13454.782
        89   05 Jun 2027 09:48:14.805   05 Jun 2027 09:48:22.615             7.810           289.281
        90   05 Jun 2027 09:49:11.263   05 Jun 2027 09:49:14.853             3.590          1520.250
        91   05 Jun 2027 11:20:55.907   05 Jun 2027 11:21:09.233            13.326          5538.781
        92   05 Jun 2027 11:27:21.415   05 Jun 2027 11:27:47.160            25.745         11102.625
        93   06 Jun 2027 03:42:09.654   06 Jun 2027 03:43:59.733           110.079         55039.500
        94   06 Jun 2027 03:44:35.522   06 Jun 2027 03:44:56.405            20.883         10441.500
        95   06 Jun 2027 03:47:04.704   06 Jun 2027 03:47:11.722             7.018          3509.000
        96   06 Jun 2027 05:21:01.917   06 Jun 2027 05:23:05.642           123.725         61862.500
        97   06 Jun 2027 05:23:57.250   06 Jun 2027 05:24:00.772             3.522          1761.000
        98   06 Jun 2027 05:27:34.396   06 Jun 2027 05:27:35.161             0.765           382.500
        99   06 Jun 2027 05:28:01.042   06 Jun 2027 05:28:40.845            39.803         19901.500
       100   06 Jun 2027 06:47:01.089   06 Jun 2027 06:47:39.302            38.213         19106.500
       101   06 Jun 2027 06:58:03.334   06 Jun 2027 06:58:48.260            44.926         22054.000
       102   06 Jun 2027 07:00:40.614   06 Jun 2027 07:00:44.173             3.559          1779.500
       103   06 Jun 2027 08:21:02.333   06 Jun 2027 08:21:36.646            34.313         14900.469
       104   06 Jun 2027 08:24:10.170   06 Jun 2027 08:24:18.755             8.585          4292.500
       105   06 Jun 2027 08:24:22.827   06 Jun 2027 08:24:26.390             3.563           539.031
       106   06 Jun 2027 10:00:28.157   06 Jun 2027 10:00:29.461             1.304           652.000
       107   06 Jun 2027 10:01:48.054   06 Jun 2027 10:02:10.849            22.795         11397.500
       108   06 Jun 2027 11:33:06.692   06 Jun 2027 11:33:06.692             0.000             0.000
       109   06 Jun 2027 11:35:12.785   06 Jun 2027 11:35:40.825            28.040         12715.344
       110   06 Jun 2027 11:35:57.137   06 Jun 2027 11:35:58.921             1.784           129.531
       111   06 Jun 2027 11:37:02.770   06 Jun 2027 11:37:07.980             5.210          1798.156
       112   06 Jun 2027 11:37:39.309   06 Jun 2027 11:37:40.926             1.617           771.187
       113   06 Jun 2027 11:38:26.100   06 Jun 2027 11:38:28.912             2.812          1303.656
       114   06 Jun 2027 11:39:27.812   06 Jun 2027 11:39:31.339             3.527          1305.031
       115   07 Jun 2027 03:54:25.206   07 Jun 2027 03:56:31.335           126.129         63064.500
       116   07 Jun 2027 03:57:38.469   07 Jun 2027 03:57:39.483             1.014           507.000
       117   07 Jun 2027 03:57:48.393   07 Jun 2027 03:57:56.434             8.041          4020.500
       118   07 Jun 2027 03:59:22.455   07 Jun 2027 03:59:28.256             5.801          2900.500
       119   07 Jun 2027 05:33:31.836   07 Jun 2027 05:35:21.721           109.885         54942.500
       120   07 Jun 2027 05:37:35.647   07 Jun 2027 05:37:53.231            17.584          8792.000
       121   07 Jun 2027 06:58:23.578   07 Jun 2027 06:59:42.345            78.767         39383.500
       122   07 Jun 2027 07:10:06.667   07 Jun 2027 07:10:43.987            37.320         15399.813
       123   07 Jun 2027 08:32:18.731   07 Jun 2027 08:32:51.622            32.891         16071.344
       124   07 Jun 2027 08:34:54.166   07 Jun 2027 08:35:01.960             7.794          3829.500
       125   07 Jun 2027 08:36:25.958   07 Jun 2027 08:36:32.959             7.001          2326.656
       126   07 Jun 2027 10:07:26.080   07 Jun 2027 10:07:42.215            16.135          7288.344
       127   07 Jun 2027 11:51:08.122   07 Jun 2027 11:52:01.239            53.117         26558.500
       128   08 Jun 2027 04:06:44.233   08 Jun 2027 04:08:41.134           116.901         58450.500
       129   08 Jun 2027 04:09:28.463   08 Jun 2027 04:09:32.015             3.552          1776.000
       130   08 Jun 2027 04:10:08.481   08 Jun 2027 04:10:22.564            14.083          7041.500
       131   08 Jun 2027 04:11:08.868   08 Jun 2027 04:11:11.520             2.652          1326.000
       132   08 Jun 2027 05:45:32.184   08 Jun 2027 05:47:15.446           103.262         51631.000
       133   08 Jun 2027 05:47:47.509   08 Jun 2027 05:47:59.237            11.728          5864.000
       134   08 Jun 2027 05:50:29.971   08 Jun 2027 05:50:42.921            12.950          6475.000
       135   08 Jun 2027 05:52:29.798   08 Jun 2027 05:52:40.079            10.281          5140.500
       136   08 Jun 2027 07:09:51.061   08 Jun 2027 07:11:36.716           105.655         52756.000
       137   08 Jun 2027 07:22:07.546   08 Jun 2027 07:22:20.138            12.592          5718.156
       138   08 Jun 2027 08:44:04.442   08 Jun 2027 08:44:28.553            24.111         11346.250
       139   08 Jun 2027 08:46:53.396   08 Jun 2027 08:47:01.396             8.000          3612.656
       140   08 Jun 2027 08:48:28.940   08 Jun 2027 08:48:28.940             0.000             0.000
       141   08 Jun 2027 08:49:06.876   08 Jun 2027 08:49:22.764            15.888          3405.312
       142   08 Jun 2027 10:18:55.540   08 Jun 2027 10:19:14.081            18.541          8792.094
       143   08 Jun 2027 10:21:25.121   08 Jun 2027 10:21:29.250             4.129          2064.500
       144   09 Jun 2027 04:19:28.934   09 Jun 2027 04:19:51.968            23.034         11517.000
       145   09 Jun 2027 04:19:55.487   09 Jun 2027 04:20:37.018            41.531         20765.500
       146   09 Jun 2027 04:22:13.079   09 Jun 2027 04:22:58.222            45.143         22571.500
       147   09 Jun 2027 04:24:37.529   09 Jun 2027 04:24:39.891             2.362          1181.000
       148   09 Jun 2027 04:24:40.518   09 Jun 2027 04:24:43.163             2.645          1322.500
       149   09 Jun 2027 05:57:51.616   09 Jun 2027 06:00:11.988           140.372         70186.000
       150   09 Jun 2027 06:01:14.693   09 Jun 2027 06:01:17.247             2.554          1277.000
       151   09 Jun 2027 07:21:54.535   09 Jun 2027 07:23:20.571            86.036         43018.000
       152   09 Jun 2027 07:23:33.405   09 Jun 2027 07:23:41.644             8.239          4119.500
       153   09 Jun 2027 07:23:52.553   09 Jun 2027 07:23:57.301             4.748          2374.000
       154   09 Jun 2027 08:57:51.674   09 Jun 2027 08:58:14.118            22.444         11222.000
       155   09 Jun 2027 08:58:18.333   09 Jun 2027 08:58:25.844             7.511          3419.250
       156   09 Jun 2027 08:59:27.019   09 Jun 2027 08:59:30.233             3.214          1331.469
       157   09 Jun 2027 09:00:13.422   09 Jun 2027 09:00:14.514             1.092           546.000
       158   09 Jun 2027 09:00:31.762   09 Jun 2027 09:00:36.363             4.601          1308.688
       159   09 Jun 2027 10:33:13.020   09 Jun 2027 10:33:35.998            22.978          7565.844
       160   09 Jun 2027 10:39:33.472   09 Jun 2027 10:39:56.932            23.460         11139.813
       161   10 Jun 2027 03:01:24.847   10 Jun 2027 03:01:30.742             5.895          2947.500
       162   10 Jun 2027 04:32:06.545   10 Jun 2027 04:33:42.763            96.218         48109.000
       163   10 Jun 2027 04:33:44.598   10 Jun 2027 04:34:11.530            26.932         13466.000
       164   10 Jun 2027 04:35:26.915   10 Jun 2027 04:35:26.915             0.000             0.000
       165   10 Jun 2027 04:35:48.228   10 Jun 2027 04:35:50.208             1.980           990.000
       166   10 Jun 2027 04:36:31.441   10 Jun 2027 04:36:31.728             0.287           143.500
       167   10 Jun 2027 04:36:40.394   10 Jun 2027 04:36:51.390            10.996          5498.000
       168   10 Jun 2027 06:10:26.470   10 Jun 2027 06:12:24.906           118.436         59218.000
       169   10 Jun 2027 06:13:12.023   10 Jun 2027 06:13:12.213             0.190            95.000
       170   10 Jun 2027 06:14:11.878   10 Jun 2027 06:14:17.274             5.396          2698.000
       171   10 Jun 2027 07:33:48.926   10 Jun 2027 07:35:26.100            97.174         48587.000
       172   10 Jun 2027 09:10:10.383   10 Jun 2027 09:10:38.019            27.636         13517.875
       173   10 Jun 2027 09:10:51.754   10 Jun 2027 09:10:51.754             0.000             0.000
       174   10 Jun 2027 09:11:38.986   10 Jun 2027 09:11:47.946             8.960          1732.937
       175   10 Jun 2027 09:13:10.866   10 Jun 2027 09:13:19.835             8.969          1864.844
       176   10 Jun 2027 10:43:39.858   10 Jun 2027 10:43:43.332             3.474          1737.000
       177   10 Jun 2027 10:45:45.002   10 Jun 2027 10:45:54.059             9.057          4528.500
       178   10 Jun 2027 10:47:03.864   10 Jun 2027 10:47:13.385             9.521          4275.625
       179   10 Jun 2027 10:47:28.128   10 Jun 2027 10:47:29.485             1.357           267.375
       180   10 Jun 2027 10:47:39.739   10 Jun 2027 10:47:42.748             3.009           301.344
       181   10 Jun 2027 10:48:02.027   10 Jun 2027 10:48:04.562             2.535           493.531
       182   10 Jun 2027 10:48:09.913   10 Jun 2027 10:48:13.174             3.261           167.219
       183   10 Jun 2027 10:48:36.267   10 Jun 2027 10:48:38.522             2.255           664.125
       184   10 Jun 2027 10:51:06.647   10 Jun 2027 10:51:17.263            10.616          4300.094
       185   10 Jun 2027 10:51:28.769   10 Jun 2027 10:51:29.120             0.351           136.844
       186   10 Jun 2027 10:52:07.296   10 Jun 2027 10:52:09.960             2.664          1193.000
       187   11 Jun 2027 03:05:59.098   11 Jun 2027 03:06:15.557            16.459          8229.500
       188   11 Jun 2027 03:06:44.874   11 Jun 2027 03:06:49.116             4.242          2121.000
       189   11 Jun 2027 03:07:34.569   11 Jun 2027 03:07:54.938            20.369         10184.500
       190   11 Jun 2027 03:09:06.897   11 Jun 2027 03:09:14.317             7.420          3710.000
       191   11 Jun 2027 03:09:41.862   11 Jun 2027 03:09:56.478            14.616          7308.000
       192   11 Jun 2027 03:10:21.546   11 Jun 2027 03:10:42.777            21.231         10615.500
       193   11 Jun 2027 04:44:00.109   11 Jun 2027 04:44:05.325             5.216          2608.000
       194   11 Jun 2027 04:44:30.040   11 Jun 2027 04:45:33.960            63.920         31960.000
       195   11 Jun 2027 04:45:53.695   11 Jun 2027 04:46:00.364             6.669          3334.500
       196   11 Jun 2027 04:46:09.286   11 Jun 2027 04:46:09.286             0.000             0.000
       197   11 Jun 2027 04:46:25.414   11 Jun 2027 04:46:25.414             0.000             0.000
       198   11 Jun 2027 04:47:19.355   11 Jun 2027 04:47:20.877             1.522           761.000
       199   11 Jun 2027 04:47:32.870   11 Jun 2027 04:47:39.447             6.577          3288.500
       200   11 Jun 2027 04:48:16.959   11 Jun 2027 04:48:24.263             7.304          3652.000
       201   11 Jun 2027 06:22:41.305   11 Jun 2027 06:24:31.550           110.245         55122.500
       202   11 Jun 2027 06:25:02.408   11 Jun 2027 06:25:14.359            11.951          5975.500
       203   11 Jun 2027 07:45:40.173   11 Jun 2027 07:46:58.853            78.680         39260.813
       204   11 Jun 2027 07:47:34.395   11 Jun 2027 07:47:43.053             8.658          1110.688
       205   11 Jun 2027 09:22:12.496   11 Jun 2027 09:22:31.304            18.808          9196.469
       206   11 Jun 2027 09:24:50.962   11 Jun 2027 09:24:50.962             0.000             0.000
       207   11 Jun 2027 10:56:42.681   11 Jun 2027 10:57:00.901            18.220          8984.625
       208   11 Jun 2027 10:57:45.269   11 Jun 2027 10:57:48.702             3.433           763.406
       209   11 Jun 2027 11:00:31.118   11 Jun 2027 11:00:32.101             0.983           491.500
       210   11 Jun 2027 11:02:02.559   11 Jun 2027 11:02:18.276            15.717          6853.188
       211   11 Jun 2027 11:02:50.140   11 Jun 2027 11:02:53.251             3.111           995.750
       212   11 Jun 2027 11:03:17.251   11 Jun 2027 11:03:24.227             6.976           722.906
       213   11 Jun 2027 11:03:31.830   11 Jun 2027 11:03:32.750             0.920            59.656
       214   11 Jun 2027 11:03:35.395   11 Jun 2027 11:03:35.735             0.340            14.313
       215   11 Jun 2027 11:04:05.541   11 Jun 2027 11:04:05.901             0.360           180.000
       216   12 Jun 2027 03:18:00.906   12 Jun 2027 03:18:47.894            46.988         23494.000
       217   12 Jun 2027 03:19:02.967   12 Jun 2027 03:20:07.468            64.501         32250.500
       218   12 Jun 2027 03:22:29.061   12 Jun 2027 03:22:58.445            29.384         14692.000
       219   12 Jun 2027 04:56:08.994   12 Jun 2027 04:57:11.111            62.117         31058.500
       220   12 Jun 2027 04:57:17.976   12 Jun 2027 04:57:24.382             6.406          3203.000
       221   12 Jun 2027 04:57:55.365   12 Jun 2027 04:58:09.507            14.142          7071.000
       222   12 Jun 2027 04:59:03.252   12 Jun 2027 04:59:07.338             4.086          2043.000
       223   12 Jun 2027 04:59:52.284   12 Jun 2027 05:00:05.451            13.167          6583.500
       224   12 Jun 2027 05:02:23.671   12 Jun 2027 05:02:24.305             0.634           317.000
       225   12 Jun 2027 06:34:27.671   12 Jun 2027 06:34:58.820            31.149         15574.500
       226   12 Jun 2027 06:35:17.240   12 Jun 2027 06:36:21.491            64.251         32125.500
       227   12 Jun 2027 06:36:48.943   12 Jun 2027 06:36:55.053             6.110          3055.000
       228   12 Jun 2027 07:57:50.644   12 Jun 2027 07:58:40.150            49.506         23365.313
       229   12 Jun 2027 07:58:51.114   12 Jun 2027 07:58:56.776             5.662           310.344
       230   12 Jun 2027 08:00:27.661   12 Jun 2027 08:00:27.661             0.000             0.000
       231   12 Jun 2027 08:00:36.626   12 Jun 2027 08:00:45.438             8.812          2681.750
       232   12 Jun 2027 09:34:22.145   12 Jun 2027 09:34:36.683            14.538          5979.844
       233   12 Jun 2027 09:36:28.314   12 Jun 2027 09:36:38.874            10.560          3366.437
       234   12 Jun 2027 09:36:52.291   12 Jun 2027 09:37:02.030             9.739           419.281
       235   12 Jun 2027 11:09:31.381   12 Jun 2027 11:09:46.071            14.690          6388.062
       236   12 Jun 2027 11:10:36.139   12 Jun 2027 11:10:36.139             0.000             0.000
       237   12 Jun 2027 11:11:05.509   12 Jun 2027 11:11:11.015             5.506          2163.312
       238   12 Jun 2027 11:11:33.057   12 Jun 2027 11:11:36.267             3.210           277.344
       239   12 Jun 2027 11:12:17.173   12 Jun 2027 11:12:21.006             3.833          1021.906
       240   12 Jun 2027 11:15:43.885   12 Jun 2027 11:15:59.441            15.556          6334.625
       241   13 Jun 2027 03:29:58.592   13 Jun 2027 03:31:58.365           119.773         59886.500
       242   13 Jun 2027 03:33:08.549   13 Jun 2027 03:33:10.161             1.612           806.000
       243   13 Jun 2027 03:35:34.702   13 Jun 2027 03:35:41.624             6.922          3461.000
       244   13 Jun 2027 03:36:35.953   13 Jun 2027 03:36:40.285             4.332          2166.000
       245   13 Jun 2027 05:09:15.829   13 Jun 2027 05:10:42.728            86.899         43449.500
       246   13 Jun 2027 05:14:16.151   13 Jun 2027 05:14:21.733             5.582          2791.000
       247   13 Jun 2027 05:15:49.353   13 Jun 2027 05:15:53.154             3.801          1900.500
       248   13 Jun 2027 06:46:24.653   13 Jun 2027 06:47:03.615            38.962         19481.000
       249   13 Jun 2027 06:47:25.995   13 Jun 2027 06:48:37.831            71.836         35918.000
       250   13 Jun 2027 08:10:28.633   13 Jun 2027 08:11:11.486            42.853         21426.500
       251   13 Jun 2027 08:12:32.316   13 Jun 2027 08:12:35.342             3.026          1513.000
       252   13 Jun 2027 08:12:37.820   13 Jun 2027 08:12:44.807             6.987          3073.718
       253   13 Jun 2027 09:48:46.128   13 Jun 2027 09:49:02.697            16.569          8284.500
       254   13 Jun 2027 11:21:12.862   13 Jun 2027 11:21:34.509            21.647          9422.906
       255   13 Jun 2027 11:23:02.814   13 Jun 2027 11:23:02.814             0.000             0.000
       256   13 Jun 2027 11:27:51.141   13 Jun 2027 11:28:14.988            23.847         11530.031
