uniorb/output/strategy_1/Camera/Camera_KinoSat_110105.txt

KinoSat_110105
-------------------------
    Access    *     Start Time (UTCG)     *     Stop Time (UTCG)  *   Duration (s) *   Data (Mbytes)
         1   01 Jun 2027 04:06:55.883   01 Jun 2027 04:09:21.441           145.558         72779.000
         2   01 Jun 2027 04:10:11.828   01 Jun 2027 04:10:21.616             9.788          4894.000
         3   01 Jun 2027 04:12:41.173   01 Jun 2027 04:12:52.572            11.399          5699.500
         4   01 Jun 2027 04:12:56.020   01 Jun 2027 04:13:03.608             7.588          3794.000
         5   01 Jun 2027 05:44:55.490   01 Jun 2027 05:48:21.745           206.255        103127.500
         6   01 Jun 2027 07:18:06.716   01 Jun 2027 07:21:03.425           176.709         88354.500
         7   01 Jun 2027 07:22:24.522   01 Jun 2027 07:22:41.154            16.632          8316.000
         8   01 Jun 2027 07:23:54.480   01 Jun 2027 07:24:18.915            24.435         12217.500
         9   01 Jun 2027 07:24:23.682   01 Jun 2027 07:24:45.387            21.705         10852.500
        10   02 Jun 2027 04:18:59.056   02 Jun 2027 04:25:09.236           370.180        185090.000
        11   02 Jun 2027 05:56:55.264   02 Jun 2027 06:00:13.056           197.792         98896.000
        12   02 Jun 2027 06:00:40.655   02 Jun 2027 06:00:42.813             2.158          1079.000
        13   02 Jun 2027 07:30:29.779   02 Jun 2027 07:32:53.147           143.368         71684.000
        14   02 Jun 2027 07:34:40.670   02 Jun 2027 07:34:51.429            10.759          5379.500
        15   02 Jun 2027 07:35:21.698   02 Jun 2027 07:35:36.000            14.302          7151.000
        16   02 Jun 2027 07:35:57.408   02 Jun 2027 07:36:20.241            22.833         11416.500
        17   02 Jun 2027 07:37:10.277   02 Jun 2027 07:37:14.675             4.398          2199.000
        18   03 Jun 2027 03:00:00.000   03 Jun 2027 03:01:30.956            90.956         45478.000
        19   03 Jun 2027 04:30:50.445   03 Jun 2027 04:36:45.931           355.486        177743.000
        20   03 Jun 2027 04:36:53.301   03 Jun 2027 04:37:08.562            15.261          7630.500
        21   03 Jun 2027 06:08:55.995   03 Jun 2027 06:11:26.409           150.414         75207.000
        22   03 Jun 2027 06:12:27.658   03 Jun 2027 06:12:46.537            18.879          9439.500
        23   03 Jun 2027 07:42:47.160   03 Jun 2027 07:45:27.610           160.450         80225.000
        24   03 Jun 2027 07:47:31.596   03 Jun 2027 07:47:39.412             7.816          3908.000
        25   03 Jun 2027 07:48:08.109   03 Jun 2027 07:48:32.032            23.923         11961.500
        26   04 Jun 2027 03:06:09.631   04 Jun 2027 03:13:28.207           438.576        219288.000
        27   04 Jun 2027 04:43:08.615   04 Jun 2027 04:45:46.768           158.153         79076.500
        28   04 Jun 2027 04:45:59.294   04 Jun 2027 04:46:09.293             9.999          4999.500
        29   04 Jun 2027 04:46:32.884   04 Jun 2027 04:46:42.052             9.168          4584.000
        30   04 Jun 2027 04:46:57.423   04 Jun 2027 04:46:59.024             1.601           800.500
        31   04 Jun 2027 04:47:09.452   04 Jun 2027 04:47:20.033            10.581          5290.500
        32   04 Jun 2027 04:48:25.137   04 Jun 2027 04:48:29.202             4.065          2032.500
        33   04 Jun 2027 04:48:43.070   04 Jun 2027 04:48:59.108            16.038          8019.000
        34   04 Jun 2027 06:20:09.917   04 Jun 2027 06:23:04.472           174.555         87277.500
        35   04 Jun 2027 06:24:23.059   04 Jun 2027 06:24:26.466             3.407          1703.500
        36   04 Jun 2027 06:24:35.876   04 Jun 2027 06:24:44.627             8.751          4375.500
        37   04 Jun 2027 07:55:13.675   04 Jun 2027 07:55:55.137            41.462         20731.000
        38   04 Jun 2027 07:56:52.060   04 Jun 2027 07:57:44.715            52.655         26327.500
        39   04 Jun 2027 07:58:33.934   04 Jun 2027 07:58:55.215            21.281         10640.500
        40   05 Jun 2027 03:18:36.491   05 Jun 2027 03:23:47.450           310.959        155479.500
        41   05 Jun 2027 03:24:16.814   05 Jun 2027 03:24:33.731            16.917          8458.500
        42   05 Jun 2027 04:55:30.279   05 Jun 2027 04:57:52.607           142.328         71164.000
        43   05 Jun 2027 04:58:12.024   05 Jun 2027 04:58:24.245            12.221          6110.500
        44   05 Jun 2027 04:58:49.490   05 Jun 2027 04:58:53.317             3.827          1913.500
        45   05 Jun 2027 04:59:48.916   05 Jun 2027 04:59:53.534             4.618          2309.000
        46   05 Jun 2027 04:59:57.983   05 Jun 2027 05:00:02.419             4.436          2218.000
        47   05 Jun 2027 05:00:27.498   05 Jun 2027 05:00:51.861            24.363         12181.500
        48   05 Jun 2027 06:32:21.473   05 Jun 2027 06:34:40.185           138.712         69356.000
        49   05 Jun 2027 06:35:26.443   05 Jun 2027 06:35:46.767            20.324         10162.000
        50   05 Jun 2027 06:36:47.393   05 Jun 2027 06:36:53.226             5.833          2916.500
        51   05 Jun 2027 08:09:57.756   05 Jun 2027 08:10:44.277            46.521         23260.500
        52   05 Jun 2027 08:11:40.681   05 Jun 2027 08:11:42.192             1.511           755.500
        53   06 Jun 2027 03:30:42.648   06 Jun 2027 03:37:24.202           401.554        200777.000
        54   06 Jun 2027 05:08:25.240   06 Jun 2027 05:11:30.386           185.146         92573.000
        55   06 Jun 2027 05:12:16.935   06 Jun 2027 05:12:49.957            33.022         16511.000
        56   06 Jun 2027 06:44:23.574   06 Jun 2027 06:46:47.011           143.437         71718.500
        57   06 Jun 2027 06:47:18.636   06 Jun 2027 06:47:32.413            13.777          6888.500
        58   06 Jun 2027 06:48:43.529   06 Jun 2027 06:48:52.787             9.258          4629.000
        59   07 Jun 2027 03:43:18.348   07 Jun 2027 03:49:29.069           370.721        185360.500
        60   07 Jun 2027 05:20:31.547   07 Jun 2027 05:22:57.359           145.812         72906.000
        61   07 Jun 2027 05:23:02.006   07 Jun 2027 05:23:47.538            45.532         22766.000
        62   07 Jun 2027 05:24:11.784   07 Jun 2027 05:24:26.785            15.001          7500.500
        63   07 Jun 2027 06:56:49.848   07 Jun 2027 06:58:51.598           121.750         60875.000
        64   07 Jun 2027 06:59:05.687   07 Jun 2027 06:59:09.042             3.355          1677.500
        65   07 Jun 2027 06:59:33.107   07 Jun 2027 06:59:48.291            15.184          7592.000
        66   07 Jun 2027 06:59:52.293   07 Jun 2027 06:59:52.293             0.000             0.000
        67   07 Jun 2027 07:00:02.839   07 Jun 2027 07:00:12.850            10.011          5005.500
        68   07 Jun 2027 07:01:16.336   07 Jun 2027 07:01:21.249             4.913          2456.500
        69   08 Jun 2027 03:54:49.871   08 Jun 2027 04:01:16.748           386.877        193438.500
        70   08 Jun 2027 05:33:09.025   08 Jun 2027 05:36:36.687           207.662        103831.000
        71   08 Jun 2027 07:08:28.608   08 Jun 2027 07:11:07.201           158.593         79296.500
        72   08 Jun 2027 07:11:32.932   08 Jun 2027 07:11:42.651             9.719          4859.500
        73   08 Jun 2027 07:11:57.352   08 Jun 2027 07:12:00.183             2.831          1415.500
        74   08 Jun 2027 07:12:05.019   08 Jun 2027 07:12:05.019             0.000             0.000
        75   08 Jun 2027 07:12:17.400   08 Jun 2027 07:12:25.072             7.672          3836.000
        76   08 Jun 2027 07:12:49.333   08 Jun 2027 07:12:50.059             0.726           363.000
        77   08 Jun 2027 07:13:20.824   08 Jun 2027 07:13:33.281            12.457          6228.500
        78   09 Jun 2027 04:07:11.002   09 Jun 2027 04:13:32.418           381.416        190708.000
        79   09 Jun 2027 05:45:10.453   09 Jun 2027 05:48:33.854           203.401        101700.500
        80   09 Jun 2027 05:48:57.585   09 Jun 2027 05:48:57.585             0.000             0.000
        81   09 Jun 2027 07:18:20.878   09 Jun 2027 07:20:33.380           132.502         66251.000
        82   09 Jun 2027 07:20:50.053   09 Jun 2027 07:20:55.226             5.173          2586.500
        83   09 Jun 2027 07:21:20.613   09 Jun 2027 07:21:29.533             8.920          4460.000
        84   09 Jun 2027 07:22:23.247   09 Jun 2027 07:22:43.823            20.576         10288.000
        85   09 Jun 2027 07:23:24.654   09 Jun 2027 07:23:28.546             3.892          1946.000
        86   09 Jun 2027 07:23:32.265   09 Jun 2027 07:23:47.005            14.740          7370.000
        87   09 Jun 2027 07:25:31.910   09 Jun 2027 07:25:46.412            14.502          7251.000
        88   10 Jun 2027 04:19:13.682   10 Jun 2027 04:25:24.263           370.581        185290.500
        89   10 Jun 2027 05:57:10.060   10 Jun 2027 06:00:25.020           194.960         97480.000
        90   10 Jun 2027 07:30:46.267   10 Jun 2027 07:32:29.349           103.082         51541.000
        91   10 Jun 2027 07:33:07.778   10 Jun 2027 07:33:47.072            39.294         19647.000
        92   10 Jun 2027 07:36:09.094   10 Jun 2027 07:36:19.647            10.553          5276.500
        93   10 Jun 2027 07:36:37.240   10 Jun 2027 07:36:52.969            15.729          7864.500
        94   10 Jun 2027 07:38:09.539   10 Jun 2027 07:38:15.178             5.639          2819.500
        95   11 Jun 2027 03:00:00.000   11 Jun 2027 03:01:45.863           105.863         52931.500
        96   11 Jun 2027 04:31:05.137   11 Jun 2027 04:35:15.456           250.319        125159.500
        97   11 Jun 2027 04:36:10.519   11 Jun 2027 04:36:46.115            35.596         17798.000
        98   11 Jun 2027 04:37:21.551   11 Jun 2027 04:37:24.117             2.566          1283.000
        99   11 Jun 2027 06:09:11.149   11 Jun 2027 06:12:37.189           206.040        103020.000
       100   11 Jun 2027 07:43:02.430   11 Jun 2027 07:44:57.597           115.167         57583.500
       101   11 Jun 2027 07:47:13.207   11 Jun 2027 07:47:28.310            15.103          7551.500
       102   11 Jun 2027 07:47:36.133   11 Jun 2027 07:47:43.053             6.920          3460.000
       103   11 Jun 2027 07:49:30.199   11 Jun 2027 07:49:41.752            11.553          5776.500
       104   12 Jun 2027 03:06:25.555   12 Jun 2027 03:10:48.655           263.100        131550.000
       105   12 Jun 2027 03:11:42.684   12 Jun 2027 03:12:45.874            63.190         31595.000
       106   12 Jun 2027 04:43:27.524   12 Jun 2027 04:46:08.445           160.921         80460.500
       107   12 Jun 2027 04:46:14.707   12 Jun 2027 04:46:24.164             9.457          4728.500
       108   12 Jun 2027 04:47:59.610   12 Jun 2027 04:48:19.859            20.249         10124.500
       109   12 Jun 2027 04:49:18.149   12 Jun 2027 04:49:37.047            18.898          9449.000
       110   12 Jun 2027 06:20:25.134   12 Jun 2027 06:23:06.140           161.006         80503.000
       111   12 Jun 2027 06:23:41.900   12 Jun 2027 06:24:07.984            26.084         13042.000
       112   12 Jun 2027 07:55:29.119   12 Jun 2027 07:55:59.657            30.538         15269.000
       113   12 Jun 2027 07:57:07.017   12 Jun 2027 07:57:41.748            34.731         17365.500
       114   12 Jun 2027 07:58:32.075   12 Jun 2027 07:58:43.934            11.859          5929.500
       115   12 Jun 2027 07:59:21.127   12 Jun 2027 07:59:22.822             1.695           847.500
       116   12 Jun 2027 07:59:36.190   12 Jun 2027 07:59:49.726            13.536          6768.000
       117   12 Jun 2027 07:59:57.207   12 Jun 2027 08:00:06.688             9.481          4740.500
       118   13 Jun 2027 03:18:51.788   13 Jun 2027 03:24:32.472           340.684        170342.000
       119   13 Jun 2027 03:25:04.342   13 Jun 2027 03:25:34.297            29.955         14977.500
       120   13 Jun 2027 04:55:45.462   13 Jun 2027 04:57:47.636           122.174         61087.000
       121   13 Jun 2027 04:58:16.639   13 Jun 2027 04:58:35.965            19.326          9663.000
       122   13 Jun 2027 04:59:00.696   13 Jun 2027 04:59:07.318             6.622          3311.000
       123   13 Jun 2027 04:59:42.104   13 Jun 2027 04:59:48.058             5.954          2977.000
       124   13 Jun 2027 05:00:06.367   13 Jun 2027 05:00:09.069             2.702          1351.000
       125   13 Jun 2027 05:00:12.842   13 Jun 2027 05:00:25.605            12.763          6381.500
       126   13 Jun 2027 05:01:08.768   13 Jun 2027 05:01:23.124            14.356          7178.000
       127   13 Jun 2027 06:32:37.293   13 Jun 2027 06:35:21.524           164.231         82115.500
       128   13 Jun 2027 06:35:39.198   13 Jun 2027 06:35:41.366             2.168          1084.000
       129   13 Jun 2027 06:36:01.060   13 Jun 2027 06:36:05.234             4.174          2087.000
       130   13 Jun 2027 08:10:18.357   13 Jun 2027 08:11:19.505            61.148         30574.000
       131   13 Jun 2027 08:11:42.848   13 Jun 2027 08:11:55.388            12.540          6270.000
