uniorb/output/strategy_1/Camera/Camera_KinoSat_110801.txt

KinoSat_110801
-------------------------
    Access    *     Start Time (UTCG)     *     Stop Time (UTCG)  *   Duration (s) *   Data (Mbytes)
         1   01 Jun 2027 04:13:39.434   01 Jun 2027 04:15:45.680           126.246         63123.000
         2   01 Jun 2027 05:47:30.399   01 Jun 2027 05:49:30.861           120.462         60231.000
         3   01 Jun 2027 05:49:39.095   01 Jun 2027 05:49:46.870             7.775          3887.500
         4   01 Jun 2027 05:51:00.498   01 Jun 2027 05:51:26.831            26.333         13166.500
         5   01 Jun 2027 05:55:33.385   01 Jun 2027 05:55:44.534            11.149          5574.500
         6   01 Jun 2027 07:24:37.175   01 Jun 2027 07:25:16.666            39.491         19745.500
         7   01 Jun 2027 07:25:31.438   01 Jun 2027 07:27:05.843            94.405         47202.500
         8   01 Jun 2027 07:29:30.413   01 Jun 2027 07:29:32.872             2.459          1229.500
         9   01 Jun 2027 07:29:49.996   01 Jun 2027 07:30:08.311            18.315          9157.500
        10   01 Jun 2027 07:31:25.452   01 Jun 2027 07:31:42.162            16.710          8355.000
        11   01 Jun 2027 09:01:39.739   01 Jun 2027 09:03:42.754           123.015         61507.500
        12   01 Jun 2027 09:05:03.913   01 Jun 2027 09:05:12.401             8.488          4244.000
        13   01 Jun 2027 09:06:06.760   01 Jun 2027 09:06:21.425            14.665          7332.500
        14   01 Jun 2027 10:38:37.100   01 Jun 2027 10:40:33.835           116.735         58367.500
        15   02 Jun 2027 04:26:01.194   02 Jun 2027 04:27:32.142            90.948         45474.000
        16   02 Jun 2027 05:59:41.369   02 Jun 2027 06:01:31.012           109.643         54821.500
        17   02 Jun 2027 06:02:01.667   02 Jun 2027 06:02:03.630             1.963           981.500
        18   02 Jun 2027 06:02:39.826   02 Jun 2027 06:02:44.492             4.666          2333.000
        19   02 Jun 2027 06:04:22.344   02 Jun 2027 06:04:28.699             6.355          3177.500
        20   02 Jun 2027 06:06:32.467   02 Jun 2027 06:06:43.960            11.493          5746.500
        21   02 Jun 2027 06:07:31.475   02 Jun 2027 06:07:41.001             9.526          4763.000
        22   02 Jun 2027 07:37:03.171   02 Jun 2027 07:39:43.787           160.616         80308.000
        23   02 Jun 2027 09:14:00.251   02 Jun 2027 09:16:27.586           147.335         73667.500
        24   02 Jun 2027 09:16:54.505   02 Jun 2027 09:17:00.907             6.402          3201.000
        25   02 Jun 2027 09:17:15.350   02 Jun 2027 09:17:21.283             5.933          2966.500
        26   02 Jun 2027 09:18:08.405   02 Jun 2027 09:18:12.320             3.915          1957.500
        27   02 Jun 2027 10:50:50.653   02 Jun 2027 10:52:47.319           116.666         58333.000
        28   03 Jun 2027 03:01:24.128   03 Jun 2027 03:01:28.282             4.154          2077.000
        29   03 Jun 2027 03:01:54.386   03 Jun 2027 03:02:07.167            12.781          6390.500
        30   03 Jun 2027 03:02:58.425   03 Jun 2027 03:02:58.425             0.000             0.000
        31   03 Jun 2027 04:38:03.166   03 Jun 2027 04:39:31.270            88.104         44052.000
        32   03 Jun 2027 04:39:48.568   03 Jun 2027 04:39:48.568             0.000             0.000
        33   03 Jun 2027 04:40:52.918   03 Jun 2027 04:40:53.777             0.859           429.500
        34   03 Jun 2027 04:41:03.555   03 Jun 2027 04:41:08.315             4.760          2380.000
        35   03 Jun 2027 04:41:34.160   03 Jun 2027 04:41:34.536             0.376           188.000
        36   03 Jun 2027 06:12:58.126   03 Jun 2027 06:14:14.698            76.572         38286.000
        37   03 Jun 2027 06:14:39.321   03 Jun 2027 06:14:53.227            13.906          6953.000
        38   03 Jun 2027 06:17:53.117   03 Jun 2027 06:18:04.470            11.353          5676.500
        39   03 Jun 2027 06:18:57.139   03 Jun 2027 06:19:18.444            21.305         10652.500
        40   03 Jun 2027 06:19:51.976   03 Jun 2027 06:19:53.077             1.101           550.500
        41   03 Jun 2027 07:49:10.600   03 Jun 2027 07:51:16.476           125.876         62938.000
        42   03 Jun 2027 07:51:47.070   03 Jun 2027 07:51:53.946             6.876          3438.000
        43   03 Jun 2027 07:52:54.417   03 Jun 2027 07:53:03.162             8.745          4372.500
        44   03 Jun 2027 07:54:13.935   03 Jun 2027 07:54:21.810             7.875          3937.500
        45   03 Jun 2027 09:26:54.234   03 Jun 2027 09:29:08.021           133.787         66893.500
        46   03 Jun 2027 09:30:37.203   03 Jun 2027 09:30:44.713             7.510          3755.000
        47   03 Jun 2027 11:03:00.502   03 Jun 2027 11:03:57.800            57.298         28649.000
        48   03 Jun 2027 11:04:15.283   03 Jun 2027 11:04:18.600             3.317          1410.315
        49   03 Jun 2027 11:05:01.925   03 Jun 2027 11:05:02.155             0.230           115.000
        50   03 Jun 2027 11:05:06.578   03 Jun 2027 11:05:06.578             0.000             0.000
        51   03 Jun 2027 11:05:51.198   03 Jun 2027 11:06:03.809            12.611          1893.281
        52   03 Jun 2027 11:06:26.407   03 Jun 2027 11:06:28.817             2.410           259.906
        53   03 Jun 2027 11:07:02.123   03 Jun 2027 11:07:02.123             0.000             0.000
        54   04 Jun 2027 03:13:38.520   04 Jun 2027 03:13:56.085            17.565          8782.500
        55   04 Jun 2027 03:16:40.037   04 Jun 2027 03:16:46.398             6.361          3180.500
        56   04 Jun 2027 04:50:10.297   04 Jun 2027 04:51:59.416           109.119         54559.500
        57   04 Jun 2027 06:25:20.421   04 Jun 2027 06:27:06.929           106.508         53254.000
        58   04 Jun 2027 06:28:36.789   04 Jun 2027 06:28:38.904             2.115          1057.500
        59   04 Jun 2027 06:30:27.037   04 Jun 2027 06:30:48.091            21.054         10527.000
        60   04 Jun 2027 06:30:52.158   04 Jun 2027 06:30:56.922             4.764          2382.000
        61   04 Jun 2027 06:31:32.556   04 Jun 2027 06:31:37.800             5.244          2622.000
        62   04 Jun 2027 06:31:43.701   04 Jun 2027 06:31:45.102             1.401           700.500
        63   04 Jun 2027 08:01:45.137   04 Jun 2027 08:03:12.399            87.262         42516.844
        64   04 Jun 2027 08:04:42.908   04 Jun 2027 08:04:46.959             4.051          2025.500
        65   04 Jun 2027 08:04:59.534   04 Jun 2027 08:05:01.671             2.137          1068.500
        66   04 Jun 2027 08:06:55.184   04 Jun 2027 08:07:04.084             8.900          3571.781
        67   04 Jun 2027 08:07:32.295   04 Jun 2027 08:07:35.345             3.050           868.438
        68   04 Jun 2027 09:39:00.603   04 Jun 2027 09:39:20.602            19.999          9999.500
        69   04 Jun 2027 09:39:33.758   04 Jun 2027 09:39:37.260             3.502           968.187
        70   04 Jun 2027 09:39:49.982   04 Jun 2027 09:39:54.566             4.584           397.562
        71   04 Jun 2027 09:39:56.010   04 Jun 2027 09:39:57.726             1.716            45.125
        72   04 Jun 2027 09:40:50.931   04 Jun 2027 09:40:52.103             1.172           586.000
        73   04 Jun 2027 09:42:08.749   04 Jun 2027 09:42:15.805             7.056          3331.094
        74   04 Jun 2027 09:42:35.965   04 Jun 2027 09:42:41.676             5.711           437.344
        75   04 Jun 2027 09:43:08.555   04 Jun 2027 09:43:11.168             2.613           762.656
        76   04 Jun 2027 11:15:14.898   04 Jun 2027 11:15:30.315            15.417          7138.438
        77   04 Jun 2027 11:16:07.125   04 Jun 2027 11:16:11.864             4.739          1105.063
        78   04 Jun 2027 11:16:49.174   04 Jun 2027 11:16:51.992             2.818          1165.937
        79   04 Jun 2027 11:16:58.433   04 Jun 2027 11:16:58.476             0.043            21.500
        80   04 Jun 2027 11:17:17.319   04 Jun 2027 11:17:19.408             2.089           693.344
        81   04 Jun 2027 11:18:27.737   04 Jun 2027 11:18:32.667             4.930          1913.375
        82   04 Jun 2027 11:18:41.040   04 Jun 2027 11:18:43.241             2.201            65.156
        83   04 Jun 2027 11:19:03.926   04 Jun 2027 11:19:07.147             3.221           646.406
        84   04 Jun 2027 11:19:28.264   04 Jun 2027 11:19:29.283             1.019           115.438
        85   04 Jun 2027 11:19:36.605   04 Jun 2027 11:19:45.439             8.834           135.937
        86   05 Jun 2027 03:25:40.893   05 Jun 2027 03:26:04.469            23.576         11788.000
        87   05 Jun 2027 03:27:05.755   05 Jun 2027 03:27:46.349            40.594         20297.000
        88   05 Jun 2027 05:02:03.121   05 Jun 2027 05:04:02.450           119.329         59664.500
        89   05 Jun 2027 05:04:12.312   05 Jun 2027 05:04:12.312             0.000             0.000
        90   05 Jun 2027 05:05:18.329   05 Jun 2027 05:05:21.384             3.055          1527.500
        91   05 Jun 2027 06:36:59.179   05 Jun 2027 06:38:21.184            82.005         41002.500
        92   05 Jun 2027 06:38:36.255   05 Jun 2027 06:38:43.126             6.871          3435.500
        93   05 Jun 2027 06:39:13.349   05 Jun 2027 06:39:36.745            23.396         11698.000
        94   05 Jun 2027 06:43:32.638   05 Jun 2027 06:43:44.069            11.431          5715.500
        95   05 Jun 2027 08:13:18.374   05 Jun 2027 08:14:13.394            55.020         27486.063
        96   05 Jun 2027 08:15:15.236   05 Jun 2027 08:15:22.738             7.502          1630.094
        97   05 Jun 2027 08:15:38.325   05 Jun 2027 08:15:38.803             0.478           239.000
        98   05 Jun 2027 08:17:02.687   05 Jun 2027 08:17:09.850             7.163          2717.750
        99   05 Jun 2027 08:18:00.365   05 Jun 2027 08:18:00.365             0.000             0.000
       100   05 Jun 2027 08:18:49.745   05 Jun 2027 08:18:55.723             5.978          2675.594
       101   05 Jun 2027 08:19:38.782   05 Jun 2027 08:19:42.717             3.935           806.531
       102   05 Jun 2027 09:51:33.507   05 Jun 2027 09:51:53.560            20.053         10012.656
       103   05 Jun 2027 09:52:03.995   05 Jun 2027 09:52:04.518             0.523            51.969
       104   05 Jun 2027 09:52:55.095   05 Jun 2027 09:52:59.530             4.435          1136.250
       105   05 Jun 2027 09:53:15.927   05 Jun 2027 09:53:17.059             1.132           504.094
       106   05 Jun 2027 09:53:34.663   05 Jun 2027 09:53:37.828             3.165           522.594
       107   05 Jun 2027 09:54:28.178   05 Jun 2027 09:54:37.540             9.362           894.000
       108   05 Jun 2027 09:54:56.135   05 Jun 2027 09:55:02.049             5.914           396.344
       109   05 Jun 2027 11:26:53.837   05 Jun 2027 11:27:09.747            15.910          7835.438
       110   05 Jun 2027 11:28:16.676   05 Jun 2027 11:28:29.209            12.533          2035.063
       111   05 Jun 2027 11:28:42.756   05 Jun 2027 11:28:44.555             1.799           423.344
       112   05 Jun 2027 11:28:49.566   05 Jun 2027 11:28:55.942             6.376           156.594
       113   05 Jun 2027 11:29:04.059   05 Jun 2027 11:29:05.945             1.886           135.656
       114   05 Jun 2027 11:29:10.068   05 Jun 2027 11:29:14.029             3.961            20.969
       115   05 Jun 2027 11:29:46.211   05 Jun 2027 11:29:48.372             2.161           451.281
       116   05 Jun 2027 11:30:38.836   05 Jun 2027 11:30:41.010             2.174          1087.000
       117   05 Jun 2027 11:31:26.161   05 Jun 2027 11:31:29.163             3.002           889.563
       118   05 Jun 2027 11:31:56.700   05 Jun 2027 11:32:01.359             4.659           859.625
       119   05 Jun 2027 11:32:07.164   05 Jun 2027 11:32:18.821            11.657           157.594
       120   06 Jun 2027 03:36:45.732   06 Jun 2027 03:37:34.952            49.220         24610.000
       121   06 Jun 2027 03:37:47.817   06 Jun 2027 03:37:52.584             4.767          2383.500
       122   06 Jun 2027 03:39:04.473   06 Jun 2027 03:39:04.473             0.000             0.000
       123   06 Jun 2027 03:39:14.070   06 Jun 2027 03:39:14.070             0.000             0.000
       124   06 Jun 2027 03:39:47.011   06 Jun 2027 03:39:47.011             0.000             0.000
       125   06 Jun 2027 03:40:00.510   06 Jun 2027 03:40:19.834            19.324          9662.000
       126   06 Jun 2027 03:40:41.790   06 Jun 2027 03:40:41.790             0.000             0.000
       127   06 Jun 2027 05:12:21.751   06 Jun 2027 05:13:00.607            38.856         19428.000
       128   06 Jun 2027 05:13:47.194   06 Jun 2027 05:15:28.407           101.213         50606.500
       129   06 Jun 2027 05:17:55.181   06 Jun 2027 05:17:59.208             4.027          2013.500
       130   06 Jun 2027 06:48:32.558   06 Jun 2027 06:49:46.328            73.770         36885.000
       131   06 Jun 2027 06:50:00.859   06 Jun 2027 06:50:24.371            23.512         11756.000
       132   06 Jun 2027 06:51:05.827   06 Jun 2027 06:51:11.739             5.912          2956.000
       133   06 Jun 2027 06:51:29.934   06 Jun 2027 06:51:40.795            10.861          5430.500
       134   06 Jun 2027 06:52:37.331   06 Jun 2027 06:52:41.847             4.516          2230.156
       135   06 Jun 2027 06:55:03.830   06 Jun 2027 06:55:15.360            11.530          4436.969
       136   06 Jun 2027 08:25:37.815   06 Jun 2027 08:26:15.476            37.661         16818.719
       137   06 Jun 2027 08:26:43.637   06 Jun 2027 08:26:46.464             2.827           686.719
       138   06 Jun 2027 08:26:55.671   06 Jun 2027 08:27:01.312             5.641           244.812
       139   06 Jun 2027 08:27:29.194   06 Jun 2027 08:27:32.624             3.430           480.187
       140   06 Jun 2027 08:28:31.547   06 Jun 2027 08:28:33.906             2.359           950.656
       141   06 Jun 2027 08:29:05.276   06 Jun 2027 08:29:15.227             9.951           808.125
       142   06 Jun 2027 08:29:40.868   06 Jun 2027 08:29:45.193             4.325           775.156
       143   06 Jun 2027 08:30:02.197   06 Jun 2027 08:30:03.367             1.170           405.156
       144   06 Jun 2027 08:30:43.446   06 Jun 2027 08:30:51.118             7.672          1078.594
       145   06 Jun 2027 08:30:56.054   06 Jun 2027 08:30:58.126             2.072           154.250
       146   06 Jun 2027 08:31:33.831   06 Jun 2027 08:31:36.751             2.920           961.625
       147   06 Jun 2027 10:03:36.651   06 Jun 2027 10:03:54.094            17.443          8545.687
       148   06 Jun 2027 10:05:08.452   06 Jun 2027 10:05:15.165             6.713          2171.562
       149   06 Jun 2027 10:05:22.720   06 Jun 2027 10:05:24.914             2.194           182.063
       150   06 Jun 2027 10:06:40.184   06 Jun 2027 10:06:47.230             7.046          2235.625
       151   06 Jun 2027 10:07:19.855   06 Jun 2027 10:07:23.155             3.300          1019.531
       152   06 Jun 2027 11:36:45.250   06 Jun 2027 11:36:59.475            14.225          6759.969
       153   06 Jun 2027 11:37:07.980   06 Jun 2027 11:37:08.877             0.897           231.781
       154   06 Jun 2027 11:37:51.897   06 Jun 2027 11:37:52.616             0.719           243.312
       155   06 Jun 2027 11:38:33.386   06 Jun 2027 11:38:36.745             3.359           139.813
       156   06 Jun 2027 11:38:55.246   06 Jun 2027 11:38:58.181             2.935           254.438
       157   06 Jun 2027 11:39:08.990   06 Jun 2027 11:39:08.990             0.000             0.000
       158   06 Jun 2027 11:39:21.145   06 Jun 2027 11:39:23.332             2.187           713.406
       159   06 Jun 2027 11:39:53.119   06 Jun 2027 11:39:59.503             6.384           548.188
       160   06 Jun 2027 11:40:57.186   06 Jun 2027 11:41:02.304             5.118          1800.344
       161   06 Jun 2027 11:41:52.447   06 Jun 2027 11:41:54.623             2.176          1088.000
       162   06 Jun 2027 11:42:53.663   06 Jun 2027 11:42:59.448             5.785          2230.687
       163   06 Jun 2027 11:43:05.660   06 Jun 2027 11:43:06.665             1.005           105.125
       164   06 Jun 2027 11:43:16.200   06 Jun 2027 11:43:17.936             1.736           297.969
       165   06 Jun 2027 11:43:56.651   06 Jun 2027 11:43:57.281             0.630           315.000
       166   06 Jun 2027 11:44:29.153   06 Jun 2027 11:44:34.558             5.405          1890.844
       167   07 Jun 2027 03:48:24.456   07 Jun 2027 03:49:34.136            69.680         34840.000
       168   07 Jun 2027 03:52:43.252   07 Jun 2027 03:52:52.014             8.762          4381.000
       169   07 Jun 2027 05:23:28.149   07 Jun 2027 05:25:11.605           103.456         51728.000
       170   07 Jun 2027 05:25:35.008   07 Jun 2027 05:25:55.770            20.762         10381.000
       171   07 Jun 2027 05:26:23.087   07 Jun 2027 05:26:30.315             7.228          3614.000
       172   07 Jun 2027 05:29:15.498   07 Jun 2027 05:29:44.367            28.869         14434.500
       173   07 Jun 2027 07:01:21.390   07 Jun 2027 07:03:17.760           116.370         57754.343
       174   07 Jun 2027 07:03:40.183   07 Jun 2027 07:03:40.183             0.000             0.000
       175   07 Jun 2027 07:04:12.183   07 Jun 2027 07:04:17.197             5.014          1678.031
       176   07 Jun 2027 07:06:18.446   07 Jun 2027 07:06:19.198             0.752           376.000
       177   07 Jun 2027 07:07:50.333   07 Jun 2027 07:07:58.642             8.309          4154.500
       178   07 Jun 2027 07:08:09.982   07 Jun 2027 07:08:10.419             0.437           218.500
       179   07 Jun 2027 08:37:39.205   07 Jun 2027 08:38:07.072            27.867         13254.813
       180   07 Jun 2027 08:39:12.870   07 Jun 2027 08:39:16.465             3.595          1438.719
       181   07 Jun 2027 08:39:54.696   07 Jun 2027 08:39:58.705             4.009           743.156
       182   07 Jun 2027 08:40:51.855   07 Jun 2027 08:40:56.909             5.054          1570.437
       183   07 Jun 2027 08:41:10.815   07 Jun 2027 08:41:11.854             1.039           279.031
       184   07 Jun 2027 08:41:45.035   07 Jun 2027 08:41:48.883             3.848           915.188
       185   07 Jun 2027 08:42:35.525   07 Jun 2027 08:42:38.851             3.326          1431.781
       186   07 Jun 2027 08:43:47.750   07 Jun 2027 08:43:52.137             4.387          2153.094
       187   07 Jun 2027 10:15:36.341   07 Jun 2027 10:15:54.495            18.154          8943.531
       188   07 Jun 2027 10:16:07.763   07 Jun 2027 10:16:12.151             4.388           414.625
       189   07 Jun 2027 10:16:59.564   07 Jun 2027 10:17:01.988             2.424          1143.531
       190   07 Jun 2027 10:17:22.973   07 Jun 2027 10:17:24.395             1.422           366.125
       191   07 Jun 2027 10:18:26.896   07 Jun 2027 10:18:31.649             4.753          1853.187
       192   07 Jun 2027 10:18:48.985   07 Jun 2027 10:18:49.872             0.887           419.188
       193   07 Jun 2027 10:19:19.174   07 Jun 2027 10:19:22.442             3.268           821.344
       194   07 Jun 2027 11:49:12.472   07 Jun 2027 11:49:18.618             6.146          3006.438
       195   07 Jun 2027 11:49:42.710   07 Jun 2027 11:49:45.153             2.443            94.625
       196   07 Jun 2027 11:49:53.140   07 Jun 2027 11:49:54.184             1.044           249.594
       197   07 Jun 2027 11:50:57.227   07 Jun 2027 11:51:00.776             3.549          1494.500
       198   07 Jun 2027 11:51:30.365   07 Jun 2027 11:51:30.365             0.000             0.000
       199   07 Jun 2027 11:52:01.239   07 Jun 2027 11:52:04.035             2.796          1224.344
       200   07 Jun 2027 11:53:47.996   07 Jun 2027 11:53:56.127             8.131          3153.594
       201   07 Jun 2027 11:54:39.534   07 Jun 2027 11:54:39.534             0.000             0.000
       202   07 Jun 2027 11:54:59.554   07 Jun 2027 11:55:05.656             6.102          1956.875
       203   07 Jun 2027 11:55:55.209   07 Jun 2027 11:55:56.022             0.813           406.500
       204   07 Jun 2027 11:56:26.576   07 Jun 2027 11:56:32.427             5.851          2096.844
       205   08 Jun 2027 04:00:08.122   08 Jun 2027 04:01:22.090            73.968         36984.000
       206   08 Jun 2027 04:05:06.403   08 Jun 2027 04:05:06.403             0.000             0.000
       207   08 Jun 2027 04:05:37.118   08 Jun 2027 04:05:47.922            10.804          5402.000
       208   08 Jun 2027 05:34:56.367   08 Jun 2027 05:37:01.252           124.885         62442.500
       209   08 Jun 2027 05:40:32.584   08 Jun 2027 05:40:34.259             1.675           837.500
       210   08 Jun 2027 05:42:02.015   08 Jun 2027 05:42:12.075            10.060          5030.000
       211   08 Jun 2027 07:12:45.576   08 Jun 2027 07:14:50.502           124.926         62463.000
       212   08 Jun 2027 07:15:29.123   08 Jun 2027 07:15:33.291             4.168          2084.000
       213   08 Jun 2027 07:16:50.365   08 Jun 2027 07:16:50.365             0.000             0.000
       214   08 Jun 2027 07:17:49.006   08 Jun 2027 07:17:53.375             4.369          2184.500
       215   08 Jun 2027 07:19:21.845   08 Jun 2027 07:19:33.921            12.076          5382.719
       216   08 Jun 2027 07:19:53.830   08 Jun 2027 07:19:55.664             1.834           505.250
       217   08 Jun 2027 08:49:29.976   08 Jun 2027 08:49:41.973            11.997          5998.500
       218   08 Jun 2027 08:50:00.135   08 Jun 2027 08:50:23.234            23.099          8495.969
       219   08 Jun 2027 08:51:37.223   08 Jun 2027 08:51:42.894             5.671          2037.781
       220   08 Jun 2027 08:52:18.857   08 Jun 2027 08:52:19.689             0.832           416.000
       221   08 Jun 2027 08:53:14.814   08 Jun 2027 08:53:24.279             9.465          2231.344
       222   08 Jun 2027 08:53:59.934   08 Jun 2027 08:54:03.714             3.780           848.406
       223   08 Jun 2027 08:54:25.190   08 Jun 2027 08:54:26.213             1.023           164.906
       224   08 Jun 2027 08:55:34.784   08 Jun 2027 08:55:45.358            10.574          2142.844
       225   08 Jun 2027 08:55:51.317   08 Jun 2027 08:55:57.788             6.471           186.219
       226   08 Jun 2027 08:56:11.715   08 Jun 2027 08:56:13.592             1.877            99.719
       227   08 Jun 2027 10:27:38.393   08 Jun 2027 10:27:56.146            17.753          8528.125
       228   08 Jun 2027 10:28:05.243   08 Jun 2027 10:28:10.295             5.052            83.687
       229   08 Jun 2027 10:29:18.882   08 Jun 2027 10:29:25.598             6.716          2100.062
       230   08 Jun 2027 10:30:16.283   08 Jun 2027 10:30:25.329             9.046          1583.906
       231   08 Jun 2027 10:30:46.688   08 Jun 2027 10:30:48.416             1.728           667.469
       232   08 Jun 2027 10:30:52.338   08 Jun 2027 10:30:52.868             0.530            46.094
       233   09 Jun 2027 04:13:54.234   09 Jun 2027 04:15:06.689            72.455         36227.500
       234   09 Jun 2027 04:17:09.777   09 Jun 2027 04:17:13.456             3.679          1839.500
       235   09 Jun 2027 04:17:49.654   09 Jun 2027 04:17:50.727             1.073           536.500
       236   09 Jun 2027 05:47:45.014   09 Jun 2027 05:49:22.840            97.826         48913.000
       237   09 Jun 2027 05:50:01.516   09 Jun 2027 05:50:13.796            12.280          6140.000
       238   09 Jun 2027 05:51:23.785   09 Jun 2027 05:51:41.913            18.128          9064.000
       239   09 Jun 2027 05:54:06.547   09 Jun 2027 05:54:15.533             8.986          4493.000
       240   09 Jun 2027 05:54:44.587   09 Jun 2027 05:54:49.866             5.279          2639.500
       241   09 Jun 2027 05:56:10.839   09 Jun 2027 05:56:15.358             4.519          2259.500
       242   09 Jun 2027 07:24:52.016   09 Jun 2027 07:26:39.483           107.467         53733.500
       243   09 Jun 2027 07:27:08.378   09 Jun 2027 07:27:20.493            12.115          5987.344
       244   09 Jun 2027 07:28:14.868   09 Jun 2027 07:28:17.016             2.148          1074.000
       245   09 Jun 2027 07:28:49.041   09 Jun 2027 07:28:53.583             4.542          1626.000
       246   09 Jun 2027 07:30:12.712   09 Jun 2027 07:30:18.285             5.573          2354.437
       247   09 Jun 2027 07:30:34.147   09 Jun 2027 07:30:37.084             2.937           213.125
       248   09 Jun 2027 07:31:18.187   09 Jun 2027 07:31:19.843             1.656           828.000
       249   09 Jun 2027 09:01:54.945   09 Jun 2027 09:02:23.645            28.700         12706.156
       250   09 Jun 2027 09:03:44.583   09 Jun 2027 09:03:49.441             4.858          2303.687
       251   09 Jun 2027 09:04:10.894   09 Jun 2027 09:04:13.537             2.643           670.406
       252   09 Jun 2027 09:04:47.129   09 Jun 2027 09:04:49.278             2.149           942.563
       253   09 Jun 2027 09:05:31.795   09 Jun 2027 09:05:37.449             5.654          1328.656
       254   09 Jun 2027 09:05:56.141   09 Jun 2027 09:06:09.415            13.274           557.344
       255   09 Jun 2027 09:06:21.656   09 Jun 2027 09:06:23.225             1.569           382.531
       256   09 Jun 2027 09:06:32.670   09 Jun 2027 09:06:33.478             0.808           217.000
       257   09 Jun 2027 09:06:54.535   09 Jun 2027 09:06:56.761             2.226           418.313
       258   09 Jun 2027 09:07:25.917   09 Jun 2027 09:07:32.629             6.712           911.125
       259   09 Jun 2027 10:38:52.781   09 Jun 2027 10:39:08.972            16.191          7523.969
       260   09 Jun 2027 10:39:28.621   09 Jun 2027 10:39:29.749             1.128           533.594
       261   09 Jun 2027 10:41:01.797   09 Jun 2027 10:41:07.017             5.220          2547.437
       262   09 Jun 2027 10:41:31.849   09 Jun 2027 10:41:32.849             1.000           496.625
       263   09 Jun 2027 10:41:38.167   09 Jun 2027 10:41:44.534             6.367           166.188
       264   09 Jun 2027 10:42:08.366   09 Jun 2027 10:42:11.657             3.291           744.750
       265   09 Jun 2027 10:43:15.711   09 Jun 2027 10:43:20.575             4.864          2001.687
       266   10 Jun 2027 04:26:15.924   10 Jun 2027 04:28:08.513           112.589         56294.500
       267   10 Jun 2027 05:59:57.611   10 Jun 2027 06:01:34.632            97.021         48510.500
       268   10 Jun 2027 06:01:46.375   10 Jun 2027 06:01:51.273             4.898          2449.000
       269   10 Jun 2027 06:02:28.592   10 Jun 2027 06:02:28.905             0.313           156.500
       270   10 Jun 2027 06:04:17.199   10 Jun 2027 06:04:18.858             1.659           829.500
       271   10 Jun 2027 06:06:01.638   10 Jun 2027 06:06:01.638             0.000             0.000
       272   10 Jun 2027 06:06:47.779   10 Jun 2027 06:07:02.704            14.925          7462.500
       273   10 Jun 2027 06:07:58.619   10 Jun 2027 06:08:04.827             6.208          3104.000
       274   10 Jun 2027 06:08:11.821   10 Jun 2027 06:08:12.534             0.713           356.500
       275   10 Jun 2027 07:37:18.244   10 Jun 2027 07:39:19.503           121.259         56465.469
       276   10 Jun 2027 07:41:18.868   10 Jun 2027 07:41:23.764             4.896          2448.000
       277   10 Jun 2027 07:42:36.050   10 Jun 2027 07:42:43.079             7.029          3178.719
       278   10 Jun 2027 09:14:15.093   10 Jun 2027 09:14:45.092            29.999         13505.531
       279   10 Jun 2027 09:15:10.285   10 Jun 2027 09:15:10.879             0.594           259.219
       280   10 Jun 2027 09:16:21.188   10 Jun 2027 09:16:25.815             4.627          2026.531
       281   10 Jun 2027 09:17:15.791   10 Jun 2027 09:17:17.957             2.166           860.906
       282   10 Jun 2027 09:17:50.082   10 Jun 2027 09:17:54.089             4.007           534.844
       283   10 Jun 2027 09:18:09.790   10 Jun 2027 09:18:12.009             2.219           490.656
       284   10 Jun 2027 09:18:23.356   10 Jun 2027 09:18:24.328             0.972           354.594
       285   10 Jun 2027 09:18:43.693   10 Jun 2027 09:18:44.672             0.979           479.375
       286   10 Jun 2027 09:19:33.391   10 Jun 2027 09:19:36.406             3.015          1235.906
       287   10 Jun 2027 10:51:05.584   10 Jun 2027 10:51:19.261            13.677          6832.531
       288   10 Jun 2027 10:52:07.863   10 Jun 2027 10:52:11.297             3.434          1175.156
       289   10 Jun 2027 10:52:22.068   10 Jun 2027 10:52:22.068             0.000             0.000
       290   10 Jun 2027 10:52:40.477   10 Jun 2027 10:52:44.303             3.826           862.563
       291   10 Jun 2027 10:53:54.048   10 Jun 2027 10:54:02.912             8.864          1628.594
       292   10 Jun 2027 10:55:17.209   10 Jun 2027 10:55:26.353             9.144          2313.250
       293   11 Jun 2027 03:01:38.871   11 Jun 2027 03:01:42.950             4.079          2039.500
       294   11 Jun 2027 03:02:10.208   11 Jun 2027 03:02:21.794            11.586          5793.000
       295   11 Jun 2027 03:03:13.178   11 Jun 2027 03:03:14.481             1.303           651.500
       296   11 Jun 2027 04:38:18.951   11 Jun 2027 04:38:53.626            34.675         17337.500
       297   11 Jun 2027 04:39:23.261   11 Jun 2027 04:39:44.283            21.022         10511.000
       298   11 Jun 2027 04:40:04.619   11 Jun 2027 04:40:43.821            39.202         19601.000
       299   11 Jun 2027 06:13:18.052   11 Jun 2027 06:15:08.584           110.532         55266.000
       300   11 Jun 2027 06:16:16.959   11 Jun 2027 06:16:22.254             5.295          2647.500
       301   11 Jun 2027 06:16:26.687   11 Jun 2027 06:16:28.073             1.386           693.000
       302   11 Jun 2027 06:17:06.559   11 Jun 2027 06:17:13.104             6.545          3272.500
       303   11 Jun 2027 06:19:11.907   11 Jun 2027 06:19:14.665             2.758          1379.000
       304   11 Jun 2027 06:20:04.641   11 Jun 2027 06:20:10.809             6.168          3084.000
       305   11 Jun 2027 07:49:25.668   11 Jun 2027 07:51:05.080            99.412         48473.062
       306   11 Jun 2027 07:52:07.968   11 Jun 2027 07:52:10.888             2.920          1310.719
       307   11 Jun 2027 07:55:10.492   11 Jun 2027 07:55:23.626            13.134          5557.875
       308   11 Jun 2027 09:27:09.817   11 Jun 2027 09:27:32.760            22.943         10682.187
       309   11 Jun 2027 09:29:03.292   11 Jun 2027 09:29:07.814             4.522          2111.844
       310   11 Jun 2027 09:29:16.369   11 Jun 2027 09:29:17.974             1.605           207.031
       311   11 Jun 2027 09:29:34.242   11 Jun 2027 09:29:35.203             0.961           344.906
       312   11 Jun 2027 09:30:12.311   11 Jun 2027 09:30:15.609             3.298          1159.625
       313   11 Jun 2027 09:30:33.491   11 Jun 2027 09:30:33.491             0.000             0.000
       314   11 Jun 2027 09:30:59.293   11 Jun 2027 09:31:00.883             1.590           795.000
       315   11 Jun 2027 09:31:18.862   11 Jun 2027 09:31:21.209             2.347          1131.969
       316   11 Jun 2027 11:03:15.650   11 Jun 2027 11:03:31.463            15.813          7337.562
       317   11 Jun 2027 11:04:00.485   11 Jun 2027 11:04:04.145             3.660           895.469
       318   11 Jun 2027 11:04:12.761   11 Jun 2027 11:04:16.982             4.221           106.375
       319   11 Jun 2027 11:05:17.008   11 Jun 2027 11:05:21.321             4.313          1418.625
       320   11 Jun 2027 11:06:33.105   11 Jun 2027 11:06:37.379             4.274          2137.000
       321   11 Jun 2027 11:06:56.926   11 Jun 2027 11:07:04.459             7.533           683.500
       322   11 Jun 2027 11:07:14.930   11 Jun 2027 11:07:16.622             1.692           327.219
       323   11 Jun 2027 11:07:27.357   11 Jun 2027 11:07:29.007             1.650           335.469
       324   12 Jun 2027 03:13:53.323   12 Jun 2027 03:14:22.434            29.111         14555.500
       325   12 Jun 2027 03:14:36.355   12 Jun 2027 03:14:36.355             0.000             0.000
       326   12 Jun 2027 03:14:37.511   12 Jun 2027 03:14:43.017             5.506          2753.000
       327   12 Jun 2027 03:15:23.991   12 Jun 2027 03:15:29.997             6.006          3003.000
       328   12 Jun 2027 03:16:52.980   12 Jun 2027 03:16:52.980             0.000             0.000
       329   12 Jun 2027 04:50:25.145   12 Jun 2027 04:52:27.823           122.678         61339.000
       330   12 Jun 2027 06:25:35.389   12 Jun 2027 06:27:33.265           117.876         58938.000
       331   12 Jun 2027 06:28:53.515   12 Jun 2027 06:29:23.376            29.861         14930.500
       332   12 Jun 2027 06:31:47.331   12 Jun 2027 06:31:50.105             2.774          1387.000
       333   12 Jun 2027 06:31:59.845   12 Jun 2027 06:32:02.701             2.856          1428.000
       334   12 Jun 2027 08:01:59.288   12 Jun 2027 08:02:48.261            48.973         24486.500
       335   12 Jun 2027 08:03:11.151   12 Jun 2027 08:03:14.705             3.554          1259.469
       336   12 Jun 2027 08:04:28.565   12 Jun 2027 08:04:33.563             4.998          2084.563
       337   12 Jun 2027 08:05:14.751   12 Jun 2027 08:05:16.755             2.004          1002.000
       338   12 Jun 2027 08:06:21.511   12 Jun 2027 08:06:26.747             5.236          2231.406
       339   12 Jun 2027 08:07:54.674   12 Jun 2027 08:08:02.851             8.177          2747.719
       340   12 Jun 2027 09:39:15.703   12 Jun 2027 09:39:30.898            15.195          7597.500
       341   12 Jun 2027 09:40:25.085   12 Jun 2027 09:40:33.384             8.299          2802.969
       342   12 Jun 2027 09:41:39.310   12 Jun 2027 09:41:41.683             2.373          1186.500
       343   12 Jun 2027 09:43:10.217   12 Jun 2027 09:43:17.517             7.300          3549.781
       344   12 Jun 2027 09:43:29.814   12 Jun 2027 09:43:33.245             3.431           230.719
       345   12 Jun 2027 11:15:29.419   12 Jun 2027 11:15:48.431            19.012          8381.344
       346   12 Jun 2027 11:16:04.365   12 Jun 2027 11:16:06.195             1.830           497.938
       347   12 Jun 2027 11:16:23.504   12 Jun 2027 11:16:27.617             4.113           392.844
       348   12 Jun 2027 11:17:03.955   12 Jun 2027 11:17:06.925             2.970          1135.563
       349   12 Jun 2027 11:17:15.117   12 Jun 2027 11:17:16.718             1.601           171.562
       350   12 Jun 2027 11:17:32.724   12 Jun 2027 11:17:33.741             1.017           500.187
       351   12 Jun 2027 11:18:42.986   12 Jun 2027 11:18:47.768             4.782          1928.937
       352   12 Jun 2027 11:19:07.852   12 Jun 2027 11:19:09.256             1.404           427.969
       353   13 Jun 2027 03:26:22.949   13 Jun 2027 03:26:45.849            22.900         11450.000
       354   13 Jun 2027 03:27:21.124   13 Jun 2027 03:27:32.399            11.275          5637.500
       355   13 Jun 2027 03:28:53.493   13 Jun 2027 03:28:53.493             0.000             0.000
       356   13 Jun 2027 03:28:56.281   13 Jun 2027 03:29:05.939             9.658          4829.000
       357   13 Jun 2027 05:02:17.753   13 Jun 2027 05:03:49.260            91.507         45753.500
       358   13 Jun 2027 05:05:35.736   13 Jun 2027 05:06:21.086            45.350         22675.000
       359   13 Jun 2027 06:37:13.865   13 Jun 2027 06:38:57.894           104.029         52014.500
       360   13 Jun 2027 06:40:29.113   13 Jun 2027 06:40:46.936            17.823          8911.500
       361   13 Jun 2027 06:43:58.795   13 Jun 2027 06:44:05.751             6.956          3478.000
       362   13 Jun 2027 08:13:33.114   13 Jun 2027 08:14:24.252            51.138         25516.343
       363   13 Jun 2027 08:15:31.156   13 Jun 2027 08:15:38.296             7.140          1669.406
       364   13 Jun 2027 08:15:54.207   13 Jun 2027 08:15:58.533             4.326           367.281
       365   13 Jun 2027 08:16:19.935   13 Jun 2027 08:16:20.479             0.544           112.250
       366   13 Jun 2027 08:16:28.809   13 Jun 2027 08:16:30.138             1.329           260.313
       367   13 Jun 2027 08:16:55.753   13 Jun 2027 08:16:57.647             1.894           246.344
       368   13 Jun 2027 08:18:15.111   13 Jun 2027 08:18:16.810             1.699           849.500
       369   13 Jun 2027 08:19:06.905   13 Jun 2027 08:19:13.740             6.835          2952.656
       370   13 Jun 2027 09:51:48.462   13 Jun 2027 09:52:05.256            16.794          8387.000
       371   13 Jun 2027 09:52:14.888   13 Jun 2027 09:52:17.278             2.390           301.000
       372   13 Jun 2027 09:52:19.223   13 Jun 2027 09:52:25.030             5.807            58.562
       373   13 Jun 2027 09:53:09.745   13 Jun 2027 09:53:11.515             1.770           885.000
       374   13 Jun 2027 09:53:24.137   13 Jun 2027 09:53:29.555             5.418           906.781
       375   13 Jun 2027 09:53:50.742   13 Jun 2027 09:53:53.903             3.161           568.250
       376   13 Jun 2027 09:54:10.984   13 Jun 2027 09:54:14.750             3.766           533.781
       377   13 Jun 2027 09:54:42.785   13 Jun 2027 09:54:53.283            10.498           862.281
       378   13 Jun 2027 09:55:34.259   13 Jun 2027 09:55:37.129             2.870          1224.656
       379   13 Jun 2027 11:27:09.023   13 Jun 2027 11:27:24.266            15.243          6248.500
       380   13 Jun 2027 11:27:43.649   13 Jun 2027 11:27:48.361             4.712           413.594
       381   13 Jun 2027 11:28:16.169   13 Jun 2027 11:28:17.709             1.540           600.500
       382   13 Jun 2027 11:29:11.159   13 Jun 2027 11:29:14.934             3.775          1494.000
       383   13 Jun 2027 11:29:53.295   13 Jun 2027 11:29:57.513             4.218          1178.313
       384   13 Jun 2027 11:31:09.651   13 Jun 2027 11:31:14.325             4.674          2147.062
       385   13 Jun 2027 11:31:41.042   13 Jun 2027 11:31:42.879             1.837           513.969
       386   13 Jun 2027 11:31:44.024   13 Jun 2027 11:31:44.384             0.360            35.781
       387   13 Jun 2027 11:32:16.847   13 Jun 2027 11:32:19.039             2.192           541.625
       388   13 Jun 2027 11:32:38.519   13 Jun 2027 11:32:39.673             1.154           509.219
