uniorb/output/strategy_1/Camera/Camera_KinoSat_111909.txt

KinoSat_111909
-------------------------
    Access    *     Start Time (UTCG)     *     Stop Time (UTCG)  *   Duration (s) *   Data (Mbytes)
         1   01 Jun 2027 03:59:02.365   01 Jun 2027 04:01:29.639           147.274         73637.000
         2   01 Jun 2027 04:03:33.883   01 Jun 2027 04:03:36.504             2.621          1310.500
         3   01 Jun 2027 05:38:06.749   01 Jun 2027 05:40:04.540           117.791         58895.500
         4   01 Jun 2027 05:41:45.792   01 Jun 2027 05:41:56.550            10.758          5379.000
         5   01 Jun 2027 05:42:10.189   01 Jun 2027 05:42:31.989            21.800         10900.000
         6   01 Jun 2027 07:02:56.562   01 Jun 2027 07:04:19.687            83.125         41562.500
         7   01 Jun 2027 07:14:36.360   01 Jun 2027 07:15:17.028            40.668         20334.000
         8   01 Jun 2027 08:36:55.645   01 Jun 2027 08:38:01.656            66.011         33005.500
         9   01 Jun 2027 08:38:52.540   01 Jun 2027 08:39:15.559            23.019         11509.500
        10   01 Jun 2027 08:39:47.646   01 Jun 2027 08:40:31.795            44.149         22074.500
        11   01 Jun 2027 10:11:53.204   01 Jun 2027 10:12:29.390            36.186         18093.000
        12   01 Jun 2027 10:13:03.402   01 Jun 2027 10:13:47.981            44.579         22289.500
        13   01 Jun 2027 10:14:59.693   01 Jun 2027 10:14:59.693             0.000             0.000
        14   01 Jun 2027 10:15:06.322   01 Jun 2027 10:15:13.178             6.856          3428.000
        15   01 Jun 2027 10:15:21.904   01 Jun 2027 10:15:36.553            14.649          7324.500
        16   01 Jun 2027 10:17:37.753   01 Jun 2027 10:17:53.055            15.302          7651.000
        17   01 Jun 2027 11:55:23.936   01 Jun 2027 11:55:30.886             6.950          3475.000
        18   01 Jun 2027 11:55:35.712   01 Jun 2027 11:56:39.675            63.963         31981.500
        19   02 Jun 2027 04:11:24.426   02 Jun 2027 04:12:25.548            61.122         30561.000
        20   02 Jun 2027 04:12:31.079   02 Jun 2027 04:13:22.639            51.560         25780.000
        21   02 Jun 2027 04:14:02.655   02 Jun 2027 04:14:14.428            11.773          5886.500
        22   02 Jun 2027 04:15:39.404   02 Jun 2027 04:15:43.785             4.381          2190.500
        23   02 Jun 2027 05:50:10.323   02 Jun 2027 05:52:05.879           115.556         57778.000
        24   02 Jun 2027 05:54:02.691   02 Jun 2027 05:54:32.171            29.480         14740.000
        25   02 Jun 2027 07:14:29.865   02 Jun 2027 07:16:22.370           112.505         56252.500
        26   02 Jun 2027 07:26:49.594   02 Jun 2027 07:27:09.379            19.785          9892.500
        27   02 Jun 2027 08:48:28.866   02 Jun 2027 08:49:04.039            35.173         17586.500
        28   02 Jun 2027 08:50:37.533   02 Jun 2027 08:51:27.051            49.518         24759.000
        29   02 Jun 2027 10:23:21.331   02 Jun 2027 10:24:18.029            56.698         28349.000
        30   02 Jun 2027 10:25:28.269   02 Jun 2027 10:25:33.070             4.801          2400.500
        31   02 Jun 2027 10:32:19.204   02 Jun 2027 10:32:27.423             8.219          4109.500
        32   03 Jun 2027 04:24:05.767   03 Jun 2027 04:24:19.202            13.435          6717.500
        33   03 Jun 2027 04:24:28.946   03 Jun 2027 04:24:39.744            10.798          5399.000
        34   03 Jun 2027 04:25:20.354   03 Jun 2027 04:25:30.028             9.674          4837.000
        35   03 Jun 2027 04:25:47.647   03 Jun 2027 04:25:55.272             7.625          3812.500
        36   03 Jun 2027 04:26:15.400   03 Jun 2027 04:26:57.548            42.148         21074.000
        37   03 Jun 2027 04:27:28.298   03 Jun 2027 04:27:31.300             3.002          1501.000
        38   03 Jun 2027 04:28:50.787   03 Jun 2027 04:28:52.794             2.007          1003.500
        39   03 Jun 2027 04:29:26.254   03 Jun 2027 04:29:26.286             0.032            16.000
        40   03 Jun 2027 06:02:36.668   03 Jun 2027 06:04:55.907           139.239         69619.500
        41   03 Jun 2027 06:05:11.315   03 Jun 2027 06:05:11.315             0.000             0.000
        42   03 Jun 2027 07:26:26.242   03 Jun 2027 07:28:43.114           136.872         68436.000
        43   03 Jun 2027 09:02:26.959   03 Jun 2027 09:03:59.822            92.863         46431.500
        44   03 Jun 2027 10:36:14.574   03 Jun 2027 10:37:57.231           102.657         51328.500
        45   03 Jun 2027 10:42:58.022   03 Jun 2027 10:43:11.380            13.358          6679.000
        46   04 Jun 2027 03:00:03.429   04 Jun 2027 03:00:16.947            13.518          6759.000
        47   04 Jun 2027 03:00:44.340   04 Jun 2027 03:00:58.353            14.013          7006.500
        48   04 Jun 2027 03:01:28.099   04 Jun 2027 03:01:30.914             2.815          1407.500
        49   04 Jun 2027 03:02:11.750   04 Jun 2027 03:02:37.183            25.433         12716.500
        50   04 Jun 2027 03:03:10.915   04 Jun 2027 03:03:29.389            18.474          9237.000
        51   04 Jun 2027 03:03:34.846   04 Jun 2027 03:03:48.663            13.817          6908.500
        52   04 Jun 2027 04:36:43.508   04 Jun 2027 04:37:20.530            37.022         18511.000
        53   04 Jun 2027 04:37:20.599   04 Jun 2027 04:37:42.553            21.954         10977.000
        54   04 Jun 2027 04:38:17.940   04 Jun 2027 04:38:25.976             8.036          4018.000
        55   04 Jun 2027 04:38:30.260   04 Jun 2027 04:38:32.598             2.338          1169.000
        56   04 Jun 2027 04:39:15.930   04 Jun 2027 04:39:20.273             4.343          2171.500
        57   04 Jun 2027 04:39:29.416   04 Jun 2027 04:39:31.761             2.345          1172.500
        58   04 Jun 2027 04:41:01.680   04 Jun 2027 04:41:04.621             2.941          1470.500
        59   04 Jun 2027 04:41:07.596   04 Jun 2027 04:41:27.011            19.415          9707.500
        60   04 Jun 2027 06:14:56.471   04 Jun 2027 06:16:42.248           105.777         52888.500
        61   04 Jun 2027 06:17:31.392   04 Jun 2027 06:17:46.863            15.471          7735.500
        62   04 Jun 2027 06:18:49.893   04 Jun 2027 06:18:57.956             8.063          4031.500
        63   04 Jun 2027 07:38:19.507   04 Jun 2027 07:40:05.775           106.268         52430.875
        64   04 Jun 2027 09:14:40.538   04 Jun 2027 09:15:12.595            32.057         15896.719
        65   04 Jun 2027 09:15:24.945   04 Jun 2027 09:15:26.829             1.884           385.781
        66   04 Jun 2027 09:15:45.142   04 Jun 2027 09:15:46.677             1.535           538.781
        67   04 Jun 2027 10:50:30.847   04 Jun 2027 10:50:30.847             0.000             0.000
        68   04 Jun 2027 10:50:33.624   04 Jun 2027 10:50:45.908            12.284          6142.000
        69   04 Jun 2027 10:51:49.008   04 Jun 2027 10:52:02.650            13.642          6739.656
        70   04 Jun 2027 10:52:23.078   04 Jun 2027 10:52:25.154             2.076           506.812
        71   04 Jun 2027 10:53:27.735   04 Jun 2027 10:53:35.528             7.793          1955.656
        72   04 Jun 2027 10:54:07.540   04 Jun 2027 10:54:10.034             2.494           984.062
        73   04 Jun 2027 10:55:27.362   04 Jun 2027 10:55:30.605             3.243          1097.438
        74   04 Jun 2027 10:55:43.814   04 Jun 2027 10:55:49.635             5.821           346.781
        75   04 Jun 2027 10:56:07.170   04 Jun 2027 10:56:08.939             1.769           428.750
        76   04 Jun 2027 10:56:11.157   04 Jun 2027 10:56:11.999             0.842            69.312
        77   05 Jun 2027 03:10:33.166   05 Jun 2027 03:10:47.069            13.903          6951.500
        78   05 Jun 2027 03:11:25.013   05 Jun 2027 03:12:21.583            56.570         28285.000
        79   05 Jun 2027 03:12:55.905   05 Jun 2027 03:13:08.317            12.412          6206.000
        80   05 Jun 2027 03:14:17.177   05 Jun 2027 03:14:23.813             6.636          3318.000
        81   05 Jun 2027 03:15:01.840   05 Jun 2027 03:15:04.876             3.036          1518.000
        82   05 Jun 2027 03:15:40.809   05 Jun 2027 03:15:43.557             2.748          1374.000
        83   05 Jun 2027 03:15:53.361   05 Jun 2027 03:15:53.909             0.548           274.000
        84   05 Jun 2027 03:16:05.247   05 Jun 2027 03:16:09.770             4.523          2261.500
        85   05 Jun 2027 04:48:47.616   05 Jun 2027 04:49:48.673            61.057         30528.500
        86   05 Jun 2027 04:49:54.332   05 Jun 2027 04:50:09.687            15.355          7677.500
        87   05 Jun 2027 04:51:27.146   05 Jun 2027 04:51:37.991            10.845          5422.500
        88   05 Jun 2027 04:51:50.914   05 Jun 2027 04:51:59.580             8.666          4333.000
        89   05 Jun 2027 04:54:18.574   05 Jun 2027 04:54:27.924             9.350          4675.000
        90   05 Jun 2027 06:27:49.030   05 Jun 2027 06:29:16.624            87.594         43797.000
        91   05 Jun 2027 06:29:50.149   05 Jun 2027 06:29:50.149             0.000             0.000
        92   05 Jun 2027 06:29:58.721   05 Jun 2027 06:30:02.265             3.544          1772.000
        93   05 Jun 2027 06:30:26.989   05 Jun 2027 06:30:35.460             8.471          4235.500
        94   05 Jun 2027 07:50:13.384   05 Jun 2027 07:51:13.256            59.872         29735.438
        95   05 Jun 2027 07:51:26.570   05 Jun 2027 07:51:30.096             3.526           102.781
        96   05 Jun 2027 09:26:46.342   05 Jun 2027 09:27:02.389            16.047          7737.281
        97   05 Jun 2027 09:29:24.551   05 Jun 2027 09:29:29.874             5.323          2661.500
        98   05 Jun 2027 11:01:55.059   05 Jun 2027 11:02:10.181            15.122          7151.625
        99   05 Jun 2027 11:02:35.934   05 Jun 2027 11:02:37.540             1.606           124.594
       100   05 Jun 2027 11:03:09.915   05 Jun 2027 11:03:09.915             0.000             0.000
       101   05 Jun 2027 11:04:56.613   05 Jun 2027 11:05:08.868            12.255          4346.031
       102   05 Jun 2027 11:06:04.064   05 Jun 2027 11:06:09.166             5.102          1684.375
       103   05 Jun 2027 11:06:47.695   05 Jun 2027 11:06:54.397             6.702           647.031
       104   05 Jun 2027 11:06:56.759   05 Jun 2027 11:06:57.907             1.148            73.812
       105   05 Jun 2027 11:07:44.367   05 Jun 2027 11:07:46.605             2.238           873.031
       106   05 Jun 2027 11:08:00.365   05 Jun 2027 11:08:01.627             1.262           222.937
       107   05 Jun 2027 11:08:09.056   05 Jun 2027 11:08:11.102             2.046           232.156
       108   05 Jun 2027 11:08:30.300   05 Jun 2027 11:08:32.443             2.143           599.938
       109   05 Jun 2027 11:08:37.611   05 Jun 2027 11:08:38.055             0.444           161.500
       110   06 Jun 2027 03:22:31.361   06 Jun 2027 03:24:43.884           132.523         66261.500
       111   06 Jun 2027 05:00:44.489   06 Jun 2027 05:01:37.769            53.280         26640.000
       112   06 Jun 2027 05:01:51.194   06 Jun 2027 05:02:47.009            55.815         27907.500
       113   06 Jun 2027 05:03:19.889   06 Jun 2027 05:03:35.336            15.447          7723.500
       114   06 Jun 2027 06:38:59.437   06 Jun 2027 06:40:23.446            84.009         42004.500
       115   06 Jun 2027 06:41:01.699   06 Jun 2027 06:41:16.911            15.212          7606.000
       116   06 Jun 2027 06:41:58.455   06 Jun 2027 06:42:00.013             1.558           779.000
       117   06 Jun 2027 06:42:43.689   06 Jun 2027 06:42:45.538             1.849           924.500
       118   06 Jun 2027 08:02:21.418   06 Jun 2027 08:03:02.902            41.484         19404.469
       119   06 Jun 2027 08:03:49.553   06 Jun 2027 08:03:52.896             3.343          1250.031
       120   06 Jun 2027 08:05:09.248   06 Jun 2027 08:05:10.046             0.798           399.000
       121   06 Jun 2027 09:38:57.034   06 Jun 2027 09:39:12.496            15.462          7330.812
       122   06 Jun 2027 11:14:07.253   06 Jun 2027 11:14:26.156            18.903          9451.500
       123   06 Jun 2027 11:16:53.842   06 Jun 2027 11:17:07.012            13.170          5642.938
       124   06 Jun 2027 11:17:26.402   06 Jun 2027 11:17:29.029             2.627           372.219
       125   06 Jun 2027 11:17:47.868   06 Jun 2027 11:17:50.884             3.016           319.688
       126   06 Jun 2027 11:18:29.186   06 Jun 2027 11:18:29.802             0.616           308.000
       127   06 Jun 2027 11:20:30.860   06 Jun 2027 11:20:42.152            11.292          4672.000
       128   07 Jun 2027 03:34:32.506   07 Jun 2027 03:36:21.232           108.726         54363.000
       129   07 Jun 2027 03:36:33.001   07 Jun 2027 03:36:47.183            14.182          7091.000
       130   07 Jun 2027 03:37:35.736   07 Jun 2027 03:37:41.007             5.271          2635.500
       131   07 Jun 2027 03:41:21.641   07 Jun 2027 03:41:26.642             5.001          2500.500
       132   07 Jun 2027 05:13:50.151   07 Jun 2027 05:15:35.469           105.318         52659.000
       133   07 Jun 2027 05:20:09.507   07 Jun 2027 05:20:16.252             6.745          3372.500
       134   07 Jun 2027 05:20:42.693   07 Jun 2027 05:21:30.359            47.666         23833.000
       135   07 Jun 2027 06:50:56.292   07 Jun 2027 06:51:38.471            42.179         21089.500
       136   07 Jun 2027 06:51:44.519   07 Jun 2027 06:51:57.838            13.319          6659.500
       137   07 Jun 2027 06:52:18.293   07 Jun 2027 06:52:36.973            18.680          9340.000
       138   07 Jun 2027 06:53:53.460   07 Jun 2027 06:54:06.112            12.652          5886.875
       139   07 Jun 2027 08:14:55.288   07 Jun 2027 08:15:26.769            31.481         15740.500
       140   07 Jun 2027 08:15:58.113   07 Jun 2027 08:16:08.350            10.237          4166.437
       141   07 Jun 2027 08:16:58.393   07 Jun 2027 08:17:03.955             5.562           505.187
       142   07 Jun 2027 08:17:37.580   07 Jun 2027 08:17:37.580             0.000             0.000
       143   07 Jun 2027 09:50:43.844   07 Jun 2027 09:50:59.890            16.046          7756.531
       144   07 Jun 2027 11:25:36.439   07 Jun 2027 11:25:53.829            17.390          7438.156
       145   07 Jun 2027 11:32:21.681   07 Jun 2027 11:32:45.055            23.374         11603.031
       146   08 Jun 2027 03:47:13.302   08 Jun 2027 03:49:38.174           144.872         72436.000
       147   08 Jun 2027 03:51:09.548   08 Jun 2027 03:51:16.992             7.444          3722.000
       148   08 Jun 2027 05:25:59.024   08 Jun 2027 05:27:32.187            93.163         46581.500
       149   08 Jun 2027 05:28:19.964   08 Jun 2027 05:28:19.964             0.000             0.000
       150   08 Jun 2027 05:29:49.054   08 Jun 2027 05:29:54.918             5.864          2932.000
       151   08 Jun 2027 05:31:12.256   08 Jun 2027 05:31:22.607            10.351          5175.500
       152   08 Jun 2027 05:32:13.491   08 Jun 2027 05:32:18.225             4.734          2367.000
       153   08 Jun 2027 05:32:59.238   08 Jun 2027 05:33:34.373            35.135         17567.500
       154   08 Jun 2027 06:51:33.709   08 Jun 2027 06:52:40.272            66.563         33281.500
       155   08 Jun 2027 07:02:54.660   08 Jun 2027 07:03:34.082            39.422         17531.813
       156   08 Jun 2027 08:25:30.527   08 Jun 2027 08:25:57.572            27.045         11245.813
       157   08 Jun 2027 08:26:22.580   08 Jun 2027 08:26:24.067             1.487           597.688
       158   08 Jun 2027 08:28:58.405   08 Jun 2027 08:29:09.891            11.486          4470.500
       159   08 Jun 2027 08:30:09.413   08 Jun 2027 08:30:11.912             2.499          1249.500
       160   08 Jun 2027 10:02:29.482   08 Jun 2027 10:02:46.684            17.202          8560.625
       161   08 Jun 2027 10:02:56.526   08 Jun 2027 10:02:57.356             0.830           307.562
       162   08 Jun 2027 10:03:34.907   08 Jun 2027 10:03:39.852             4.945          1160.531
       163   08 Jun 2027 10:05:16.163   08 Jun 2027 10:05:18.187             2.024          1012.000
       164   08 Jun 2027 11:40:18.579   08 Jun 2027 11:40:44.189            25.610         12805.000
       165   08 Jun 2027 11:44:09.126   08 Jun 2027 11:44:37.744            28.618         10028.562
       166   08 Jun 2027 11:44:52.441   08 Jun 2027 11:44:53.169             0.728           364.000
       167   09 Jun 2027 03:59:21.028   09 Jun 2027 04:00:56.025            94.997         47498.500
       168   09 Jun 2027 04:00:56.402   09 Jun 2027 04:01:28.505            32.103         16051.500
       169   09 Jun 2027 04:02:33.011   09 Jun 2027 04:02:46.853            13.842          6921.000
       170   09 Jun 2027 04:03:27.044   09 Jun 2027 04:03:28.214             1.170           585.000
       171   09 Jun 2027 05:38:24.945   09 Jun 2027 05:40:09.784           104.839         52419.500
       172   09 Jun 2027 05:41:42.147   09 Jun 2027 05:41:49.803             7.656          3828.000
       173   09 Jun 2027 05:43:41.422   09 Jun 2027 05:43:49.923             8.501          4250.500
       174   09 Jun 2027 05:45:13.770   09 Jun 2027 05:45:31.359            17.589          8794.500
       175   09 Jun 2027 07:03:14.097   09 Jun 2027 07:04:48.880            94.783         47391.500
       176   09 Jun 2027 07:14:54.088   09 Jun 2027 07:15:03.216             9.128          4564.000
       177   09 Jun 2027 08:37:12.254   09 Jun 2027 08:37:43.670            31.416         14427.281
       178   09 Jun 2027 08:39:45.408   09 Jun 2027 08:39:53.687             8.279          3345.094
       179   09 Jun 2027 08:42:04.388   09 Jun 2027 08:42:11.913             7.525          3722.469
       180   09 Jun 2027 10:12:07.425   09 Jun 2027 10:12:18.845            11.420          4654.062
       181   09 Jun 2027 10:13:19.832   09 Jun 2027 10:13:22.741             2.909          1070.875
       182   09 Jun 2027 10:14:14.212   09 Jun 2027 10:14:18.443             4.231          1493.469
       183   09 Jun 2027 10:17:35.746   09 Jun 2027 10:17:47.801            12.055          5811.563
       184   09 Jun 2027 10:18:36.029   09 Jun 2027 10:18:43.091             7.062          1507.125
       185   09 Jun 2027 11:52:56.334   09 Jun 2027 11:53:22.535            26.201         11950.594
       186   09 Jun 2027 11:53:37.481   09 Jun 2027 11:53:48.951            11.470           118.438
       187   09 Jun 2027 11:54:30.506   09 Jun 2027 11:54:36.969             6.463          1165.875
       188   09 Jun 2027 11:54:44.762   09 Jun 2027 11:54:47.295             2.533           242.063
       189   09 Jun 2027 11:54:53.387   09 Jun 2027 11:54:58.144             4.757           129.594
       190   09 Jun 2027 11:56:01.947   09 Jun 2027 11:56:07.356             5.409          1993.844
       191   09 Jun 2027 11:56:38.771   09 Jun 2027 11:56:45.992             7.221           981.719
       192   10 Jun 2027 04:11:48.257   10 Jun 2027 04:12:05.997            17.740          8870.000
       193   10 Jun 2027 04:12:13.803   10 Jun 2027 04:12:43.465            29.662         14831.000
       194   10 Jun 2027 04:12:48.351   10 Jun 2027 04:13:39.665            51.314         25657.000
       195   10 Jun 2027 04:15:31.146   10 Jun 2027 04:15:46.925            15.779          7889.500
       196   10 Jun 2027 04:16:36.769   10 Jun 2027 04:16:39.351             2.582          1291.000
       197   10 Jun 2027 05:50:30.004   10 Jun 2027 05:52:35.676           125.672         62836.000
       198   10 Jun 2027 05:54:30.270   10 Jun 2027 05:54:47.544            17.274          8637.000
       199   10 Jun 2027 07:14:47.910   10 Jun 2027 07:16:26.529            98.619         47864.531
       200   10 Jun 2027 07:27:09.856   10 Jun 2027 07:27:24.003            14.147          6900.719
       201   10 Jun 2027 08:48:44.425   10 Jun 2027 08:49:16.725            32.300         15161.031
       202   10 Jun 2027 08:51:00.720   10 Jun 2027 08:51:08.917             8.197          3135.156
       203   10 Jun 2027 08:52:12.785   10 Jun 2027 08:52:15.281             2.496          1181.094
       204   10 Jun 2027 08:53:41.522   10 Jun 2027 08:53:46.687             5.165          2068.000
       205   10 Jun 2027 10:24:33.959   10 Jun 2027 10:24:48.727            14.768          7156.219
       206   10 Jun 2027 10:26:05.754   10 Jun 2027 10:26:05.754             0.000             0.000
       207   10 Jun 2027 10:26:21.758   10 Jun 2027 10:26:25.431             3.673          1057.125
       208   10 Jun 2027 10:28:01.676   10 Jun 2027 10:28:07.330             5.654          2045.969
       209   10 Jun 2027 10:28:39.512   10 Jun 2027 10:28:43.236             3.724          1001.219
       210   10 Jun 2027 10:29:39.888   10 Jun 2027 10:29:45.372             5.484          1756.406
       211   10 Jun 2027 10:29:58.315   10 Jun 2027 10:30:00.905             2.590           290.625
       212   11 Jun 2027 04:24:24.345   11 Jun 2027 04:24:36.733            12.388          6194.000
       213   11 Jun 2027 04:24:47.317   11 Jun 2027 04:25:35.750            48.433         24216.500
       214   11 Jun 2027 04:26:54.254   11 Jun 2027 04:27:33.166            38.912         19456.000
       215   11 Jun 2027 04:29:26.485   11 Jun 2027 04:29:38.420            11.935          5967.500
       216   11 Jun 2027 06:02:55.321   11 Jun 2027 06:05:03.039           127.718         63859.000
       217   11 Jun 2027 06:05:56.515   11 Jun 2027 06:06:05.304             8.789          4394.500
       218   11 Jun 2027 06:06:09.069   11 Jun 2027 06:06:14.510             5.441          2720.500
       219   11 Jun 2027 06:07:55.823   11 Jun 2027 06:07:56.305             0.482           241.000
       220   11 Jun 2027 07:26:43.796   11 Jun 2027 07:28:04.041            80.245         40122.500
       221   11 Jun 2027 09:02:43.577   11 Jun 2027 09:03:17.075            33.498         16749.000
       222   11 Jun 2027 09:03:42.467   11 Jun 2027 09:03:47.180             4.713          1623.812
       223   11 Jun 2027 10:38:17.248   11 Jun 2027 10:38:35.958            18.710          9355.000
       224   11 Jun 2027 10:39:09.045   11 Jun 2027 10:39:16.595             7.550          1095.500
       225   11 Jun 2027 10:40:10.821   11 Jun 2027 10:40:12.725             1.904           952.000
       226   11 Jun 2027 10:44:15.553   11 Jun 2027 10:44:34.955            19.402          8011.469
       227   12 Jun 2027 03:00:17.564   12 Jun 2027 03:00:36.663            19.099          9549.500
       228   12 Jun 2027 03:01:00.773   12 Jun 2027 03:01:01.779             1.006           503.000
       229   12 Jun 2027 03:01:46.184   12 Jun 2027 03:01:57.458            11.274          5637.000
       230   12 Jun 2027 03:02:23.758   12 Jun 2027 03:02:26.281             2.523          1261.500
       231   12 Jun 2027 03:02:31.420   12 Jun 2027 03:02:39.304             7.884          3942.000
       232   12 Jun 2027 03:02:53.082   12 Jun 2027 03:03:03.941            10.859          5429.500
       233   12 Jun 2027 03:03:34.794   12 Jun 2027 03:03:44.215             9.421          4710.500
       234   12 Jun 2027 03:03:50.175   12 Jun 2027 03:04:03.668            13.493          6746.500
       235   12 Jun 2027 03:06:10.789   12 Jun 2027 03:06:13.053             2.264          1132.000
       236   12 Jun 2027 04:36:57.419   12 Jun 2027 04:37:24.088            26.669         13334.500
       237   12 Jun 2027 04:37:35.114   12 Jun 2027 04:38:23.914            48.800         24400.000
       238   12 Jun 2027 04:38:36.104   12 Jun 2027 04:38:43.930             7.826          3913.000
       239   12 Jun 2027 04:38:49.339   12 Jun 2027 04:38:49.339             0.000             0.000
       240   12 Jun 2027 04:40:17.651   12 Jun 2027 04:40:23.889             6.238          3119.000
       241   12 Jun 2027 04:41:19.367   12 Jun 2027 04:41:19.700             0.333           166.500
       242   12 Jun 2027 04:41:47.401   12 Jun 2027 04:42:02.351            14.950          7475.000
       243   12 Jun 2027 04:42:51.887   12 Jun 2027 04:42:52.390             0.503           251.500
       244   12 Jun 2027 04:42:58.499   12 Jun 2027 04:43:06.898             8.399          4199.500
       245   12 Jun 2027 06:15:14.018   12 Jun 2027 06:17:01.098           107.080         53540.000
       246   12 Jun 2027 06:17:13.292   12 Jun 2027 06:17:18.446             5.154          2577.000
       247   12 Jun 2027 06:19:04.971   12 Jun 2027 06:19:13.876             8.905          4452.500
       248   12 Jun 2027 07:38:36.083   12 Jun 2027 07:39:58.163            82.080         41027.063
       249   12 Jun 2027 09:14:57.511   12 Jun 2027 09:15:23.772            26.261         12927.062
       250   12 Jun 2027 09:15:36.055   12 Jun 2027 09:15:36.055             0.000             0.000
       251   12 Jun 2027 09:16:19.015   12 Jun 2027 09:16:22.034             3.019          1443.094
       252   12 Jun 2027 09:16:56.725   12 Jun 2027 09:16:59.237             2.512          1084.094
       253   12 Jun 2027 09:17:26.988   12 Jun 2027 09:17:33.537             6.549           867.219
       254   12 Jun 2027 10:47:16.372   12 Jun 2027 10:47:23.694             7.322          3149.437
       255   12 Jun 2027 10:50:51.277   12 Jun 2027 10:51:05.192            13.915          6335.125
       256   12 Jun 2027 10:52:12.494   12 Jun 2027 10:52:14.302             1.808           904.000
       257   12 Jun 2027 10:52:40.083   12 Jun 2027 10:52:44.587             4.504          1717.500
       258   12 Jun 2027 10:53:06.904   12 Jun 2027 10:53:08.378             1.474           586.906
       259   12 Jun 2027 10:55:40.480   12 Jun 2027 10:55:44.401             3.921          1960.500
       260   12 Jun 2027 10:56:59.826   12 Jun 2027 10:57:02.314             2.488          1244.000
       261   13 Jun 2027 03:10:50.599   13 Jun 2027 03:11:03.673            13.074          6537.000
       262   13 Jun 2027 03:11:06.820   13 Jun 2027 03:11:32.281            25.461         12730.500
       263   13 Jun 2027 03:12:12.787   13 Jun 2027 03:12:30.268            17.481          8740.500
       264   13 Jun 2027 03:13:52.282   13 Jun 2027 03:14:08.162            15.880          7940.000
       265   13 Jun 2027 03:15:52.261   13 Jun 2027 03:16:04.129            11.868          5934.000
       266   13 Jun 2027 04:49:03.659   13 Jun 2027 04:50:05.342            61.683         30841.500
       267   13 Jun 2027 04:50:11.430   13 Jun 2027 04:50:38.593            27.163         13581.500
       268   13 Jun 2027 04:52:42.503   13 Jun 2027 04:53:03.485            20.982         10491.000
       269   13 Jun 2027 06:28:07.090   13 Jun 2027 06:29:40.644            93.554         46777.000
       270   13 Jun 2027 06:31:02.203   13 Jun 2027 06:31:09.045             6.842          3421.000
       271   13 Jun 2027 07:50:39.140   13 Jun 2027 07:51:56.841            77.701         38243.375
       272   13 Jun 2027 09:27:04.580   13 Jun 2027 09:27:20.397            15.817          7860.125
       273   13 Jun 2027 11:02:12.998   13 Jun 2027 11:02:32.804            19.806          6398.688
       274   13 Jun 2027 11:03:16.990   13 Jun 2027 11:03:18.951             1.961           843.375
       275   13 Jun 2027 11:05:49.165   13 Jun 2027 11:05:56.989             7.824          3912.000
       276   13 Jun 2027 11:06:14.412   13 Jun 2027 11:06:19.165             4.753           955.000
       277   13 Jun 2027 11:06:43.656   13 Jun 2027 11:06:45.398             1.742           700.937
       278   13 Jun 2027 11:07:11.842   13 Jun 2027 11:07:12.801             0.959           321.250
       279   13 Jun 2027 11:07:41.636   13 Jun 2027 11:07:43.531             1.895           841.688
       280   13 Jun 2027 11:08:08.060   13 Jun 2027 11:08:14.290             6.230           333.500
       281   13 Jun 2027 11:08:46.963   13 Jun 2027 11:08:46.963             0.000             0.000
       282   13 Jun 2027 11:08:54.755   13 Jun 2027 11:08:57.775             3.020          1235.000
