uniorb/output/strategy_1/Camera/Camera_KinoSat_110405.txt

KinoSat_110405
-------------------------
    Access    *     Start Time (UTCG)     *     Stop Time (UTCG)  *   Duration (s) *   Data (Mbytes)
         1   01 Jun 2027 03:49:11.773   01 Jun 2027 03:49:22.107            10.334          5167.000
         2   01 Jun 2027 03:51:09.795   01 Jun 2027 03:52:50.263           100.468         50234.000
         3   01 Jun 2027 03:53:35.042   01 Jun 2027 03:53:35.042             0.000             0.000
         4   01 Jun 2027 03:54:12.440   01 Jun 2027 03:54:36.146            23.706         11853.000
         5   01 Jun 2027 03:55:05.690   01 Jun 2027 03:55:11.665             5.975          2987.500
         6   01 Jun 2027 03:55:41.456   01 Jun 2027 03:55:41.780             0.324           162.000
         7   01 Jun 2027 03:57:17.941   01 Jun 2027 03:57:52.722            34.781         17390.500
         8   01 Jun 2027 03:58:07.571   01 Jun 2027 03:58:34.989            27.418         13709.000
         9   01 Jun 2027 03:58:58.603   01 Jun 2027 03:58:58.834             0.231           115.500
        10   01 Jun 2027 05:28:08.679   01 Jun 2027 05:31:02.602           173.923         86961.500
        11   01 Jun 2027 05:33:12.766   01 Jun 2027 05:33:52.519            39.753         19876.500
        12   01 Jun 2027 05:34:27.300   01 Jun 2027 05:34:46.938            19.638          9819.000
        13   01 Jun 2027 07:05:30.582   01 Jun 2027 07:07:59.987           149.405         74702.500
        14   01 Jun 2027 07:08:27.017   01 Jun 2027 07:08:33.550             6.533          3266.500
        15   01 Jun 2027 07:09:29.268   01 Jun 2027 07:09:33.872             4.604          2302.000
        16   01 Jun 2027 07:09:36.317   01 Jun 2027 07:09:41.309             4.992          2496.000
        17   01 Jun 2027 07:09:47.460   01 Jun 2027 07:10:06.574            19.114          9557.000
        18   01 Jun 2027 08:41:54.046   01 Jun 2027 08:43:41.774           107.728         53864.000
        19   01 Jun 2027 08:44:53.295   01 Jun 2027 08:45:38.166            44.871         22435.500
        20   01 Jun 2027 08:45:55.440   01 Jun 2027 08:45:56.269             0.829           414.500
        21   01 Jun 2027 08:46:24.089   01 Jun 2027 08:46:44.587            20.498         10249.000
        22   01 Jun 2027 10:20:10.510   01 Jun 2027 10:20:51.048            40.538         20269.000
        23   02 Jun 2027 04:04:23.657   02 Jun 2027 04:10:26.280           362.623        181311.500
        24   02 Jun 2027 04:10:52.441   02 Jun 2027 04:11:00.991             8.550          4275.000
        25   02 Jun 2027 05:40:42.204   02 Jun 2027 05:43:10.301           148.097         74048.500
        26   02 Jun 2027 05:43:54.739   02 Jun 2027 05:44:11.646            16.907          8453.500
        27   02 Jun 2027 05:45:15.075   02 Jun 2027 05:45:36.507            21.432         10716.000
        28   02 Jun 2027 07:18:05.118   02 Jun 2027 07:20:36.461           151.343         75671.500
        29   02 Jun 2027 07:20:58.730   02 Jun 2027 07:21:12.972            14.242          7121.000
        30   02 Jun 2027 07:21:57.218   02 Jun 2027 07:22:05.053             7.835          3917.500
        31   02 Jun 2027 07:22:17.934   02 Jun 2027 07:22:31.687            13.753          6876.500
        32   02 Jun 2027 08:54:15.655   02 Jun 2027 08:55:41.266            85.611         42805.500
        33   02 Jun 2027 08:56:53.463   02 Jun 2027 08:58:05.307            71.844         35922.000
        34   02 Jun 2027 08:58:35.512   02 Jun 2027 08:58:51.514            16.002          8001.000
        35   03 Jun 2027 04:16:25.023   03 Jun 2027 04:18:43.410           138.387         69193.500
        36   03 Jun 2027 04:18:47.551   03 Jun 2027 04:23:01.237           253.686        126843.000
        37   03 Jun 2027 04:23:04.181   03 Jun 2027 04:23:07.000             2.819          1409.500
        38   03 Jun 2027 05:52:20.705   03 Jun 2027 05:55:58.537           217.832        108916.000
        39   03 Jun 2027 05:57:45.027   03 Jun 2027 05:58:12.652            27.625         13812.500
        40   03 Jun 2027 07:30:19.220   03 Jun 2027 07:33:04.633           165.413         82706.500
        41   03 Jun 2027 07:33:34.719   03 Jun 2027 07:33:50.631            15.912          7956.000
        42   03 Jun 2027 07:34:02.086   03 Jun 2027 07:34:20.158            18.072          9036.000
        43   03 Jun 2027 09:06:10.821   03 Jun 2027 09:08:28.700           137.879         68939.500
        44   03 Jun 2027 09:09:00.610   03 Jun 2027 09:09:17.828            17.218          8609.000
        45   03 Jun 2027 09:09:59.312   03 Jun 2027 09:10:06.042             6.730          3365.000
        46   03 Jun 2027 09:10:47.946   03 Jun 2027 09:10:55.659             7.713          3856.500
        47   03 Jun 2027 09:10:59.139   03 Jun 2027 09:11:07.913             8.774          4387.000
        48   04 Jun 2027 04:27:40.512   04 Jun 2027 04:34:15.646           395.134        197567.000
        49   04 Jun 2027 04:35:01.337   04 Jun 2027 04:35:13.565            12.228          6114.000
        50   04 Jun 2027 06:04:30.329   04 Jun 2027 06:07:34.179           183.850         91925.000
        51   04 Jun 2027 06:08:17.832   04 Jun 2027 06:08:24.240             6.408          3204.000
        52   04 Jun 2027 06:09:43.634   04 Jun 2027 06:10:05.029            21.395         10697.500
        53   04 Jun 2027 06:10:32.513   04 Jun 2027 06:10:43.269            10.756          5378.000
        54   04 Jun 2027 07:42:41.795   04 Jun 2027 07:45:24.255           162.460         81230.000
        55   04 Jun 2027 07:46:05.130   04 Jun 2027 07:46:33.299            28.169         14084.500
        56   04 Jun 2027 09:15:59.654   04 Jun 2027 09:16:46.550            46.896         23448.000
        57   04 Jun 2027 09:17:30.008   04 Jun 2027 09:17:33.251             3.243          1621.500
        58   04 Jun 2027 09:18:00.958   04 Jun 2027 09:18:14.937            13.979          6989.500
        59   04 Jun 2027 09:18:59.715   04 Jun 2027 09:19:07.769             8.054          4027.000
        60   04 Jun 2027 09:19:35.497   04 Jun 2027 09:19:43.367             7.870          3935.000
        61   04 Jun 2027 09:20:51.419   04 Jun 2027 09:21:18.876            27.457         13728.500
        62   04 Jun 2027 09:22:39.578   04 Jun 2027 09:22:45.717             6.139          3069.500
        63   04 Jun 2027 09:23:00.659   04 Jun 2027 09:23:02.715             2.056          1028.000
        64   04 Jun 2027 09:23:16.212   04 Jun 2027 09:23:32.488            16.276          8138.000
        65   05 Jun 2027 03:02:49.277   05 Jun 2027 03:04:08.625            79.348         39674.000
        66   05 Jun 2027 03:04:40.097   05 Jun 2027 03:07:21.988           161.891         80945.500
        67   05 Jun 2027 03:08:02.324   05 Jun 2027 03:08:43.155            40.831         20415.500
        68   05 Jun 2027 04:39:48.327   05 Jun 2027 04:41:28.559           100.232         50116.000
        69   05 Jun 2027 04:41:58.716   05 Jun 2027 04:42:20.005            21.289         10644.500
        70   05 Jun 2027 04:42:48.894   05 Jun 2027 04:42:52.301             3.407          1703.500
        71   05 Jun 2027 04:44:20.627   05 Jun 2027 04:44:48.908            28.281         14140.500
        72   05 Jun 2027 04:45:46.488   05 Jun 2027 04:45:53.133             6.645          3322.500
        73   05 Jun 2027 04:46:18.567   05 Jun 2027 04:46:48.595            30.028         15014.000
        74   05 Jun 2027 06:16:46.334   05 Jun 2027 06:19:21.261           154.927         77463.500
        75   05 Jun 2027 06:20:16.429   05 Jun 2027 06:20:30.197            13.768          6884.000
        76   05 Jun 2027 06:21:10.942   05 Jun 2027 06:21:11.216             0.274           137.000
        77   05 Jun 2027 06:21:58.466   05 Jun 2027 06:22:09.730            11.264          5632.000
        78   05 Jun 2027 06:22:25.226   05 Jun 2027 06:22:33.929             8.703          4351.500
        79   05 Jun 2027 07:54:42.492   05 Jun 2027 07:56:39.723           117.231         58615.500
        80   05 Jun 2027 07:57:19.941   05 Jun 2027 07:57:23.477             3.536          1768.000
        81   05 Jun 2027 07:58:03.257   05 Jun 2027 07:58:18.332            15.075          7537.500
        82   05 Jun 2027 09:28:02.415   05 Jun 2027 09:28:21.516            19.101          9550.500
        83   05 Jun 2027 09:28:41.177   05 Jun 2027 09:28:51.593            10.416          5208.000
        84   05 Jun 2027 09:29:43.541   05 Jun 2027 09:29:53.156             9.615          4807.500
        85   05 Jun 2027 09:30:18.229   05 Jun 2027 09:30:26.610             8.381          4190.500
        86   05 Jun 2027 09:30:59.847   05 Jun 2027 09:31:02.492             2.645          1322.500
        87   05 Jun 2027 09:31:33.426   05 Jun 2027 09:31:47.471            14.045          7022.500
        88   05 Jun 2027 09:32:28.654   05 Jun 2027 09:32:37.707             9.053          4526.500
        89   05 Jun 2027 09:33:24.125   05 Jun 2027 09:33:37.417            13.292          6646.000
        90   05 Jun 2027 09:34:26.237   05 Jun 2027 09:34:36.420            10.183          5091.500
        91   05 Jun 2027 09:35:32.719   05 Jun 2027 09:35:40.424             7.705          3852.500
        92   06 Jun 2027 03:14:12.507   06 Jun 2027 03:17:42.254           209.747        104873.500
        93   06 Jun 2027 03:18:14.737   06 Jun 2027 03:18:48.578            33.841         16920.500
        94   06 Jun 2027 03:19:45.575   06 Jun 2027 03:19:58.363            12.788          6394.000
        95   06 Jun 2027 03:21:28.090   06 Jun 2027 03:21:54.191            26.101         13050.500
        96   06 Jun 2027 03:22:21.694   06 Jun 2027 03:22:23.714             2.020          1010.000
        97   06 Jun 2027 04:51:50.186   06 Jun 2027 04:53:25.631            95.445         47722.500
        98   06 Jun 2027 04:53:49.296   06 Jun 2027 04:54:18.934            29.638         14819.000
        99   06 Jun 2027 04:56:51.918   06 Jun 2027 04:57:09.129            17.211          8605.500
       100   06 Jun 2027 04:57:15.121   06 Jun 2027 04:58:02.944            47.823         23911.500
       101   06 Jun 2027 04:58:41.752   06 Jun 2027 04:58:42.628             0.876           438.000
       102   06 Jun 2027 06:28:36.298   06 Jun 2027 06:30:59.034           142.736         71368.000
       103   06 Jun 2027 06:31:22.076   06 Jun 2027 06:31:27.205             5.129          2564.500
       104   06 Jun 2027 06:31:53.773   06 Jun 2027 06:32:03.472             9.699          4849.500
       105   06 Jun 2027 06:32:10.944   06 Jun 2027 06:32:15.468             4.524          2262.000
       106   06 Jun 2027 06:33:51.342   06 Jun 2027 06:34:07.035            15.693          7846.500
       107   06 Jun 2027 06:35:10.876   06 Jun 2027 06:35:18.949             8.073          4036.500
       108   06 Jun 2027 08:06:41.380   06 Jun 2027 08:08:03.239            81.859         40929.500
       109   06 Jun 2027 08:08:40.704   06 Jun 2027 08:08:40.704             0.000             0.000
       110   06 Jun 2027 08:09:10.854   06 Jun 2027 08:09:18.276             7.422          3711.000
       111   06 Jun 2027 08:09:32.068   06 Jun 2027 08:09:41.653             9.585          4792.500
       112   06 Jun 2027 09:40:29.550   06 Jun 2027 09:40:43.129            13.579          6789.500
       113   06 Jun 2027 09:41:11.446   06 Jun 2027 09:41:24.622            13.176          6588.000
       114   06 Jun 2027 09:42:14.944   06 Jun 2027 09:42:27.853            12.909          6454.500
       115   06 Jun 2027 09:43:45.262   06 Jun 2027 09:44:02.322            17.060          8530.000
       116   06 Jun 2027 09:44:22.399   06 Jun 2027 09:44:36.405            14.006          7003.000
       117   06 Jun 2027 09:45:44.288   06 Jun 2027 09:45:56.578            12.290          6145.000
       118   06 Jun 2027 09:46:33.228   06 Jun 2027 09:46:33.228             0.000             0.000
       119   06 Jun 2027 09:46:55.892   06 Jun 2027 09:47:06.278            10.386          5193.000
       120   07 Jun 2027 03:25:45.203   07 Jun 2027 03:29:33.782           228.579        114289.500
       121   07 Jun 2027 03:30:00.242   07 Jun 2027 03:30:07.672             7.430          3715.000
       122   07 Jun 2027 03:30:51.069   07 Jun 2027 03:30:58.887             7.818          3909.000
       123   07 Jun 2027 03:31:36.309   07 Jun 2027 03:31:54.367            18.058          9029.000
       124   07 Jun 2027 03:32:24.354   07 Jun 2027 03:32:50.901            26.547         13273.500
       125   07 Jun 2027 05:03:50.920   07 Jun 2027 05:06:11.466           140.546         70273.000
       126   07 Jun 2027 05:06:57.880   07 Jun 2027 05:07:30.589            32.709         16354.500
       127   07 Jun 2027 05:08:35.772   07 Jun 2027 05:08:44.719             8.947          4473.500
       128   07 Jun 2027 05:09:03.632   07 Jun 2027 05:09:10.298             6.666          3333.000
       129   07 Jun 2027 05:09:25.713   07 Jun 2027 05:09:39.000            13.287          6643.500
       130   07 Jun 2027 05:10:17.975   07 Jun 2027 05:10:17.975             0.000             0.000
       131   07 Jun 2027 05:10:40.288   07 Jun 2027 05:10:49.422             9.134          4567.000
       132   07 Jun 2027 06:40:45.407   07 Jun 2027 06:43:39.449           174.042         87021.000
       133   07 Jun 2027 06:43:48.001   07 Jun 2027 06:43:59.484            11.483          5741.500
       134   07 Jun 2027 06:45:48.800   07 Jun 2027 06:45:51.985             3.185          1592.500
       135   07 Jun 2027 06:46:03.422   07 Jun 2027 06:46:15.115            11.693          5846.500
       136   07 Jun 2027 08:17:54.157   07 Jun 2027 08:18:52.574            58.417         29208.500
       137   07 Jun 2027 08:20:17.567   07 Jun 2027 08:20:41.398            23.831         11915.500
       138   07 Jun 2027 08:21:16.759   07 Jun 2027 08:21:21.417             4.658          2329.000
       139   07 Jun 2027 08:21:51.394   07 Jun 2027 08:22:11.710            20.316         10158.000
       140   07 Jun 2027 09:52:44.522   07 Jun 2027 09:52:54.618            10.096          5048.000
       141   07 Jun 2027 09:53:39.806   07 Jun 2027 09:53:41.227             1.421           710.500
       142   07 Jun 2027 09:54:36.090   07 Jun 2027 09:54:41.575             5.485          2742.500
       143   07 Jun 2027 09:55:07.919   07 Jun 2027 09:55:26.502            18.583          9291.500
       144   07 Jun 2027 09:56:14.732   07 Jun 2027 09:56:16.876             2.144          1072.000
       145   07 Jun 2027 09:56:53.791   07 Jun 2027 09:57:17.789            23.998         11999.000
       146   07 Jun 2027 09:57:47.079   07 Jun 2027 09:57:48.095             1.016           508.000
       147   08 Jun 2027 03:38:45.667   08 Jun 2027 03:43:03.598           257.931        128965.500
       148   08 Jun 2027 03:43:25.929   08 Jun 2027 03:43:52.428            26.499         13249.500
       149   08 Jun 2027 03:44:59.334   08 Jun 2027 03:45:29.612            30.278         15139.000
       150   08 Jun 2027 03:46:17.218   08 Jun 2027 03:46:31.064            13.846          6923.000
       151   08 Jun 2027 03:47:17.790   08 Jun 2027 03:47:19.181             1.391           695.500
       152   08 Jun 2027 05:16:16.955   08 Jun 2027 05:17:26.487            69.532         34766.000
       153   08 Jun 2027 05:17:56.920   08 Jun 2027 05:19:08.577            71.657         35828.500
       154   08 Jun 2027 05:21:50.623   08 Jun 2027 05:23:02.421            71.798         35899.000
       155   08 Jun 2027 06:53:13.100   08 Jun 2027 06:54:54.763           101.663         50831.500
       156   08 Jun 2027 06:55:38.036   08 Jun 2027 06:56:33.349            55.313         27656.500
       157   08 Jun 2027 06:56:44.355   08 Jun 2027 06:56:49.464             5.109          2554.500
       158   08 Jun 2027 06:57:47.744   08 Jun 2027 06:57:51.902             4.158          2079.000
       159   08 Jun 2027 06:58:05.276   08 Jun 2027 06:58:20.387            15.111          7555.500
       160   08 Jun 2027 06:58:50.266   08 Jun 2027 06:58:54.680             4.414          2207.000
       161   08 Jun 2027 08:30:07.042   08 Jun 2027 08:30:59.509            52.467         26233.500
       162   08 Jun 2027 08:31:56.481   08 Jun 2027 08:32:07.222            10.741          5370.500
       163   08 Jun 2027 08:32:20.740   08 Jun 2027 08:32:38.088            17.348          8674.000
       164   08 Jun 2027 08:33:31.937   08 Jun 2027 08:33:37.345             5.408          2704.000
       165   08 Jun 2027 08:34:11.803   08 Jun 2027 08:34:21.118             9.315          4657.500
       166   08 Jun 2027 10:07:17.213   08 Jun 2027 10:08:03.495            46.282         23141.000
       167   09 Jun 2027 03:49:25.966   09 Jun 2027 03:49:36.698            10.732          5366.000
       168   09 Jun 2027 03:51:24.373   09 Jun 2027 03:55:52.996           268.623        134311.500
       169   09 Jun 2027 03:56:50.668   09 Jun 2027 03:57:05.467            14.799          7399.500
       170   09 Jun 2027 03:57:26.281   09 Jun 2027 03:57:37.227            10.946          5473.000
       171   09 Jun 2027 03:59:13.176   09 Jun 2027 03:59:13.476             0.300           150.000
       172   09 Jun 2027 05:28:23.196   09 Jun 2027 05:31:17.447           174.251         87125.500
       173   09 Jun 2027 05:34:33.866   09 Jun 2027 05:35:07.646            33.780         16890.000
       174   09 Jun 2027 07:05:46.766   09 Jun 2027 07:08:13.627           146.861         73430.500
       175   09 Jun 2027 07:08:41.627   09 Jun 2027 07:08:49.215             7.588          3794.000
       176   09 Jun 2027 07:10:21.711   09 Jun 2027 07:10:30.049             8.338          4169.000
       177   09 Jun 2027 08:42:09.139   09 Jun 2027 08:42:44.727            35.588         17794.000
       178   09 Jun 2027 08:43:14.463   09 Jun 2027 08:43:30.792            16.329          8164.500
       179   09 Jun 2027 08:45:08.020   09 Jun 2027 08:45:37.743            29.723         14861.500
       180   09 Jun 2027 08:45:55.048   09 Jun 2027 08:46:10.324            15.276          7638.000
       181   09 Jun 2027 10:20:27.184   09 Jun 2027 10:20:55.503            28.319         14159.500
       182   10 Jun 2027 04:04:38.393   10 Jun 2027 04:09:51.244           312.851        156425.500
       183   10 Jun 2027 04:11:06.994   10 Jun 2027 04:11:11.907             4.913          2456.500
       184   10 Jun 2027 04:11:13.175   10 Jun 2027 04:11:15.635             2.460          1230.000
       185   10 Jun 2027 05:40:56.965   10 Jun 2027 05:43:25.128           148.163         74081.500
       186   10 Jun 2027 05:45:59.897   10 Jun 2027 05:46:00.267             0.370           185.000
       187   10 Jun 2027 05:46:10.203   10 Jun 2027 05:46:21.709            11.506          5753.000
       188   10 Jun 2027 07:18:19.833   10 Jun 2027 07:20:51.267           151.434         75717.000
       189   10 Jun 2027 07:21:35.231   10 Jun 2027 07:21:44.016             8.785          4392.500
       190   10 Jun 2027 07:22:19.650   10 Jun 2027 07:22:28.831             9.181          4590.500
       191   10 Jun 2027 08:54:30.159   10 Jun 2027 08:55:14.983            44.824         22412.000
       192   10 Jun 2027 08:57:08.176   10 Jun 2027 08:57:30.924            22.748         11374.000
       193   10 Jun 2027 08:57:51.018   10 Jun 2027 08:57:52.077             1.059           529.500
       194   10 Jun 2027 08:58:13.440   10 Jun 2027 08:58:18.908             5.468          2734.000
       195   10 Jun 2027 08:58:33.158   10 Jun 2027 08:58:34.826             1.668           834.000
       196   11 Jun 2027 04:16:39.455   11 Jun 2027 04:22:03.026           323.571        161785.500
       197   11 Jun 2027 04:22:49.130   11 Jun 2027 04:22:56.202             7.072          3536.000
       198   11 Jun 2027 04:22:58.785   11 Jun 2027 04:23:16.054            17.269          8634.500
       199   11 Jun 2027 04:23:18.886   11 Jun 2027 04:23:21.749             2.863          1431.500
       200   11 Jun 2027 05:52:35.471   11 Jun 2027 05:55:48.298           192.827         96413.500
       201   11 Jun 2027 05:56:00.531   11 Jun 2027 05:56:01.558             1.027           513.500
       202   11 Jun 2027 05:56:12.167   11 Jun 2027 05:56:12.503             0.336           168.000
       203   11 Jun 2027 05:58:40.450   11 Jun 2027 05:58:55.446            14.996          7498.000
       204   11 Jun 2027 07:30:33.627   11 Jun 2027 07:33:09.500           155.873         77936.500
       205   11 Jun 2027 07:34:00.603   11 Jun 2027 07:34:22.157            21.554         10777.000
       206   11 Jun 2027 09:06:25.190   11 Jun 2027 09:07:05.851            40.661         20330.500
       207   11 Jun 2027 09:08:03.529   11 Jun 2027 09:08:12.193             8.664          4332.000
       208   11 Jun 2027 09:08:58.621   11 Jun 2027 09:09:07.569             8.948          4474.000
       209   11 Jun 2027 09:09:42.455   11 Jun 2027 09:09:50.351             7.896          3948.000
       210   11 Jun 2027 09:10:30.285   11 Jun 2027 09:10:38.991             8.706          4353.000
       211   11 Jun 2027 09:11:04.749   11 Jun 2027 09:11:17.378            12.629          6314.500
       212   12 Jun 2027 04:27:55.194   12 Jun 2027 04:34:02.955           367.761        183880.500
       213   12 Jun 2027 04:34:05.889   12 Jun 2027 04:34:05.889             0.000             0.000
       214   12 Jun 2027 04:34:32.345   12 Jun 2027 04:34:38.744             6.399          3199.500
       215   12 Jun 2027 04:35:25.517   12 Jun 2027 04:35:28.197             2.680          1340.000
       216   12 Jun 2027 06:04:44.889   12 Jun 2027 06:07:28.582           163.693         81846.500
       217   12 Jun 2027 06:08:23.793   12 Jun 2027 06:08:30.024             6.231          3115.500
       218   12 Jun 2027 06:09:58.114   12 Jun 2027 06:10:19.868            21.754         10877.000
       219   12 Jun 2027 06:10:49.366   12 Jun 2027 06:11:04.221            14.855          7427.500
       220   12 Jun 2027 07:42:56.169   12 Jun 2027 07:45:15.557           139.388         69694.000
       221   12 Jun 2027 07:46:20.036   12 Jun 2027 07:46:36.263            16.227          8113.500
       222   12 Jun 2027 09:16:14.156   12 Jun 2027 09:16:53.372            39.216         19608.000
       223   12 Jun 2027 09:17:48.316   12 Jun 2027 09:18:14.743            26.427         13213.500
       224   12 Jun 2027 09:20:02.376   12 Jun 2027 09:20:09.205             6.829          3414.500
       225   12 Jun 2027 09:21:06.102   12 Jun 2027 09:21:33.596            27.494         13747.000
       226   12 Jun 2027 09:22:54.318   12 Jun 2027 09:23:00.340             6.022          3011.000
       227   12 Jun 2027 09:23:17.947   12 Jun 2027 09:23:25.585             7.638          3819.000
       228   12 Jun 2027 09:23:47.105   12 Jun 2027 09:23:49.115             2.010          1005.000
       229   13 Jun 2027 03:03:02.249   13 Jun 2027 03:04:23.137            80.888         40444.000
       230   13 Jun 2027 03:04:54.527   13 Jun 2027 03:07:16.535           142.008         71004.000
       231   13 Jun 2027 03:07:37.736   13 Jun 2027 03:07:58.104            20.368         10184.000
       232   13 Jun 2027 03:08:23.246   13 Jun 2027 03:08:28.938             5.692          2846.000
       233   13 Jun 2027 03:08:57.981   13 Jun 2027 03:09:05.767             7.786          3893.000
       234   13 Jun 2027 03:09:18.910   13 Jun 2027 03:09:42.952            24.042         12021.000
       235   13 Jun 2027 03:09:47.331   13 Jun 2027 03:09:48.967             1.636           818.000
       236   13 Jun 2027 04:40:02.864   13 Jun 2027 04:41:42.523            99.659         49829.500
       237   13 Jun 2027 04:42:13.569   13 Jun 2027 04:42:34.737            21.168         10584.000
       238   13 Jun 2027 04:44:38.819   13 Jun 2027 04:44:42.885             4.066          2033.000
       239   13 Jun 2027 04:45:13.513   13 Jun 2027 04:45:24.927            11.414          5707.000
       240   13 Jun 2027 04:46:01.226   13 Jun 2027 04:46:34.006            32.780         16390.000
       241   13 Jun 2027 04:46:35.754   13 Jun 2027 04:46:53.121            17.367          8683.500
       242   13 Jun 2027 06:17:00.835   13 Jun 2027 06:19:35.738           154.903         77451.500
       243   13 Jun 2027 06:19:57.282   13 Jun 2027 06:20:08.413            11.131          5565.500
       244   13 Jun 2027 06:20:31.230   13 Jun 2027 06:20:44.495            13.265          6632.500
       245   13 Jun 2027 07:54:57.338   13 Jun 2027 07:57:03.594           126.256         63128.000
       246   13 Jun 2027 07:57:28.408   13 Jun 2027 07:57:29.889             1.481           740.500
       247   13 Jun 2027 07:58:17.476   13 Jun 2027 07:58:35.095            17.619          8809.500
       248   13 Jun 2027 09:28:17.431   13 Jun 2027 09:28:36.302            18.871          9435.500
       249   13 Jun 2027 09:28:55.844   13 Jun 2027 09:29:03.803             7.959          3979.500
       250   13 Jun 2027 09:29:15.682   13 Jun 2027 09:29:21.290             5.608          2804.000
       251   13 Jun 2027 09:29:58.572   13 Jun 2027 09:30:07.714             9.142          4571.000
       252   13 Jun 2027 09:31:19.499   13 Jun 2027 09:31:49.657            30.158         15079.000
       253   13 Jun 2027 09:33:07.700   13 Jun 2027 09:33:23.805            16.105          8052.500
       254   13 Jun 2027 09:33:33.248   13 Jun 2027 09:33:33.985             0.737           368.500
       255   13 Jun 2027 09:35:09.156   13 Jun 2027 09:35:20.713            11.557          5778.500
       256   13 Jun 2027 09:35:46.605   13 Jun 2027 09:35:55.420             8.815          4407.500
