uniorb/output/strategy_1/Camera/Camera_KinoSat_111409.txt

KinoSat_111409
-------------------------
    Access    *     Start Time (UTCG)     *     Stop Time (UTCG)  *   Duration (s) *   Data (Mbytes)
         1   01 Jun 2027 04:22:07.998   01 Jun 2027 04:24:22.166           134.168         67084.000
         2   01 Jun 2027 04:24:24.191   01 Jun 2027 04:24:25.965             1.774           887.000
         3   01 Jun 2027 04:25:11.408   01 Jun 2027 04:25:26.086            14.678          7339.000
         4   01 Jun 2027 05:45:04.722   01 Jun 2027 05:45:56.453            51.731         25865.500
         5   01 Jun 2027 05:46:30.351   01 Jun 2027 05:47:19.736            49.385         24692.500
         6   01 Jun 2027 07:21:38.404   01 Jun 2027 07:24:06.043           147.639         73819.500
         7   01 Jun 2027 07:24:14.185   01 Jun 2027 07:24:26.291            12.106          6053.000
         8   01 Jun 2027 08:56:47.315   01 Jun 2027 08:57:45.267            57.952         28976.000
         9   01 Jun 2027 08:57:59.700   01 Jun 2027 08:58:37.201            37.501         18750.500
        10   01 Jun 2027 08:59:27.660   01 Jun 2027 08:59:51.265            23.605         11802.500
        11   01 Jun 2027 09:00:44.165   01 Jun 2027 09:00:44.773             0.608           304.000
        12   01 Jun 2027 09:01:33.760   01 Jun 2027 09:01:40.143             6.383          3191.500
        13   01 Jun 2027 09:03:20.405   01 Jun 2027 09:03:23.555             3.150          1575.000
        14   01 Jun 2027 09:03:29.223   01 Jun 2027 09:03:32.094             2.871          1435.500
        15   01 Jun 2027 10:33:07.362   01 Jun 2027 10:35:00.128           112.766         56383.000
        16   01 Jun 2027 10:38:50.564   01 Jun 2027 10:39:01.989            11.425          5712.500
        17   02 Jun 2027 03:00:21.663   02 Jun 2027 03:00:43.765            22.102         11051.000
        18   02 Jun 2027 03:01:11.758   02 Jun 2027 03:01:14.879             3.121          1560.500
        19   02 Jun 2027 04:33:52.755   02 Jun 2027 04:34:27.332            34.577         17288.500
        20   02 Jun 2027 04:34:41.407   02 Jun 2027 04:35:47.397            65.990         32995.000
        21   02 Jun 2027 04:36:12.788   02 Jun 2027 04:36:16.407             3.619          1809.500
        22   02 Jun 2027 04:37:29.414   02 Jun 2027 04:37:41.408            11.994          5997.000
        23   02 Jun 2027 05:57:13.945   02 Jun 2027 05:58:19.488            65.543         32771.500
        24   02 Jun 2027 05:58:36.416   02 Jun 2027 05:58:36.416             0.000             0.000
        25   02 Jun 2027 07:33:49.087   02 Jun 2027 07:36:09.456           140.369         70184.500
        26   02 Jun 2027 09:08:59.200   02 Jun 2027 09:10:33.544            94.344         47172.000
        27   02 Jun 2027 09:11:20.815   02 Jun 2027 09:11:50.689            29.874         14937.000
        28   02 Jun 2027 09:12:52.429   02 Jun 2027 09:12:52.975             0.546           273.000
        29   02 Jun 2027 09:15:19.898   02 Jun 2027 09:15:19.898             0.000             0.000
        30   02 Jun 2027 09:15:22.295   02 Jun 2027 09:15:34.827            12.532          6266.000
        31   02 Jun 2027 10:45:20.042   02 Jun 2027 10:46:27.634            67.592         33796.000
        32   02 Jun 2027 10:47:29.554   02 Jun 2027 10:47:58.341            28.787         14393.500
        33   02 Jun 2027 10:49:56.944   02 Jun 2027 10:50:29.521            32.577         16288.500
        34   02 Jun 2027 10:50:50.363   02 Jun 2027 10:50:53.610             3.247          1623.500
        35   02 Jun 2027 10:51:15.597   02 Jun 2027 10:51:17.506             1.909           954.500
        36   03 Jun 2027 03:08:41.978   03 Jun 2027 03:09:38.588            56.610         28305.000
        37   03 Jun 2027 03:10:44.032   03 Jun 2027 03:10:54.069            10.037          5018.500
        38   03 Jun 2027 03:11:18.859   03 Jun 2027 03:11:19.133             0.274           137.000
        39   03 Jun 2027 03:11:41.824   03 Jun 2027 03:12:00.539            18.715          9357.500
        40   03 Jun 2027 03:12:40.738   03 Jun 2027 03:12:42.836             2.098          1049.000
        41   03 Jun 2027 03:13:37.174   03 Jun 2027 03:13:45.670             8.496          4248.000
        42   03 Jun 2027 03:15:38.390   03 Jun 2027 03:15:43.851             5.461          2730.500
        43   03 Jun 2027 03:15:57.263   03 Jun 2027 03:16:37.973            40.710         20355.000
        44   03 Jun 2027 04:45:49.593   03 Jun 2027 04:46:30.098            40.505         20252.500
        45   03 Jun 2027 04:46:47.371   03 Jun 2027 04:47:09.126            21.755         10877.500
        46   03 Jun 2027 04:48:50.105   03 Jun 2027 04:49:07.513            17.408          8704.000
        47   03 Jun 2027 06:09:46.933   03 Jun 2027 06:10:11.740            24.807         12403.500
        48   03 Jun 2027 06:12:02.778   03 Jun 2027 06:12:06.224             3.446          1723.000
        49   03 Jun 2027 06:12:09.787   03 Jun 2027 06:12:15.931             6.144          3072.000
        50   03 Jun 2027 07:45:36.959   03 Jun 2027 07:47:37.551           120.592         60296.000
        51   03 Jun 2027 07:48:23.225   03 Jun 2027 07:48:41.676            18.451          9225.500
        52   03 Jun 2027 09:20:29.619   03 Jun 2027 09:22:28.999           119.380         59690.000
        53   03 Jun 2027 09:23:50.305   03 Jun 2027 09:24:18.639            28.334         14167.000
        54   03 Jun 2027 09:26:12.839   03 Jun 2027 09:26:12.839             0.000             0.000
        55   03 Jun 2027 09:27:12.975   03 Jun 2027 09:27:19.225             6.250          3125.000
        56   03 Jun 2027 10:56:58.996   03 Jun 2027 10:57:59.826            60.830         29477.844
        57   03 Jun 2027 10:59:15.718   03 Jun 2027 10:59:20.817             5.099          2370.313
        58   03 Jun 2027 11:00:43.229   03 Jun 2027 11:00:49.587             6.358          2407.500
        59   03 Jun 2027 11:02:38.669   03 Jun 2027 11:02:46.883             8.214          3238.594
        60   03 Jun 2027 11:02:52.338   03 Jun 2027 11:02:57.077             4.739           170.469
        61   03 Jun 2027 11:03:20.569   03 Jun 2027 11:03:22.596             2.027           677.063
        62   04 Jun 2027 03:20:45.957   04 Jun 2027 03:22:09.552            83.595         41797.500
        63   04 Jun 2027 03:22:42.265   04 Jun 2027 03:22:43.159             0.894           447.000
        64   04 Jun 2027 03:23:46.940   04 Jun 2027 03:23:53.094             6.154          3077.000
        65   04 Jun 2027 03:27:09.042   04 Jun 2027 03:27:22.464            13.422          6711.000
        66   04 Jun 2027 03:27:28.480   04 Jun 2027 03:27:40.989            12.509          6254.500
        67   04 Jun 2027 04:46:26.264   04 Jun 2027 04:46:39.957            13.693          6846.500
        68   04 Jun 2027 04:47:05.295   04 Jun 2027 04:47:13.368             8.073          4036.500
        69   04 Jun 2027 04:57:46.230   04 Jun 2027 04:58:46.632            60.402         30201.000
        70   04 Jun 2027 06:20:21.576   04 Jun 2027 06:21:25.696            64.120         32060.000
        71   04 Jun 2027 06:22:45.432   04 Jun 2027 06:22:58.167            12.735          6367.500
        72   04 Jun 2027 06:24:41.141   04 Jun 2027 06:24:47.017             5.876          2938.000
        73   04 Jun 2027 07:55:53.080   04 Jun 2027 07:56:43.916            50.836         25418.000
        74   04 Jun 2027 07:57:22.127   04 Jun 2027 07:58:02.034            39.907         19953.500
        75   04 Jun 2027 07:58:15.781   04 Jun 2027 07:58:17.664             1.883           554.438
        76   04 Jun 2027 07:58:33.441   04 Jun 2027 07:58:34.351             0.910           268.375
        77   04 Jun 2027 07:59:17.275   04 Jun 2027 07:59:21.844             4.569          1027.813
        78   04 Jun 2027 08:00:04.429   04 Jun 2027 08:00:07.404             2.975           715.031
        79   04 Jun 2027 09:32:12.735   04 Jun 2027 09:32:25.444            12.709          6047.781
        80   04 Jun 2027 09:33:01.158   04 Jun 2027 09:33:03.535             2.377           761.406
        81   04 Jun 2027 09:33:37.508   04 Jun 2027 09:33:39.823             2.315           900.281
        82   04 Jun 2027 09:34:29.101   04 Jun 2027 09:34:29.357             0.256           128.000
        83   04 Jun 2027 09:35:27.023   04 Jun 2027 09:35:27.023             0.000             0.000
        84   04 Jun 2027 09:35:44.081   04 Jun 2027 09:35:51.205             7.124          3173.719
        85   04 Jun 2027 09:36:15.750   04 Jun 2027 09:36:18.617             2.867           763.313
        86   04 Jun 2027 09:36:32.730   04 Jun 2027 09:36:35.563             2.833           373.437
        87   04 Jun 2027 09:36:51.656   04 Jun 2027 09:36:54.206             2.550           128.844
        88   04 Jun 2027 09:37:29.254   04 Jun 2027 09:37:38.153             8.899          1095.250
        89   04 Jun 2027 09:38:10.544   04 Jun 2027 09:38:11.548             1.004           502.000
        90   04 Jun 2027 09:39:00.343   04 Jun 2027 09:39:04.322             3.979          1750.000
        91   04 Jun 2027 11:09:19.200   04 Jun 2027 11:09:36.878            17.678          6775.031
        92   04 Jun 2027 11:10:44.838   04 Jun 2027 11:10:47.936             3.098          1549.000
        93   04 Jun 2027 11:10:54.902   04 Jun 2027 11:10:56.607             1.705           792.438
        94   04 Jun 2027 11:11:19.200   04 Jun 2027 11:11:24.514             5.314           528.531
        95   04 Jun 2027 11:12:01.223   04 Jun 2027 11:12:03.561             2.338          1025.531
        96   04 Jun 2027 11:12:15.447   04 Jun 2027 11:12:18.129             2.682           100.969
        97   04 Jun 2027 11:12:39.394   04 Jun 2027 11:12:44.040             4.646           542.313
        98   04 Jun 2027 11:13:00.112   04 Jun 2027 11:13:01.104             0.992           466.687
        99   04 Jun 2027 11:13:25.307   04 Jun 2027 11:13:28.550             3.243           452.219
       100   04 Jun 2027 11:13:59.728   04 Jun 2027 11:14:04.182             4.454           974.312
       101   04 Jun 2027 11:14:29.310   04 Jun 2027 11:14:34.325             5.015           779.625
       102   04 Jun 2027 11:15:24.969   04 Jun 2027 11:15:28.784             3.815          1582.625
       103   05 Jun 2027 03:33:15.886   05 Jun 2027 03:34:42.608            86.722         43361.000
       104   05 Jun 2027 03:34:55.434   05 Jun 2027 03:35:12.793            17.359          8679.500
       105   05 Jun 2027 03:36:37.007   05 Jun 2027 03:36:47.352            10.345          5172.500
       106   05 Jun 2027 03:37:22.424   05 Jun 2027 03:37:25.320             2.896          1448.000
       107   05 Jun 2027 03:38:19.830   05 Jun 2027 03:38:31.516            11.686          5843.000
       108   05 Jun 2027 03:40:01.735   05 Jun 2027 03:40:23.749            22.014         11007.000
       109   05 Jun 2027 04:58:05.524   05 Jun 2027 04:58:46.862            41.338         20669.000
       110   05 Jun 2027 04:59:01.056   05 Jun 2027 04:59:05.792             4.736          2368.000
       111   05 Jun 2027 05:09:47.431   05 Jun 2027 05:10:41.317            53.886         26943.000
       112   05 Jun 2027 06:32:04.443   05 Jun 2027 06:33:10.428            65.985         32992.500
       113   05 Jun 2027 06:34:18.830   05 Jun 2027 06:34:29.098            10.268          5134.000
       114   05 Jun 2027 08:07:01.371   05 Jun 2027 08:07:54.499            53.128         25944.937
       115   05 Jun 2027 08:08:26.013   05 Jun 2027 08:08:26.013             0.000             0.000
       116   05 Jun 2027 08:09:31.337   05 Jun 2027 08:09:38.258             6.921          3026.188
       117   05 Jun 2027 08:10:09.012   05 Jun 2027 08:10:11.094             2.082           196.500
       118   05 Jun 2027 08:10:49.642   05 Jun 2027 08:10:51.575             1.933           674.187
       119   05 Jun 2027 08:12:45.301   05 Jun 2027 08:12:52.820             7.519          3477.406
       120   05 Jun 2027 08:14:13.394   05 Jun 2027 08:14:13.394             0.000             0.000
       121   05 Jun 2027 09:44:30.761   05 Jun 2027 09:44:42.249            11.488          4813.531
       122   05 Jun 2027 09:45:00.881   05 Jun 2027 09:45:03.212             2.331            13.344
       123   05 Jun 2027 09:47:35.687   05 Jun 2027 09:47:48.576            12.889          4764.844
       124   05 Jun 2027 09:48:45.481   05 Jun 2027 09:48:53.281             7.800          1506.844
       125   05 Jun 2027 09:49:39.670   05 Jun 2027 09:49:40.812             1.142           571.000
       126   05 Jun 2027 09:49:54.595   05 Jun 2027 09:49:59.517             4.922          1080.656
       127   05 Jun 2027 09:50:30.836   05 Jun 2027 09:50:36.099             5.263           894.156
       128   05 Jun 2027 09:51:12.274   05 Jun 2027 09:51:14.443             2.169          1029.344
       129   05 Jun 2027 11:21:15.380   05 Jun 2027 11:21:30.252            14.872          7267.125
       130   05 Jun 2027 11:22:35.138   05 Jun 2027 11:22:42.225             7.087          1284.781
       131   05 Jun 2027 11:23:09.811   05 Jun 2027 11:23:12.211             2.400           748.812
       132   05 Jun 2027 11:23:29.964   05 Jun 2027 11:23:30.264             0.300           130.125
       133   05 Jun 2027 11:23:54.462   05 Jun 2027 11:23:59.034             4.572           756.187
       134   05 Jun 2027 11:25:27.399   05 Jun 2027 11:25:32.252             4.853          2426.500
       135   05 Jun 2027 11:26:27.690   05 Jun 2027 11:26:34.078             6.388          2067.344
       136   05 Jun 2027 11:27:33.232   05 Jun 2027 11:27:41.940             8.708          1705.688
       137   06 Jun 2027 03:45:17.920   06 Jun 2027 03:47:17.302           119.382         59691.000
       138   06 Jun 2027 03:50:02.989   06 Jun 2027 03:50:29.504            26.515         13257.500
       139   06 Jun 2027 03:52:16.345   06 Jun 2027 03:52:16.432             0.087            43.500
       140   06 Jun 2027 05:09:39.040   06 Jun 2027 05:10:38.406            59.366         29683.000
       141   06 Jun 2027 05:10:46.902   06 Jun 2027 05:11:06.610            19.708          9854.000
       142   06 Jun 2027 05:21:54.780   06 Jun 2027 05:22:19.377            24.597         12298.500
       143   06 Jun 2027 06:43:36.506   06 Jun 2027 06:44:56.336            79.830         39915.000
       144   06 Jun 2027 06:45:45.299   06 Jun 2027 06:45:59.421            14.122          7061.000
       145   06 Jun 2027 08:18:30.100   06 Jun 2027 08:18:49.031            18.931          9067.563
       146   06 Jun 2027 08:20:28.329   06 Jun 2027 08:20:33.000             4.671          2024.969
       147   06 Jun 2027 08:21:41.149   06 Jun 2027 08:21:48.238             7.089          2129.656
       148   06 Jun 2027 08:22:16.583   06 Jun 2027 08:22:18.772             2.189           666.813
       149   06 Jun 2027 08:23:23.992   06 Jun 2027 08:23:28.155             4.163          1653.469
       150   06 Jun 2027 08:23:46.212   06 Jun 2027 08:23:52.680             6.468           564.281
       151   06 Jun 2027 08:24:31.675   06 Jun 2027 08:24:36.404             4.729           902.469
       152   06 Jun 2027 08:25:41.970   06 Jun 2027 08:25:44.951             2.981          1490.500
       153   06 Jun 2027 08:26:27.447   06 Jun 2027 08:26:33.685             6.238          1566.938
       154   06 Jun 2027 08:27:25.772   06 Jun 2027 08:27:29.194             3.422          1533.250
       155   06 Jun 2027 08:27:39.765   06 Jun 2027 08:27:43.864             4.099           314.656
       156   06 Jun 2027 09:56:24.509   06 Jun 2027 09:56:38.390            13.881          6204.781
       157   06 Jun 2027 09:59:24.333   06 Jun 2027 09:59:35.733            11.400          4265.937
       158   06 Jun 2027 09:59:45.176   06 Jun 2027 09:59:48.533             3.357           295.094
       159   06 Jun 2027 10:00:29.529   06 Jun 2027 10:00:35.370             5.841          1173.219
       160   06 Jun 2027 10:00:39.852   06 Jun 2027 10:00:39.863             0.011             5.500
       161   06 Jun 2027 10:00:50.723   06 Jun 2027 10:00:50.723             0.000             0.000
       162   06 Jun 2027 10:01:22.871   06 Jun 2027 10:01:26.689             3.818          1478.562
       163   06 Jun 2027 10:01:54.067   06 Jun 2027 10:02:01.554             7.487           855.563
       164   06 Jun 2027 10:02:08.570   06 Jun 2027 10:02:09.111             0.541           176.500
       165   06 Jun 2027 10:02:29.572   06 Jun 2027 10:02:36.431             6.859           639.406
       166   06 Jun 2027 10:03:13.718   06 Jun 2027 10:03:16.020             2.302          1137.906
       167   06 Jun 2027 10:03:45.497   06 Jun 2027 10:03:47.336             1.839           849.625
       168   06 Jun 2027 11:33:08.655   06 Jun 2027 11:33:23.351            14.696          7348.000
       169   06 Jun 2027 11:33:43.337   06 Jun 2027 11:33:45.917             2.580          1036.500
       170   06 Jun 2027 11:34:02.659   06 Jun 2027 11:34:02.737             0.078            39.000
       171   06 Jun 2027 11:34:17.103   06 Jun 2027 11:34:19.541             2.438           922.813
       172   06 Jun 2027 11:34:51.609   06 Jun 2027 11:34:56.867             5.258          1002.125
       173   06 Jun 2027 11:35:19.743   06 Jun 2027 11:35:21.394             1.651           522.531
       174   06 Jun 2027 11:36:05.229   06 Jun 2027 11:36:11.238             6.009          1086.281
       175   06 Jun 2027 11:36:18.479   06 Jun 2027 11:36:19.319             0.840           209.188
       176   06 Jun 2027 11:36:59.475   06 Jun 2027 11:37:02.770             3.295          1212.656
       177   06 Jun 2027 11:37:16.960   06 Jun 2027 11:37:21.973             5.013           443.438
       178   06 Jun 2027 11:37:35.510   06 Jun 2027 11:37:39.309             3.799           423.031
       179   06 Jun 2027 11:38:09.902   06 Jun 2027 11:38:11.904             2.002           956.031
       180   06 Jun 2027 11:38:22.583   06 Jun 2027 11:38:26.020             3.437           309.250
       181   06 Jun 2027 11:38:58.643   06 Jun 2027 11:39:01.929             3.286          1016.969
       182   06 Jun 2027 11:39:21.145   06 Jun 2027 11:39:21.145             0.000             0.000
       183   06 Jun 2027 11:39:35.577   06 Jun 2027 11:39:39.965             4.388           830.844
       184   06 Jun 2027 11:39:51.216   06 Jun 2027 11:39:52.626             1.410           154.031
       185   07 Jun 2027 03:57:43.120   07 Jun 2027 03:59:06.871            83.751         41875.500
       186   07 Jun 2027 04:00:18.305   07 Jun 2027 04:00:43.934            25.629         12814.500
       187   07 Jun 2027 04:01:25.091   07 Jun 2027 04:01:43.471            18.380          9190.000
       188   07 Jun 2027 05:21:34.941   07 Jun 2027 05:22:44.263            69.322         34661.000
       189   07 Jun 2027 05:23:43.564   07 Jun 2027 05:23:51.706             8.142          4071.000
       190   07 Jun 2027 06:57:35.334   07 Jun 2027 06:59:34.987           119.653         59826.500
       191   07 Jun 2027 08:31:23.296   07 Jun 2027 08:31:44.721            21.425          9057.000
       192   07 Jun 2027 08:32:56.485   07 Jun 2027 08:32:58.002             1.517           582.969
       193   07 Jun 2027 08:33:48.905   07 Jun 2027 08:33:50.166             1.261           630.500
       194   07 Jun 2027 08:36:01.917   07 Jun 2027 08:36:12.311            10.394          4821.406
       195   07 Jun 2027 08:36:25.958   07 Jun 2027 08:36:27.898             1.940           244.719
       196   07 Jun 2027 08:37:06.248   07 Jun 2027 08:37:08.920             2.672          1198.438
       197   07 Jun 2027 08:37:18.162   07 Jun 2027 08:37:19.660             1.498           288.812
       198   07 Jun 2027 08:38:07.072   07 Jun 2027 08:38:10.132             3.060          1481.625
       199   07 Jun 2027 08:38:34.791   07 Jun 2027 08:38:34.791             0.000             0.000
       200   07 Jun 2027 08:39:05.888   07 Jun 2027 08:39:09.687             3.799          1469.375
       201   07 Jun 2027 10:08:33.316   07 Jun 2027 10:08:49.050            15.734          6801.188
       202   07 Jun 2027 10:09:38.580   07 Jun 2027 10:09:40.621             2.041           137.844
       203   07 Jun 2027 10:09:52.956   07 Jun 2027 10:09:56.817             3.861           222.063
       204   07 Jun 2027 10:10:24.754   07 Jun 2027 10:10:26.433             1.679           648.156
       205   07 Jun 2027 10:12:25.142   07 Jun 2027 10:12:37.340            12.198          3709.656
       206   07 Jun 2027 10:13:12.044   07 Jun 2027 10:13:12.881             0.837           237.250
       207   07 Jun 2027 10:13:31.689   07 Jun 2027 10:13:33.092             1.403           411.125
       208   07 Jun 2027 10:14:34.109   07 Jun 2027 10:14:37.982             3.873          1906.781
       209   07 Jun 2027 10:15:16.682   07 Jun 2027 10:15:18.673             1.991           995.500
       210   07 Jun 2027 10:15:20.303   07 Jun 2027 10:15:20.560             0.257            62.938
       211   07 Jun 2027 10:15:37.414   07 Jun 2027 10:15:38.808             1.394           526.688
       212   07 Jun 2027 11:45:47.576   07 Jun 2027 11:46:03.963            16.387          8096.250
       213   07 Jun 2027 11:46:54.822   07 Jun 2027 11:47:00.890             6.068          1001.750
       214   07 Jun 2027 11:47:24.359   07 Jun 2027 11:47:27.079             2.720           137.625
       215   07 Jun 2027 11:48:03.841   07 Jun 2027 11:48:05.970             2.129          1026.031
       216   07 Jun 2027 11:48:59.407   07 Jun 2027 11:49:02.141             2.734          1301.625
       217   07 Jun 2027 11:49:18.772   07 Jun 2027 11:49:18.841             0.069            34.500
       218   07 Jun 2027 11:49:50.472   07 Jun 2027 11:49:53.140             2.668          1334.000
       219   07 Jun 2027 11:50:37.304   07 Jun 2027 11:50:41.801             4.497          1519.812
       220   07 Jun 2027 11:50:52.275   07 Jun 2027 11:50:52.275             0.000             0.000
       221   07 Jun 2027 11:50:54.828   07 Jun 2027 11:50:57.227             2.399           212.437
       222   08 Jun 2027 04:10:05.433   08 Jun 2027 04:11:44.649            99.216         49608.000
       223   08 Jun 2027 04:11:57.295   08 Jun 2027 04:12:01.146             3.851          1925.500
       224   08 Jun 2027 04:12:38.590   08 Jun 2027 04:12:40.194             1.604           802.000
       225   08 Jun 2027 04:12:51.101   08 Jun 2027 04:13:05.080            13.979          6989.500
       226   08 Jun 2027 05:33:27.730   08 Jun 2027 05:35:06.139            98.409         49204.500
       227   08 Jun 2027 07:09:48.579   08 Jun 2027 07:11:49.519           120.940         60470.000
       228   08 Jun 2027 07:12:23.545   08 Jun 2027 07:12:27.497             3.952          1574.500
       229   08 Jun 2027 07:12:32.551   08 Jun 2027 07:12:32.551             0.000             0.000
       230   08 Jun 2027 08:43:50.613   08 Jun 2027 08:44:08.967            18.354          8212.563
       231   08 Jun 2027 08:44:48.368   08 Jun 2027 08:44:50.820             2.452          1183.156
       232   08 Jun 2027 08:45:21.565   08 Jun 2027 08:45:25.448             3.883           124.063
       233   08 Jun 2027 08:46:42.782   08 Jun 2027 08:46:49.504             6.722          2299.875
       234   08 Jun 2027 08:47:50.264   08 Jun 2027 08:47:54.504             4.240          1645.906
       235   08 Jun 2027 08:49:03.526   08 Jun 2027 08:49:06.876             3.350          1675.000
       236   08 Jun 2027 08:50:29.916   08 Jun 2027 08:50:33.001             3.085          1542.500
       237   08 Jun 2027 08:50:55.522   08 Jun 2027 08:50:56.052             0.530           265.000
       238   08 Jun 2027 08:51:17.971   08 Jun 2027 08:51:25.628             7.657          2424.532
       239   08 Jun 2027 08:51:50.369   08 Jun 2027 08:51:52.494             2.125           773.156
       240   08 Jun 2027 10:20:58.157   08 Jun 2027 10:21:13.247            15.090          6845.219
       241   08 Jun 2027 10:21:44.802   08 Jun 2027 10:21:48.312             3.510           659.969
       242   08 Jun 2027 10:23:00.070   08 Jun 2027 10:23:02.466             2.396          1198.000
       243   08 Jun 2027 10:23:16.576   08 Jun 2027 10:23:17.519             0.943           471.500
       244   08 Jun 2027 10:23:26.755   08 Jun 2027 10:23:29.809             3.054           902.875
       245   08 Jun 2027 10:23:44.346   08 Jun 2027 10:23:46.740             2.394           355.875
       246   08 Jun 2027 10:24:57.614   08 Jun 2027 10:25:02.249             4.635          2018.437
       247   08 Jun 2027 10:25:26.808   08 Jun 2027 10:25:33.403             6.595           637.250
       248   08 Jun 2027 10:26:12.230   08 Jun 2027 10:26:16.025             3.795          1070.969
       249   08 Jun 2027 10:26:20.944   08 Jun 2027 10:26:21.445             0.501           153.719
       250   08 Jun 2027 10:27:07.637   08 Jun 2027 10:27:12.179             4.542           593.219
       251   08 Jun 2027 11:57:56.075   08 Jun 2027 11:58:16.128            20.053          6668.531
       252   08 Jun 2027 11:59:30.564   08 Jun 2027 11:59:39.250             8.686          2142.219
       253   08 Jun 2027 11:59:48.357   08 Jun 2027 11:59:48.900             0.543           130.969
       254   09 Jun 2027 04:22:25.814   09 Jun 2027 04:24:12.341           106.527         53263.500
       255   09 Jun 2027 04:24:39.891   09 Jun 2027 04:24:43.163             3.272          1636.000
       256   09 Jun 2027 05:45:28.212   09 Jun 2027 05:46:43.280            75.068         37534.000
       257   09 Jun 2027 05:47:03.346   09 Jun 2027 05:47:10.538             7.192          3596.000
       258   09 Jun 2027 07:21:54.792   09 Jun 2027 07:23:56.234           121.442         60721.000
       259   09 Jun 2027 08:57:03.361   09 Jun 2027 08:57:19.740            16.379          7833.813
       260   09 Jun 2027 08:57:40.256   09 Jun 2027 08:57:45.711             5.455           417.406
       261   09 Jun 2027 08:58:14.413   09 Jun 2027 08:58:16.195             1.782           403.250
       262   09 Jun 2027 08:58:44.412   09 Jun 2027 08:58:46.574             2.162           800.094
       263   09 Jun 2027 08:59:44.850   09 Jun 2027 08:59:47.624             2.774          1102.750
       264   09 Jun 2027 09:00:31.762   09 Jun 2027 09:00:36.363             4.601           539.000
       265   09 Jun 2027 09:02:30.491   09 Jun 2027 09:02:33.271             2.780          1390.000
       266   09 Jun 2027 09:02:49.860   09 Jun 2027 09:02:54.712             4.852          2269.000
       267   09 Jun 2027 09:03:09.900   09 Jun 2027 09:03:12.137             2.237           474.625
       268   09 Jun 2027 09:03:44.914   09 Jun 2027 09:03:46.709             1.795           897.500
       269   09 Jun 2027 09:03:49.441   09 Jun 2027 09:03:51.195             1.754           212.156
       270   09 Jun 2027 10:33:23.862   09 Jun 2027 10:33:36.998            13.136          6380.313
       271   09 Jun 2027 10:34:07.871   09 Jun 2027 10:34:09.450             1.579            11.906
       272   09 Jun 2027 10:35:19.523   09 Jun 2027 10:35:23.320             3.797          1898.500
       273   09 Jun 2027 10:35:39.418   09 Jun 2027 10:35:41.167             1.749           794.344
       274   09 Jun 2027 10:36:13.042   09 Jun 2027 10:36:15.372             2.330           939.094
       275   09 Jun 2027 10:37:08.433   09 Jun 2027 10:37:11.046             2.613          1208.594
       276   09 Jun 2027 10:38:00.868   09 Jun 2027 10:38:04.697             3.829          1411.219
       277   09 Jun 2027 10:38:14.167   09 Jun 2027 10:38:16.408             2.241           295.937
       278   09 Jun 2027 10:38:21.658   09 Jun 2027 10:38:22.272             0.614            63.906
       279   09 Jun 2027 10:39:04.544   09 Jun 2027 10:39:06.879             2.335          1089.937
       280   09 Jun 2027 10:39:12.455   09 Jun 2027 10:39:16.511             4.056           174.250
       281   09 Jun 2027 10:39:26.947   09 Jun 2027 10:39:28.621             1.674           326.125
       282   10 Jun 2027 03:00:00.000   10 Jun 2027 03:00:16.515            16.515          8257.500
       283   10 Jun 2027 03:01:26.243   10 Jun 2027 03:01:39.182            12.939          6469.500
       284   10 Jun 2027 04:34:08.879   10 Jun 2027 04:34:43.911            35.032         17516.000
       285   10 Jun 2027 04:34:57.446   10 Jun 2027 04:35:48.228            50.782         25391.000
       286   10 Jun 2027 04:35:50.208   10 Jun 2027 04:36:03.919            13.711          6855.500
       287   10 Jun 2027 04:36:28.479   10 Jun 2027 04:36:31.441             2.962          1481.000
       288   10 Jun 2027 04:37:43.960   10 Jun 2027 04:37:44.812             0.852           426.000
       289   10 Jun 2027 05:57:29.272   10 Jun 2027 05:58:34.726            65.454         32727.000
       290   10 Jun 2027 05:58:37.219   10 Jun 2027 05:58:39.829             2.610          1305.000
       291   10 Jun 2027 05:58:47.026   10 Jun 2027 05:58:51.766             4.740          2370.000
       292   10 Jun 2027 06:00:22.426   10 Jun 2027 06:00:23.293             0.867           433.500
       293   10 Jun 2027 06:00:37.182   10 Jun 2027 06:00:42.021             4.839          2419.500
       294   10 Jun 2027 07:34:05.306   10 Jun 2027 07:35:51.951           106.645         53322.500
       295   10 Jun 2027 07:35:56.634   10 Jun 2027 07:36:02.196             5.562          2781.000
       296   10 Jun 2027 07:36:32.619   10 Jun 2027 07:36:37.240             4.621          1131.718
       297   10 Jun 2027 09:09:15.513   10 Jun 2027 09:09:21.951             6.438          3219.000
       298   10 Jun 2027 09:09:29.002   10 Jun 2027 09:09:35.932             6.930          3441.094
       299   10 Jun 2027 09:10:41.956   10 Jun 2027 09:10:43.532             1.576           788.000
       300   10 Jun 2027 09:10:51.754   10 Jun 2027 09:11:01.388             9.634           568.594
       301   10 Jun 2027 09:12:11.191   10 Jun 2027 09:12:11.191             0.000             0.000
       302   10 Jun 2027 09:12:34.380   10 Jun 2027 09:12:38.214             3.834          1731.063
       303   10 Jun 2027 09:13:09.846   10 Jun 2027 09:13:10.736             0.890           347.563
       304   10 Jun 2027 09:14:30.528   10 Jun 2027 09:14:36.680             6.152          2489.438
       305   10 Jun 2027 09:15:22.244   10 Jun 2027 09:15:25.407             3.163          1290.531
       306   10 Jun 2027 09:15:48.349   10 Jun 2027 09:15:50.374             2.025           633.313
       307   10 Jun 2027 10:45:33.644   10 Jun 2027 10:45:54.059            20.415          9155.000
       308   10 Jun 2027 10:47:33.434   10 Jun 2027 10:47:39.739             6.305          2872.844
       309   10 Jun 2027 10:48:04.562   10 Jun 2027 10:48:06.259             1.697           775.719
       310   10 Jun 2027 10:48:32.415   10 Jun 2027 10:48:36.267             3.852           703.188
       311   10 Jun 2027 10:48:49.281   10 Jun 2027 10:48:51.331             2.050           406.687
       312   10 Jun 2027 10:49:15.166   10 Jun 2027 10:49:18.035             2.869           649.125
       313   10 Jun 2027 10:49:57.927   10 Jun 2027 10:50:05.058             7.131          1124.562
       314   10 Jun 2027 10:50:26.160   10 Jun 2027 10:50:32.028             5.868           548.875
       315   10 Jun 2027 10:50:52.997   10 Jun 2027 10:50:55.411             2.414           469.406
       316   10 Jun 2027 10:51:24.390   10 Jun 2027 10:51:28.769             4.379           652.375
       317   10 Jun 2027 10:51:29.120   10 Jun 2027 10:51:30.258             1.138            10.969
       318   11 Jun 2027 03:08:58.303   11 Jun 2027 03:09:48.647            50.344         25172.000
       319   11 Jun 2027 03:09:56.478   11 Jun 2027 03:10:08.189            11.711          5855.500
       320   11 Jun 2027 03:11:00.508   11 Jun 2027 03:11:08.333             7.825          3912.500
       321   11 Jun 2027 03:11:31.004   11 Jun 2027 03:11:31.449             0.445           222.500
       322   11 Jun 2027 03:11:33.357   11 Jun 2027 03:11:33.676             0.319           159.500
       323   11 Jun 2027 03:13:51.758   11 Jun 2027 03:14:02.140            10.382          5191.000
       324   11 Jun 2027 04:35:21.895   11 Jun 2027 04:35:24.590             2.695          1347.500
       325   11 Jun 2027 04:46:05.391   11 Jun 2027 04:47:19.355            73.964         36982.000
       326   11 Jun 2027 04:47:50.213   11 Jun 2027 04:47:50.213             0.000             0.000
       327   11 Jun 2027 04:48:24.263   11 Jun 2027 04:48:39.419            15.156          7578.000
       328   11 Jun 2027 04:49:22.893   11 Jun 2027 04:49:26.185             3.292          1646.000
       329   11 Jun 2027 06:10:03.811   11 Jun 2027 06:11:13.937            70.126         35063.000
       330   11 Jun 2027 07:45:50.851   11 Jun 2027 07:47:34.395           103.544         51330.063
       331   11 Jun 2027 07:48:13.954   11 Jun 2027 07:48:18.802             4.848          1236.219
       332   11 Jun 2027 07:50:00.828   11 Jun 2027 07:50:02.072             1.244           622.000
       333   11 Jun 2027 09:20:44.490   11 Jun 2027 09:20:56.737            12.247          5485.563
       334   11 Jun 2027 09:21:26.596   11 Jun 2027 09:21:28.310             1.714           512.531
       335   11 Jun 2027 09:22:10.804   11 Jun 2027 09:22:12.496             1.692           444.500
       336   11 Jun 2027 09:22:44.311   11 Jun 2027 09:22:46.475             2.164           763.625
       337   11 Jun 2027 09:23:12.333   11 Jun 2027 09:23:12.333             0.000             0.000
       338   11 Jun 2027 09:23:37.740   11 Jun 2027 09:23:45.076             7.336          1601.938
       339   11 Jun 2027 09:24:36.760   11 Jun 2027 09:24:36.760             0.000             0.000
       340   11 Jun 2027 09:26:29.921   11 Jun 2027 09:26:38.277             8.356          4178.000
       341   11 Jun 2027 09:27:48.172   11 Jun 2027 09:27:55.556             7.384          3157.625
       342   11 Jun 2027 10:57:15.176   11 Jun 2027 10:57:29.689            14.513          6568.937
       343   11 Jun 2027 10:58:07.576   11 Jun 2027 10:58:08.452             0.876           180.219
       344   11 Jun 2027 10:58:54.856   11 Jun 2027 10:58:58.567             3.711          1326.281
       345   11 Jun 2027 10:59:13.094   11 Jun 2027 10:59:17.842             4.748           453.969
       346   11 Jun 2027 10:59:30.857   11 Jun 2027 10:59:31.761             0.904           406.719
       347   11 Jun 2027 10:59:48.640   11 Jun 2027 10:59:50.463             1.823           527.469
       348   11 Jun 2027 11:00:38.034   11 Jun 2027 11:00:41.655             3.621          1367.906
       349   11 Jun 2027 11:00:47.663   11 Jun 2027 11:00:48.327             0.664           187.750
       350   11 Jun 2027 11:00:54.641   11 Jun 2027 11:00:54.641             0.000             0.000
       351   11 Jun 2027 11:01:11.466   11 Jun 2027 11:01:13.433             1.967           685.563
       352   11 Jun 2027 11:01:51.910   11 Jun 2027 11:02:00.173             8.263          1154.000
       353   11 Jun 2027 11:02:53.980   11 Jun 2027 11:03:02.580             8.600          1555.063
       354   11 Jun 2027 11:03:08.406   11 Jun 2027 11:03:09.273             0.867           182.063
       355   11 Jun 2027 11:03:34.937   11 Jun 2027 11:03:38.269             3.332           646.313
       356   12 Jun 2027 03:21:02.669   12 Jun 2027 03:23:05.384           122.715         61357.500
       357   12 Jun 2027 03:27:02.654   12 Jun 2027 03:27:02.654             0.000             0.000
       358   12 Jun 2027 03:28:06.304   12 Jun 2027 03:28:40.532            34.228         17114.000
       359   12 Jun 2027 04:46:39.945   12 Jun 2027 04:46:56.003            16.058          8029.000
       360   12 Jun 2027 04:58:02.624   12 Jun 2027 04:58:47.729            45.105         22552.500
       361   12 Jun 2027 04:59:27.370   12 Jun 2027 04:59:42.285            14.915          7457.500
       362   12 Jun 2027 06:20:38.613   12 Jun 2027 06:21:40.312            61.699         30849.500
       363   12 Jun 2027 06:22:18.929   12 Jun 2027 06:22:30.946            12.017          6008.500
       364   12 Jun 2027 06:24:35.598   12 Jun 2027 06:24:57.776            22.178         11089.000
       365   12 Jun 2027 07:56:08.392   12 Jun 2027 07:56:50.730            42.338         20937.812
       366   12 Jun 2027 07:57:37.338   12 Jun 2027 07:57:38.403             1.065           532.500
       367   12 Jun 2027 07:57:42.790   12 Jun 2027 07:57:43.592             0.802           401.000
       368   12 Jun 2027 07:57:54.577   12 Jun 2027 07:57:54.577             0.000             0.000
       369   12 Jun 2027 07:59:10.810   12 Jun 2027 07:59:16.760             5.950          2901.844
       370   12 Jun 2027 07:59:24.630   12 Jun 2027 07:59:32.037             7.407           134.531
       371   12 Jun 2027 07:59:57.665   12 Jun 2027 08:00:02.397             4.732           800.875
       372   12 Jun 2027 08:01:03.581   12 Jun 2027 08:01:11.009             7.428          1122.500
       373   12 Jun 2027 08:01:39.003   12 Jun 2027 08:01:42.422             3.419           466.219
       374   12 Jun 2027 08:02:06.241   12 Jun 2027 08:02:08.315             2.074           744.344
       375   12 Jun 2027 09:32:29.458   12 Jun 2027 09:32:40.804            11.346          5032.187
       376   12 Jun 2027 09:33:21.859   12 Jun 2027 09:33:24.446             2.587          1090.625
       377   12 Jun 2027 09:33:53.017   12 Jun 2027 09:33:55.246             2.229           892.844
       378   12 Jun 2027 09:34:44.880   12 Jun 2027 09:34:46.788             1.908           954.000
       379   12 Jun 2027 09:36:38.874   12 Jun 2027 09:36:50.420            11.546          3504.406
       380   12 Jun 2027 09:37:20.844   12 Jun 2027 09:37:23.550             2.706           892.281
       381   12 Jun 2027 09:37:47.290   12 Jun 2027 09:37:53.004             5.714            95.656
       382   12 Jun 2027 09:38:26.200   12 Jun 2027 09:38:28.567             2.367           724.500
       383   12 Jun 2027 09:39:15.784   12 Jun 2027 09:39:20.033             4.249          1475.531
       384   12 Jun 2027 09:39:49.017   12 Jun 2027 09:39:52.096             3.079           732.594
       385   12 Jun 2027 11:09:35.427   12 Jun 2027 11:09:53.269            17.842          6991.469
       386   12 Jun 2027 11:11:03.414   12 Jun 2027 11:11:08.664             5.250          1087.313
       387   12 Jun 2027 11:11:55.209   12 Jun 2027 11:12:01.755             6.546          1359.219
       388   12 Jun 2027 11:13:14.487   12 Jun 2027 11:13:22.711             8.224          2272.875
       389   12 Jun 2027 11:13:39.060   12 Jun 2027 11:13:43.840             4.780           410.781
       390   12 Jun 2027 11:14:23.050   12 Jun 2027 11:14:30.565             7.515          1177.312
       391   12 Jun 2027 11:15:45.738   12 Jun 2027 11:15:50.946             5.208          1698.438
       392   13 Jun 2027 03:33:32.569   13 Jun 2027 03:35:06.298            93.729         46864.500
       393   13 Jun 2027 03:35:42.794   13 Jun 2027 03:35:58.341            15.547          7773.500
       394   13 Jun 2027 03:36:15.427   13 Jun 2027 03:36:17.481             2.054          1027.000
       395   13 Jun 2027 03:36:40.285   13 Jun 2027 03:36:49.213             8.928          4464.000
       396   13 Jun 2027 03:39:42.767   13 Jun 2027 03:39:42.767             0.000             0.000
       397   13 Jun 2027 03:40:20.730   13 Jun 2027 03:40:40.119            19.389          9694.500
       398   13 Jun 2027 04:58:22.000   13 Jun 2027 04:58:43.482            21.482         10741.000
       399   13 Jun 2027 04:59:53.347   13 Jun 2027 04:59:57.845             4.498          2249.000
       400   13 Jun 2027 05:10:02.416   13 Jun 2027 05:10:55.803            53.387         26693.500
       401   13 Jun 2027 06:32:20.018   13 Jun 2027 06:33:26.313            66.295         33147.500
       402   13 Jun 2027 06:34:13.780   13 Jun 2027 06:34:46.637            32.857         16428.500
       403   13 Jun 2027 08:07:15.563   13 Jun 2027 08:08:08.126            52.563         25629.032
       404   13 Jun 2027 08:08:59.917   13 Jun 2027 08:09:02.851             2.934          1458.656
       405   13 Jun 2027 08:09:09.006   13 Jun 2027 08:09:12.788             3.782           136.125
       406   13 Jun 2027 08:09:48.675   13 Jun 2027 08:09:49.931             1.256           628.000
       407   13 Jun 2027 08:12:32.316   13 Jun 2027 08:12:44.807            12.491          5543.594
       408   13 Jun 2027 08:13:12.653   13 Jun 2027 08:13:17.727             5.074           870.187
       409   13 Jun 2027 08:15:16.395   13 Jun 2027 08:15:24.583             8.188          3035.625
       410   13 Jun 2027 09:44:46.263   13 Jun 2027 09:44:56.549            10.286          4585.906
       411   13 Jun 2027 09:45:15.944   13 Jun 2027 09:45:18.172             2.228           114.531
       412   13 Jun 2027 09:47:51.633   13 Jun 2027 09:48:03.486            11.853          4693.438
       413   13 Jun 2027 09:49:01.377   13 Jun 2027 09:49:07.863             6.486          1474.938
       414   13 Jun 2027 09:49:57.583   13 Jun 2027 09:50:01.032             3.449          1307.625
       415   13 Jun 2027 09:50:59.539   13 Jun 2027 09:51:03.545             4.006          1745.375
       416   13 Jun 2027 09:51:30.488   13 Jun 2027 09:51:36.221             5.733           815.750
       417   13 Jun 2027 09:51:41.897   13 Jun 2027 09:51:43.221             1.324           161.094
       418   13 Jun 2027 11:21:31.470   13 Jun 2027 11:21:45.413            13.943          6794.469
       419   13 Jun 2027 11:22:33.335   13 Jun 2027 11:22:36.609             3.274          1452.906
       420   13 Jun 2027 11:23:41.689   13 Jun 2027 11:23:44.766             3.077          1538.500
       421   13 Jun 2027 11:23:45.998   13 Jun 2027 11:23:47.965             1.967            81.563
       422   13 Jun 2027 11:24:09.951   13 Jun 2027 11:24:15.519             5.568           687.063
       423   13 Jun 2027 11:24:27.370   13 Jun 2027 11:24:28.747             1.377           341.219
       424   13 Jun 2027 11:25:27.114   13 Jun 2027 11:25:29.002             1.888           944.000
       425   13 Jun 2027 11:25:33.649   13 Jun 2027 11:25:34.697             1.048           280.437
       426   13 Jun 2027 11:25:47.147   13 Jun 2027 11:25:49.072             1.925           389.063
       427   13 Jun 2027 11:25:55.242   13 Jun 2027 11:25:56.339             1.097           192.813
       428   13 Jun 2027 11:25:58.294   13 Jun 2027 11:25:59.331             1.037            51.563
       429   13 Jun 2027 11:27:04.388   13 Jun 2027 11:27:09.023             4.635          2033.031
       430   13 Jun 2027 11:27:35.338   13 Jun 2027 11:27:36.825             1.487           711.375
       431   13 Jun 2027 11:27:56.953   13 Jun 2027 11:27:56.953             0.000             0.000
       432   13 Jun 2027 11:27:57.959   13 Jun 2027 11:28:04.210             6.251           660.438
