uniorb/output/strategy_1/Camera/Camera_KinoSat_110803.txt

KinoSat_110803
-------------------------
    Access    *     Start Time (UTCG)     *     Stop Time (UTCG)  *   Duration (s) *   Data (Mbytes)
         1   01 Jun 2027 03:52:59.609   01 Jun 2027 03:54:06.109            66.500         33250.000
         2   01 Jun 2027 03:54:54.983   01 Jun 2027 03:55:41.456            46.473         23236.500
         3   01 Jun 2027 03:57:31.173   01 Jun 2027 03:57:50.818            19.645          9822.500
         4   01 Jun 2027 05:27:53.293   01 Jun 2027 05:29:26.431            93.138         46569.000
         5   01 Jun 2027 05:29:44.999   01 Jun 2027 05:29:53.416             8.417          4208.500
         6   01 Jun 2027 05:30:23.870   01 Jun 2027 05:30:45.352            21.482         10741.000
         7   01 Jun 2027 05:31:32.511   01 Jun 2027 05:31:32.511             0.000             0.000
         8   01 Jun 2027 05:32:28.012   01 Jun 2027 05:32:44.561            16.549          8274.500
         9   01 Jun 2027 07:05:27.075   01 Jun 2027 07:07:21.406           114.331         57165.500
        10   01 Jun 2027 07:09:41.309   01 Jun 2027 07:09:47.460             6.151          3075.500
        11   01 Jun 2027 07:10:06.574   01 Jun 2027 07:10:15.749             9.175          4587.500
        12   01 Jun 2027 07:12:26.159   01 Jun 2027 07:12:47.818            21.659         10829.500
        13   01 Jun 2027 08:42:09.638   01 Jun 2027 08:44:06.887           117.249         58624.500
        14   01 Jun 2027 08:45:31.711   01 Jun 2027 08:45:49.618            17.907          8953.500
        15   01 Jun 2027 08:46:44.587   01 Jun 2027 08:46:57.374            12.787          6393.500
        16   01 Jun 2027 08:47:24.419   01 Jun 2027 08:47:29.031             4.612          2306.000
        17   01 Jun 2027 10:20:12.738   01 Jun 2027 10:21:52.228            99.490         49745.000
        18   01 Jun 2027 10:22:04.590   01 Jun 2027 10:22:13.461             8.871          4435.500
        19   01 Jun 2027 10:23:01.823   01 Jun 2027 10:23:17.751            15.928          7964.000
        20   01 Jun 2027 10:23:25.106   01 Jun 2027 10:23:28.284             3.178          1589.000
        21   01 Jun 2027 10:23:38.609   01 Jun 2027 10:23:41.296             2.687          1343.500
        22   01 Jun 2027 10:24:18.564   01 Jun 2027 10:24:22.254             3.690          1845.000
        23   01 Jun 2027 11:53:50.200   01 Jun 2027 11:55:08.602            78.402         39201.000
        24   01 Jun 2027 11:57:29.808   01 Jun 2027 11:57:43.359            13.551          6775.500
        25   01 Jun 2027 11:58:43.275   01 Jun 2027 11:58:51.420             8.145          4072.500
        26   02 Jun 2027 04:04:28.695   02 Jun 2027 04:05:21.155            52.460         26230.000
        27   02 Jun 2027 04:08:40.500   02 Jun 2027 04:08:40.500             0.000             0.000
        28   02 Jun 2027 04:10:26.280   02 Jun 2027 04:10:29.478             3.198          1599.000
        29   02 Jun 2027 05:39:24.005   02 Jun 2027 05:41:00.520            96.515         48257.500
        30   02 Jun 2027 05:41:59.483   02 Jun 2027 05:42:49.529            50.046         25023.000
        31   02 Jun 2027 05:44:56.346   02 Jun 2027 05:44:59.216             2.870          1435.000
        32   02 Jun 2027 05:45:36.507   02 Jun 2027 05:45:42.986             6.479          3239.500
        33   02 Jun 2027 05:46:41.271   02 Jun 2027 05:46:45.840             4.569          2284.500
        34   02 Jun 2027 05:46:47.644   02 Jun 2027 05:46:52.070             4.426          2213.000
        35   02 Jun 2027 05:48:18.540   02 Jun 2027 05:48:21.354             2.814          1407.000
        36   02 Jun 2027 05:48:42.889   02 Jun 2027 05:48:47.709             4.820          2410.000
        37   02 Jun 2027 07:17:20.998   02 Jun 2027 07:19:45.848           144.850         72425.000
        38   02 Jun 2027 07:21:13.321   02 Jun 2027 07:21:20.868             7.547          3773.500
        39   02 Jun 2027 07:21:51.286   02 Jun 2027 07:21:57.218             5.932          2966.000
        40   02 Jun 2027 07:22:00.475   02 Jun 2027 07:22:06.971             6.496          3248.000
        41   02 Jun 2027 08:54:15.390   02 Jun 2027 08:56:35.412           140.022         70011.000
        42   02 Jun 2027 08:58:10.884   02 Jun 2027 08:58:18.252             7.368          3684.000
        43   02 Jun 2027 08:58:55.104   02 Jun 2027 08:58:57.716             2.612          1306.000
        44   02 Jun 2027 08:59:23.968   02 Jun 2027 08:59:31.818             7.850          3925.000
        45   02 Jun 2027 09:00:22.323   02 Jun 2027 09:00:22.566             0.243           121.500
        46   02 Jun 2027 10:31:59.046   02 Jun 2027 10:33:52.087           113.041         56520.500
        47   02 Jun 2027 10:34:10.651   02 Jun 2027 10:34:19.807             9.156          4578.000
        48   02 Jun 2027 10:34:46.220   02 Jun 2027 10:34:46.220             0.000             0.000
        49   02 Jun 2027 10:35:49.091   02 Jun 2027 10:35:52.194             3.103          1551.500
        50   03 Jun 2027 04:18:32.540   03 Jun 2027 04:19:14.734            42.194         21097.000
        51   03 Jun 2027 04:19:26.131   03 Jun 2027 04:19:40.978            14.847          7423.500
        52   03 Jun 2027 04:21:46.623   03 Jun 2027 04:21:50.167             3.544          1772.000
        53   03 Jun 2027 05:52:17.426   03 Jun 2027 05:54:38.581           141.155         70577.500
        54   03 Jun 2027 05:59:06.697   03 Jun 2027 05:59:13.403             6.706          3353.000
        55   03 Jun 2027 06:00:14.014   03 Jun 2027 06:00:22.779             8.765          4382.500
        56   03 Jun 2027 06:00:28.511   03 Jun 2027 06:00:31.235             2.724          1362.000
        57   03 Jun 2027 07:29:41.881   03 Jun 2027 07:32:07.072           145.191         72595.500
        58   03 Jun 2027 07:33:15.137   03 Jun 2027 07:33:34.719            19.582          9791.000
        59   03 Jun 2027 07:35:45.427   03 Jun 2027 07:35:54.981             9.554          4777.000
        60   03 Jun 2027 09:06:45.663   03 Jun 2027 09:09:00.610           134.947         67473.500
        61   03 Jun 2027 09:09:17.828   03 Jun 2027 09:09:25.623             7.795          3897.500
        62   03 Jun 2027 09:09:35.431   03 Jun 2027 09:09:40.955             5.524          2762.000
        63   03 Jun 2027 09:09:50.873   03 Jun 2027 09:09:59.312             8.439          4219.500
        64   03 Jun 2027 10:43:30.468   03 Jun 2027 10:44:35.180            64.712         31460.030
        65   03 Jun 2027 10:45:11.129   03 Jun 2027 10:45:19.500             8.371          1019.625
        66   03 Jun 2027 10:45:56.981   03 Jun 2027 10:45:59.770             2.789          1165.125
        67   03 Jun 2027 10:47:52.373   03 Jun 2027 10:48:03.995            11.622          3518.844
        68   04 Jun 2027 04:30:46.831   04 Jun 2027 04:32:06.331            79.500         39750.000
        69   04 Jun 2027 04:33:09.546   04 Jun 2027 04:33:12.841             3.295          1647.500
        70   04 Jun 2027 04:33:33.219   04 Jun 2027 04:33:37.722             4.503          2251.500
        71   04 Jun 2027 04:34:18.668   04 Jun 2027 04:34:21.675             3.007          1503.500
        72   04 Jun 2027 06:04:50.834   04 Jun 2027 06:06:37.911           107.077         53538.500
        73   04 Jun 2027 06:07:47.321   04 Jun 2027 06:08:03.156            15.835          7917.500
        74   04 Jun 2027 06:12:27.301   04 Jun 2027 06:12:33.370             6.069          3034.500
        75   04 Jun 2027 07:41:55.404   04 Jun 2027 07:44:07.486           132.082         66041.000
        76   04 Jun 2027 07:44:51.105   04 Jun 2027 07:44:58.220             7.115          3006.469
        77   04 Jun 2027 07:45:50.339   04 Jun 2027 07:45:54.522             4.183          1596.844
        78   04 Jun 2027 07:47:09.535   04 Jun 2027 07:47:15.583             6.048          2125.688
        79   04 Jun 2027 09:18:51.220   04 Jun 2027 09:19:16.855            25.635         12817.500
        80   04 Jun 2027 09:19:43.367   04 Jun 2027 09:19:46.136             2.769          1227.594
        81   04 Jun 2027 09:20:13.392   04 Jun 2027 09:20:16.280             2.888           804.469
        82   04 Jun 2027 09:20:35.661   04 Jun 2027 09:20:38.504             2.843           434.937
        83   04 Jun 2027 09:21:18.876   04 Jun 2027 09:21:20.368             1.492           746.000
        84   04 Jun 2027 09:21:40.474   04 Jun 2027 09:21:46.650             6.176          1143.938
        85   04 Jun 2027 09:22:13.793   04 Jun 2027 09:22:15.647             1.854           380.969
        86   04 Jun 2027 09:22:37.418   04 Jun 2027 09:22:38.045             0.627           313.500
        87   04 Jun 2027 09:23:02.715   04 Jun 2027 09:23:08.618             5.903          1119.344
        88   04 Jun 2027 09:23:20.014   04 Jun 2027 09:23:21.277             1.263           356.125
        89   04 Jun 2027 09:23:25.186   04 Jun 2027 09:23:26.436             1.250           122.156
        90   04 Jun 2027 10:55:37.726   04 Jun 2027 10:55:53.450            15.724          7181.844
        91   04 Jun 2027 10:56:07.170   04 Jun 2027 10:56:08.939             1.769           428.750
        92   04 Jun 2027 10:57:38.088   04 Jun 2027 10:57:42.648             4.560          1849.688
        93   04 Jun 2027 10:58:03.564   04 Jun 2027 10:58:04.711             1.147           361.969
        94   04 Jun 2027 10:59:32.473   04 Jun 2027 10:59:37.223             4.750          2375.000
        95   04 Jun 2027 10:59:48.105   04 Jun 2027 10:59:52.743             4.638           707.625
        96   04 Jun 2027 10:59:58.277   04 Jun 2027 11:00:00.223             1.946           172.937
        97   05 Jun 2027 03:06:28.315   05 Jun 2027 03:06:46.349            18.034          9017.000
        98   05 Jun 2027 03:06:58.397   05 Jun 2027 03:07:01.962             3.565          1782.500
        99   05 Jun 2027 03:08:06.302   05 Jun 2027 03:08:06.302             0.000             0.000
       100   05 Jun 2027 04:42:57.288   05 Jun 2027 04:44:48.908           111.620         55810.000
       101   05 Jun 2027 04:46:18.567   05 Jun 2027 04:46:18.567             0.000             0.000
       102   05 Jun 2027 06:18:02.423   05 Jun 2027 06:19:47.754           105.331         52665.500
       103   05 Jun 2027 06:19:48.240   05 Jun 2027 06:19:54.078             5.838          2919.000
       104   05 Jun 2027 06:23:01.559   05 Jun 2027 06:23:15.202            13.643          6821.500
       105   05 Jun 2027 06:23:18.843   05 Jun 2027 06:23:24.268             5.425          2712.500
       106   05 Jun 2027 06:23:49.133   05 Jun 2027 06:23:52.330             3.197          1598.500
       107   05 Jun 2027 06:24:34.574   05 Jun 2027 06:24:35.431             0.857           428.500
       108   05 Jun 2027 07:54:24.504   05 Jun 2027 07:55:47.794            83.290         40203.063
       109   05 Jun 2027 07:56:29.751   05 Jun 2027 07:56:32.966             3.215           705.187
       110   05 Jun 2027 07:57:28.586   05 Jun 2027 07:57:33.073             4.487          1218.375
       111   05 Jun 2027 07:57:49.820   05 Jun 2027 07:57:50.392             0.572           286.000
       112   05 Jun 2027 07:58:30.430   05 Jun 2027 07:58:34.649             4.219          1276.344
       113   05 Jun 2027 07:58:53.691   05 Jun 2027 07:58:57.379             3.688           595.062
       114   05 Jun 2027 07:59:37.455   05 Jun 2027 07:59:42.199             4.744          1239.500
       115   05 Jun 2027 08:00:14.274   05 Jun 2027 08:00:20.271             5.997           920.875
       116   05 Jun 2027 08:00:27.843   05 Jun 2027 08:00:28.582             0.739           208.719
       117   05 Jun 2027 09:31:54.467   05 Jun 2027 09:32:19.976            25.509         10932.313
       118   05 Jun 2027 09:32:53.053   05 Jun 2027 09:33:06.504            13.451           762.469
       119   05 Jun 2027 09:33:19.989   05 Jun 2027 09:33:24.125             4.136           352.219
       120   05 Jun 2027 09:33:42.652   05 Jun 2027 09:33:44.261             1.609           253.125
       121   05 Jun 2027 09:33:59.117   05 Jun 2027 09:34:00.584             1.467           462.187
       122   05 Jun 2027 09:35:32.022   05 Jun 2027 09:35:33.700             1.678           839.000
       123   05 Jun 2027 11:07:59.213   05 Jun 2027 11:08:13.997            14.784          6876.000
       124   05 Jun 2027 11:08:45.316   05 Jun 2027 11:08:46.249             0.933           466.500
       125   05 Jun 2027 11:09:53.440   05 Jun 2027 11:09:56.173             2.733          1366.500
       126   05 Jun 2027 11:10:11.137   05 Jun 2027 11:10:15.146             4.009          1203.594
       127   05 Jun 2027 11:11:17.999   05 Jun 2027 11:11:21.718             3.719          1113.781
       128   06 Jun 2027 03:18:24.061   06 Jun 2027 03:18:58.252            34.191         17095.500
       129   06 Jun 2027 03:20:03.320   06 Jun 2027 03:20:08.711             5.391          2695.500
       130   06 Jun 2027 04:55:01.737   06 Jun 2027 04:57:04.641           122.904         61452.000
       131   06 Jun 2027 04:57:09.129   06 Jun 2027 04:57:15.121             5.992          2996.000
       132   06 Jun 2027 06:30:12.194   06 Jun 2027 06:31:53.773           101.579         50789.500
       133   06 Jun 2027 06:32:18.284   06 Jun 2027 06:32:21.377             3.093          1546.500
       134   06 Jun 2027 06:33:25.782   06 Jun 2027 06:33:25.870             0.088            44.000
       135   06 Jun 2027 06:34:07.035   06 Jun 2027 06:34:08.683             1.648           824.000
       136   06 Jun 2027 06:34:31.048   06 Jun 2027 06:34:44.627            13.579          6789.500
       137   06 Jun 2027 06:35:54.984   06 Jun 2027 06:35:59.441             4.457          2228.500
       138   06 Jun 2027 06:36:09.904   06 Jun 2027 06:36:22.102            12.198          6099.000
       139   06 Jun 2027 08:06:26.183   06 Jun 2027 08:07:20.738            54.555         27277.500
       140   06 Jun 2027 08:07:51.198   06 Jun 2027 08:07:57.584             6.386          1748.969
       141   06 Jun 2027 08:08:11.047   06 Jun 2027 08:08:11.800             0.753           155.938
       142   06 Jun 2027 08:09:47.453   06 Jun 2027 08:09:50.758             3.305          1652.500
       143   06 Jun 2027 08:10:28.796   06 Jun 2027 08:10:34.425             5.629          2148.593
       144   06 Jun 2027 08:10:59.114   06 Jun 2027 08:11:00.505             1.391           427.125
       145   06 Jun 2027 08:11:18.237   06 Jun 2027 08:11:18.886             0.649           144.406
       146   06 Jun 2027 08:11:59.764   06 Jun 2027 08:12:10.545            10.781          1277.438
       147   06 Jun 2027 09:44:00.104   06 Jun 2027 09:44:22.399            22.295          9854.563
       148   06 Jun 2027 09:44:53.283   06 Jun 2027 09:44:59.362             6.079           965.125
       149   06 Jun 2027 09:45:09.492   06 Jun 2027 09:45:10.662             1.170            47.750
       150   06 Jun 2027 09:46:20.233   06 Jun 2027 09:46:22.445             2.212          1106.000
       151   06 Jun 2027 09:46:31.477   06 Jun 2027 09:46:33.228             1.751           299.531
       152   06 Jun 2027 09:46:55.892   06 Jun 2027 09:46:59.883             3.991           708.250
       153   06 Jun 2027 09:47:06.278   06 Jun 2027 09:47:11.020             4.742           199.844
       154   06 Jun 2027 09:47:23.655   06 Jun 2027 09:47:23.885             0.230            55.906
       155   06 Jun 2027 09:47:31.462   06 Jun 2027 09:47:32.385             0.923           229.969
       156   06 Jun 2027 09:47:35.866   06 Jun 2027 09:47:41.057             5.191           108.781
       157   06 Jun 2027 09:47:59.285   06 Jun 2027 09:48:00.486             1.201            39.937
       158   06 Jun 2027 11:20:01.410   06 Jun 2027 11:20:18.384            16.974          7864.750
       159   06 Jun 2027 11:20:37.278   06 Jun 2027 11:20:39.702             2.424           590.437
       160   06 Jun 2027 11:20:55.360   06 Jun 2027 11:21:02.276             6.916           234.562
       161   06 Jun 2027 11:21:28.214   06 Jun 2027 11:21:28.849             0.635           317.500
       162   06 Jun 2027 11:21:35.286   06 Jun 2027 11:21:43.764             8.478           694.219
       163   06 Jun 2027 11:21:50.504   06 Jun 2027 11:21:52.690             2.186           138.062
       164   06 Jun 2027 11:22:22.042   06 Jun 2027 11:22:25.754             3.712           917.250
       165   06 Jun 2027 11:23:40.922   06 Jun 2027 11:23:46.953             6.031          2024.094
       166   06 Jun 2027 11:24:39.046   06 Jun 2027 11:24:44.798             5.752          1627.906
       167   07 Jun 2027 03:30:59.599   07 Jun 2027 03:31:54.367            54.768         27384.000
       168   07 Jun 2027 03:32:24.354   07 Jun 2027 03:32:24.354             0.000             0.000
       169   07 Jun 2027 03:32:50.901   07 Jun 2027 03:33:09.273            18.372          9186.000
       170   07 Jun 2027 03:33:19.266   07 Jun 2027 03:33:28.718             9.452          4726.000
       171   07 Jun 2027 05:06:45.655   07 Jun 2027 05:08:22.563            96.908         48454.000
       172   07 Jun 2027 06:41:36.353   07 Jun 2027 06:43:38.682           122.329         61164.500
       173   07 Jun 2027 06:44:44.308   07 Jun 2027 06:45:00.409            16.101          8050.500
       174   07 Jun 2027 06:48:22.603   07 Jun 2027 06:48:35.233            12.630          6315.000
       175   07 Jun 2027 08:18:12.295   07 Jun 2027 08:18:55.123            42.828         20581.500
       176   07 Jun 2027 08:19:14.763   07 Jun 2027 08:19:16.155             1.392           613.750
       177   07 Jun 2027 08:19:40.541   07 Jun 2027 08:19:42.112             1.571           762.062
       178   07 Jun 2027 08:20:43.251   07 Jun 2027 08:20:49.130             5.879          1508.344
       179   07 Jun 2027 08:21:05.996   07 Jun 2027 08:21:11.351             5.355           416.219
       180   07 Jun 2027 08:21:36.873   07 Jun 2027 08:21:38.826             1.953           417.938
       181   07 Jun 2027 08:21:50.883   07 Jun 2027 08:21:55.777             4.894           376.781
       182   07 Jun 2027 08:22:29.528   07 Jun 2027 08:22:32.121             2.593           966.563
       183   07 Jun 2027 08:23:13.807   07 Jun 2027 08:23:17.509             3.702          1302.688
       184   07 Jun 2027 08:23:40.606   07 Jun 2027 08:23:47.414             6.808           489.531
       185   07 Jun 2027 08:24:28.745   07 Jun 2027 08:24:31.389             2.644           900.875
       186   07 Jun 2027 09:56:30.053   07 Jun 2027 09:56:52.709            22.656          8819.156
       187   07 Jun 2027 09:57:56.216   07 Jun 2027 09:58:00.372             4.156          1984.594
       188   07 Jun 2027 09:58:47.379   07 Jun 2027 09:58:54.855             7.476          1216.969
       189   07 Jun 2027 09:59:04.927   07 Jun 2027 09:59:05.463             0.536            38.063
       190   07 Jun 2027 09:59:45.514   07 Jun 2027 09:59:47.912             2.398           913.750
       191   07 Jun 2027 11:29:50.391   07 Jun 2027 11:30:01.155            10.764          5382.000
       192   07 Jun 2027 11:31:49.858   07 Jun 2027 11:31:53.708             3.850          1530.406
       193   07 Jun 2027 11:33:11.389   07 Jun 2027 11:33:24.299            12.910          2427.531
       194   07 Jun 2027 11:33:48.142   07 Jun 2027 11:33:49.817             1.675           493.344
       195   07 Jun 2027 11:33:55.500   07 Jun 2027 11:33:56.205             0.705           177.594
       196   07 Jun 2027 11:34:41.756   07 Jun 2027 11:34:44.635             2.879           932.250
       197   07 Jun 2027 11:35:28.440   07 Jun 2027 11:35:29.922             1.482           741.000
       198   07 Jun 2027 11:36:21.959   07 Jun 2027 11:36:25.825             3.866          1751.656
       199   07 Jun 2027 11:36:50.808   07 Jun 2027 11:36:52.445             1.637           780.719
       200   08 Jun 2027 03:41:38.664   08 Jun 2027 03:42:20.935            42.271         21135.500
       201   08 Jun 2027 03:43:14.092   08 Jun 2027 03:43:25.929            11.837          5918.500
       202   08 Jun 2027 03:43:55.789   08 Jun 2027 03:43:59.555             3.766          1883.000
       203   08 Jun 2027 03:45:29.612   08 Jun 2027 03:45:33.743             4.131          2065.500
       204   08 Jun 2027 05:16:56.166   08 Jun 2027 05:17:58.036            61.870         30935.000
       205   08 Jun 2027 05:18:29.915   08 Jun 2027 05:19:45.724            75.809         37904.500
       206   08 Jun 2027 05:22:53.387   08 Jun 2027 05:22:53.387             0.000             0.000
       207   08 Jun 2027 06:53:29.620   08 Jun 2027 06:54:36.042            66.422         33211.000
       208   08 Jun 2027 06:54:44.131   08 Jun 2027 06:54:48.331             4.200          2100.000
       209   08 Jun 2027 06:54:54.763   08 Jun 2027 06:55:46.663            51.900         25950.000
       210   08 Jun 2027 06:56:56.154   08 Jun 2027 06:57:02.394             6.240          3120.000
       211   08 Jun 2027 06:57:30.332   08 Jun 2027 06:57:30.332             0.000             0.000
       212   08 Jun 2027 06:59:06.039   08 Jun 2027 06:59:10.572             4.533          2266.500
       213   08 Jun 2027 06:59:32.408   08 Jun 2027 06:59:41.590             9.182          4198.406
       214   08 Jun 2027 07:00:08.856   08 Jun 2027 07:00:10.818             1.962           852.063
       215   08 Jun 2027 08:30:33.424   08 Jun 2027 08:31:02.651            29.227         14472.406
       216   08 Jun 2027 08:31:31.365   08 Jun 2027 08:31:36.451             5.086           673.437
       217   08 Jun 2027 08:32:00.821   08 Jun 2027 08:32:02.290             1.469           573.938
       218   08 Jun 2027 08:32:14.054   08 Jun 2027 08:32:14.461             0.407           203.500
       219   08 Jun 2027 08:32:52.913   08 Jun 2027 08:32:55.984             3.071          1294.094
       220   08 Jun 2027 08:33:07.190   08 Jun 2027 08:33:07.484             0.294            86.437
       221   08 Jun 2027 08:34:21.118   08 Jun 2027 08:34:29.449             8.331          2301.063
       222   08 Jun 2027 08:35:13.330   08 Jun 2027 08:35:18.110             4.780          1371.281
       223   08 Jun 2027 08:35:57.359   08 Jun 2027 08:36:00.800             3.441          1204.344
       224   08 Jun 2027 10:08:27.699   08 Jun 2027 10:08:48.792            21.093          8847.031
       225   08 Jun 2027 10:09:49.871   08 Jun 2027 10:09:54.607             4.736          1729.063
       226   08 Jun 2027 10:10:19.328   08 Jun 2027 10:10:21.130             1.802           540.625
       227   08 Jun 2027 10:11:53.494   08 Jun 2027 10:12:01.088             7.594          2308.500
       228   08 Jun 2027 10:12:04.562   08 Jun 2027 10:12:06.287             1.725            36.688
       229   08 Jun 2027 10:12:12.278   08 Jun 2027 10:12:12.641             0.363           148.781
       230   08 Jun 2027 11:41:40.304   08 Jun 2027 11:41:54.560            14.256          6249.562
       231   08 Jun 2027 11:42:27.048   08 Jun 2027 11:42:28.007             0.959           322.719
       232   08 Jun 2027 11:43:39.242   08 Jun 2027 11:43:43.924             4.682          1997.531
       233   08 Jun 2027 11:44:04.284   08 Jun 2027 11:44:05.625             1.341           625.937
       234   08 Jun 2027 11:44:24.364   08 Jun 2027 11:44:24.364             0.000             0.000
       235   08 Jun 2027 11:44:41.983   08 Jun 2027 11:44:51.174             9.191           922.188
       236   08 Jun 2027 11:45:47.510   08 Jun 2027 11:45:51.433             3.923          1760.500
       237   08 Jun 2027 11:46:03.393   08 Jun 2027 11:46:05.110             1.717           373.750
       238   08 Jun 2027 11:46:36.877   08 Jun 2027 11:46:38.675             1.798           899.000
       239   08 Jun 2027 11:47:39.903   08 Jun 2027 11:47:44.725             4.822          2007.094
       240   08 Jun 2027 11:48:37.161   08 Jun 2027 11:48:47.080             9.919          1301.062
       241   08 Jun 2027 11:49:22.632   08 Jun 2027 11:49:26.209             3.577          1111.000
       242   09 Jun 2027 03:53:14.368   09 Jun 2027 03:53:47.608            33.240         16620.000
       243   09 Jun 2027 03:55:09.598   09 Jun 2027 03:55:21.912            12.314          6157.000
       244   09 Jun 2027 03:55:52.996   09 Jun 2027 03:55:57.299             4.303          2151.500
       245   09 Jun 2027 03:57:05.467   09 Jun 2027 03:57:05.467             0.000             0.000
       246   09 Jun 2027 03:57:37.550   09 Jun 2027 03:57:47.180             9.630          4815.000
       247   09 Jun 2027 05:28:07.635   09 Jun 2027 05:30:12.311           124.676         62338.000
       248   09 Jun 2027 05:30:17.553   09 Jun 2027 05:30:38.092            20.539         10269.500
       249   09 Jun 2027 05:33:45.021   09 Jun 2027 05:33:52.130             7.109          3554.500
       250   09 Jun 2027 05:34:23.503   09 Jun 2027 05:34:30.020             6.517          3258.500
       251   09 Jun 2027 05:35:01.608   09 Jun 2027 05:35:08.328             6.720          3360.000
       252   09 Jun 2027 07:05:41.756   09 Jun 2027 07:07:44.348           122.592         61296.000
       253   09 Jun 2027 07:08:18.998   09 Jun 2027 07:08:22.695             3.697          1848.500
       254   09 Jun 2027 07:10:25.736   09 Jun 2027 07:10:30.224             4.488          2244.000
       255   09 Jun 2027 07:11:00.379   09 Jun 2027 07:11:03.180             2.801          1400.500
       256   09 Jun 2027 07:11:49.702   09 Jun 2027 07:11:51.470             1.768           884.000
       257   09 Jun 2027 08:42:24.513   09 Jun 2027 08:42:31.756             7.243          3621.500
       258   09 Jun 2027 08:42:36.202   09 Jun 2027 08:43:01.290            25.088         11026.655
       259   09 Jun 2027 08:43:41.582   09 Jun 2027 08:43:43.942             2.360           721.406
       260   09 Jun 2027 08:44:43.492   09 Jun 2027 08:44:45.047             1.555           652.875
       261   09 Jun 2027 08:45:44.514   09 Jun 2027 08:45:49.043             4.529          1635.469
       262   09 Jun 2027 08:46:13.247   09 Jun 2027 08:46:15.769             2.522           711.719
       263   09 Jun 2027 08:46:32.583   09 Jun 2027 08:46:32.944             0.361           180.500
       264   09 Jun 2027 08:46:38.864   09 Jun 2027 08:46:43.438             4.574           241.719
       265   09 Jun 2027 08:47:35.557   09 Jun 2027 08:47:36.910             1.353           656.531
       266   09 Jun 2027 08:48:04.116   09 Jun 2027 08:48:04.116             0.000             0.000
       267   09 Jun 2027 08:48:26.846   09 Jun 2027 08:48:29.751             2.905          1069.031
       268   09 Jun 2027 08:48:44.535   09 Jun 2027 08:48:44.944             0.409           204.500
       269   09 Jun 2027 08:48:58.652   09 Jun 2027 08:49:01.721             3.069           449.594
       270   09 Jun 2027 10:20:27.529   09 Jun 2027 10:20:45.074            17.545          7750.531
       271   09 Jun 2027 10:20:47.672   09 Jun 2027 10:20:48.559             0.887            24.156
       272   09 Jun 2027 10:21:37.198   09 Jun 2027 10:21:40.669             3.471          1302.969
       273   09 Jun 2027 10:21:58.053   09 Jun 2027 10:21:59.614             1.561           538.281
       274   09 Jun 2027 10:23:04.823   09 Jun 2027 10:23:07.060             2.237          1006.125
       275   09 Jun 2027 10:23:43.267   09 Jun 2027 10:23:47.593             4.326           932.563
       276   09 Jun 2027 10:24:30.460   09 Jun 2027 10:24:34.577             4.117          1236.656
       277   09 Jun 2027 11:54:05.567   09 Jun 2027 11:54:08.860             3.293          1602.000
       278   09 Jun 2027 11:54:43.509   09 Jun 2027 11:54:44.762             1.253           448.438
       279   09 Jun 2027 11:54:53.387   09 Jun 2027 11:54:58.144             4.757           129.594
       280   09 Jun 2027 11:55:39.102   09 Jun 2027 11:55:43.460             4.358           469.187
       281   09 Jun 2027 11:55:45.814   09 Jun 2027 11:55:47.330             1.516            58.781
       282   09 Jun 2027 11:56:50.999   09 Jun 2027 11:56:54.905             3.906          1820.344
       283   09 Jun 2027 11:57:22.413   09 Jun 2027 11:57:24.831             2.418           859.625
       284   09 Jun 2027 11:58:38.977   09 Jun 2027 11:58:44.445             5.468          2263.656
       285   09 Jun 2027 11:58:58.101   09 Jun 2027 11:59:00.026             1.925           426.750
       286   09 Jun 2027 11:59:57.877   09 Jun 2027 12:00:00.000             2.123          1061.500
       287   10 Jun 2027 04:04:43.132   10 Jun 2027 04:05:37.628            54.496         27248.000
       288   10 Jun 2027 04:06:53.521   10 Jun 2027 04:07:11.215            17.694          8847.000
       289   10 Jun 2027 04:10:01.159   10 Jun 2027 04:10:02.537             1.378           689.000
       290   10 Jun 2027 05:39:38.277   10 Jun 2027 05:42:06.651           148.374         74187.000
       291   10 Jun 2027 05:47:07.450   10 Jun 2027 05:47:14.907             7.457          3728.500
       292   10 Jun 2027 05:48:12.832   10 Jun 2027 05:48:23.124            10.292          5146.000
       293   10 Jun 2027 07:17:35.752   10 Jun 2027 07:19:23.132           107.380         53690.000
       294   10 Jun 2027 07:20:02.368   10 Jun 2027 07:20:19.572            17.204          8602.000
       295   10 Jun 2027 07:22:38.884   10 Jun 2027 07:22:48.416             9.532          4666.499
       296   10 Jun 2027 07:23:21.013   10 Jun 2027 07:23:23.078             2.065          1018.656
       297   10 Jun 2027 07:24:15.133   10 Jun 2027 07:24:19.163             4.030          1620.687
       298   10 Jun 2027 08:54:30.574   10 Jun 2027 08:54:56.724            26.150         13056.563
       299   10 Jun 2027 08:56:38.494   10 Jun 2027 08:56:39.669             1.175           439.250
       300   10 Jun 2027 08:56:52.490   10 Jun 2027 08:56:53.034             0.544            66.750
       301   10 Jun 2027 08:58:24.605   10 Jun 2027 08:58:32.776             8.171          2421.563
       302   10 Jun 2027 08:58:35.741   10 Jun 2027 08:58:39.027             3.286            80.719
       303   10 Jun 2027 08:58:56.164   10 Jun 2027 08:58:58.051             1.887           535.531
       304   10 Jun 2027 09:00:28.204   10 Jun 2027 09:00:37.065             8.861          2817.281
       305   10 Jun 2027 09:00:41.100   10 Jun 2027 09:00:47.649             6.549           126.094
       306   10 Jun 2027 10:32:13.674   10 Jun 2027 10:32:29.832            16.158          8061.344
       307   10 Jun 2027 10:33:07.910   10 Jun 2027 10:33:12.469             4.559          1189.938
       308   10 Jun 2027 10:34:12.023   10 Jun 2027 10:34:23.522            11.499          1858.625
       309   10 Jun 2027 10:34:34.745   10 Jun 2027 10:34:35.705             0.960           261.125
       310   10 Jun 2027 10:35:05.640   10 Jun 2027 10:35:08.918             3.278           817.125
       311   10 Jun 2027 10:35:17.091   10 Jun 2027 10:35:20.826             3.735           255.406
       312   10 Jun 2027 10:35:40.425   10 Jun 2027 10:35:42.788             2.363           372.719
       313   10 Jun 2027 10:35:50.676   10 Jun 2027 10:35:51.783             1.107           246.500
       314   10 Jun 2027 10:36:07.660   10 Jun 2027 10:36:09.549             1.889           138.750
       315   10 Jun 2027 10:36:33.411   10 Jun 2027 10:36:34.290             0.879           328.313
       316   11 Jun 2027 04:18:47.393   11 Jun 2027 04:19:30.491            43.098         21549.000
       317   11 Jun 2027 04:20:01.399   11 Jun 2027 04:20:06.278             4.879          2439.500
       318   11 Jun 2027 04:21:10.365   11 Jun 2027 04:21:18.927             8.562          4281.000
       319   11 Jun 2027 04:21:38.529   11 Jun 2027 04:22:00.261            21.732         10866.000
       320   11 Jun 2027 05:52:31.667   11 Jun 2027 05:54:46.294           134.627         67313.500
       321   11 Jun 2027 05:56:31.586   11 Jun 2027 05:56:43.131            11.545          5772.500
       322   11 Jun 2027 05:59:50.469   11 Jun 2027 05:59:57.663             7.194          3597.000
       323   11 Jun 2027 07:29:56.871   11 Jun 2027 07:31:41.186           104.315         52157.500
       324   11 Jun 2027 07:32:58.457   11 Jun 2027 07:33:19.508            21.051         10525.500
       325   11 Jun 2027 07:33:49.542   11 Jun 2027 07:33:54.045             4.503          1536.656
       326   11 Jun 2027 09:07:00.448   11 Jun 2027 09:07:28.166            27.718         13226.094
       327   11 Jun 2027 09:08:26.330   11 Jun 2027 09:08:28.218             1.888           717.781
       328   11 Jun 2027 09:09:15.499   11 Jun 2027 09:09:21.130             5.631          1383.094
       329   11 Jun 2027 09:10:51.181   11 Jun 2027 09:10:58.204             7.023          2457.031
       330   11 Jun 2027 09:11:10.586   11 Jun 2027 09:11:13.207             2.621           372.156
       331   11 Jun 2027 09:11:18.066   11 Jun 2027 09:11:22.294             4.228           144.563
       332   11 Jun 2027 09:12:30.421   11 Jun 2027 09:12:34.708             4.287          2048.188
       333   11 Jun 2027 09:12:38.941   11 Jun 2027 09:12:39.333             0.392            43.344
       334   11 Jun 2027 10:43:45.528   11 Jun 2027 10:44:06.370            20.842          9349.688
       335   11 Jun 2027 10:44:20.213   11 Jun 2027 10:44:25.079             4.866           381.062
       336   11 Jun 2027 10:44:34.955   11 Jun 2027 10:44:37.017             2.062           260.844
       337   11 Jun 2027 10:45:52.859   11 Jun 2027 10:45:57.647             4.788          2295.250
       338   11 Jun 2027 10:46:11.877   11 Jun 2027 10:46:16.271             4.394           425.188
       339   11 Jun 2027 10:46:53.683   11 Jun 2027 10:46:57.112             3.429          1169.125
       340   11 Jun 2027 10:48:08.265   11 Jun 2027 10:48:18.025             9.760          2223.531
       341   12 Jun 2027 04:31:01.900   12 Jun 2027 04:32:27.930            86.030         43015.000
       342   12 Jun 2027 04:34:32.169   12 Jun 2027 04:34:36.806             4.637          2318.500
       343   12 Jun 2027 06:05:05.991   12 Jun 2027 06:06:52.012           106.021         53010.500
       344   12 Jun 2027 06:07:18.926   12 Jun 2027 06:07:21.682             2.756          1378.000
       345   12 Jun 2027 06:07:34.901   12 Jun 2027 06:07:37.575             2.674          1337.000
       346   12 Jun 2027 06:08:30.024   12 Jun 2027 06:08:35.450             5.426          2713.000
       347   12 Jun 2027 06:09:27.710   12 Jun 2027 06:09:30.310             2.600          1300.000
       348   12 Jun 2027 06:11:29.699   12 Jun 2027 06:11:49.863            20.164         10082.000
       349   12 Jun 2027 06:12:32.942   12 Jun 2027 06:12:42.103             9.161          4580.500
       350   12 Jun 2027 07:42:10.070   12 Jun 2027 07:43:34.116            84.046         42023.000
       351   12 Jun 2027 07:44:41.269   12 Jun 2027 07:45:01.115            19.846          9618.531
       352   12 Jun 2027 07:46:16.215   12 Jun 2027 07:46:20.553             4.338          2169.000
       353   12 Jun 2027 07:46:48.221   12 Jun 2027 07:46:51.602             3.381           902.094
       354   12 Jun 2027 07:47:13.932   12 Jun 2027 07:47:15.632             1.700           563.094
       355   12 Jun 2027 07:48:44.443   12 Jun 2027 07:48:52.784             8.341          2684.813
       356   12 Jun 2027 09:19:06.174   12 Jun 2027 09:19:31.318            25.144         12513.094
       357   12 Jun 2027 09:19:57.604   12 Jun 2027 09:20:02.376             4.772           821.438
       358   12 Jun 2027 09:20:28.256   12 Jun 2027 09:20:31.893             3.637           768.719
       359   12 Jun 2027 09:20:50.882   12 Jun 2027 09:20:55.670             4.788           362.563
       360   12 Jun 2027 09:21:33.596   12 Jun 2027 09:21:35.986             2.390          1132.594
       361   12 Jun 2027 09:21:55.459   12 Jun 2027 09:21:57.442             1.983           608.531
       362   12 Jun 2027 09:22:16.314   12 Jun 2027 09:22:18.584             2.270           577.906
       363   12 Jun 2027 09:22:48.100   12 Jun 2027 09:22:53.494             5.394           834.531
       364   12 Jun 2027 10:55:52.515   12 Jun 2027 10:56:08.287            15.772          7395.969
       365   12 Jun 2027 10:56:21.829   12 Jun 2027 10:56:23.577             1.748           423.187
       366   12 Jun 2027 10:56:59.208   12 Jun 2027 10:57:00.727             1.519           626.313
       367   12 Jun 2027 10:57:57.882   12 Jun 2027 10:58:01.384             3.502          1701.688
       368   12 Jun 2027 10:58:56.957   12 Jun 2027 10:59:00.116             3.159          1543.281
       369   12 Jun 2027 10:59:33.639   12 Jun 2027 10:59:38.016             4.377          1047.594
       370   12 Jun 2027 11:00:16.752   12 Jun 2027 11:00:23.020             6.268           956.906
       371   13 Jun 2027 03:06:43.300   13 Jun 2027 03:07:02.174            18.874          9437.000
       372   13 Jun 2027 03:07:13.021   13 Jun 2027 03:07:13.021             0.000             0.000
       373   13 Jun 2027 03:07:29.681   13 Jun 2027 03:07:37.736             8.055          4027.500
       374   13 Jun 2027 04:43:12.225   13 Jun 2027 04:44:38.819            86.594         43297.000
       375   13 Jun 2027 06:18:17.674   13 Jun 2027 06:20:17.556           119.882         59941.000
       376   13 Jun 2027 06:21:06.933   13 Jun 2027 06:21:11.356             4.423          2211.500
       377   13 Jun 2027 06:21:15.062   13 Jun 2027 06:21:15.848             0.786           393.000
       378   13 Jun 2027 06:23:47.319   13 Jun 2027 06:24:06.534            19.215          9607.500
       379   13 Jun 2027 06:24:34.635   13 Jun 2027 06:24:37.467             2.832          1416.000
       380   13 Jun 2027 06:24:55.125   13 Jun 2027 06:24:59.612             4.487          2243.500
       381   13 Jun 2027 07:54:39.819   13 Jun 2027 07:56:12.026            92.207         43692.312
       382   13 Jun 2027 07:56:44.313   13 Jun 2027 07:56:50.658             6.345           703.813
       383   13 Jun 2027 07:57:42.699   13 Jun 2027 07:57:47.126             4.427          1189.062
       384   13 Jun 2027 07:58:04.814   13 Jun 2027 07:58:05.605             0.791           312.875
       385   13 Jun 2027 07:58:45.378   13 Jun 2027 07:58:50.148             4.770          1242.906
       386   13 Jun 2027 08:00:28.646   13 Jun 2027 08:00:35.059             6.413          3077.781
       387   13 Jun 2027 08:00:51.287   13 Jun 2027 08:00:52.738             1.451           330.844
       388   13 Jun 2027 09:32:08.472   13 Jun 2027 09:32:30.177            21.705         10552.094
       389   13 Jun 2027 09:32:54.881   13 Jun 2027 09:32:57.891             3.010           772.000
       390   13 Jun 2027 09:33:52.224   13 Jun 2027 09:33:55.670             3.446          1391.375
       391   13 Jun 2027 09:34:33.806   13 Jun 2027 09:34:37.674             3.868          1076.500
       392   13 Jun 2027 09:34:41.156   13 Jun 2027 09:34:42.929             1.773           108.812
       393   13 Jun 2027 09:35:20.713   13 Jun 2027 09:35:27.481             6.768          1180.750
       394   13 Jun 2027 09:35:34.004   13 Jun 2027 09:35:34.927             0.923            56.187
       395   13 Jun 2027 11:08:14.406   13 Jun 2027 11:08:30.567            16.161          7420.188
       396   13 Jun 2027 11:09:00.284   13 Jun 2027 11:09:00.910             0.626           313.000
       397   13 Jun 2027 11:09:19.549   13 Jun 2027 11:09:21.388             1.839           686.313
       398   13 Jun 2027 11:09:51.741   13 Jun 2027 11:09:55.546             3.805           191.094
       399   13 Jun 2027 11:10:14.990   13 Jun 2027 11:10:17.366             2.376           467.375
       400   13 Jun 2027 11:10:57.086   13 Jun 2027 11:10:59.852             2.766           975.344
       401   13 Jun 2027 11:11:45.432   13 Jun 2027 11:11:48.912             3.480          1168.156
       402   13 Jun 2027 11:12:11.989   13 Jun 2027 11:12:13.600             1.611           721.156
