uniorb/output/strategy_1/Camera/Camera_KinoSat_110205.txt

KinoSat_110205
-------------------------
    Access    *     Start Time (UTCG)     *     Stop Time (UTCG)  *   Duration (s) *   Data (Mbytes)
         1   01 Jun 2027 04:01:36.465   01 Jun 2027 04:03:56.980           140.515         70257.500
         2   01 Jun 2027 04:04:17.094   01 Jun 2027 04:04:22.881             5.787          2893.500
         3   01 Jun 2027 04:04:57.183   01 Jun 2027 04:04:58.733             1.550           775.000
         4   01 Jun 2027 04:05:18.842   01 Jun 2027 04:05:33.103            14.261          7130.500
         5   01 Jun 2027 04:06:57.442   01 Jun 2027 04:07:16.458            19.016          9508.000
         6   01 Jun 2027 04:07:49.102   01 Jun 2027 04:08:04.106            15.004          7502.000
         7   01 Jun 2027 05:38:33.527   01 Jun 2027 05:41:42.375           188.848         94424.000
         8   01 Jun 2027 05:43:52.014   01 Jun 2027 05:44:05.003            12.989          6494.500
         9   01 Jun 2027 07:15:23.935   01 Jun 2027 07:18:07.894           163.959         81979.500
        10   01 Jun 2027 07:18:42.370   01 Jun 2027 07:18:54.173            11.803          5901.500
        11   01 Jun 2027 07:19:48.350   01 Jun 2027 07:19:52.136             3.786          1893.000
        12   01 Jun 2027 08:53:03.932   01 Jun 2027 08:54:40.589            96.657         48328.500
        13   02 Jun 2027 04:13:43.893   02 Jun 2027 04:19:04.089           320.196        160098.000
        14   02 Jun 2027 04:19:32.379   02 Jun 2027 04:19:59.063            26.684         13342.000
        15   02 Jun 2027 05:51:27.585   02 Jun 2027 05:55:13.507           225.922        112961.000
        16   02 Jun 2027 07:27:33.849   02 Jun 2027 07:30:21.921           168.072         84036.000
        17   02 Jun 2027 07:30:38.813   02 Jun 2027 07:30:47.414             8.601          4300.500
        18   02 Jun 2027 07:31:38.406   02 Jun 2027 07:31:54.558            16.152          8076.000
        19   03 Jun 2027 04:26:18.325   03 Jun 2027 04:32:26.403           368.078        184039.000
        20   03 Jun 2027 06:03:33.891   03 Jun 2027 06:07:55.314           261.423        130711.500
        21   03 Jun 2027 07:39:48.172   03 Jun 2027 07:42:32.082           163.910         81955.000
        22   03 Jun 2027 07:43:32.869   03 Jun 2027 07:43:48.902            16.033          8016.500
        23   03 Jun 2027 07:43:53.957   03 Jun 2027 07:44:14.800            20.843         10421.500
        24   04 Jun 2027 03:01:32.423   04 Jun 2027 03:06:24.321           291.898        145949.000
        25   04 Jun 2027 03:06:37.775   04 Jun 2027 03:06:58.849            21.074         10537.000
        26   04 Jun 2027 03:07:42.156   04 Jun 2027 03:07:42.156             0.000             0.000
        27   04 Jun 2027 03:08:09.372   04 Jun 2027 03:08:38.773            29.401         14700.500
        28   04 Jun 2027 04:37:51.664   04 Jun 2027 04:40:37.536           165.872         82936.000
        29   04 Jun 2027 04:40:54.070   04 Jun 2027 04:41:00.601             6.531          3265.500
        30   04 Jun 2027 04:41:09.222   04 Jun 2027 04:41:11.726             2.504          1252.000
        31   04 Jun 2027 04:41:35.976   04 Jun 2027 04:42:02.913            26.937         13468.500
        32   04 Jun 2027 04:42:56.946   04 Jun 2027 04:43:07.991            11.045          5522.500
        33   04 Jun 2027 04:43:52.724   04 Jun 2027 04:44:09.487            16.763          8381.500
        34   04 Jun 2027 06:16:06.777   04 Jun 2027 06:18:31.702           144.925         72462.500
        35   04 Jun 2027 06:18:48.322   04 Jun 2027 06:18:48.322             0.000             0.000
        36   04 Jun 2027 06:19:34.206   04 Jun 2027 06:19:43.742             9.536          4768.000
        37   04 Jun 2027 07:51:27.129   04 Jun 2027 07:53:37.328           130.199         65099.500
        38   04 Jun 2027 07:54:55.225   04 Jun 2027 07:55:10.787            15.562          7781.000
        39   04 Jun 2027 07:55:59.433   04 Jun 2027 07:56:01.749             2.316          1158.000
        40   04 Jun 2027 07:56:12.332   04 Jun 2027 07:56:29.453            17.121          8560.500
        41   05 Jun 2027 03:13:05.812   05 Jun 2027 03:17:25.786           259.974        129987.000
        42   05 Jun 2027 03:18:24.200   05 Jun 2027 03:18:30.543             6.343          3171.500
        43   05 Jun 2027 03:18:37.985   05 Jun 2027 03:19:10.631            32.646         16323.000
        44   05 Jun 2027 03:19:57.230   05 Jun 2027 03:20:12.241            15.011          7505.500
        45   05 Jun 2027 03:20:32.764   05 Jun 2027 03:20:40.531             7.767          3883.500
        46   05 Jun 2027 04:50:11.114   05 Jun 2027 04:52:17.789           126.675         63337.500
        47   05 Jun 2027 04:56:05.917   05 Jun 2027 04:56:33.396            27.479         13739.500
        48   05 Jun 2027 06:28:09.892   05 Jun 2027 06:30:52.195           162.303         81151.500
        49   05 Jun 2027 06:31:43.536   05 Jun 2027 06:31:52.596             9.060          4530.000
        50   05 Jun 2027 08:01:18.501   05 Jun 2027 08:02:46.082            87.581         43790.500
        51   05 Jun 2027 08:03:26.277   05 Jun 2027 08:03:35.354             9.077          4538.500
        52   05 Jun 2027 08:04:31.719   05 Jun 2027 08:04:46.453            14.734          7367.000
        53   05 Jun 2027 08:05:29.316   05 Jun 2027 08:05:37.849             8.533          4266.500
        54   05 Jun 2027 08:05:55.222   05 Jun 2027 08:05:55.222             0.000             0.000
        55   05 Jun 2027 08:06:14.759   05 Jun 2027 08:06:34.156            19.397          9698.500
        56   05 Jun 2027 08:07:45.988   05 Jun 2027 08:07:51.391             5.403          2701.500
        57   05 Jun 2027 08:08:30.909   05 Jun 2027 08:08:35.655             4.746          2373.000
        58   06 Jun 2027 03:25:24.317   06 Jun 2027 03:30:05.342           281.025        140512.500
        59   06 Jun 2027 03:31:40.569   06 Jun 2027 03:32:36.002            55.433         27716.500
        60   06 Jun 2027 03:32:43.247   06 Jun 2027 03:32:43.683             0.436           218.000
        61   06 Jun 2027 05:02:12.488   06 Jun 2027 05:04:30.476           137.988         68994.000
        62   06 Jun 2027 05:06:01.264   06 Jun 2027 05:06:54.398            53.134         26567.000
        63   06 Jun 2027 05:08:22.180   06 Jun 2027 05:08:38.334            16.154          8077.000
        64   06 Jun 2027 06:40:09.621   06 Jun 2027 06:42:43.689           154.068         77034.000
        65   06 Jun 2027 06:42:59.064   06 Jun 2027 06:43:03.645             4.581          2290.500
        66   06 Jun 2027 06:43:59.004   06 Jun 2027 06:44:08.443             9.439          4719.500
        67   06 Jun 2027 08:13:45.704   06 Jun 2027 08:14:18.420            32.716         16358.000
        68   06 Jun 2027 08:15:15.090   06 Jun 2027 08:15:35.313            20.223         10111.500
        69   06 Jun 2027 08:16:43.055   06 Jun 2027 08:16:43.055             0.000             0.000
        70   06 Jun 2027 08:17:22.701   06 Jun 2027 08:17:35.396            12.695          6347.500
        71   06 Jun 2027 08:17:39.928   06 Jun 2027 08:17:39.928             0.000             0.000
        72   06 Jun 2027 08:17:55.060   06 Jun 2027 08:18:01.800             6.740          3370.000
        73   06 Jun 2027 08:18:43.728   06 Jun 2027 08:18:49.031             5.303          2651.500
        74   06 Jun 2027 08:18:53.761   06 Jun 2027 08:18:57.925             4.164          2082.000
        75   06 Jun 2027 08:19:00.383   06 Jun 2027 08:19:01.950             1.567           783.500
        76   06 Jun 2027 08:19:25.723   06 Jun 2027 08:19:27.517             1.794           897.000
        77   06 Jun 2027 08:19:58.324   06 Jun 2027 08:20:09.908            11.584          5792.000
        78   06 Jun 2027 08:20:48.354   06 Jun 2027 08:20:57.777             9.423          4711.500
        79   07 Jun 2027 03:37:18.840   07 Jun 2027 03:42:32.604           313.764        156882.000
        80   07 Jun 2027 03:42:45.857   07 Jun 2027 03:43:12.083            26.226         13113.000
        81   07 Jun 2027 03:43:16.517   07 Jun 2027 03:43:54.996            38.479         19239.500
        82   07 Jun 2027 03:44:31.844   07 Jun 2027 03:44:44.435            12.591          6295.500
        83   07 Jun 2027 05:14:03.240   07 Jun 2027 05:16:59.575           176.335         88167.500
        84   07 Jun 2027 05:17:29.381   07 Jun 2027 05:17:37.597             8.216          4108.000
        85   07 Jun 2027 05:20:23.484   07 Jun 2027 05:20:48.900            25.416         12708.000
        86   07 Jun 2027 06:52:11.681   07 Jun 2027 06:54:59.342           167.661         83830.500
        87   07 Jun 2027 08:26:02.199   07 Jun 2027 08:26:20.980            18.781          9390.500
        88   07 Jun 2027 08:26:42.067   07 Jun 2027 08:26:50.687             8.620          4310.000
        89   07 Jun 2027 08:27:06.572   07 Jun 2027 08:27:09.359             2.787          1393.500
        90   07 Jun 2027 08:27:30.536   07 Jun 2027 08:27:43.363            12.827          6413.500
        91   07 Jun 2027 08:28:28.987   07 Jun 2027 08:28:34.690             5.703          2851.500
        92   07 Jun 2027 08:29:19.972   07 Jun 2027 08:29:31.637            11.665          5832.500
        93   07 Jun 2027 08:29:41.425   07 Jun 2027 08:29:55.214            13.789          6894.500
        94   07 Jun 2027 08:30:47.707   07 Jun 2027 08:30:55.843             8.136          4068.000
        95   07 Jun 2027 08:31:26.566   07 Jun 2027 08:31:32.745             6.179          3089.500
        96   07 Jun 2027 08:32:16.950   07 Jun 2027 08:32:19.475             2.525          1262.500
        97   08 Jun 2027 03:49:25.280   08 Jun 2027 03:56:11.577           406.297        203148.500
        98   08 Jun 2027 03:56:35.701   08 Jun 2027 03:56:44.731             9.030          4515.000
        99   08 Jun 2027 05:26:28.226   08 Jun 2027 05:29:35.726           187.500         93750.000
       100   08 Jun 2027 05:31:24.498   08 Jun 2027 05:31:42.939            18.441          9220.500
       101   08 Jun 2027 05:32:18.225   08 Jun 2027 05:32:35.045            16.820          8410.000
       102   08 Jun 2027 07:03:26.100   08 Jun 2027 07:06:02.146           156.046         78023.000
       103   08 Jun 2027 07:06:05.664   08 Jun 2027 07:06:15.209             9.545          4772.500
       104   08 Jun 2027 07:06:47.541   08 Jun 2027 07:07:06.309            18.768          9384.000
       105   08 Jun 2027 08:38:29.044   08 Jun 2027 08:38:54.667            25.623         12811.500
       106   08 Jun 2027 08:40:16.049   08 Jun 2027 08:40:21.382             5.333          2666.500
       107   08 Jun 2027 08:40:33.235   08 Jun 2027 08:40:46.091            12.856          6428.000
       108   08 Jun 2027 08:41:34.815   08 Jun 2027 08:41:43.014             8.199          4099.500
       109   08 Jun 2027 08:41:55.647   08 Jun 2027 08:41:55.647             0.000             0.000
       110   08 Jun 2027 08:42:15.654   08 Jun 2027 08:42:28.158            12.504          6252.000
       111   09 Jun 2027 04:01:51.515   09 Jun 2027 04:08:32.875           401.360        200680.000
       112   09 Jun 2027 05:38:48.357   09 Jun 2027 05:41:42.925           174.568         87284.000
       113   09 Jun 2027 05:41:55.759   09 Jun 2027 05:41:58.861             3.102          1551.000
       114   09 Jun 2027 05:43:41.556   09 Jun 2027 05:44:19.564            38.008         19004.000
       115   09 Jun 2027 07:15:38.849   09 Jun 2027 07:18:14.372           155.523         77761.500
       116   09 Jun 2027 07:19:18.445   09 Jun 2027 07:19:33.444            14.999          7499.500
       117   09 Jun 2027 07:19:55.808   09 Jun 2027 07:20:05.992            10.184          5092.000
       118   09 Jun 2027 08:53:19.397   09 Jun 2027 08:53:33.284            13.887          6943.500
       119   09 Jun 2027 08:54:05.217   09 Jun 2027 08:54:15.556            10.339          5169.500
       120   09 Jun 2027 08:54:22.137   09 Jun 2027 08:54:43.387            21.250         10625.000
       121   10 Jun 2027 04:13:58.937   10 Jun 2027 04:20:21.510           382.573        191286.500
       122   10 Jun 2027 05:51:43.090   10 Jun 2027 05:55:06.452           203.362        101681.000
       123   10 Jun 2027 05:55:10.646   10 Jun 2027 05:55:27.716            17.070          8535.000
       124   10 Jun 2027 07:27:48.921   10 Jun 2027 07:30:08.622           139.701         69850.500
       125   10 Jun 2027 07:30:36.695   10 Jun 2027 07:30:51.976            15.281          7640.500
       126   10 Jun 2027 07:31:27.209   10 Jun 2027 07:31:27.555             0.346           173.000
       127   10 Jun 2027 07:31:48.098   10 Jun 2027 07:31:53.913             5.815          2907.500
       128   11 Jun 2027 04:26:32.536   11 Jun 2027 04:32:41.208           368.672        184336.000
       129   11 Jun 2027 06:03:48.965   11 Jun 2027 06:07:37.915           228.950        114475.000
       130   11 Jun 2027 06:08:10.427   11 Jun 2027 06:08:25.451            15.024          7512.000
       131   11 Jun 2027 07:40:02.659   11 Jun 2027 07:42:30.237           147.578         73789.000
       132   11 Jun 2027 07:43:41.441   11 Jun 2027 07:43:47.038             5.597          2798.500
       133   11 Jun 2027 07:44:03.962   11 Jun 2027 07:44:21.148            17.186          8593.000
       134   12 Jun 2027 03:01:47.120   12 Jun 2027 03:06:00.364           253.244        126622.000
       135   12 Jun 2027 03:06:29.584   12 Jun 2027 03:06:40.537            10.953          5476.500
       136   12 Jun 2027 03:06:52.850   12 Jun 2027 03:07:07.874            15.024          7512.000
       137   12 Jun 2027 03:07:14.343   12 Jun 2027 03:07:15.624             1.281           640.500
       138   12 Jun 2027 03:07:56.771   12 Jun 2027 03:08:15.688            18.917          9458.500
       139   12 Jun 2027 03:08:23.277   12 Jun 2027 03:08:37.130            13.853          6926.500
       140   12 Jun 2027 03:08:49.615   12 Jun 2027 03:08:53.717             4.102          2051.000
       141   12 Jun 2027 04:38:06.368   12 Jun 2027 04:41:06.196           179.828         89914.000
       142   12 Jun 2027 04:41:31.283   12 Jun 2027 04:41:43.028            11.745          5872.500
       143   12 Jun 2027 04:42:52.390   12 Jun 2027 04:43:15.240            22.850         11425.000
       144   12 Jun 2027 04:43:36.309   12 Jun 2027 04:43:59.921            23.612         11806.000
       145   12 Jun 2027 04:44:27.091   12 Jun 2027 04:44:31.171             4.080          2040.000
       146   12 Jun 2027 06:16:21.721   12 Jun 2027 06:18:57.336           155.615         77807.500
       147   12 Jun 2027 06:19:17.873   12 Jun 2027 06:19:40.475            22.602         11301.000
       148   12 Jun 2027 06:19:56.687   12 Jun 2027 06:20:01.012             4.325          2162.500
       149   12 Jun 2027 07:51:42.286   12 Jun 2027 07:53:52.167           129.881         64940.500
       150   12 Jun 2027 07:55:09.828   12 Jun 2027 07:55:10.969             1.141           570.500
       151   12 Jun 2027 07:55:14.751   12 Jun 2027 07:55:25.869            11.118          5559.000
       152   12 Jun 2027 07:55:51.739   12 Jun 2027 07:55:51.739             0.000             0.000
       153   12 Jun 2027 07:56:14.298   12 Jun 2027 07:56:18.309             4.011          2005.500
       154   12 Jun 2027 07:56:50.099   12 Jun 2027 07:57:00.679            10.580          5290.000
       155   13 Jun 2027 03:13:20.434   13 Jun 2027 03:17:40.353           259.919        129959.500
       156   13 Jun 2027 03:18:40.330   13 Jun 2027 03:18:52.907            12.577          6288.500
       157   13 Jun 2027 03:20:11.830   13 Jun 2027 03:20:55.005            43.175         21587.500
       158   13 Jun 2027 04:50:26.126   13 Jun 2027 04:53:28.674           182.548         91274.000
       159   13 Jun 2027 04:53:44.190   13 Jun 2027 04:53:51.319             7.129          3564.500
       160   13 Jun 2027 04:55:01.658   13 Jun 2027 04:55:18.119            16.461          8230.500
       161   13 Jun 2027 04:56:05.006   13 Jun 2027 04:56:09.457             4.451          2225.500
       162   13 Jun 2027 04:56:18.563   13 Jun 2027 04:56:22.823             4.260          2130.000
       163   13 Jun 2027 04:56:29.163   13 Jun 2027 04:56:33.741             4.578          2289.000
       164   13 Jun 2027 06:28:24.438   13 Jun 2027 06:31:02.203           157.765         78882.500
       165   13 Jun 2027 06:31:43.418   13 Jun 2027 06:31:52.709             9.291          4645.500
       166   13 Jun 2027 08:01:33.226   13 Jun 2027 08:03:05.541            92.315         46157.500
       167   13 Jun 2027 08:03:18.798   13 Jun 2027 08:03:39.496            20.698         10349.000
       168   13 Jun 2027 08:05:06.242   13 Jun 2027 08:05:11.676             5.434          2717.000
       169   13 Jun 2027 08:05:49.670   13 Jun 2027 08:05:55.588             5.918          2959.000
       170   13 Jun 2027 08:06:09.857   13 Jun 2027 08:06:28.850            18.993          9496.500
       171   13 Jun 2027 08:07:27.771   13 Jun 2027 08:07:31.521             3.750          1875.000
       172   13 Jun 2027 08:08:45.645   13 Jun 2027 08:09:00.857            15.212          7606.000
