uniorb/output/strategy_1/Camera/Camera_KinoSat_111201.txt

KinoSat_111201
-------------------------
    Access    *     Start Time (UTCG)     *     Stop Time (UTCG)  *   Duration (s) *   Data (Mbytes)
         1   01 Jun 2027 03:58:34.346   01 Jun 2027 03:59:50.329            75.983         37991.500
         2   01 Jun 2027 04:10:03.584   01 Jun 2027 04:11:08.430            64.846         32423.000
         3   01 Jun 2027 04:11:13.908   01 Jun 2027 04:11:36.993            23.085         11542.500
         4   01 Jun 2027 05:32:42.883   01 Jun 2027 05:33:41.871            58.988         29494.000
         5   01 Jun 2027 05:34:18.598   01 Jun 2027 05:34:39.562            20.964         10482.000
         6   01 Jun 2027 05:34:44.484   01 Jun 2027 05:34:52.929             8.445          4222.500
         7   01 Jun 2027 07:08:02.981   01 Jun 2027 07:09:01.580            58.599         29299.500
         8   01 Jun 2027 07:09:34.813   01 Jun 2027 07:10:51.679            76.866         38433.000
         9   01 Jun 2027 07:13:04.978   01 Jun 2027 07:13:13.970             8.992          4496.000
        10   01 Jun 2027 07:14:02.138   01 Jun 2027 07:14:02.138             0.000             0.000
        11   01 Jun 2027 08:44:32.932   01 Jun 2027 08:46:19.194           106.262         53131.000
        12   01 Jun 2027 08:47:37.463   01 Jun 2027 08:47:41.067             3.604          1802.000
        13   01 Jun 2027 08:48:51.312   01 Jun 2027 08:49:04.753            13.441          6720.500
        14   01 Jun 2027 08:49:11.204   01 Jun 2027 08:49:18.662             7.458          3729.000
        15   01 Jun 2027 08:51:14.257   01 Jun 2027 08:51:16.599             2.342          1171.000
        16   01 Jun 2027 08:51:49.945   01 Jun 2027 08:51:59.762             9.817          4908.500
        17   01 Jun 2027 10:21:37.706   01 Jun 2027 10:23:38.609           120.903         60451.500
        18   01 Jun 2027 10:25:05.697   01 Jun 2027 10:25:12.480             6.783          3391.500
        19   01 Jun 2027 10:26:19.789   01 Jun 2027 10:26:32.931            13.142          6571.000
        20   01 Jun 2027 11:59:31.940   01 Jun 2027 12:00:00.000            28.060         14030.000
        21   02 Jun 2027 04:09:50.462   02 Jun 2027 04:10:37.843            47.381         23690.500
        22   02 Jun 2027 04:10:44.719   02 Jun 2027 04:10:52.441             7.722          3861.000
        23   02 Jun 2027 04:22:02.841   02 Jun 2027 04:22:52.522            49.681         24840.500
        24   02 Jun 2027 05:44:18.814   02 Jun 2027 05:45:25.435            66.621         33310.500
        25   02 Jun 2027 05:46:14.357   02 Jun 2027 05:46:41.271            26.914         13457.000
        26   02 Jun 2027 05:48:36.052   02 Jun 2027 05:48:42.889             6.837          3418.500
        27   02 Jun 2027 05:48:47.709   02 Jun 2027 05:48:53.480             5.771          2885.500
        28   02 Jun 2027 07:19:12.512   02 Jun 2027 07:20:55.499           102.987         51493.500
        29   02 Jun 2027 07:21:13.321   02 Jun 2027 07:21:15.456             2.135          1067.500
        30   02 Jun 2027 07:21:21.910   02 Jun 2027 07:21:51.286            29.376         14688.000
        31   02 Jun 2027 07:22:12.211   02 Jun 2027 07:22:23.565            11.354          5677.000
        32   02 Jun 2027 07:25:49.017   02 Jun 2027 07:25:49.017             0.000             0.000
        33   02 Jun 2027 07:26:01.677   02 Jun 2027 07:26:07.655             5.978          2989.000
        34   02 Jun 2027 07:27:24.230   02 Jun 2027 07:27:31.874             7.644          3822.000
        35   02 Jun 2027 08:56:46.260   02 Jun 2027 08:58:43.601           117.341         58670.500
        36   02 Jun 2027 09:03:14.064   02 Jun 2027 09:03:44.541            30.477         15238.500
        37   02 Jun 2027 10:33:28.784   02 Jun 2027 10:35:35.269           126.485         63242.500
        38   02 Jun 2027 10:37:28.517   02 Jun 2027 10:37:29.117             0.600           300.000
        39   02 Jun 2027 10:39:49.224   02 Jun 2027 10:39:56.804             7.580          3790.000
        40   03 Jun 2027 03:00:00.000   03 Jun 2027 03:00:13.972            13.972          6986.000
        41   03 Jun 2027 03:00:36.664   03 Jun 2027 03:00:46.375             9.711          4855.500
        42   03 Jun 2027 03:01:28.026   03 Jun 2027 03:01:28.726             0.700           350.000
        43   03 Jun 2027 03:02:27.294   03 Jun 2027 03:02:27.294             0.000             0.000
        44   03 Jun 2027 03:03:10.109   03 Jun 2027 03:03:34.949            24.840         12420.000
        45   03 Jun 2027 03:04:23.617   03 Jun 2027 03:04:23.617             0.000             0.000
        46   03 Jun 2027 04:21:56.197   03 Jun 2027 04:22:40.660            44.463         22231.500
        47   03 Jun 2027 04:34:16.620   03 Jun 2027 04:34:37.083            20.463         10231.500
        48   03 Jun 2027 05:55:48.028   03 Jun 2027 05:57:11.236            83.208         41604.000
        49   03 Jun 2027 05:58:35.468   03 Jun 2027 05:58:49.977            14.509          7254.500
        50   03 Jun 2027 06:00:31.421   03 Jun 2027 06:00:38.548             7.127          3563.500
        51   03 Jun 2027 07:30:43.217   03 Jun 2027 07:32:43.369           120.152         60076.000
        52   03 Jun 2027 07:33:04.633   03 Jun 2027 07:33:26.011            21.378         10689.000
        53   03 Jun 2027 07:35:11.589   03 Jun 2027 07:35:11.589             0.000             0.000
        54   03 Jun 2027 07:35:45.117   03 Jun 2027 07:36:15.267            30.150         15075.000
        55   03 Jun 2027 07:39:20.900   03 Jun 2027 07:39:21.813             0.913           456.500
        56   03 Jun 2027 07:39:34.414   03 Jun 2027 07:39:35.581             1.167           583.500
        57   03 Jun 2027 07:40:02.106   03 Jun 2027 07:40:06.241             4.135          2067.500
        58   03 Jun 2027 09:08:40.267   03 Jun 2027 09:10:25.146           104.879         52439.500
        59   03 Jun 2027 09:11:09.485   03 Jun 2027 09:11:29.412            19.927          9963.500
        60   03 Jun 2027 09:13:09.153   03 Jun 2027 09:13:27.337            18.184          9092.000
        61   03 Jun 2027 10:45:34.633   03 Jun 2027 10:45:43.524             8.891          4445.500
        62   03 Jun 2027 10:45:50.866   03 Jun 2027 10:46:49.928            59.062         27410.250
        63   03 Jun 2027 10:47:25.489   03 Jun 2027 10:47:29.011             3.522           847.469
        64   03 Jun 2027 10:47:53.359   03 Jun 2027 10:47:57.685             4.326           760.875
        65   03 Jun 2027 10:48:25.883   03 Jun 2027 10:48:30.515             4.632           474.219
        66   03 Jun 2027 10:49:41.046   03 Jun 2027 10:49:42.737             1.691           845.500
        67   03 Jun 2027 10:50:24.317   03 Jun 2027 10:50:26.317             2.000          1000.000
        68   03 Jun 2027 10:50:49.889   03 Jun 2027 10:50:52.281             2.392          1196.000
        69   03 Jun 2027 10:51:32.946   03 Jun 2027 10:51:37.156             4.210          2105.000
        70   03 Jun 2027 10:52:00.553   03 Jun 2027 10:52:03.380             2.827          1095.532
        71   04 Jun 2027 03:10:03.219   04 Jun 2027 03:11:11.107            67.888         33944.000
        72   04 Jun 2027 03:11:38.780   04 Jun 2027 03:11:38.780             0.000             0.000
        73   04 Jun 2027 03:11:57.886   04 Jun 2027 03:12:02.914             5.028          2514.000
        74   04 Jun 2027 03:13:02.439   04 Jun 2027 03:13:18.665            16.226          8113.000
        75   04 Jun 2027 04:33:52.049   04 Jun 2027 04:34:18.575            26.526         13263.000
        76   04 Jun 2027 06:09:51.842   04 Jun 2027 06:11:21.393            89.551         44775.500
        77   04 Jun 2027 06:11:57.329   04 Jun 2027 06:12:17.166            19.837          9918.500
        78   04 Jun 2027 07:43:36.706   04 Jun 2027 07:45:47.920           131.214         61673.281
        79   04 Jun 2027 07:46:33.299   04 Jun 2027 07:46:37.420             4.121          1342.500
        80   04 Jun 2027 07:47:04.079   04 Jun 2027 07:47:05.792             1.713           743.938
        81   04 Jun 2027 07:47:26.168   04 Jun 2027 07:47:29.038             2.870           610.594
        82   04 Jun 2027 07:47:37.964   04 Jun 2027 07:47:43.765             5.801           278.937
        83   04 Jun 2027 07:50:46.653   04 Jun 2027 07:50:48.365             1.712           856.000
        84   04 Jun 2027 07:51:17.332   04 Jun 2027 07:51:26.401             9.069          4534.500
        85   04 Jun 2027 07:52:10.161   04 Jun 2027 07:52:10.994             0.833           416.500
        86   04 Jun 2027 09:21:01.251   04 Jun 2027 09:21:27.870            26.619         10815.906
        87   04 Jun 2027 09:22:17.283   04 Jun 2027 09:22:22.560             5.277           416.281
        88   04 Jun 2027 09:23:08.618   04 Jun 2027 09:23:12.076             3.458          1359.438
        89   04 Jun 2027 09:24:54.859   04 Jun 2027 09:25:03.195             8.336          2955.875
        90   04 Jun 2027 09:25:35.812   04 Jun 2027 09:25:39.762             3.950           307.594
        91   04 Jun 2027 09:26:10.393   04 Jun 2027 09:26:10.764             0.371           107.406
        92   04 Jun 2027 09:26:11.640   04 Jun 2027 09:26:11.812             0.172            27.375
        93   04 Jun 2027 09:26:36.273   04 Jun 2027 09:26:39.921             3.648           764.406
        94   04 Jun 2027 09:27:29.020   04 Jun 2027 09:27:34.007             4.987          1423.250
        95   04 Jun 2027 09:27:50.806   04 Jun 2027 09:27:53.463             2.657           510.094
        96   04 Jun 2027 10:58:05.033   04 Jun 2027 10:58:21.626            16.593          8052.187
        97   04 Jun 2027 10:59:42.513   04 Jun 2027 10:59:47.491             4.978          2041.062
        98   04 Jun 2027 11:00:13.495   04 Jun 2027 11:00:16.355             2.860           793.438
        99   04 Jun 2027 11:00:18.190   04 Jun 2027 11:00:18.253             0.063            31.500
       100   04 Jun 2027 11:00:32.144   04 Jun 2027 11:00:33.682             1.538           459.937
       101   04 Jun 2027 11:01:10.263   04 Jun 2027 11:01:12.083             1.820           910.000
       102   04 Jun 2027 11:01:31.928   04 Jun 2027 11:01:35.390             3.462           820.813
       103   04 Jun 2027 11:01:54.242   04 Jun 2027 11:01:56.619             2.377           589.125
       104   04 Jun 2027 11:02:04.959   04 Jun 2027 11:02:07.685             2.726           260.625
       105   04 Jun 2027 11:02:48.044   04 Jun 2027 11:02:48.044             0.000             0.000
       106   04 Jun 2027 11:02:55.929   04 Jun 2027 11:03:01.090             5.161          1494.562
       107   04 Jun 2027 11:03:18.656   04 Jun 2027 11:03:21.279             2.623           548.937
       108   05 Jun 2027 03:22:22.170   05 Jun 2027 03:23:45.818            83.648         41824.000
       109   05 Jun 2027 03:25:00.532   05 Jun 2027 03:25:17.882            17.350          8675.000
       110   05 Jun 2027 04:45:43.624   05 Jun 2027 04:46:46.048            62.424         31212.000
       111   05 Jun 2027 06:22:06.248   05 Jun 2027 06:23:49.133           102.885         51442.500
       112   05 Jun 2027 06:23:52.330   05 Jun 2027 06:23:53.238             0.908           454.000
       113   05 Jun 2027 06:24:21.957   05 Jun 2027 06:24:25.787             3.830          1915.000
       114   05 Jun 2027 07:56:10.359   05 Jun 2027 07:57:15.120            64.761         32079.593
       115   05 Jun 2027 07:57:39.863   05 Jun 2027 07:57:42.173             2.310           352.406
       116   05 Jun 2027 07:59:22.450   05 Jun 2027 07:59:25.030             2.580          1290.000
       117   05 Jun 2027 07:59:44.806   05 Jun 2027 07:59:47.535             2.729          1364.500
       118   05 Jun 2027 07:59:49.729   05 Jun 2027 07:59:52.099             2.370           926.750
       119   05 Jun 2027 08:02:37.732   05 Jun 2027 08:02:44.039             6.307          3153.500
       120   05 Jun 2027 08:02:54.272   05 Jun 2027 08:03:01.264             6.992          2342.313
       121   05 Jun 2027 08:03:08.184   05 Jun 2027 08:03:09.713             1.529           216.250
       122   05 Jun 2027 08:03:47.355   05 Jun 2027 08:03:48.936             1.581           772.750
       123   05 Jun 2027 08:03:50.394   05 Jun 2027 08:03:51.660             1.266            45.562
       124   05 Jun 2027 09:33:14.888   05 Jun 2027 09:33:31.756            16.868          7420.125
       125   05 Jun 2027 09:35:49.120   05 Jun 2027 09:35:50.754             1.634           817.000
       126   05 Jun 2027 09:36:07.630   05 Jun 2027 09:36:15.193             7.563          2533.406
       127   05 Jun 2027 09:36:27.765   05 Jun 2027 09:36:30.184             2.419           392.875
       128   05 Jun 2027 09:36:46.022   05 Jun 2027 09:36:48.140             2.118           160.563
       129   05 Jun 2027 09:37:27.963   05 Jun 2027 09:37:30.990             3.027          1025.156
       130   05 Jun 2027 09:37:44.915   05 Jun 2027 09:37:46.777             1.862           156.219
       131   05 Jun 2027 09:38:20.461   05 Jun 2027 09:38:23.331             2.870           706.438
       132   05 Jun 2027 09:39:17.788   05 Jun 2027 09:39:20.925             3.137          1462.219
       133   05 Jun 2027 11:10:10.703   05 Jun 2027 11:10:28.231            17.528          7864.062
       134   05 Jun 2027 11:10:34.766   05 Jun 2027 11:10:35.241             0.475           204.219
       135   05 Jun 2027 11:11:29.069   05 Jun 2027 11:11:32.428             3.359          1444.000
       136   05 Jun 2027 11:12:11.279   05 Jun 2027 11:12:16.815             5.536          1214.094
       137   05 Jun 2027 11:12:19.744   05 Jun 2027 11:12:21.599             1.855            91.531
       138   05 Jun 2027 11:12:27.256   05 Jun 2027 11:12:27.256             0.000             0.000
       139   05 Jun 2027 11:12:46.841   05 Jun 2027 11:12:58.261            11.420           788.812
       140   05 Jun 2027 11:13:33.837   05 Jun 2027 11:13:38.054             4.217          1111.750
       141   05 Jun 2027 11:13:54.374   05 Jun 2027 11:13:56.135             1.761           243.563
       142   05 Jun 2027 11:14:12.714   05 Jun 2027 11:14:13.777             1.063           518.094
       143   06 Jun 2027 03:34:50.789   06 Jun 2027 03:36:27.872            97.083         48541.500
       144   06 Jun 2027 03:37:07.243   06 Jun 2027 03:37:11.945             4.702          2351.000
       145   06 Jun 2027 04:57:47.847   06 Jun 2027 04:58:47.633            59.786         29893.000
       146   06 Jun 2027 06:34:16.859   06 Jun 2027 06:36:09.904           113.045         56522.500
       147   06 Jun 2027 06:36:40.570   06 Jun 2027 06:36:49.258             8.688          4344.000
       148   06 Jun 2027 08:09:22.074   06 Jun 2027 08:09:55.620            33.546         16677.156
       149   06 Jun 2027 08:10:34.425   06 Jun 2027 08:10:36.956             2.531          1118.813
       150   06 Jun 2027 08:11:01.892   06 Jun 2027 08:11:01.892             0.000             0.000
       151   06 Jun 2027 08:11:41.955   06 Jun 2027 08:11:48.086             6.131          1913.062
       152   06 Jun 2027 08:12:53.353   06 Jun 2027 08:12:58.347             4.994          1674.656
       153   06 Jun 2027 08:13:48.540   06 Jun 2027 08:13:51.479             2.939          1462.344
       154   06 Jun 2027 08:14:03.518   06 Jun 2027 08:14:06.189             2.671           265.656
       155   06 Jun 2027 08:14:07.826   06 Jun 2027 08:14:09.076             1.250            51.156
       156   06 Jun 2027 08:14:32.308   06 Jun 2027 08:14:37.871             5.563           432.531
       157   06 Jun 2027 08:15:09.080   06 Jun 2027 08:15:11.444             2.364           944.250
       158   06 Jun 2027 08:15:41.489   06 Jun 2027 08:15:42.685             1.196           577.531
       159   06 Jun 2027 08:16:02.585   06 Jun 2027 08:16:05.024             2.439           566.031
       160   06 Jun 2027 09:45:44.215   06 Jun 2027 09:45:58.850            14.635          7129.594
       161   06 Jun 2027 09:47:28.523   06 Jun 2027 09:47:31.462             2.939          1469.500
       162   06 Jun 2027 09:47:45.492   06 Jun 2027 09:47:48.394             2.902          1120.656
       163   06 Jun 2027 09:47:55.872   06 Jun 2027 09:47:56.135             0.263           108.875
       164   06 Jun 2027 09:48:36.652   06 Jun 2027 09:48:38.527             1.875           937.500
       165   06 Jun 2027 09:49:19.326   06 Jun 2027 09:49:25.071             5.745          1505.188
       166   06 Jun 2027 09:50:14.167   06 Jun 2027 09:50:17.211             3.044          1344.563
       167   06 Jun 2027 09:51:04.194   06 Jun 2027 09:51:09.704             5.510          1406.594
       168   06 Jun 2027 09:51:20.796   06 Jun 2027 09:51:26.211             5.415           346.625
       169   06 Jun 2027 09:51:31.137   06 Jun 2027 09:51:31.696             0.559           139.688
       170   06 Jun 2027 09:51:43.379   06 Jun 2027 09:51:47.240             3.861           362.188
       171   06 Jun 2027 11:23:14.083   06 Jun 2027 11:23:29.908            15.825          6818.906
       172   06 Jun 2027 11:23:55.225   06 Jun 2027 11:23:59.607             4.382           623.406
       173   06 Jun 2027 11:24:21.154   06 Jun 2027 11:24:24.967             3.813           146.281
       174   06 Jun 2027 11:25:13.570   06 Jun 2027 11:25:17.107             3.537          1518.844
       175   06 Jun 2027 11:26:12.753   06 Jun 2027 11:26:17.481             4.728          1738.937
       176   06 Jun 2027 11:27:26.859   06 Jun 2027 11:27:30.362             3.503          1751.500
       177   06 Jun 2027 11:27:37.041   06 Jun 2027 11:27:39.909             2.868           480.187
       178   07 Jun 2027 03:46:24.558   07 Jun 2027 03:47:01.250            36.692         18346.000
       179   07 Jun 2027 03:47:13.916   07 Jun 2027 03:48:25.216            71.300         35650.000
       180   07 Jun 2027 03:48:53.841   07 Jun 2027 03:49:06.898            13.057          6528.500
       181   07 Jun 2027 05:09:43.746   07 Jun 2027 05:10:44.095            60.349         30174.500
       182   07 Jun 2027 05:10:50.929   07 Jun 2027 05:10:55.520             4.591          2295.500
       183   07 Jun 2027 05:11:20.078   07 Jun 2027 05:11:28.137             8.059          4029.500
       184   07 Jun 2027 06:46:21.432   07 Jun 2027 06:48:11.345           109.913         54956.500
       185   07 Jun 2027 06:48:33.961   07 Jun 2027 06:48:46.329            12.368          6184.000
       186   07 Jun 2027 08:21:31.840   07 Jun 2027 08:21:59.869            28.029         13863.875
       187   07 Jun 2027 08:22:32.121   07 Jun 2027 08:22:35.609             3.488           114.750
       188   07 Jun 2027 08:22:56.741   07 Jun 2027 08:22:59.345             2.604            94.250
       189   07 Jun 2027 08:23:02.971   07 Jun 2027 08:23:03.255             0.284           113.312
       190   07 Jun 2027 08:23:29.598   07 Jun 2027 08:23:36.682             7.084           493.469
       191   07 Jun 2027 08:25:06.476   07 Jun 2027 08:25:20.087            13.611          2683.437
       192   07 Jun 2027 08:26:06.519   07 Jun 2027 08:26:12.223             5.704          1401.406
       193   07 Jun 2027 08:27:15.927   07 Jun 2027 08:27:19.998             4.071          1491.719
       194   07 Jun 2027 08:27:34.111   07 Jun 2027 08:27:35.190             1.079           201.344
       195   07 Jun 2027 09:57:45.531   07 Jun 2027 09:57:58.309            12.778          6183.406
       196   07 Jun 2027 09:58:35.241   07 Jun 2027 09:58:36.800             1.559           408.156
       197   07 Jun 2027 09:59:31.329   07 Jun 2027 09:59:34.912             3.583           825.062
       198   07 Jun 2027 10:00:11.454   07 Jun 2027 10:00:15.205             3.751          1064.437
       199   07 Jun 2027 10:00:28.786   07 Jun 2027 10:00:29.674             0.888           370.125
       200   07 Jun 2027 10:01:00.941   07 Jun 2027 10:01:05.091             4.150           942.094
       201   07 Jun 2027 10:01:50.821   07 Jun 2027 10:01:54.912             4.091          1429.063
       202   07 Jun 2027 10:02:26.213   07 Jun 2027 10:02:28.209             1.996           826.156
       203   07 Jun 2027 10:02:56.276   07 Jun 2027 10:03:04.708             8.432           852.875
       204   07 Jun 2027 11:35:19.856   07 Jun 2027 11:35:37.286            17.430          7513.656
       205   07 Jun 2027 11:35:56.440   07 Jun 2027 11:35:59.927             3.487           598.563
       206   07 Jun 2027 11:36:12.566   07 Jun 2027 11:36:12.566             0.000             0.000
       207   07 Jun 2027 11:36:15.797   07 Jun 2027 11:36:16.233             0.436           218.000
       208   07 Jun 2027 11:36:47.686   07 Jun 2027 11:36:50.808             3.122          1001.438
       209   07 Jun 2027 11:37:12.087   07 Jun 2027 11:37:14.333             2.246           664.969
       210   07 Jun 2027 11:37:29.021   07 Jun 2027 11:37:32.521             3.500           433.188
       211   07 Jun 2027 11:37:45.323   07 Jun 2027 11:37:47.518             2.195           366.594
       212   07 Jun 2027 11:38:31.553   07 Jun 2027 11:38:33.248             1.695           847.500
       213   07 Jun 2027 11:39:28.669   07 Jun 2027 11:39:33.628             4.959          1985.281
       214   07 Jun 2027 11:39:50.147   07 Jun 2027 11:39:51.312             1.165           222.719
       215   08 Jun 2027 03:47:31.668   08 Jun 2027 03:47:48.922            17.254          8627.000
       216   08 Jun 2027 03:58:21.299   08 Jun 2027 03:59:03.419            42.120         21060.000
       217   08 Jun 2027 03:59:09.323   08 Jun 2027 04:00:04.526            55.203         27601.500
       218   08 Jun 2027 05:22:19.414   08 Jun 2027 05:23:39.051            79.637         39818.500
       219   08 Jun 2027 06:58:05.501   08 Jun 2027 07:00:06.610           121.109         60554.500
       220   08 Jun 2027 07:00:46.751   08 Jun 2027 07:00:47.526             0.775           387.500
       221   08 Jun 2027 07:02:11.126   08 Jun 2027 07:02:11.368             0.242           121.000
       222   08 Jun 2027 08:32:55.984   08 Jun 2027 08:33:20.169            24.185         10571.281
       223   08 Jun 2027 08:33:48.212   08 Jun 2027 08:33:49.611             1.399           595.812
       224   08 Jun 2027 08:34:31.883   08 Jun 2027 08:34:33.463             1.580           573.437
       225   08 Jun 2027 08:34:46.279   08 Jun 2027 08:34:47.727             1.448           400.500
       226   08 Jun 2027 08:35:41.412   08 Jun 2027 08:35:47.115             5.703          1632.344
       227   08 Jun 2027 08:35:50.653   08 Jun 2027 08:35:54.719             4.066           110.563
       228   08 Jun 2027 08:37:07.000   08 Jun 2027 08:37:17.909            10.909          1867.875
       229   08 Jun 2027 08:37:48.117   08 Jun 2027 08:37:50.729             2.612           944.000
       230   08 Jun 2027 08:38:37.883   08 Jun 2027 08:38:38.620             0.737           368.500
       231   08 Jun 2027 08:38:45.595   08 Jun 2027 08:38:51.854             6.259          1323.031
       232   08 Jun 2027 08:39:19.491   08 Jun 2027 08:39:21.371             1.880           863.656
       233   08 Jun 2027 08:40:14.018   08 Jun 2027 08:40:16.916             2.898          1352.594
       234   08 Jun 2027 10:09:32.111   08 Jun 2027 10:09:49.375            17.264          8471.844
       235   08 Jun 2027 10:10:41.347   08 Jun 2027 10:10:43.731             2.384           601.094
       236   08 Jun 2027 10:11:28.618   08 Jun 2027 10:11:29.316             0.698           347.969
       237   08 Jun 2027 10:11:39.067   08 Jun 2027 10:11:40.035             0.968           304.719
       238   08 Jun 2027 10:12:19.360   08 Jun 2027 10:12:27.054             7.694           996.531
       239   08 Jun 2027 10:13:08.850   08 Jun 2027 10:13:11.359             2.509           826.844
       240   08 Jun 2027 10:13:51.065   08 Jun 2027 10:13:55.278             4.213          1240.813
       241   08 Jun 2027 10:13:55.324   08 Jun 2027 10:13:55.476             0.152             1.438
       242   08 Jun 2027 10:14:20.727   08 Jun 2027 10:14:33.157            12.430           476.500
       243   08 Jun 2027 10:14:35.089   08 Jun 2027 10:14:36.526             1.437            60.375
       244   08 Jun 2027 10:15:11.547   08 Jun 2027 10:15:14.103             2.556          1000.281
       245   08 Jun 2027 10:15:54.967   08 Jun 2027 10:15:56.074             1.107           553.500
       246   08 Jun 2027 11:47:49.931   08 Jun 2027 11:48:01.793            11.862          5695.281
       247   08 Jun 2027 11:48:47.080   08 Jun 2027 11:48:49.082             2.002          1001.000
       248   08 Jun 2027 11:49:21.620   08 Jun 2027 11:49:26.209             4.589          1428.406
       249   08 Jun 2027 11:49:58.883   08 Jun 2027 11:50:04.185             5.302           969.281
       250   08 Jun 2027 11:51:00.476   08 Jun 2027 11:51:04.502             4.026          1684.375
       251   08 Jun 2027 11:51:32.096   08 Jun 2027 11:51:34.339             2.243           862.313
       252   09 Jun 2027 03:58:48.052   09 Jun 2027 03:59:13.176            25.124         12562.000
       253   09 Jun 2027 04:10:19.340   09 Jun 2027 04:11:54.135            94.795         47397.500
       254   09 Jun 2027 05:32:58.497   09 Jun 2027 05:33:57.092            58.595         29297.500
       255   09 Jun 2027 05:34:33.995   09 Jun 2027 05:35:01.608            27.613         13806.500
       256   09 Jun 2027 05:36:49.529   09 Jun 2027 05:36:57.845             8.316          4158.000
       257   09 Jun 2027 07:08:15.456   09 Jun 2027 07:09:18.194            62.738         31369.000
       258   09 Jun 2027 07:09:49.621   09 Jun 2027 07:10:21.711            32.090         16045.000
       259   09 Jun 2027 07:10:30.224   09 Jun 2027 07:10:55.905            25.681         12365.595
       260   09 Jun 2027 07:12:40.791   09 Jun 2027 07:12:43.880             3.089          1544.500
       261   09 Jun 2027 07:13:41.668   09 Jun 2027 07:13:46.520             4.852          2426.000
       262   09 Jun 2027 08:44:50.018   09 Jun 2027 08:45:10.183            20.165          9469.344
       263   09 Jun 2027 08:45:49.043   09 Jun 2027 08:45:51.824             2.781          1010.438
       264   09 Jun 2027 08:47:52.615   09 Jun 2027 08:47:57.663             5.048          1147.781
       265   09 Jun 2027 08:48:12.690   09 Jun 2027 08:48:19.851             7.161           452.062
       266   09 Jun 2027 08:48:37.312   09 Jun 2027 08:48:38.867             1.555           462.187
       267   09 Jun 2027 08:49:24.923   09 Jun 2027 08:49:27.644             2.721          1262.125
       268   09 Jun 2027 08:50:20.841   09 Jun 2027 08:50:21.422             0.581           290.500
       269   09 Jun 2027 08:50:24.955   09 Jun 2027 08:50:30.864             5.909          1334.906
       270   09 Jun 2027 08:50:35.757   09 Jun 2027 08:50:35.757             0.000             0.000
       271   09 Jun 2027 08:50:41.723   09 Jun 2027 08:50:42.033             0.310           155.000
       272   09 Jun 2027 08:51:29.300   09 Jun 2027 08:51:31.879             2.579          1289.500
       273   09 Jun 2027 08:52:05.219   09 Jun 2027 08:52:08.243             3.024          1413.813
       274   09 Jun 2027 10:21:53.358   09 Jun 2027 10:22:13.087            19.729          8977.281
       275   09 Jun 2027 10:22:46.616   09 Jun 2027 10:22:51.040             4.424          1047.781
       276   09 Jun 2027 10:24:28.675   09 Jun 2027 10:24:32.693             4.018          1982.437
       277   09 Jun 2027 10:25:43.421   09 Jun 2027 10:25:52.630             9.209          2204.187
       278   09 Jun 2027 10:26:07.207   09 Jun 2027 10:26:08.742             1.535           455.531
       279   09 Jun 2027 10:26:27.473   09 Jun 2027 10:26:29.036             1.563           585.344
       280   09 Jun 2027 10:27:04.171   09 Jun 2027 10:27:06.139             1.968           863.094
       281   09 Jun 2027 10:27:25.083   09 Jun 2027 10:27:26.371             1.288           188.719
       282   09 Jun 2027 10:27:52.586   09 Jun 2027 10:27:58.172             5.586           631.906
       283   09 Jun 2027 11:59:47.627   09 Jun 2027 12:00:00.000            12.373          6186.500
       284   10 Jun 2027 04:10:05.549   10 Jun 2027 04:11:06.994            61.445         30722.500
       285   10 Jun 2027 04:22:18.565   10 Jun 2027 04:23:00.297            41.732         20866.000
       286   10 Jun 2027 05:44:34.278   10 Jun 2027 05:45:40.567            66.289         33144.500
       287   10 Jun 2027 05:46:29.553   10 Jun 2027 05:47:01.044            31.491         15745.500
       288   10 Jun 2027 05:47:04.762   10 Jun 2027 05:47:07.450             2.688          1344.000
       289   10 Jun 2027 05:49:12.121   10 Jun 2027 05:49:15.419             3.298          1649.000
       290   10 Jun 2027 05:49:36.615   10 Jun 2027 05:49:44.808             8.193          4096.500
       291   10 Jun 2027 07:19:27.117   10 Jun 2027 07:20:54.227            87.110         43555.000
       292   10 Jun 2027 07:21:27.543   10 Jun 2027 07:21:32.618             5.075          2537.500
       293   10 Jun 2027 07:21:37.398   10 Jun 2027 07:21:58.234            20.836         10418.000
       294   10 Jun 2027 07:22:28.831   10 Jun 2027 07:22:33.132             4.301          1807.062
       295   10 Jun 2027 07:22:48.416   10 Jun 2027 07:22:52.202             3.786           297.875
       296   10 Jun 2027 07:24:10.886   10 Jun 2027 07:24:15.133             4.247          2123.500
       297   10 Jun 2027 07:24:21.102   10 Jun 2027 07:24:23.712             2.610           361.250
       298   10 Jun 2027 07:27:30.046   10 Jun 2027 07:27:39.015             8.969          4483.188
       299   10 Jun 2027 07:27:43.292   10 Jun 2027 07:27:46.384             3.092           133.656
       300   10 Jun 2027 08:57:01.544   10 Jun 2027 08:57:16.565            15.021          6865.156
       301   10 Jun 2027 08:59:51.463   10 Jun 2027 09:00:03.816            12.353          4762.844
       302   10 Jun 2027 09:01:10.448   10 Jun 2027 09:01:14.934             4.486          2082.250
       303   10 Jun 2027 09:01:36.139   10 Jun 2027 09:01:38.836             2.697           605.656
       304   10 Jun 2027 09:02:34.482   10 Jun 2027 09:02:36.036             1.554           777.000
       305   10 Jun 2027 09:02:38.305   10 Jun 2027 09:02:39.146             0.841           420.500
       306   10 Jun 2027 09:02:51.310   10 Jun 2027 09:02:54.621             3.311           652.969
       307   10 Jun 2027 09:03:10.230   10 Jun 2027 09:03:10.492             0.262           131.000
       308   10 Jun 2027 09:03:59.071   10 Jun 2027 09:03:59.071             0.000             0.000
       309   10 Jun 2027 09:04:17.110   10 Jun 2027 09:04:22.261             5.151          2329.406
       310   10 Jun 2027 10:33:44.376   10 Jun 2027 10:34:00.498            16.122          7718.312
       311   10 Jun 2027 10:34:40.389   10 Jun 2027 10:34:48.768             8.379          1082.156
       312   10 Jun 2027 10:34:59.115   10 Jun 2027 10:35:00.889             1.774           250.625
       313   10 Jun 2027 10:36:28.727   10 Jun 2027 10:36:33.411             4.684          2072.812
       314   10 Jun 2027 10:36:35.103   10 Jun 2027 10:36:35.548             0.445            52.875
       315   10 Jun 2027 10:37:23.983   10 Jun 2027 10:37:30.153             6.170          1474.656
       316   10 Jun 2027 10:37:52.184   10 Jun 2027 10:37:53.187             1.003           479.688
       317   10 Jun 2027 10:38:10.374   10 Jun 2027 10:38:12.059             1.685           498.781
       318   10 Jun 2027 10:38:57.411   10 Jun 2027 10:39:00.181             2.770          1316.875
       319   10 Jun 2027 10:39:56.932   10 Jun 2027 10:39:57.897             0.965           482.500
       320   10 Jun 2027 10:40:02.098   10 Jun 2027 10:40:04.717             2.619          1021.750
       321   11 Jun 2027 03:00:00.000   11 Jun 2027 03:00:04.236             4.236          2118.000
       322   11 Jun 2027 03:00:14.487   11 Jun 2027 03:00:29.545            15.058          7529.000
       323   11 Jun 2027 03:00:57.973   11 Jun 2027 03:01:12.642            14.669          7334.500
       324   11 Jun 2027 03:01:43.339   11 Jun 2027 03:01:48.480             5.141          2570.500
       325   11 Jun 2027 04:22:11.428   11 Jun 2027 04:22:56.202            44.774         22387.000
       326   11 Jun 2027 04:34:33.346   11 Jun 2027 04:34:52.008            18.662          9331.000
       327   11 Jun 2027 05:56:02.846   11 Jun 2027 05:57:26.006            83.160         41580.000
       328   11 Jun 2027 05:58:04.496   11 Jun 2027 05:58:37.124            32.628         16314.000
       329   11 Jun 2027 06:00:06.632   11 Jun 2027 06:00:10.720             4.088          2044.000
       330   11 Jun 2027 06:01:12.718   11 Jun 2027 06:01:25.482            12.764          6382.000
       331   11 Jun 2027 07:30:57.488   11 Jun 2027 07:32:49.921           112.433         55378.125
       332   11 Jun 2027 07:33:19.508   11 Jun 2027 07:33:22.967             3.459           657.844
       333   11 Jun 2027 07:36:38.466   11 Jun 2027 07:36:46.982             8.516          4258.000
       334   11 Jun 2027 07:36:51.473   11 Jun 2027 07:36:55.839             4.366          1845.781
       335   11 Jun 2027 07:38:28.821   11 Jun 2027 07:38:30.164             1.343           671.500
       336   11 Jun 2027 07:38:54.224   11 Jun 2027 07:38:58.525             4.301          2150.500
       337   11 Jun 2027 09:08:55.816   11 Jun 2027 09:09:12.560            16.744          8117.750
       338   11 Jun 2027 09:09:58.335   11 Jun 2027 09:10:02.960             4.625          1430.469
       339   11 Jun 2027 09:10:24.838   11 Jun 2027 09:10:27.654             2.816           215.375
       340   11 Jun 2027 09:11:15.075   11 Jun 2027 09:11:17.378             2.303          1076.688
       341   11 Jun 2027 09:12:03.282   11 Jun 2027 09:12:08.347             5.065          1413.000
       342   11 Jun 2027 09:12:33.082   11 Jun 2027 09:12:34.708             1.626            83.156
       343   11 Jun 2027 09:13:56.164   11 Jun 2027 09:13:59.997             3.833          1916.500
       344   11 Jun 2027 09:14:24.528   11 Jun 2027 09:14:27.345             2.817          1263.313
       345   11 Jun 2027 09:15:13.244   11 Jun 2027 09:15:16.760             3.516          1316.187
       346   11 Jun 2027 09:15:53.631   11 Jun 2027 09:15:57.173             3.542           120.344
       347   11 Jun 2027 09:16:05.767   11 Jun 2027 09:16:08.514             2.747           222.531
       348   11 Jun 2027 10:45:51.508   11 Jun 2027 10:45:57.647             6.139          3069.500
       349   11 Jun 2027 10:46:20.295   11 Jun 2027 10:46:39.906            19.611          4619.125
       350   11 Jun 2027 10:46:54.801   11 Jun 2027 10:46:57.112             2.311           465.469
       351   11 Jun 2027 10:47:42.367   11 Jun 2027 10:47:44.781             2.414           922.187
       352   11 Jun 2027 10:48:10.229   11 Jun 2027 10:48:18.025             7.796           795.250
       353   11 Jun 2027 10:48:43.885   11 Jun 2027 10:48:46.347             2.462           541.687
       354   11 Jun 2027 10:49:23.241   11 Jun 2027 10:49:27.265             4.024           969.437
       355   11 Jun 2027 10:49:47.386   11 Jun 2027 10:49:49.385             1.999           628.781
       356   11 Jun 2027 10:49:53.642   11 Jun 2027 10:49:54.319             0.677            99.031
       357   11 Jun 2027 10:50:16.176   11 Jun 2027 10:50:17.073             0.897           448.500
       358   11 Jun 2027 10:50:20.968   11 Jun 2027 10:50:23.916             2.948           356.250
       359   11 Jun 2027 10:51:56.807   11 Jun 2027 10:52:02.186             5.379          2535.188
       360   12 Jun 2027 03:10:19.447   12 Jun 2027 03:11:53.304            93.857         46928.500
       361   12 Jun 2027 03:12:14.563   12 Jun 2027 03:12:14.563             0.000             0.000
       362   12 Jun 2027 03:13:48.327   12 Jun 2027 03:13:53.364             5.037          2518.500
       363   12 Jun 2027 03:13:56.954   12 Jun 2027 03:14:21.986            25.032         12516.000
       364   12 Jun 2027 04:34:07.301   12 Jun 2027 04:34:33.258            25.957         12978.500
       365   12 Jun 2027 06:10:07.675   12 Jun 2027 06:11:38.378            90.703         45351.500
       366   12 Jun 2027 06:12:14.441   12 Jun 2027 06:12:32.942            18.501          9250.500
       367   12 Jun 2027 06:13:25.246   12 Jun 2027 06:13:40.055            14.809          7404.500
       368   12 Jun 2027 07:43:51.541   12 Jun 2027 07:45:07.051            75.510         37755.000
       369   12 Jun 2027 07:45:20.114   12 Jun 2027 07:45:24.242             4.128          1743.563
       370   12 Jun 2027 07:46:25.662   12 Jun 2027 07:46:28.546             2.884          1442.000
       371   12 Jun 2027 07:48:05.840   12 Jun 2027 07:48:05.840             0.000             0.000
       372   12 Jun 2027 07:49:35.786   12 Jun 2027 07:49:47.726            11.940          5970.000
       373   12 Jun 2027 07:50:32.325   12 Jun 2027 07:50:37.088             4.763          1752.344
       374   12 Jun 2027 07:50:57.627   12 Jun 2027 07:50:57.627             0.000             0.000
       375   12 Jun 2027 07:50:59.787   12 Jun 2027 07:51:04.751             4.964           478.844
       376   12 Jun 2027 07:51:31.866   12 Jun 2027 07:51:33.855             1.989           847.344
       377   12 Jun 2027 07:52:25.703   12 Jun 2027 07:52:26.671             0.968           484.000
       378   12 Jun 2027 09:21:17.284   12 Jun 2027 09:21:35.986            18.702          9278.063
       379   12 Jun 2027 09:25:12.329   12 Jun 2027 09:25:22.351            10.022          4637.250
       380   12 Jun 2027 09:25:48.213   12 Jun 2027 09:25:48.429             0.216           108.000
       381   12 Jun 2027 09:26:24.791   12 Jun 2027 09:26:26.258             1.467           733.500
       382   12 Jun 2027 09:26:30.309   12 Jun 2027 09:26:34.836             4.527           538.063
       383   12 Jun 2027 09:27:17.511   12 Jun 2027 09:27:19.155             1.644           749.406
       384   12 Jun 2027 10:58:20.846   12 Jun 2027 10:58:46.185            25.339          8681.281
       385   12 Jun 2027 10:59:56.776   12 Jun 2027 11:00:01.896             5.120          1991.344
       386   12 Jun 2027 11:00:15.557   12 Jun 2027 11:00:16.752             1.195           231.406
       387   12 Jun 2027 11:00:42.723   12 Jun 2027 11:00:49.666             6.943           811.594
       388   12 Jun 2027 11:00:50.286   12 Jun 2027 11:00:52.293             2.007            19.375
       389   12 Jun 2027 11:01:51.064   12 Jun 2027 11:01:55.323             4.259          1575.719
       390   12 Jun 2027 11:02:06.586   12 Jun 2027 11:02:08.442             1.856           313.375
       391   12 Jun 2027 11:02:19.311   12 Jun 2027 11:02:20.761             1.450           339.656
       392   12 Jun 2027 11:03:02.475   12 Jun 2027 11:03:04.785             2.310          1155.000
       393   12 Jun 2027 11:03:11.009   12 Jun 2027 11:03:15.785             4.776           327.469
       394   12 Jun 2027 11:03:35.096   12 Jun 2027 11:03:36.668             1.572           377.750
       395   12 Jun 2027 11:03:55.269   12 Jun 2027 11:03:57.683             2.414           525.781
       396   13 Jun 2027 03:22:37.819   13 Jun 2027 03:23:35.575            57.756         28878.000
       397   13 Jun 2027 03:24:11.424   13 Jun 2027 03:24:49.872            38.448         19224.000
       398   13 Jun 2027 03:25:21.747   13 Jun 2027 03:25:32.411            10.664          5332.000
       399   13 Jun 2027 03:26:23.674   13 Jun 2027 03:26:33.186             9.512          4756.000
       400   13 Jun 2027 03:26:52.592   13 Jun 2027 03:26:52.592             0.000             0.000
       401   13 Jun 2027 04:45:58.876   13 Jun 2027 04:46:08.053             9.177          4588.500
       402   13 Jun 2027 04:46:32.987   13 Jun 2027 04:47:01.577            28.590         14295.000
       403   13 Jun 2027 06:22:22.430   13 Jun 2027 06:24:05.146           102.716         51358.000
       404   13 Jun 2027 06:24:47.804   13 Jun 2027 06:24:55.125             7.321          3660.500
       405   13 Jun 2027 06:25:27.468   13 Jun 2027 06:25:27.468             0.000             0.000
       406   13 Jun 2027 07:56:27.502   13 Jun 2027 07:57:41.180            73.678         36806.280
       407   13 Jun 2027 07:57:54.802   13 Jun 2027 07:57:56.072             1.270           378.219
       408   13 Jun 2027 07:58:34.968   13 Jun 2027 07:58:36.677             1.709           854.500
       409   13 Jun 2027 07:58:50.157   13 Jun 2027 07:58:50.967             0.810           405.000
       410   13 Jun 2027 07:59:08.576   13 Jun 2027 07:59:11.423             2.847           654.344
       411   13 Jun 2027 07:59:49.763   13 Jun 2027 07:59:49.763             0.000             0.000
       412   13 Jun 2027 08:00:46.057   13 Jun 2027 08:00:52.738             6.681          2770.250
       413   13 Jun 2027 08:01:17.427   13 Jun 2027 08:01:17.427             0.000             0.000
       414   13 Jun 2027 08:01:42.390   13 Jun 2027 08:01:45.800             3.410          1551.625
       415   13 Jun 2027 08:03:00.647   13 Jun 2027 08:03:05.541             4.894          2209.562
       416   13 Jun 2027 08:03:56.462   13 Jun 2027 08:04:00.125             3.663          1417.969
       417   13 Jun 2027 09:33:29.874   13 Jun 2027 09:33:48.163            18.289          8165.219
       418   13 Jun 2027 09:34:51.432   13 Jun 2027 09:34:52.401             0.969           391.406
       419   13 Jun 2027 09:34:56.698   13 Jun 2027 09:34:58.075             1.377           134.281
       420   13 Jun 2027 09:35:47.328   13 Jun 2027 09:35:50.267             2.939          1121.281
       421   13 Jun 2027 09:35:55.420   13 Jun 2027 09:35:56.950             1.530           161.031
       422   13 Jun 2027 09:35:59.425   13 Jun 2027 09:36:00.490             1.065            77.344
       423   13 Jun 2027 09:36:23.191   13 Jun 2027 09:36:32.214             9.023           559.750
       424   13 Jun 2027 09:36:42.496   13 Jun 2027 09:36:48.540             6.044           321.313
       425   13 Jun 2027 09:37:00.552   13 Jun 2027 09:37:02.453             1.901           142.750
       426   13 Jun 2027 09:37:59.948   13 Jun 2027 09:38:00.175             0.227           113.500
       427   13 Jun 2027 09:38:06.603   13 Jun 2027 09:38:08.392             1.789           204.000
       428   13 Jun 2027 09:38:48.741   13 Jun 2027 09:38:50.767             2.026           766.625
       429   13 Jun 2027 09:39:40.459   13 Jun 2027 09:39:44.417             3.958           296.875
       430   13 Jun 2027 09:40:05.006   13 Jun 2027 09:40:09.639             4.633           465.156
       431   13 Jun 2027 11:10:27.171   13 Jun 2027 11:10:43.787            16.616          7948.438
       432   13 Jun 2027 11:10:50.894   13 Jun 2027 11:10:51.800             0.906           222.094
       433   13 Jun 2027 11:11:20.208   13 Jun 2027 11:11:24.732             4.524           887.750
       434   13 Jun 2027 11:11:42.381   13 Jun 2027 11:11:45.432             3.051           282.812
       435   13 Jun 2027 11:12:05.589   13 Jun 2027 11:12:07.224             1.635           629.906
       436   13 Jun 2027 11:12:20.866   13 Jun 2027 11:12:26.237             5.371           426.312
       437   13 Jun 2027 11:12:43.469   13 Jun 2027 11:12:45.719             2.250           218.656
       438   13 Jun 2027 11:13:01.565   13 Jun 2027 11:13:03.103             1.538           495.188
       439   13 Jun 2027 11:13:50.216   13 Jun 2027 11:13:53.285             3.069          1125.125
       440   13 Jun 2027 11:14:44.162   13 Jun 2027 11:14:46.320             2.158          1054.063
       441   13 Jun 2027 11:15:00.632   13 Jun 2027 11:15:03.844             3.212           265.937
       442   13 Jun 2027 11:15:20.689   13 Jun 2027 11:15:21.290             0.601           300.500
