uniorb/output/strategy_1/Camera/Camera_KinoSat_110506.txt

KinoSat_110506
-------------------------
    Access    *     Start Time (UTCG)     *     Stop Time (UTCG)  *   Duration (s) *   Data (Mbytes)
         1   01 Jun 2027 03:36:56.272   01 Jun 2027 03:37:54.755            58.483         29241.500
         2   01 Jun 2027 03:38:27.927   01 Jun 2027 03:38:49.485            21.558         10779.000
         3   01 Jun 2027 03:39:21.527   01 Jun 2027 03:39:33.572            12.045          6022.500
         4   01 Jun 2027 03:39:51.131   01 Jun 2027 03:39:51.131             0.000             0.000
         5   01 Jun 2027 03:40:27.072   01 Jun 2027 03:40:48.867            21.795         10897.500
         6   01 Jun 2027 03:42:16.178   01 Jun 2027 03:42:16.178             0.000             0.000
         7   01 Jun 2027 03:42:23.230   01 Jun 2027 03:42:28.074             4.844          2422.000
         8   01 Jun 2027 05:13:25.959   01 Jun 2027 05:16:03.803           157.844         78922.000
         9   01 Jun 2027 05:16:19.398   01 Jun 2027 05:16:38.142            18.744          9372.000
        10   01 Jun 2027 05:18:02.939   01 Jun 2027 05:18:19.524            16.585          8292.500
        11   01 Jun 2027 05:20:47.914   01 Jun 2027 05:20:56.556             8.642          4321.000
        12   01 Jun 2027 06:50:30.873   01 Jun 2027 06:52:51.605           140.732         70366.000
        13   01 Jun 2027 06:53:37.933   01 Jun 2027 06:53:47.781             9.848          4924.000
        14   01 Jun 2027 06:54:16.124   01 Jun 2027 06:54:33.853            17.729          8864.500
        15   01 Jun 2027 06:55:04.328   01 Jun 2027 06:55:10.553             6.225          3112.500
        16   01 Jun 2027 08:28:25.065   01 Jun 2027 08:30:48.656           143.591         71795.500
        17   01 Jun 2027 08:31:13.803   01 Jun 2027 08:31:16.875             3.072          1536.000
        18   01 Jun 2027 08:31:37.554   01 Jun 2027 08:31:56.805            19.251          9625.500
        19   01 Jun 2027 10:01:33.361   01 Jun 2027 10:03:19.661           106.300         53150.000
        20   01 Jun 2027 10:03:49.921   01 Jun 2027 10:04:09.991            20.070         10035.000
        21   01 Jun 2027 10:04:38.777   01 Jun 2027 10:04:46.920             8.143          4071.500
        22   01 Jun 2027 10:06:17.115   01 Jun 2027 10:06:27.390            10.275          5137.500
        23   01 Jun 2027 10:06:56.211   01 Jun 2027 10:07:11.700            15.489          7744.500
        24   01 Jun 2027 10:07:53.224   01 Jun 2027 10:07:58.223             4.999          2499.500
        25   01 Jun 2027 10:08:36.658   01 Jun 2027 10:08:44.496             7.838          3919.000
        26   01 Jun 2027 10:08:53.815   01 Jun 2027 10:09:02.245             8.430          4215.000
        27   02 Jun 2027 03:48:05.792   02 Jun 2027 03:50:08.463           122.671         61335.500
        28   02 Jun 2027 03:50:14.918   02 Jun 2027 03:53:49.974           215.056        107528.000
        29   02 Jun 2027 03:54:12.343   02 Jun 2027 03:54:19.757             7.414          3707.000
        30   02 Jun 2027 03:56:07.127   02 Jun 2027 03:56:33.616            26.489         13244.500
        31   02 Jun 2027 05:25:39.329   02 Jun 2027 05:28:05.021           145.692         72846.000
        32   02 Jun 2027 05:28:47.947   02 Jun 2027 05:29:17.507            29.560         14780.000
        33   02 Jun 2027 05:30:44.924   02 Jun 2027 05:30:55.403            10.479          5239.500
        34   02 Jun 2027 05:31:01.672   02 Jun 2027 05:31:04.349             2.677          1338.500
        35   02 Jun 2027 05:31:49.276   02 Jun 2027 05:32:05.891            16.615          8307.500
        36   02 Jun 2027 05:32:13.131   02 Jun 2027 05:32:13.131             0.000             0.000
        37   02 Jun 2027 05:32:51.371   02 Jun 2027 05:32:59.997             8.626          4313.000
        38   02 Jun 2027 07:02:21.798   02 Jun 2027 07:04:44.737           142.939         71469.500
        39   02 Jun 2027 07:05:25.482   02 Jun 2027 07:05:36.320            10.838          5419.000
        40   02 Jun 2027 07:06:32.776   02 Jun 2027 07:07:03.473            30.697         15348.500
        41   02 Jun 2027 07:08:12.059   02 Jun 2027 07:08:31.186            19.127          9563.500
        42   02 Jun 2027 07:08:53.311   02 Jun 2027 07:08:59.689             6.378          3189.000
        43   02 Jun 2027 08:40:24.928   02 Jun 2027 08:42:50.108           145.180         72590.000
        44   02 Jun 2027 08:43:25.351   02 Jun 2027 08:43:27.862             2.511          1255.500
        45   02 Jun 2027 08:43:47.118   02 Jun 2027 08:44:02.902            15.784          7892.000
        46   02 Jun 2027 10:14:02.146   02 Jun 2027 10:16:27.122           144.976         72488.000
        47   02 Jun 2027 10:18:56.178   02 Jun 2027 10:19:13.524            17.346          8673.000
        48   02 Jun 2027 10:20:25.037   02 Jun 2027 10:20:43.442            18.405          9202.500
        49   02 Jun 2027 10:21:12.929   02 Jun 2027 10:21:16.349             3.420          1710.000
        50   03 Jun 2027 03:59:36.414   03 Jun 2027 04:03:51.378           254.964        127482.000
        51   03 Jun 2027 04:04:06.392   03 Jun 2027 04:06:24.047           137.655         68827.500
        52   03 Jun 2027 04:08:04.128   03 Jun 2027 04:08:58.473            54.345         27172.500
        53   03 Jun 2027 05:37:33.236   03 Jun 2027 05:41:04.177           210.941        105470.500
        54   03 Jun 2027 05:43:59.271   03 Jun 2027 05:44:26.267            26.996         13498.000
        55   03 Jun 2027 07:14:26.409   03 Jun 2027 07:17:38.125           191.716         95858.000
        56   03 Jun 2027 07:18:55.464   03 Jun 2027 07:18:55.991             0.527           263.500
        57   03 Jun 2027 07:20:35.969   03 Jun 2027 07:20:59.314            23.345         11672.500
        58   03 Jun 2027 08:52:11.315   03 Jun 2027 08:53:54.771           103.456         51728.000
        59   03 Jun 2027 08:54:02.925   03 Jun 2027 08:54:44.247            41.322         20661.000
        60   03 Jun 2027 08:55:09.720   03 Jun 2027 08:55:26.762            17.042          8521.000
        61   03 Jun 2027 08:55:43.470   03 Jun 2027 08:55:52.142             8.672          4336.000
        62   03 Jun 2027 08:56:24.916   03 Jun 2027 08:56:32.931             8.015          4007.500
        63   03 Jun 2027 10:26:25.135   03 Jun 2027 10:27:39.375            74.240         37120.000
        64   03 Jun 2027 10:29:22.828   03 Jun 2027 10:29:39.998            17.170          8585.000
        65   03 Jun 2027 10:30:36.422   03 Jun 2027 10:30:51.042            14.620          7310.000
        66   03 Jun 2027 10:31:27.630   03 Jun 2027 10:31:37.382             9.752          4876.000
        67   04 Jun 2027 04:12:30.126   04 Jun 2027 04:18:22.995           352.869        176434.500
        68   04 Jun 2027 04:19:49.102   04 Jun 2027 04:20:17.929            28.827         14413.500
        69   04 Jun 2027 04:20:33.418   04 Jun 2027 04:20:49.560            16.142          8071.000
        70   04 Jun 2027 05:49:53.862   04 Jun 2027 05:52:34.543           160.681         80340.500
        71   04 Jun 2027 05:53:14.194   04 Jun 2027 05:53:26.587            12.393          6196.500
        72   04 Jun 2027 05:53:40.962   04 Jun 2027 05:53:43.335             2.373          1186.500
        73   04 Jun 2027 05:54:19.460   04 Jun 2027 05:54:32.619            13.159          6579.500
        74   04 Jun 2027 05:55:02.851   04 Jun 2027 05:55:23.573            20.722         10361.000
        75   04 Jun 2027 05:56:02.145   04 Jun 2027 05:56:21.586            19.441          9720.500
        76   04 Jun 2027 07:26:57.876   04 Jun 2027 07:29:24.314           146.438         73219.000
        77   04 Jun 2027 07:30:07.128   04 Jun 2027 07:30:28.895            21.767         10883.500
        78   04 Jun 2027 07:30:42.103   04 Jun 2027 07:30:50.969             8.866          4433.000
        79   04 Jun 2027 07:31:07.352   04 Jun 2027 07:31:07.651             0.299           149.500
        80   04 Jun 2027 07:31:57.457   04 Jun 2027 07:32:18.664            21.207         10603.500
        81   04 Jun 2027 07:32:28.446   04 Jun 2027 07:32:28.446             0.000             0.000
        82   04 Jun 2027 09:03:42.399   04 Jun 2027 09:04:35.960            53.561         26780.500
        83   04 Jun 2027 09:05:50.820   04 Jun 2027 09:06:04.408            13.588          6794.000
        84   04 Jun 2027 09:07:06.281   04 Jun 2027 09:07:17.788            11.507          5753.500
        85   04 Jun 2027 09:07:42.255   04 Jun 2027 09:07:50.762             8.507          4253.500
        86   04 Jun 2027 09:08:12.380   04 Jun 2027 09:08:19.202             6.822          3411.000
        87   04 Jun 2027 10:38:58.434   04 Jun 2027 10:39:07.113             8.679          4339.500
        88   04 Jun 2027 10:40:39.426   04 Jun 2027 10:40:48.447             9.021          4510.500
        89   04 Jun 2027 10:41:10.486   04 Jun 2027 10:41:28.683            18.197          9098.500
        90   04 Jun 2027 10:42:53.664   04 Jun 2027 10:43:07.568            13.904          6952.000
        91   05 Jun 2027 04:25:02.784   05 Jun 2027 04:30:19.771           316.987        158493.500
        92   05 Jun 2027 04:31:21.613   05 Jun 2027 04:31:41.241            19.628          9814.000
        93   05 Jun 2027 04:31:46.155   05 Jun 2027 04:31:55.833             9.678          4839.000
        94   05 Jun 2027 04:32:06.634   05 Jun 2027 04:32:14.562             7.928          3964.000
        95   05 Jun 2027 04:32:58.201   05 Jun 2027 04:33:00.775             2.574          1287.000
        96   05 Jun 2027 06:02:07.354   05 Jun 2027 06:04:38.326           150.972         75486.000
        97   05 Jun 2027 06:05:47.697   05 Jun 2027 06:06:17.568            29.871         14935.500
        98   05 Jun 2027 06:06:59.867   05 Jun 2027 06:07:10.382            10.515          5257.500
        99   05 Jun 2027 06:07:21.905   05 Jun 2027 06:07:23.437             1.532           766.000
       100   05 Jun 2027 06:08:26.878   05 Jun 2027 06:08:50.008            23.130         11565.000
       101   05 Jun 2027 07:39:03.343   05 Jun 2027 07:41:02.856           119.513         59756.500
       102   05 Jun 2027 07:41:32.144   05 Jun 2027 07:41:43.311            11.167          5583.500
       103   05 Jun 2027 07:42:05.848   05 Jun 2027 07:42:12.281             6.433          3216.500
       104   05 Jun 2027 07:42:22.418   05 Jun 2027 07:42:26.018             3.600          1800.000
       105   05 Jun 2027 07:42:49.288   05 Jun 2027 07:43:03.702            14.414          7207.000
       106   05 Jun 2027 09:15:49.904   05 Jun 2027 09:16:31.644            41.740         20870.000
       107   05 Jun 2027 09:17:45.300   05 Jun 2027 09:18:04.823            19.523          9761.500
       108   05 Jun 2027 09:18:54.596   05 Jun 2027 09:19:04.702            10.106          5053.000
       109   05 Jun 2027 09:19:27.769   05 Jun 2027 09:19:46.264            18.495          9247.500
       110   05 Jun 2027 10:54:02.058   05 Jun 2027 10:54:17.508            15.450          7725.000
       111   05 Jun 2027 10:54:50.921   05 Jun 2027 10:54:52.812             1.891           945.500
       112   06 Jun 2027 03:03:09.301   06 Jun 2027 03:06:39.115           209.814        104907.000
       113   06 Jun 2027 04:38:14.244   06 Jun 2027 04:39:33.853            79.609         39804.500
       114   06 Jun 2027 04:39:51.862   06 Jun 2027 04:40:29.393            37.531         18765.500
       115   06 Jun 2027 04:40:45.959   06 Jun 2027 04:40:52.428             6.469          3234.500
       116   06 Jun 2027 04:40:55.908   06 Jun 2027 04:41:04.284             8.376          4188.000
       117   06 Jun 2027 04:41:55.036   06 Jun 2027 04:42:02.486             7.450          3725.000
       118   06 Jun 2027 04:43:11.626   06 Jun 2027 04:43:32.735            21.109         10554.500
       119   06 Jun 2027 04:43:59.241   06 Jun 2027 04:44:14.603            15.362          7681.000
       120   06 Jun 2027 04:44:52.452   06 Jun 2027 04:44:57.222             4.770          2385.000
       121   06 Jun 2027 06:14:36.165   06 Jun 2027 06:16:41.346           125.181         62590.500
       122   06 Jun 2027 06:17:30.289   06 Jun 2027 06:18:01.254            30.965         15482.500
       123   06 Jun 2027 06:18:09.029   06 Jun 2027 06:18:20.037            11.008          5504.000
       124   06 Jun 2027 06:19:46.228   06 Jun 2027 06:19:57.070            10.842          5421.000
       125   06 Jun 2027 06:20:17.287   06 Jun 2027 06:20:42.417            25.130         12565.000
       126   06 Jun 2027 07:52:06.457   06 Jun 2027 07:53:44.786            98.329         49164.500
       127   06 Jun 2027 07:54:29.391   06 Jun 2027 07:54:40.391            11.000          5500.000
       128   06 Jun 2027 07:54:57.688   06 Jun 2027 07:55:01.648             3.960          1980.000
       129   06 Jun 2027 07:55:11.291   06 Jun 2027 07:55:29.062            17.771          8885.500
       130   06 Jun 2027 09:28:11.127   06 Jun 2027 09:28:44.750            33.623         16811.500
       131   06 Jun 2027 09:29:22.590   06 Jun 2027 09:29:39.995            17.405          8702.500
       132   06 Jun 2027 09:30:42.470   06 Jun 2027 09:30:56.692            14.222          7111.000
       133   06 Jun 2027 09:31:24.148   06 Jun 2027 09:31:25.711             1.563           781.500
       134   06 Jun 2027 09:31:58.617   06 Jun 2027 09:32:08.897            10.280          5140.000
       135   07 Jun 2027 03:15:13.856   07 Jun 2027 03:18:38.999           205.143        102571.500
       136   07 Jun 2027 04:50:24.270   07 Jun 2027 04:52:43.164           138.894         69447.000
       137   07 Jun 2027 04:55:29.742   07 Jun 2027 04:56:15.091            45.349         22674.500
       138   07 Jun 2027 04:56:44.806   07 Jun 2027 04:56:46.807             2.001          1000.500
       139   07 Jun 2027 06:26:38.936   07 Jun 2027 06:29:15.097           156.161         78080.500
       140   07 Jun 2027 06:30:03.309   07 Jun 2027 06:30:33.599            30.290         15145.000
       141   07 Jun 2027 06:31:10.210   07 Jun 2027 06:31:14.863             4.653          2326.500
       142   07 Jun 2027 08:04:11.997   07 Jun 2027 08:05:44.785            92.788         46394.000
       143   07 Jun 2027 08:07:10.754   07 Jun 2027 08:07:32.400            21.646         10823.000
       144   07 Jun 2027 08:08:15.572   07 Jun 2027 08:08:25.094             9.522          4761.000
       145   07 Jun 2027 08:08:33.435   07 Jun 2027 08:08:38.615             5.180          2590.000
       146   07 Jun 2027 09:40:13.308   07 Jun 2027 09:40:32.818            19.510          9755.000
       147   07 Jun 2027 09:41:29.290   07 Jun 2027 09:42:04.850            35.560         17780.000
       148   07 Jun 2027 09:43:21.143   07 Jun 2027 09:43:37.830            16.687          8343.500
       149   07 Jun 2027 09:44:17.745   07 Jun 2027 09:44:19.532             1.787           893.500
       150   07 Jun 2027 09:44:41.407   07 Jun 2027 09:44:46.305             4.898          2449.000
       151   07 Jun 2027 09:44:52.541   07 Jun 2027 09:44:57.985             5.444          2722.000
       152   08 Jun 2027 03:26:57.529   08 Jun 2027 03:29:48.130           170.601         85300.500
       153   08 Jun 2027 03:30:50.603   08 Jun 2027 03:31:02.167            11.564          5782.000
       154   08 Jun 2027 05:01:48.630   08 Jun 2027 05:04:19.343           150.713         75356.500
       155   08 Jun 2027 05:05:25.257   08 Jun 2027 05:05:33.381             8.124          4062.000
       156   08 Jun 2027 05:06:47.304   08 Jun 2027 05:07:03.168            15.864          7932.000
       157   08 Jun 2027 05:07:43.281   08 Jun 2027 05:07:46.631             3.350          1675.000
       158   08 Jun 2027 05:08:18.052   08 Jun 2027 05:08:34.454            16.402          8201.000
       159   08 Jun 2027 05:08:34.636   08 Jun 2027 05:08:46.934            12.298          6149.000
       160   08 Jun 2027 05:09:06.343   08 Jun 2027 05:09:10.877             4.534          2267.000
       161   08 Jun 2027 06:38:24.371   08 Jun 2027 06:40:18.146           113.775         56887.500
       162   08 Jun 2027 06:40:45.066   08 Jun 2027 06:41:11.433            26.367         13183.500
       163   08 Jun 2027 06:41:38.452   08 Jun 2027 06:41:42.388             3.936          1968.000
       164   08 Jun 2027 06:42:10.345   08 Jun 2027 06:42:37.331            26.986         13493.000
       165   08 Jun 2027 06:43:47.304   08 Jun 2027 06:43:53.975             6.671          3335.500
       166   08 Jun 2027 06:44:21.279   08 Jun 2027 06:44:30.896             9.617          4808.500
       167   08 Jun 2027 08:16:41.995   08 Jun 2027 08:17:27.433            45.438         22719.000
       168   08 Jun 2027 08:17:46.717   08 Jun 2027 08:17:58.528            11.811          5905.500
       169   08 Jun 2027 08:19:14.239   08 Jun 2027 08:19:35.371            21.132         10566.000
       170   08 Jun 2027 08:20:21.327   08 Jun 2027 08:20:25.068             3.741          1870.500
       171   08 Jun 2027 09:50:02.708   08 Jun 2027 09:50:11.382             8.674          4337.000
       172   08 Jun 2027 09:52:01.864   08 Jun 2027 09:52:22.133            20.269         10134.500
       173   08 Jun 2027 09:53:43.340   08 Jun 2027 09:54:07.478            24.138         12069.000
       174   08 Jun 2027 09:55:05.002   08 Jun 2027 09:55:09.031             4.029          2014.500
       175   08 Jun 2027 09:55:20.976   08 Jun 2027 09:55:32.257            11.281          5640.500
       176   08 Jun 2027 09:55:42.101   08 Jun 2027 09:55:50.463             8.362          4181.000
       177   08 Jun 2027 09:56:33.648   08 Jun 2027 09:56:37.264             3.616          1808.000
       178   08 Jun 2027 09:57:31.015   08 Jun 2027 09:57:31.940             0.925           462.500
       179   09 Jun 2027 03:37:10.248   09 Jun 2027 03:38:09.609            59.361         29680.500
       180   09 Jun 2027 03:38:42.393   09 Jun 2027 03:41:03.516           141.123         70561.500
       181   09 Jun 2027 03:41:29.607   09 Jun 2027 03:41:45.278            15.671          7835.500
       182   09 Jun 2027 03:42:38.017   09 Jun 2027 03:42:38.017             0.000             0.000
       183   09 Jun 2027 03:43:02.982   09 Jun 2027 03:43:30.277            27.295         13647.500
       184   09 Jun 2027 05:13:40.987   09 Jun 2027 05:16:19.004           158.017         79008.500
       185   09 Jun 2027 05:17:35.228   09 Jun 2027 05:17:36.451             1.223           611.500
       186   09 Jun 2027 05:18:40.966   09 Jun 2027 05:19:18.312            37.346         18673.000
       187   09 Jun 2027 05:20:56.967   09 Jun 2027 05:21:02.224             5.257          2628.500
       188   09 Jun 2027 05:21:10.654   09 Jun 2027 05:21:11.227             0.573           286.500
       189   09 Jun 2027 06:50:45.420   09 Jun 2027 06:53:06.340           140.920         70460.000
       190   09 Jun 2027 06:53:39.610   09 Jun 2027 06:53:47.195             7.585          3792.500
       191   09 Jun 2027 06:54:09.924   09 Jun 2027 06:54:21.580            11.656          5828.000
       192   09 Jun 2027 06:54:32.525   09 Jun 2027 06:54:32.654             0.129            64.500
       193   09 Jun 2027 06:54:55.758   09 Jun 2027 06:54:57.825             2.067          1033.500
       194   09 Jun 2027 06:55:25.469   09 Jun 2027 06:55:41.803            16.334          8167.000
       195   09 Jun 2027 06:55:48.039   09 Jun 2027 06:55:48.803             0.764           382.000
       196   09 Jun 2027 08:28:39.671   09 Jun 2027 08:29:37.297            57.626         28813.000
       197   09 Jun 2027 08:30:34.156   09 Jun 2027 08:30:37.514             3.358          1679.000
       198   09 Jun 2027 08:31:13.418   09 Jun 2027 08:31:28.729            15.311          7655.500
       199   09 Jun 2027 08:31:47.888   09 Jun 2027 08:31:54.250             6.362          3181.000
       200   09 Jun 2027 10:01:48.521   09 Jun 2027 10:02:21.716            33.195         16597.500
       201   09 Jun 2027 10:02:38.987   09 Jun 2027 10:02:47.267             8.280          4140.000
       202   09 Jun 2027 10:04:46.361   09 Jun 2027 10:05:01.419            15.058          7529.000
       203   09 Jun 2027 10:05:23.649   09 Jun 2027 10:05:31.060             7.411          3705.500
       204   09 Jun 2027 10:06:14.991   09 Jun 2027 10:06:22.530             7.539          3769.500
       205   09 Jun 2027 10:07:02.609   09 Jun 2027 10:07:10.855             8.246          4123.000
       206   09 Jun 2027 10:07:45.896   09 Jun 2027 10:07:51.892             5.996          2998.000
       207   09 Jun 2027 10:08:33.900   09 Jun 2027 10:08:53.485            19.585          9792.500
       208   09 Jun 2027 10:09:40.806   09 Jun 2027 10:09:44.709             3.903          1951.500
       209   10 Jun 2027 03:48:20.080   10 Jun 2027 03:50:23.158           123.078         61539.000
       210   10 Jun 2027 03:50:29.637   10 Jun 2027 03:52:08.101            98.464         49232.000
       211   10 Jun 2027 03:52:31.506   10 Jun 2027 03:53:19.855            48.349         24174.500
       212   10 Jun 2027 03:53:28.971   10 Jun 2027 03:53:42.067            13.096          6548.000
       213   10 Jun 2027 03:54:05.270   10 Jun 2027 03:54:11.316             6.046          3023.000
       214   10 Jun 2027 03:54:19.127   10 Jun 2027 03:54:27.171             8.044          4022.000
       215   10 Jun 2027 03:54:43.020   10 Jun 2027 03:54:53.662            10.642          5321.000
       216   10 Jun 2027 03:56:48.398   10 Jun 2027 03:56:50.329             1.931           965.500
       217   10 Jun 2027 05:25:53.848   10 Jun 2027 05:28:39.392           165.544         82772.000
       218   10 Jun 2027 05:31:28.620   10 Jun 2027 05:32:31.506            62.886         31443.000
       219   10 Jun 2027 05:33:05.995   10 Jun 2027 05:33:09.399             3.404          1702.000
       220   10 Jun 2027 07:02:36.415   10 Jun 2027 07:04:57.254           140.839         70419.500
       221   10 Jun 2027 07:05:40.127   10 Jun 2027 07:05:45.056             4.929          2464.500
       222   10 Jun 2027 07:05:51.227   10 Jun 2027 07:05:54.341             3.114          1557.000
       223   10 Jun 2027 07:06:26.787   10 Jun 2027 07:06:31.978             5.191          2595.500
       224   10 Jun 2027 07:06:57.241   10 Jun 2027 07:07:04.451             7.210          3605.000
       225   10 Jun 2027 07:07:41.636   10 Jun 2027 07:08:01.255            19.619          9809.500
       226   10 Jun 2027 07:08:12.689   10 Jun 2027 07:08:27.508            14.819          7409.500
       227   10 Jun 2027 08:40:39.506   10 Jun 2027 08:41:12.795            33.289         16644.500
       228   10 Jun 2027 08:41:24.965   10 Jun 2027 08:41:29.279             4.314          2157.000
       229   10 Jun 2027 08:43:04.946   10 Jun 2027 08:43:24.630            19.684          9842.000
       230   10 Jun 2027 08:43:31.845   10 Jun 2027 08:43:34.440             2.595          1297.500
       231   10 Jun 2027 08:43:39.869   10 Jun 2027 08:43:44.492             4.623          2311.500
       232   10 Jun 2027 08:44:18.430   10 Jun 2027 08:44:25.938             7.508          3754.000
       233   10 Jun 2027 10:14:16.953   10 Jun 2027 10:14:41.067            24.114         12057.000
       234   10 Jun 2027 10:15:41.172   10 Jun 2027 10:15:58.700            17.528          8764.000
       235   10 Jun 2027 10:17:13.846   10 Jun 2027 10:17:34.970            21.124         10562.000
       236   10 Jun 2027 10:19:10.813   10 Jun 2027 10:19:27.954            17.141          8570.500
       237   10 Jun 2027 10:20:39.992   10 Jun 2027 10:20:58.064            18.072          9036.000
       238   11 Jun 2027 03:59:50.793   11 Jun 2027 04:04:31.768           280.975        140487.500
       239   11 Jun 2027 04:04:55.330   11 Jun 2027 04:04:58.792             3.462          1731.000
       240   11 Jun 2027 04:05:33.152   11 Jun 2027 04:06:07.493            34.341         17170.500
       241   11 Jun 2027 04:08:18.601   11 Jun 2027 04:08:37.984            19.383          9691.500
       242   11 Jun 2027 04:08:44.995   11 Jun 2027 04:09:14.074            29.079         14539.500
       243   11 Jun 2027 05:37:47.751   11 Jun 2027 05:40:17.516           149.765         74882.500
       244   11 Jun 2027 05:40:30.786   11 Jun 2027 05:40:40.127             9.341          4670.500
       245   11 Jun 2027 05:41:06.355   11 Jun 2027 05:41:19.223            12.868          6434.000
       246   11 Jun 2027 05:43:00.188   11 Jun 2027 05:43:11.038            10.850          5425.000
       247   11 Jun 2027 05:43:46.380   11 Jun 2027 05:44:00.705            14.325          7162.500
       248   11 Jun 2027 05:44:50.063   11 Jun 2027 05:45:01.247            11.184          5592.000
       249   11 Jun 2027 07:14:42.127   11 Jun 2027 07:17:23.468           161.341         80670.500
       250   11 Jun 2027 07:18:49.667   11 Jun 2027 07:19:07.530            17.863          8931.500
       251   11 Jun 2027 07:19:09.758   11 Jun 2027 07:19:10.224             0.466           233.000
       252   11 Jun 2027 07:20:50.500   11 Jun 2027 07:21:13.728            23.228         11614.000
       253   11 Jun 2027 08:52:25.789   11 Jun 2027 08:53:09.909            44.120         22060.000
       254   11 Jun 2027 08:54:44.365   11 Jun 2027 08:55:05.244            20.879         10439.500
       255   11 Jun 2027 08:55:49.499   11 Jun 2027 08:56:00.573            11.074          5537.000
       256   11 Jun 2027 08:56:26.776   11 Jun 2027 08:56:39.602            12.826          6413.000
       257   11 Jun 2027 10:26:40.012   11 Jun 2027 10:26:51.982            11.970          5985.000
       258   11 Jun 2027 10:28:25.329   11 Jun 2027 10:28:41.030            15.701          7850.500
       259   11 Jun 2027 10:29:16.364   11 Jun 2027 10:29:31.750            15.386          7693.000
       260   11 Jun 2027 10:30:35.902   11 Jun 2027 10:30:51.963            16.061          8030.500
       261   12 Jun 2027 04:12:44.246   12 Jun 2027 04:16:42.435           238.189        119094.500
       262   12 Jun 2027 04:17:22.805   12 Jun 2027 04:18:19.883            57.078         28539.000
       263   12 Jun 2027 04:18:35.574   12 Jun 2027 04:18:41.819             6.245          3122.500
       264   12 Jun 2027 04:19:11.831   12 Jun 2027 04:19:34.909            23.078         11539.000
       265   12 Jun 2027 04:20:35.618   12 Jun 2027 04:20:50.243            14.625          7312.500
       266   12 Jun 2027 04:21:17.044   12 Jun 2027 04:21:18.024             0.980           490.000
       267   12 Jun 2027 05:50:08.589   12 Jun 2027 05:52:40.848           152.259         76129.500
       268   12 Jun 2027 05:53:01.514   12 Jun 2027 05:53:23.277            21.763         10881.500
       269   12 Jun 2027 05:53:56.385   12 Jun 2027 05:53:57.171             0.786           393.000
       270   12 Jun 2027 05:54:30.851   12 Jun 2027 05:54:34.618             3.767          1883.500
       271   12 Jun 2027 05:54:41.180   12 Jun 2027 05:54:51.415            10.235          5117.500
       272   12 Jun 2027 05:55:44.820   12 Jun 2027 05:55:54.248             9.428          4714.000
       273   12 Jun 2027 07:27:12.390   12 Jun 2027 07:29:38.935           146.545         73272.500
       274   12 Jun 2027 07:30:21.804   12 Jun 2027 07:30:29.445             7.641          3820.500
       275   12 Jun 2027 07:30:49.812   12 Jun 2027 07:31:05.854            16.042          8021.000
       276   12 Jun 2027 07:32:45.288   12 Jun 2027 07:33:02.637            17.349          8674.500
       277   12 Jun 2027 09:03:57.168   12 Jun 2027 09:04:26.116            28.948         14474.000
       278   12 Jun 2027 09:04:38.971   12 Jun 2027 09:04:51.569            12.598          6299.000
       279   12 Jun 2027 09:06:05.733   12 Jun 2027 09:06:19.029            13.296          6648.000
       280   12 Jun 2027 09:07:22.801   12 Jun 2027 09:07:36.627            13.826          6913.000
       281   12 Jun 2027 09:08:04.203   12 Jun 2027 09:08:27.856            23.653         11826.500
       282   12 Jun 2027 10:39:13.370   12 Jun 2027 10:39:21.675             8.305          4152.500
       283   12 Jun 2027 10:40:54.465   12 Jun 2027 10:40:59.622             5.157          2578.500
       284   12 Jun 2027 10:41:44.542   12 Jun 2027 10:41:56.555            12.013          6006.500
       285   12 Jun 2027 10:42:48.066   12 Jun 2027 10:43:06.552            18.486          9243.000
       286   13 Jun 2027 04:25:17.499   13 Jun 2027 04:30:35.206           317.707        158853.500
       287   13 Jun 2027 04:31:35.960   13 Jun 2027 04:32:01.113            25.153         12576.500
       288   13 Jun 2027 04:32:31.013   13 Jun 2027 04:32:55.983            24.970         12485.000
       289   13 Jun 2027 06:02:22.088   13 Jun 2027 06:05:12.572           170.484         85242.000
       290   13 Jun 2027 06:05:40.603   13 Jun 2027 06:05:53.628            13.025          6512.500
       291   13 Jun 2027 06:06:42.606   13 Jun 2027 06:06:55.588            12.982          6491.000
       292   13 Jun 2027 06:08:29.731   13 Jun 2027 06:08:40.907            11.176          5588.000
       293   13 Jun 2027 07:39:17.905   13 Jun 2027 07:41:46.423           148.518         74259.000
       294   13 Jun 2027 07:43:21.967   13 Jun 2027 07:43:35.283            13.316          6658.000
       295   13 Jun 2027 09:16:04.422   13 Jun 2027 09:16:52.752            48.330         24165.000
       296   13 Jun 2027 09:17:19.604   13 Jun 2027 09:17:27.694             8.090          4045.000
       297   13 Jun 2027 09:18:39.543   13 Jun 2027 09:19:03.508            23.965         11982.500
       298   13 Jun 2027 09:19:19.374   13 Jun 2027 09:19:21.350             1.976           988.000
       299   13 Jun 2027 09:20:01.304   13 Jun 2027 09:20:13.803            12.499          6249.500
       300   13 Jun 2027 10:54:16.776   13 Jun 2027 10:54:32.082            15.306          7653.000
       301   13 Jun 2027 10:55:05.518   13 Jun 2027 10:55:07.545             2.027          1013.500
