uniorb/output/strategy_1/Camera/Camera_KinoSat_110207.txt

KinoSat_110207
-------------------------
    Access    *     Start Time (UTCG)     *     Stop Time (UTCG)  *   Duration (s) *   Data (Mbytes)
         1   01 Jun 2027 03:41:54.257   01 Jun 2027 03:43:19.873            85.616         42808.000
         2   01 Jun 2027 03:44:04.111   01 Jun 2027 03:44:08.954             4.843          2421.500
         3   01 Jun 2027 03:44:27.866   01 Jun 2027 03:44:46.766            18.900          9450.000
         4   01 Jun 2027 03:45:35.443   01 Jun 2027 03:45:56.590            21.147         10573.500
         5   01 Jun 2027 03:47:02.080   01 Jun 2027 03:47:11.439             9.359          4679.500
         6   01 Jun 2027 03:47:22.828   01 Jun 2027 03:48:06.603            43.775         21887.500
         7   01 Jun 2027 03:48:12.319   01 Jun 2027 03:48:35.030            22.711         11355.500
         8   01 Jun 2027 05:18:48.694   01 Jun 2027 05:22:04.191           195.497         97748.500
         9   01 Jun 2027 05:23:33.957   01 Jun 2027 05:23:51.255            17.298          8649.000
        10   01 Jun 2027 05:24:57.087   01 Jun 2027 05:25:07.053             9.966          4983.000
        11   01 Jun 2027 06:56:32.293   01 Jun 2027 06:59:40.294           188.001         94000.500
        12   01 Jun 2027 07:00:29.869   01 Jun 2027 07:00:39.106             9.237          4618.500
        13   01 Jun 2027 08:30:46.644   01 Jun 2027 08:31:46.902            60.258         30129.000
        14   01 Jun 2027 08:32:31.830   01 Jun 2027 08:33:08.726            36.896         18448.000
        15   01 Jun 2027 08:34:03.808   01 Jun 2027 08:34:18.168            14.360          7180.000
        16   01 Jun 2027 08:34:31.637   01 Jun 2027 08:34:32.599             0.962           481.000
        17   01 Jun 2027 08:34:44.390   01 Jun 2027 08:34:57.344            12.954          6477.000
        18   01 Jun 2027 08:35:22.310   01 Jun 2027 08:35:24.416             2.106          1053.000
        19   01 Jun 2027 08:35:27.606   01 Jun 2027 08:35:32.491             4.885          2442.500
        20   01 Jun 2027 08:35:43.924   01 Jun 2027 08:35:47.983             4.059          2029.500
        21   02 Jun 2027 03:54:15.168   02 Jun 2027 04:00:54.429           399.261        199630.500
        22   02 Jun 2027 05:31:18.918   02 Jun 2027 05:34:07.174           168.256         84128.000
        23   02 Jun 2027 05:36:03.343   02 Jun 2027 05:36:36.150            32.807         16403.500
        24   02 Jun 2027 05:36:49.018   02 Jun 2027 05:36:53.383             4.365          2182.500
        25   02 Jun 2027 05:36:54.249   02 Jun 2027 05:36:58.838             4.589          2294.500
        26   02 Jun 2027 07:08:03.762   02 Jun 2027 07:10:29.723           145.961         72980.500
        27   02 Jun 2027 07:10:52.000   02 Jun 2027 07:11:12.714            20.714         10357.000
        28   02 Jun 2027 08:43:20.038   02 Jun 2027 08:43:28.205             8.167          4083.500
        29   02 Jun 2027 08:45:01.130   02 Jun 2027 08:47:07.628           126.498         63249.000
        30   02 Jun 2027 08:47:32.904   02 Jun 2027 08:47:39.958             7.054          3527.000
        31   03 Jun 2027 04:06:28.682   03 Jun 2027 04:13:11.223           402.541        201270.500
        32   03 Jun 2027 05:43:24.488   03 Jun 2027 05:46:07.776           163.288         81644.000
        33   03 Jun 2027 05:46:11.009   03 Jun 2027 05:46:39.254            28.245         14122.500
        34   03 Jun 2027 05:47:41.905   03 Jun 2027 05:48:04.166            22.261         11130.500
        35   03 Jun 2027 07:20:10.991   03 Jun 2027 07:23:27.619           196.628         98314.000
        36   03 Jun 2027 07:23:50.449   03 Jun 2027 07:23:54.647             4.198          2099.000
        37   03 Jun 2027 07:24:05.831   03 Jun 2027 07:24:15.972            10.141          5070.500
        38   03 Jun 2027 08:58:23.388   03 Jun 2027 08:59:20.876            57.488         28744.000
        39   04 Jun 2027 04:18:57.813   04 Jun 2027 04:25:17.723           379.910        189955.000
        40   04 Jun 2027 05:56:27.748   04 Jun 2027 06:00:14.562           226.814        113407.000
        41   04 Jun 2027 07:32:32.500   04 Jun 2027 07:35:20.937           168.437         84218.500
        42   04 Jun 2027 07:35:35.559   04 Jun 2027 07:35:48.392            12.833          6416.500
        43   05 Jun 2027 03:00:00.000   05 Jun 2027 03:01:21.788            81.788         40894.000
        44   05 Jun 2027 04:30:59.385   05 Jun 2027 04:36:42.586           343.201        171600.500
        45   05 Jun 2027 06:08:33.381   05 Jun 2027 06:12:01.190           207.809        103904.500
        46   05 Jun 2027 07:44:34.686   05 Jun 2027 07:46:47.150           132.464         66232.000
        47   05 Jun 2027 07:47:48.472   05 Jun 2027 07:47:59.217            10.745          5372.500
        48   05 Jun 2027 07:48:15.384   05 Jun 2027 07:48:17.647             2.263          1131.500
        49   05 Jun 2027 07:48:24.513   05 Jun 2027 07:48:28.700             4.187          2093.500
        50   05 Jun 2027 07:49:24.740   05 Jun 2027 07:49:34.973            10.233          5116.500
        51   06 Jun 2027 03:06:09.593   06 Jun 2027 03:10:16.202           246.609        123304.500
        52   06 Jun 2027 03:11:11.673   06 Jun 2027 03:11:29.897            18.224          9112.000
        53   06 Jun 2027 03:11:48.589   06 Jun 2027 03:12:20.593            32.004         16002.000
        54   06 Jun 2027 03:12:55.876   06 Jun 2027 03:12:55.965             0.089            44.500
        55   06 Jun 2027 03:13:13.555   06 Jun 2027 03:13:24.253            10.698          5349.000
        56   06 Jun 2027 04:42:45.557   06 Jun 2027 04:45:45.857           180.300         90150.000
        57   06 Jun 2027 04:45:59.229   06 Jun 2027 04:45:59.464             0.235           117.500
        58   06 Jun 2027 04:46:06.217   06 Jun 2027 04:46:07.146             0.929           464.500
        59   06 Jun 2027 04:46:47.215   06 Jun 2027 04:47:01.225            14.010          7005.000
        60   06 Jun 2027 04:47:11.123   06 Jun 2027 04:47:17.798             6.675          3337.500
        61   06 Jun 2027 04:47:27.945   06 Jun 2027 04:47:32.256             4.311          2155.500
        62   06 Jun 2027 04:47:57.171   06 Jun 2027 04:48:36.612            39.441         19720.500
        63   06 Jun 2027 04:49:02.301   06 Jun 2027 04:49:02.301             0.000             0.000
        64   06 Jun 2027 06:21:03.326   06 Jun 2027 06:23:56.424           173.098         86549.000
        65   06 Jun 2027 06:24:17.623   06 Jun 2027 06:24:32.387            14.764          7382.000
        66   06 Jun 2027 07:54:23.631   06 Jun 2027 07:54:34.529            10.898          5449.000
        67   06 Jun 2027 07:56:23.119   06 Jun 2027 07:57:47.745            84.626         42313.000
        68   06 Jun 2027 07:58:20.829   06 Jun 2027 07:58:28.765             7.936          3968.000
        69   06 Jun 2027 07:58:46.412   06 Jun 2027 07:58:51.257             4.845          2422.500
        70   06 Jun 2027 07:59:27.254   06 Jun 2027 07:59:36.813             9.559          4779.500
        71   06 Jun 2027 08:00:07.381   06 Jun 2027 08:00:15.962             8.581          4290.500
        72   06 Jun 2027 08:00:55.498   06 Jun 2027 08:01:02.039             6.541          3270.500
        73   06 Jun 2027 08:01:17.810   06 Jun 2027 08:01:24.064             6.254          3127.000
        74   07 Jun 2027 03:18:02.922   07 Jun 2027 03:22:11.623           248.701        124350.500
        75   07 Jun 2027 03:23:15.704   07 Jun 2027 03:23:28.727            13.023          6511.500
        76   07 Jun 2027 03:23:48.698   07 Jun 2027 03:24:31.553            42.855         21427.500
        77   07 Jun 2027 03:24:35.149   07 Jun 2027 03:24:50.295            15.146          7573.000
        78   07 Jun 2027 03:25:28.864   07 Jun 2027 03:25:32.556             3.692          1846.000
        79   07 Jun 2027 04:55:06.689   07 Jun 2027 04:58:04.788           178.099         89049.500
        80   07 Jun 2027 05:00:46.973   07 Jun 2027 05:00:57.422            10.449          5224.500
        81   07 Jun 2027 05:01:00.371   07 Jun 2027 05:01:17.393            17.022          8511.000
        82   07 Jun 2027 06:33:00.969   07 Jun 2027 06:35:28.372           147.403         73701.500
        83   07 Jun 2027 06:35:47.534   07 Jun 2027 06:35:53.986             6.452          3226.000
        84   07 Jun 2027 08:06:13.594   07 Jun 2027 08:07:39.841            86.247         43123.500
        85   07 Jun 2027 08:09:03.417   07 Jun 2027 08:09:08.177             4.760          2380.000
        86   07 Jun 2027 08:09:23.089   07 Jun 2027 08:09:38.949            15.860          7930.000
        87   07 Jun 2027 08:10:28.569   07 Jun 2027 08:10:28.569             0.000             0.000
        88   07 Jun 2027 08:10:46.044   07 Jun 2027 08:10:59.604            13.560          6780.000
        89   07 Jun 2027 08:11:41.248   07 Jun 2027 08:11:41.570             0.322           161.000
        90   07 Jun 2027 08:11:52.560   07 Jun 2027 08:11:59.102             6.542          3271.000
        91   07 Jun 2027 08:12:16.387   07 Jun 2027 08:12:30.172            13.785          6892.500
        92   08 Jun 2027 03:30:15.006   08 Jun 2027 03:34:43.393           268.387        134193.500
        93   08 Jun 2027 03:35:35.306   08 Jun 2027 03:35:49.115            13.809          6904.500
        94   08 Jun 2027 03:36:22.984   08 Jun 2027 03:37:17.530            54.546         27273.000
        95   08 Jun 2027 03:37:31.777   08 Jun 2027 03:37:36.054             4.277          2138.500
        96   08 Jun 2027 05:06:57.766   08 Jun 2027 05:10:10.061           192.295         96147.500
        97   08 Jun 2027 05:11:50.748   08 Jun 2027 05:11:56.168             5.420          2710.000
        98   08 Jun 2027 05:12:19.353   08 Jun 2027 05:12:38.773            19.420          9710.000
        99   08 Jun 2027 05:13:33.557   08 Jun 2027 05:13:35.684             2.127          1063.500
       100   08 Jun 2027 06:45:00.787   08 Jun 2027 06:47:17.293           136.506         68253.000
       101   08 Jun 2027 06:47:55.253   08 Jun 2027 06:48:12.287            17.034          8517.000
       102   08 Jun 2027 06:48:32.081   08 Jun 2027 06:48:34.436             2.355          1177.500
       103   08 Jun 2027 08:18:41.546   08 Jun 2027 08:19:05.163            23.617         11808.500
       104   08 Jun 2027 08:20:06.529   08 Jun 2027 08:20:20.682            14.153          7076.500
       105   08 Jun 2027 08:20:45.433   08 Jun 2027 08:20:57.000            11.567          5783.500
       106   08 Jun 2027 08:22:36.400   08 Jun 2027 08:22:56.073            19.673          9836.500
       107   08 Jun 2027 08:23:20.588   08 Jun 2027 08:23:23.795             3.207          1603.500
       108   08 Jun 2027 08:23:49.043   08 Jun 2027 08:23:59.990            10.947          5473.500
       109   08 Jun 2027 08:24:17.076   08 Jun 2027 08:24:18.137             1.061           530.500
       110   08 Jun 2027 08:24:39.706   08 Jun 2027 08:24:51.570            11.864          5932.000
       111   08 Jun 2027 08:25:39.236   08 Jun 2027 08:26:01.524            22.288         11144.000
       112   09 Jun 2027 03:42:09.010   09 Jun 2027 03:47:18.521           309.511        154755.500
       113   09 Jun 2027 03:47:37.897   09 Jun 2027 03:48:50.039            72.142         36071.000
       114   09 Jun 2027 03:49:22.685   09 Jun 2027 03:49:37.455            14.770          7385.000
       115   09 Jun 2027 05:19:03.847   09 Jun 2027 05:21:44.331           160.484         80242.000
       116   09 Jun 2027 05:24:05.675   09 Jun 2027 05:24:24.236            18.561          9280.500
       117   09 Jun 2027 05:24:44.424   09 Jun 2027 05:25:22.257            37.833         18916.500
       118   09 Jun 2027 06:56:46.928   09 Jun 2027 06:59:22.665           155.737         77868.500
       119   09 Jun 2027 06:59:59.005   09 Jun 2027 07:00:10.905            11.900          5950.000
       120   09 Jun 2027 07:01:01.036   09 Jun 2027 07:01:08.813             7.777          3888.500
       121   09 Jun 2027 08:31:01.880   09 Jun 2027 08:31:13.418            11.538          5769.000
       122   09 Jun 2027 08:31:31.551   09 Jun 2027 08:31:39.422             7.871          3935.500
       123   09 Jun 2027 08:31:54.250   09 Jun 2027 08:32:11.028            16.778          8389.000
       124   09 Jun 2027 08:32:48.487   09 Jun 2027 08:32:58.521            10.034          5017.000
       125   09 Jun 2027 08:34:51.118   09 Jun 2027 08:35:07.570            16.452          8226.000
       126   09 Jun 2027 08:35:26.934   09 Jun 2027 08:35:36.936            10.002          5001.000
       127   10 Jun 2027 03:54:30.135   10 Jun 2027 04:01:33.963           423.828        211914.000
       128   10 Jun 2027 05:31:33.710   10 Jun 2027 05:35:26.464           232.754        116377.000
       129   10 Jun 2027 05:35:56.509   10 Jun 2027 05:35:58.175             1.666           833.000
       130   10 Jun 2027 05:37:03.696   10 Jun 2027 05:37:17.843            14.147          7073.500
       131   10 Jun 2027 07:08:18.795   10 Jun 2027 07:10:35.311           136.516         68258.000
       132   10 Jun 2027 07:11:34.984   10 Jun 2027 07:11:45.283            10.299          5149.500
       133   10 Jun 2027 07:12:05.782   10 Jun 2027 07:12:09.571             3.789          1894.500
       134   10 Jun 2027 07:12:27.779   10 Jun 2027 07:12:32.465             4.686          2343.000
       135   10 Jun 2027 07:12:32.803   10 Jun 2027 07:12:45.047            12.244          6122.000
       136   10 Jun 2027 08:43:35.137   10 Jun 2027 08:43:42.782             7.645          3822.500
       137   10 Jun 2027 08:45:16.551   10 Jun 2027 08:46:15.769            59.218         29609.000
       138   11 Jun 2027 04:06:43.324   11 Jun 2027 04:13:06.004           382.680        191340.000
       139   11 Jun 2027 05:43:39.435   11 Jun 2027 05:46:34.624           175.189         87594.500
       140   11 Jun 2027 05:46:54.146   11 Jun 2027 05:47:36.819            42.673         21336.500
       141   11 Jun 2027 05:48:08.017   11 Jun 2027 05:48:18.845            10.828          5414.000
       142   11 Jun 2027 07:20:25.768   11 Jun 2027 07:23:04.524           158.756         79378.000
       143   11 Jun 2027 07:24:09.647   11 Jun 2027 07:24:31.146            21.499         10749.500
       144   11 Jun 2027 08:58:38.530   11 Jun 2027 08:58:55.130            16.600          8300.000
       145   11 Jun 2027 08:59:06.236   11 Jun 2027 08:59:07.030             0.794           397.000
       146   11 Jun 2027 08:59:08.049   11 Jun 2027 08:59:30.875            22.826         11413.000
       147   12 Jun 2027 04:19:13.082   12 Jun 2027 04:25:17.840           364.758        182379.000
       148   12 Jun 2027 05:56:41.727   12 Jun 2027 06:00:23.196           221.469        110734.500
       149   12 Jun 2027 07:32:47.668   12 Jun 2027 07:35:02.928           135.260         67630.000
       150   12 Jun 2027 07:36:07.465   12 Jun 2027 07:36:27.147            19.682          9841.000
       151   13 Jun 2027 03:00:00.000   13 Jun 2027 03:01:36.597            96.597         48298.500
       152   13 Jun 2027 04:31:13.431   13 Jun 2027 04:36:51.526           338.095        169047.500
       153   13 Jun 2027 04:36:55.796   13 Jun 2027 04:36:58.038             2.242          1121.000
       154   13 Jun 2027 04:37:17.255   13 Jun 2027 04:37:21.544             4.289          2144.500
       155   13 Jun 2027 06:08:48.105   13 Jun 2027 06:11:51.671           183.566         91783.000
       156   13 Jun 2027 06:12:27.635   13 Jun 2027 06:12:28.763             1.128           564.000
       157   13 Jun 2027 06:12:34.824   13 Jun 2027 06:12:43.957             9.133          4566.500
       158   13 Jun 2027 06:13:15.480   13 Jun 2027 06:13:19.260             3.780          1890.000
       159   13 Jun 2027 07:44:49.633   13 Jun 2027 07:47:14.636           145.003         72501.500
       160   13 Jun 2027 07:47:29.106   13 Jun 2027 07:47:38.382             9.276          4638.000
       161   13 Jun 2027 07:48:31.052   13 Jun 2027 07:48:33.008             1.956           978.000
       162   13 Jun 2027 07:48:51.009   13 Jun 2027 07:49:01.094            10.085          5042.500
       163   13 Jun 2027 07:49:48.141   13 Jun 2027 07:49:50.371             2.230          1115.000
