uniorb/output/strategy_1/Camera/Camera_KinoSat_110806.txt

KinoSat_110806
-------------------------
    Access    *     Start Time (UTCG)     *     Stop Time (UTCG)  *   Duration (s) *   Data (Mbytes)
         1   01 Jun 2027 03:26:00.902   01 Jun 2027 03:27:38.878            97.976         48988.000
         2   01 Jun 2027 05:01:55.788   01 Jun 2027 05:03:54.219           118.431         59215.500
         3   01 Jun 2027 05:05:34.107   01 Jun 2027 05:05:42.725             8.618          4309.000
         4   01 Jun 2027 05:05:51.139   01 Jun 2027 05:05:54.380             3.241          1620.500
         5   01 Jun 2027 06:36:51.888   01 Jun 2027 06:38:28.452            96.564         48282.000
         6   01 Jun 2027 06:39:33.506   01 Jun 2027 06:39:35.042             1.536           768.000
         7   01 Jun 2027 06:42:21.336   01 Jun 2027 06:42:42.281            20.945         10472.500
         8   01 Jun 2027 08:13:10.823   01 Jun 2027 08:15:30.382           139.559         69779.500
         9   01 Jun 2027 08:16:30.502   01 Jun 2027 08:16:41.528            11.026          5513.000
        10   01 Jun 2027 09:51:26.092   01 Jun 2027 09:53:20.318           114.226         57113.000
        11   01 Jun 2027 09:54:18.374   01 Jun 2027 09:54:34.637            16.263          8131.500
        12   01 Jun 2027 11:26:46.320   01 Jun 2027 11:28:51.780           125.460         62730.000
        13   01 Jun 2027 11:29:47.279   01 Jun 2027 11:29:57.706            10.427          5213.500
        14   02 Jun 2027 03:36:38.683   02 Jun 2027 03:36:56.203            17.520          8760.000
        15   02 Jun 2027 03:39:39.730   02 Jun 2027 03:39:52.294            12.564          6282.000
        16   02 Jun 2027 03:40:12.299   02 Jun 2027 03:40:29.782            17.483          8741.500
        17   02 Jun 2027 05:12:14.467   02 Jun 2027 05:12:52.899            38.432         19216.000
        18   02 Jun 2027 05:13:39.754   02 Jun 2027 05:15:28.566           108.812         54406.000
        19   02 Jun 2027 05:17:57.314   02 Jun 2027 05:17:57.314             0.000             0.000
        20   02 Jun 2027 06:48:25.265   02 Jun 2027 06:49:39.036            73.771         36885.500
        21   02 Jun 2027 06:49:53.573   02 Jun 2027 06:50:28.238            34.665         17332.500
        22   02 Jun 2027 06:52:32.654   02 Jun 2027 06:52:34.336             1.682           841.000
        23   02 Jun 2027 06:53:01.708   02 Jun 2027 06:53:09.241             7.533          3766.500
        24   02 Jun 2027 08:25:30.181   02 Jun 2027 08:27:54.430           144.249         72124.500
        25   02 Jun 2027 08:29:54.980   02 Jun 2027 08:30:01.622             6.642          3321.000
        26   02 Jun 2027 08:30:22.762   02 Jun 2027 08:30:31.461             8.699          4349.500
        27   02 Jun 2027 10:03:29.164   02 Jun 2027 10:05:30.574           121.410         60705.000
        28   02 Jun 2027 11:36:37.943   02 Jun 2027 11:38:21.533           103.590         51795.000
        29   02 Jun 2027 11:40:09.434   02 Jun 2027 11:40:17.033             7.599          3799.500
        30   02 Jun 2027 11:42:46.020   02 Jun 2027 11:42:52.388             6.368          3184.000
        31   02 Jun 2027 11:44:33.053   02 Jun 2027 11:44:34.043             0.990           495.000
        32   03 Jun 2027 03:48:16.964   03 Jun 2027 03:48:37.292            20.328         10164.000
        33   03 Jun 2027 03:48:47.695   03 Jun 2027 03:48:55.888             8.193          4096.500
        34   03 Jun 2027 03:52:14.661   03 Jun 2027 03:52:14.851             0.190            95.000
        35   03 Jun 2027 03:52:48.724   03 Jun 2027 03:52:59.863            11.139          5569.500
        36   03 Jun 2027 03:53:11.636   03 Jun 2027 03:53:18.027             6.391          3195.500
        37   03 Jun 2027 05:23:20.924   03 Jun 2027 05:25:04.289           103.365         51682.500
        38   03 Jun 2027 05:25:24.131   03 Jun 2027 05:25:48.439            24.308         12154.000
        39   03 Jun 2027 05:26:30.546   03 Jun 2027 05:26:40.187             9.641          4820.500
        40   03 Jun 2027 05:29:36.802   03 Jun 2027 05:29:48.056            11.254          5627.000
        41   03 Jun 2027 07:00:43.285   03 Jun 2027 07:03:07.565           144.280         72140.000
        42   03 Jun 2027 07:05:40.323   03 Jun 2027 07:05:43.594             3.271          1635.500
        43   03 Jun 2027 07:06:07.733   03 Jun 2027 07:06:07.733             0.000             0.000
        44   03 Jun 2027 07:07:00.067   03 Jun 2027 07:07:08.624             8.557          4278.500
        45   03 Jun 2027 07:07:50.972   03 Jun 2027 07:07:51.343             0.371           185.500
        46   03 Jun 2027 07:08:02.529   03 Jun 2027 07:08:02.960             0.431           215.500
        47   03 Jun 2027 08:37:31.663   03 Jun 2027 08:39:20.382           108.719         54359.500
        48   03 Jun 2027 08:39:54.111   03 Jun 2027 08:40:34.735            40.624         20312.000
        49   03 Jun 2027 08:42:45.147   03 Jun 2027 08:42:50.608             5.461          2730.500
        50   03 Jun 2027 10:15:28.794   03 Jun 2027 10:16:42.665            73.871         36935.500
        51   03 Jun 2027 10:16:47.062   03 Jun 2027 10:16:52.245             5.183          1359.500
        52   03 Jun 2027 10:18:04.606   03 Jun 2027 10:18:08.492             3.886          1943.000
        53   03 Jun 2027 10:18:53.256   03 Jun 2027 10:18:56.529             3.273          1636.500
        54   03 Jun 2027 10:19:06.887   03 Jun 2027 10:19:10.602             3.715           404.344
        55   03 Jun 2027 10:19:23.245   03 Jun 2027 10:19:24.354             1.109           395.094
        56   03 Jun 2027 11:49:05.357   03 Jun 2027 11:49:17.428            12.071          3538.656
        57   03 Jun 2027 11:49:33.600   03 Jun 2027 11:49:37.718             4.118           113.438
        58   03 Jun 2027 11:50:29.567   03 Jun 2027 11:50:40.304            10.737          1620.281
        59   03 Jun 2027 11:50:47.439   03 Jun 2027 11:50:47.439             0.000             0.000
        60   03 Jun 2027 11:51:14.734   03 Jun 2027 11:51:18.806             4.072          1075.937
        61   03 Jun 2027 11:52:47.243   03 Jun 2027 11:52:51.745             4.502          2251.000
        62   03 Jun 2027 11:53:49.264   03 Jun 2027 11:53:55.600             6.336          2184.500
        63   03 Jun 2027 11:54:58.118   03 Jun 2027 11:54:59.687             1.569           784.500
        64   03 Jun 2027 11:55:01.054   03 Jun 2027 11:55:06.867             5.813          1211.906
        65   03 Jun 2027 11:55:10.549   03 Jun 2027 11:55:10.549             0.000             0.000
        66   03 Jun 2027 11:55:57.235   03 Jun 2027 11:56:09.934            12.699          1499.875
        67   04 Jun 2027 04:00:00.840   04 Jun 2027 04:00:38.520            37.680         18840.000
        68   04 Jun 2027 04:03:56.445   04 Jun 2027 04:04:11.793            15.348          7674.000
        69   04 Jun 2027 04:05:29.599   04 Jun 2027 04:05:40.337            10.738          5369.000
        70   04 Jun 2027 05:34:49.132   04 Jun 2027 05:37:03.357           134.225         67112.500
        71   04 Jun 2027 05:38:51.838   04 Jun 2027 05:39:08.978            17.140          8570.000
        72   04 Jun 2027 05:40:46.974   04 Jun 2027 05:40:50.023             3.049          1524.500
        73   04 Jun 2027 05:41:47.648   04 Jun 2027 05:41:54.425             6.777          3388.500
        74   04 Jun 2027 07:12:38.162   04 Jun 2027 07:14:50.045           131.883         65941.500
        75   04 Jun 2027 07:15:05.082   04 Jun 2027 07:15:21.805            16.723          8361.500
        76   04 Jun 2027 07:16:05.472   04 Jun 2027 07:16:05.532             0.060            30.000
        77   04 Jun 2027 07:18:36.103   04 Jun 2027 07:18:47.234            11.131          5565.500
        78   04 Jun 2027 08:49:22.556   04 Jun 2027 08:49:34.645            12.089          6044.500
        79   04 Jun 2027 08:49:52.511   04 Jun 2027 08:50:21.304            28.793         13493.438
        80   04 Jun 2027 08:51:28.864   04 Jun 2027 08:51:34.439             5.575          2016.406
        81   04 Jun 2027 08:52:10.357   04 Jun 2027 08:52:11.164             0.807           403.500
        82   04 Jun 2027 08:52:39.617   04 Jun 2027 08:52:42.673             3.056          1387.125
        83   04 Jun 2027 08:52:55.498   04 Jun 2027 08:52:59.294             3.796           213.656
        84   04 Jun 2027 08:53:04.876   04 Jun 2027 08:53:05.577             0.701           174.437
        85   04 Jun 2027 08:53:39.306   04 Jun 2027 08:53:45.000             5.694           910.000
        86   04 Jun 2027 08:54:14.472   04 Jun 2027 08:54:16.231             1.759           843.875
        87   04 Jun 2027 08:54:43.202   04 Jun 2027 08:54:45.288             2.086           820.375
        88   04 Jun 2027 08:55:41.930   04 Jun 2027 08:55:48.496             6.566          1752.406
        89   04 Jun 2027 10:27:30.510   04 Jun 2027 10:27:45.521            15.011          7062.344
        90   04 Jun 2027 10:28:53.672   04 Jun 2027 10:29:01.000             7.328          2129.719
        91   04 Jun 2027 10:29:24.004   04 Jun 2027 10:29:29.786             5.782           718.875
        92   04 Jun 2027 10:29:29.958   04 Jun 2027 10:29:31.241             1.283             5.375
        93   04 Jun 2027 10:30:24.982   04 Jun 2027 10:30:27.201             2.219          1109.500
        94   04 Jun 2027 10:30:28.657   04 Jun 2027 10:30:30.802             2.145           583.500
        95   04 Jun 2027 10:30:53.921   04 Jun 2027 10:30:55.964             2.043           463.094
        96   04 Jun 2027 10:31:08.401   04 Jun 2027 10:31:10.310             1.909           254.344
        97   04 Jun 2027 10:31:12.680   04 Jun 2027 10:31:13.904             1.224            74.063
        98   04 Jun 2027 10:31:34.958   04 Jun 2027 10:31:36.890             1.932            90.344
        99   05 Jun 2027 04:13:46.821   05 Jun 2027 04:14:30.227            43.406         21703.000
       100   05 Jun 2027 04:14:58.093   05 Jun 2027 04:14:58.093             0.000             0.000
       101   05 Jun 2027 04:17:01.836   05 Jun 2027 04:17:41.912            40.076         20038.000
       102   05 Jun 2027 05:47:37.709   05 Jun 2027 05:49:38.655           120.946         60473.000
       103   05 Jun 2027 05:49:46.689   05 Jun 2027 05:50:05.382            18.693          9346.500
       104   05 Jun 2027 05:55:22.860   05 Jun 2027 05:55:40.540            17.680          8840.000
       105   05 Jun 2027 07:24:44.585   05 Jun 2027 07:25:23.928            39.343         19671.500
       106   05 Jun 2027 07:25:38.634   05 Jun 2027 07:25:53.069            14.435          7217.500
       107   05 Jun 2027 07:26:42.925   05 Jun 2027 07:28:03.813            80.888         39547.719
       108   05 Jun 2027 07:29:56.920   05 Jun 2027 07:30:04.599             7.679          3523.062
       109   05 Jun 2027 07:31:40.573   05 Jun 2027 07:31:44.122             3.549          1774.500
       110   05 Jun 2027 09:01:47.343   05 Jun 2027 09:02:12.358            25.015         12371.750
       111   05 Jun 2027 09:02:47.456   05 Jun 2027 09:02:50.419             2.963           835.406
       112   05 Jun 2027 09:03:37.140   05 Jun 2027 09:03:39.403             2.263           311.781
       113   05 Jun 2027 09:04:03.299   05 Jun 2027 09:04:05.010             1.711           746.750
       114   05 Jun 2027 09:04:38.696   05 Jun 2027 09:04:41.902             3.206           908.656
       115   05 Jun 2027 09:05:12.372   05 Jun 2027 09:05:12.793             0.421           210.500
       116   05 Jun 2027 09:05:39.405   05 Jun 2027 09:05:42.175             2.770          1385.000
       117   05 Jun 2027 09:06:06.049   05 Jun 2027 09:06:06.436             0.387           193.500
       118   05 Jun 2027 09:06:18.282   05 Jun 2027 09:06:21.355             3.073           933.063
       119   05 Jun 2027 09:07:02.489   05 Jun 2027 09:07:04.991             2.502          1156.031
       120   05 Jun 2027 10:38:44.832   05 Jun 2027 10:38:59.160            14.328          7164.000
       121   05 Jun 2027 10:39:05.226   05 Jun 2027 10:39:07.596             2.370           471.937
       122   05 Jun 2027 10:39:21.291   05 Jun 2027 10:39:21.291             0.000             0.000
       123   05 Jun 2027 10:39:59.152   05 Jun 2027 10:40:02.597             3.445          1554.344
       124   05 Jun 2027 10:40:54.486   05 Jun 2027 10:40:58.466             3.980          1509.437
       125   05 Jun 2027 10:41:24.674   05 Jun 2027 10:41:27.093             2.419           704.469
       126   05 Jun 2027 10:42:38.905   05 Jun 2027 10:42:44.623             5.718          1735.781
       127   06 Jun 2027 04:26:08.559   06 Jun 2027 04:27:21.949            73.390         36695.000
       128   06 Jun 2027 04:27:39.631   06 Jun 2027 04:28:00.450            20.819         10409.500
       129   06 Jun 2027 05:59:49.706   06 Jun 2027 06:01:43.560           113.854         56927.000
       130   06 Jun 2027 06:02:09.552   06 Jun 2027 06:02:23.638            14.086          7043.000
       131   06 Jun 2027 06:02:41.786   06 Jun 2027 06:02:52.662            10.876          5438.000
       132   06 Jun 2027 06:06:52.275   06 Jun 2027 06:06:52.852             0.577           288.500
       133   06 Jun 2027 06:07:12.196   06 Jun 2027 06:07:15.776             3.580          1790.000
       134   06 Jun 2027 06:07:44.289   06 Jun 2027 06:07:51.266             6.977          3488.500
       135   06 Jun 2027 07:37:10.699   06 Jun 2027 07:38:55.553           104.854         52197.718
       136   06 Jun 2027 07:40:13.311   06 Jun 2027 07:40:16.739             3.428          1547.500
       137   06 Jun 2027 07:40:42.972   06 Jun 2027 07:40:44.410             1.438           699.062
       138   06 Jun 2027 07:41:26.861   06 Jun 2027 07:41:29.554             2.693          1109.500
       139   06 Jun 2027 07:42:29.202   06 Jun 2027 07:42:29.202             0.000             0.000
       140   06 Jun 2027 07:43:11.091   06 Jun 2027 07:43:19.167             8.076          3052.406
       141   06 Jun 2027 07:43:50.287   06 Jun 2027 07:43:52.599             2.312           972.500
       142   06 Jun 2027 09:14:07.670   06 Jun 2027 09:14:37.855            30.185         13385.188
       143   06 Jun 2027 09:14:54.225   06 Jun 2027 09:15:00.540             6.315           262.656
       144   06 Jun 2027 09:15:29.077   06 Jun 2027 09:15:31.142             2.065           774.156
       145   06 Jun 2027 09:15:55.237   06 Jun 2027 09:15:57.757             2.520           489.563
       146   06 Jun 2027 09:16:42.793   06 Jun 2027 09:16:45.742             2.949          1071.062
       147   06 Jun 2027 09:17:19.602   06 Jun 2027 09:17:19.602             0.000             0.000
       148   06 Jun 2027 09:17:31.298   06 Jun 2027 09:17:34.822             3.524          1423.625
       149   06 Jun 2027 09:18:31.207   06 Jun 2027 09:18:35.930             4.723          1481.281
       150   06 Jun 2027 09:19:01.625   06 Jun 2027 09:19:01.625             0.000             0.000
       151   06 Jun 2027 09:19:28.872   06 Jun 2027 09:19:34.786             5.914          1654.437
       152   06 Jun 2027 10:50:58.121   06 Jun 2027 10:51:13.125            15.004          6982.562
       153   06 Jun 2027 10:52:00.533   06 Jun 2027 10:52:04.570             4.037          1175.125
       154   06 Jun 2027 10:52:32.338   06 Jun 2027 10:52:34.676             2.338           867.750
       155   06 Jun 2027 10:53:10.631   06 Jun 2027 10:53:15.297             4.666          1030.969
       156   06 Jun 2027 10:53:18.884   06 Jun 2027 10:53:18.884             0.000             0.000
       157   06 Jun 2027 10:53:59.017   06 Jun 2027 10:54:04.908             5.891          1366.250
       158   06 Jun 2027 10:54:47.897   06 Jun 2027 10:54:48.588             0.691           345.500
       159   06 Jun 2027 10:54:51.569   06 Jun 2027 10:54:55.273             3.704          1091.063
       160   07 Jun 2027 03:01:31.489   07 Jun 2027 03:01:35.617             4.128          2064.000
       161   07 Jun 2027 03:02:02.298   07 Jun 2027 03:02:14.481            12.183          6091.500
       162   07 Jun 2027 03:03:42.639   07 Jun 2027 03:03:42.639             0.000             0.000
       163   07 Jun 2027 03:03:53.905   07 Jun 2027 03:04:07.011            13.106          6553.000
       164   07 Jun 2027 04:38:10.990   07 Jun 2027 04:38:47.435            36.445         18222.500
       165   07 Jun 2027 04:39:15.753   07 Jun 2027 04:40:04.658            48.905         24452.500
       166   07 Jun 2027 04:40:23.478   07 Jun 2027 04:40:23.478             0.000             0.000
       167   07 Jun 2027 04:40:26.479   07 Jun 2027 04:40:36.337             9.858          4929.000
       168   07 Jun 2027 06:13:05.835   07 Jun 2027 06:14:47.150           101.315         50657.500
       169   07 Jun 2027 06:16:09.491   07 Jun 2027 06:16:18.820             9.329          4664.500
       170   07 Jun 2027 06:18:13.027   07 Jun 2027 06:18:16.124             3.097          1548.500
       171   07 Jun 2027 06:18:57.137   07 Jun 2027 06:19:00.936             3.799          1899.500
       172   07 Jun 2027 06:19:08.915   07 Jun 2027 06:19:09.271             0.356           178.000
       173   07 Jun 2027 06:19:58.030   07 Jun 2027 06:20:00.412             2.382          1191.000
       174   07 Jun 2027 07:49:18.134   07 Jun 2027 07:51:09.912           111.778         53160.093
       175   07 Jun 2027 07:52:00.960   07 Jun 2027 07:52:05.111             4.151          1289.875
       176   07 Jun 2027 07:52:54.260   07 Jun 2027 07:52:58.575             4.315          1535.906
       177   07 Jun 2027 07:53:33.587   07 Jun 2027 07:53:35.873             2.286          1005.469
       178   07 Jun 2027 07:53:47.916   07 Jun 2027 07:53:50.001             2.085           337.438
       179   07 Jun 2027 07:54:29.176   07 Jun 2027 07:54:30.181             1.005           502.500
       180   07 Jun 2027 07:55:08.093   07 Jun 2027 07:55:16.373             8.280          1798.531
       181   07 Jun 2027 09:27:02.035   07 Jun 2027 09:27:24.514            22.479          9579.969
       182   07 Jun 2027 09:27:47.938   07 Jun 2027 09:27:52.231             4.293           668.281
       183   07 Jun 2027 09:28:06.719   07 Jun 2027 09:28:09.439             2.720           122.625
       184   07 Jun 2027 09:28:51.204   07 Jun 2027 09:28:55.961             4.757          1305.156
       185   07 Jun 2027 09:29:27.143   07 Jun 2027 09:29:28.807             1.664           832.000
       186   07 Jun 2027 09:30:07.589   07 Jun 2027 09:30:09.217             1.628           814.000
       187   07 Jun 2027 09:30:25.713   07 Jun 2027 09:30:27.834             2.121          1055.875
       188   07 Jun 2027 09:30:29.880   07 Jun 2027 09:30:32.172             2.292            63.938
       189   07 Jun 2027 09:30:49.069   07 Jun 2027 09:30:50.762             1.693           136.750
       190   07 Jun 2027 09:31:19.298   07 Jun 2027 09:31:21.140             1.842           891.750
       191   07 Jun 2027 11:03:08.162   07 Jun 2027 11:03:24.502            16.340          7448.000
       192   07 Jun 2027 11:03:52.168   07 Jun 2027 11:03:56.938             4.770           864.562
       193   07 Jun 2027 11:04:05.282   07 Jun 2027 11:04:09.082             3.800           101.719
       194   07 Jun 2027 11:05:09.582   07 Jun 2027 11:05:12.704             3.122          1441.656
       195   07 Jun 2027 11:05:23.700   07 Jun 2027 11:05:23.700             0.000             0.000
       196   07 Jun 2027 11:06:25.597   07 Jun 2027 11:06:30.208             4.611          2222.156
       197   07 Jun 2027 11:07:08.925   07 Jun 2027 11:07:10.402             1.477           738.500
       198   08 Jun 2027 03:13:45.924   08 Jun 2027 03:14:03.591            17.667          8833.500
       199   08 Jun 2027 03:14:35.239   08 Jun 2027 03:14:39.408             4.169          2084.500
       200   08 Jun 2027 03:15:03.121   08 Jun 2027 03:15:08.016             4.895          2447.500
       201   08 Jun 2027 03:15:12.020   08 Jun 2027 03:15:16.336             4.316          2158.000
       202   08 Jun 2027 03:16:44.825   08 Jun 2027 03:16:44.825             0.000             0.000
       203   08 Jun 2027 04:50:17.724   08 Jun 2027 04:52:20.137           122.413         61206.500
       204   08 Jun 2027 06:25:27.888   08 Jun 2027 06:27:04.890            97.002         48501.000
       205   08 Jun 2027 06:30:34.243   08 Jun 2027 06:31:00.175            25.932         12966.000
       206   08 Jun 2027 06:31:08.224   08 Jun 2027 06:31:15.526             7.302          3651.000
       207   08 Jun 2027 06:31:52.507   08 Jun 2027 06:31:53.900             1.393           696.500
       208   08 Jun 2027 08:01:52.196   08 Jun 2027 08:03:02.600            70.404         34042.406
       209   08 Jun 2027 08:03:09.333   08 Jun 2027 08:03:10.464             1.131           210.406
       210   08 Jun 2027 08:04:21.433   08 Jun 2027 08:04:28.640             7.207          2075.938
       211   08 Jun 2027 08:05:27.187   08 Jun 2027 08:05:27.754             0.567           283.500
       212   08 Jun 2027 08:05:52.159   08 Jun 2027 08:05:58.298             6.139          1641.156
       213   08 Jun 2027 08:07:03.818   08 Jun 2027 08:07:08.637             4.819          1552.281
       214   08 Jun 2027 08:07:39.582   08 Jun 2027 08:07:43.497             3.915           870.625
       215   08 Jun 2027 09:39:08.149   08 Jun 2027 09:39:24.489            16.340          8170.000
       216   08 Jun 2027 09:39:45.141   08 Jun 2027 09:39:51.452             6.311          1845.406
       217   08 Jun 2027 09:41:02.000   08 Jun 2027 09:41:08.556             6.556          2159.813
       218   08 Jun 2027 09:41:15.410   08 Jun 2027 09:41:15.884             0.474            58.656
       219   08 Jun 2027 09:41:55.007   08 Jun 2027 09:41:57.485             2.478           880.281
       220   08 Jun 2027 09:42:48.980   08 Jun 2027 09:42:52.027             3.047          1405.719
       221   08 Jun 2027 09:43:21.943   08 Jun 2027 09:43:25.698             3.755           934.875
       222   08 Jun 2027 11:15:22.370   08 Jun 2027 11:15:37.614            15.244          7207.375
       223   08 Jun 2027 11:15:56.873   08 Jun 2027 11:15:59.577             2.704           524.187
       224   08 Jun 2027 11:16:15.316   08 Jun 2027 11:16:19.741             4.425           366.031
       225   08 Jun 2027 11:16:56.566   08 Jun 2027 11:17:00.603             4.037          1150.781
       226   08 Jun 2027 11:17:25.530   08 Jun 2027 11:17:29.602             4.072           778.969
       227   08 Jun 2027 11:18:35.363   08 Jun 2027 11:18:40.439             5.076          1921.219
       228   08 Jun 2027 11:18:48.563   08 Jun 2027 11:18:50.706             2.143            62.687
       229   08 Jun 2027 11:19:01.702   08 Jun 2027 11:19:04.252             2.550           219.156
       230   08 Jun 2027 11:19:23.755   08 Jun 2027 11:19:31.712             7.957           508.781
       231   08 Jun 2027 11:19:40.376   08 Jun 2027 11:19:43.845             3.469           172.781
       232   09 Jun 2027 03:26:15.654   09 Jun 2027 03:26:57.718            42.064         21032.000
       233   09 Jun 2027 03:27:10.041   09 Jun 2027 03:27:13.441             3.400          1700.000
       234   09 Jun 2027 05:02:10.434   09 Jun 2027 05:04:33.640           143.206         71603.000
       235   09 Jun 2027 06:37:06.493   09 Jun 2027 06:38:44.054            97.561         48780.500
       236   09 Jun 2027 06:40:16.466   09 Jun 2027 06:40:19.547             3.081          1540.500
       237   09 Jun 2027 06:40:42.715   09 Jun 2027 06:40:45.215             2.500          1250.000
       238   09 Jun 2027 06:43:03.534   09 Jun 2027 06:43:20.508            16.974          8487.000
       239   09 Jun 2027 08:13:25.859   09 Jun 2027 08:14:10.415            44.556         22198.407
       240   09 Jun 2027 08:14:30.405   09 Jun 2027 08:14:33.864             3.459           510.406
       241   09 Jun 2027 08:15:01.575   09 Jun 2027 08:15:04.010             2.435           843.844
       242   09 Jun 2027 08:15:49.685   09 Jun 2027 08:15:52.307             2.622           886.500
       243   09 Jun 2027 08:16:13.321   09 Jun 2027 08:16:13.916             0.595           197.219
       244   09 Jun 2027 08:17:07.677   09 Jun 2027 08:17:10.207             2.530          1265.000
       245   09 Jun 2027 08:17:44.424   09 Jun 2027 08:17:48.281             3.857          1413.375
       246   09 Jun 2027 08:18:19.835   09 Jun 2027 08:18:21.939             2.104           689.438
       247   09 Jun 2027 08:19:22.027   09 Jun 2027 08:19:25.942             3.915          1834.312
       248   09 Jun 2027 09:51:40.964   09 Jun 2027 09:51:57.497            16.533          8143.375
       249   09 Jun 2027 09:52:09.841   09 Jun 2027 09:52:09.952             0.111            55.500
       250   09 Jun 2027 09:53:03.774   09 Jun 2027 09:53:10.714             6.940          1969.250
       251   09 Jun 2027 09:53:36.375   09 Jun 2027 09:53:39.887             3.512           801.906
       252   09 Jun 2027 09:54:35.482   09 Jun 2027 09:54:45.989            10.507          1649.312
       253   09 Jun 2027 11:27:01.421   09 Jun 2027 11:27:17.006            15.585          5545.031
       254   09 Jun 2027 11:28:24.718   09 Jun 2027 11:28:36.559            11.841          2060.906
       255   09 Jun 2027 11:28:50.045   09 Jun 2027 11:28:52.566             2.521           421.437
       256   09 Jun 2027 11:29:11.484   09 Jun 2027 11:29:13.594             2.110           119.687
       257   09 Jun 2027 11:29:17.275   09 Jun 2027 11:29:22.961             5.686             3.719
       258   09 Jun 2027 11:29:53.577   09 Jun 2027 11:29:56.471             2.894           407.937
       259   09 Jun 2027 11:30:46.442   09 Jun 2027 11:30:47.914             1.472           689.469
       260   09 Jun 2027 11:31:33.604   09 Jun 2027 11:31:35.567             1.963           768.031
       261   09 Jun 2027 11:32:04.059   09 Jun 2027 11:32:09.484             5.425           857.813
       262   09 Jun 2027 11:32:30.681   09 Jun 2027 11:32:30.922             0.241           120.500
       263   10 Jun 2027 03:36:52.939   10 Jun 2027 03:37:42.548            49.609         24804.500
       264   10 Jun 2027 03:37:56.440   10 Jun 2027 03:37:59.940             3.500          1750.000
       265   10 Jun 2027 03:39:11.844   10 Jun 2027 03:39:12.342             0.498           249.000
       266   10 Jun 2027 03:40:49.862   10 Jun 2027 03:41:03.913            14.051          7025.500
       267   10 Jun 2027 05:12:28.931   10 Jun 2027 05:13:08.304            39.373         19686.500
       268   10 Jun 2027 05:13:54.630   10 Jun 2027 05:15:19.623            84.993         42496.500
       269   10 Jun 2027 05:18:06.574   10 Jun 2027 05:18:08.913             2.339          1169.500
       270   10 Jun 2027 05:18:14.434   10 Jun 2027 05:18:19.185             4.751          2375.500
       271   10 Jun 2027 05:18:20.913   10 Jun 2027 05:18:25.296             4.383          2191.500
       272   10 Jun 2027 06:50:11.149   10 Jun 2027 06:52:09.533           118.384         59192.000
       273   10 Jun 2027 06:52:36.244   10 Jun 2027 06:52:45.410             9.166          4583.000
       274   10 Jun 2027 06:55:31.244   10 Jun 2027 06:55:44.299            13.055          5971.188
       275   10 Jun 2027 08:25:45.443   10 Jun 2027 08:26:15.911            30.468         14188.594
       276   10 Jun 2027 08:26:51.210   10 Jun 2027 08:26:53.779             2.569           695.063
       277   10 Jun 2027 08:27:21.798   10 Jun 2027 08:27:23.062             1.264           237.906
       278   10 Jun 2027 08:28:08.839   10 Jun 2027 08:28:11.536             2.697          1006.687
       279   10 Jun 2027 08:28:46.976   10 Jun 2027 08:28:46.976             0.000             0.000
       280   10 Jun 2027 08:29:29.972   10 Jun 2027 08:29:35.897             5.925          1807.594
       281   10 Jun 2027 08:29:41.583   10 Jun 2027 08:29:43.929             2.346           177.688
       282   10 Jun 2027 08:30:30.012   10 Jun 2027 08:30:33.445             3.433          1394.438
       283   10 Jun 2027 08:31:29.975   10 Jun 2027 08:31:37.853             7.878          1593.031
       284   10 Jun 2027 08:32:01.451   10 Jun 2027 08:32:03.636             2.185           737.437
       285   10 Jun 2027 10:03:43.880   10 Jun 2027 10:04:06.620            22.740          8948.438
       286   10 Jun 2027 10:05:16.753   10 Jun 2027 10:05:22.248             5.495          2191.656
       287   10 Jun 2027 10:05:30.775   10 Jun 2027 10:05:30.775             0.000             0.000
       288   10 Jun 2027 10:05:59.328   10 Jun 2027 10:06:09.248             9.920          1094.375
       289   10 Jun 2027 10:06:38.733   10 Jun 2027 10:06:41.079             2.346           529.187
       290   10 Jun 2027 10:06:55.111   10 Jun 2027 10:06:56.891             1.780           265.125
       291   10 Jun 2027 10:07:11.847   10 Jun 2027 10:07:12.811             0.964           314.062
       292   10 Jun 2027 11:36:52.589   10 Jun 2027 11:37:06.965            14.376          6562.781
       293   10 Jun 2027 11:37:59.942   10 Jun 2027 11:38:01.209             1.267           262.844
       294   10 Jun 2027 11:38:40.822   10 Jun 2027 11:38:44.108             3.286           141.656
       295   10 Jun 2027 11:40:24.193   10 Jun 2027 11:40:30.315             6.122          2810.594
       296   10 Jun 2027 11:40:41.428   10 Jun 2027 11:40:44.434             3.006           305.438
       297   10 Jun 2027 11:40:46.373   10 Jun 2027 11:40:52.036             5.663             6.437
       298   10 Jun 2027 11:41:12.718   10 Jun 2027 11:41:12.718             0.000             0.000
       299   10 Jun 2027 11:41:59.845   10 Jun 2027 11:42:02.793             2.948          1474.000
       300   10 Jun 2027 11:43:01.303   10 Jun 2027 11:43:06.988             5.685          2064.156
       301   10 Jun 2027 11:43:33.816   10 Jun 2027 11:43:37.451             3.635           749.250
       302   10 Jun 2027 11:43:56.730   10 Jun 2027 11:43:59.745             3.015           522.219
       303   10 Jun 2027 11:44:32.459   10 Jun 2027 11:44:36.907             4.448           889.156
       304   10 Jun 2027 11:44:47.547   10 Jun 2027 11:44:48.541             0.994           330.281
       305   11 Jun 2027 03:48:31.947   11 Jun 2027 03:48:52.524            20.577         10288.500
       306   11 Jun 2027 03:49:42.040   11 Jun 2027 03:49:42.098             0.058            29.000
       307   11 Jun 2027 03:50:32.358   11 Jun 2027 03:50:43.553            11.195          5597.500
       308   11 Jun 2027 03:51:13.112   11 Jun 2027 03:52:02.268            49.156         24578.000
       309   11 Jun 2027 05:23:35.265   11 Jun 2027 05:25:18.913           103.648         51824.000
       310   11 Jun 2027 05:26:03.101   11 Jun 2027 05:26:18.769            15.668          7834.000
       311   11 Jun 2027 05:26:23.991   11 Jun 2027 05:26:28.383             4.392          2196.000
       312   11 Jun 2027 05:29:51.927   11 Jun 2027 05:29:59.779             7.852          3926.000
       313   11 Jun 2027 05:31:30.455   11 Jun 2027 05:31:46.494            16.039          8019.500
       314   11 Jun 2027 07:01:53.283   11 Jun 2027 07:03:50.203           116.920         58460.000
       315   11 Jun 2027 07:04:20.365   11 Jun 2027 07:04:34.088            13.723          6861.500
       316   11 Jun 2027 07:06:22.663   11 Jun 2027 07:06:24.802             2.139          1069.500
       317   11 Jun 2027 07:07:14.529   11 Jun 2027 07:07:23.318             8.789          4331.187
       318   11 Jun 2027 08:37:46.761   11 Jun 2027 08:38:18.987            32.226         15399.875
       319   11 Jun 2027 08:39:20.848   11 Jun 2027 08:39:24.428             3.580          1458.969
       320   11 Jun 2027 08:40:09.089   11 Jun 2027 08:40:12.954             3.865           997.594
       321   11 Jun 2027 08:40:31.225   11 Jun 2027 08:40:31.836             0.611           220.094
       322   11 Jun 2027 08:40:47.656   11 Jun 2027 08:40:49.726             2.070           447.625
       323   11 Jun 2027 08:41:09.502   11 Jun 2027 08:41:18.250             8.748           537.156
       324   11 Jun 2027 08:41:38.819   11 Jun 2027 08:41:40.864             2.045           642.781
       325   11 Jun 2027 08:41:50.658   11 Jun 2027 08:41:51.756             1.098           301.906
       326   11 Jun 2027 08:42:29.957   11 Jun 2027 08:42:33.251             3.294          1182.469
       327   11 Jun 2027 08:43:07.500   11 Jun 2027 08:43:07.589             0.089            44.500
       328   11 Jun 2027 08:43:56.985   11 Jun 2027 08:44:02.867             5.882          2569.406
       329   11 Jun 2027 08:44:14.558   11 Jun 2027 08:44:14.944             0.386           193.000
       330   11 Jun 2027 10:15:43.881   11 Jun 2027 10:16:00.227            16.346          7411.562
       331   11 Jun 2027 10:16:15.066   11 Jun 2027 10:16:20.262             5.196           386.844
       332   11 Jun 2027 10:16:33.951   11 Jun 2027 10:16:36.160             2.209           382.875
       333   11 Jun 2027 10:17:19.329   11 Jun 2027 10:17:22.216             2.887           627.219
       334   11 Jun 2027 10:17:30.423   11 Jun 2027 10:17:31.977             1.554           211.062
       335   11 Jun 2027 10:18:34.611   11 Jun 2027 10:18:40.187             5.576          1860.562
       336   11 Jun 2027 10:18:43.880   11 Jun 2027 10:18:44.119             0.239            20.031
       337   11 Jun 2027 10:19:00.884   11 Jun 2027 10:19:06.461             5.577           434.750
       338   11 Jun 2027 10:19:37.437   11 Jun 2027 10:19:42.572             5.135           907.250
       339   11 Jun 2027 11:49:19.725   11 Jun 2027 11:49:25.060             5.335          2058.031
       340   11 Jun 2027 11:49:46.885   11 Jun 2027 11:49:47.111             0.226            63.750
       341   11 Jun 2027 11:50:16.414   11 Jun 2027 11:50:18.075             1.661           769.094
       342   11 Jun 2027 11:51:00.443   11 Jun 2027 11:51:02.213             1.770           481.375
       343   11 Jun 2027 11:51:29.384   11 Jun 2027 11:51:33.473             4.089           849.094
       344   11 Jun 2027 11:51:55.522   11 Jun 2027 11:52:05.799            10.277           550.625
       345   11 Jun 2027 11:53:03.162   11 Jun 2027 11:53:07.273             4.111          1706.063
       346   11 Jun 2027 11:54:04.603   11 Jun 2027 11:54:08.539             3.936          1791.563
       347   11 Jun 2027 11:54:47.144   11 Jun 2027 11:54:56.141             8.997          1104.375
       348   12 Jun 2027 04:00:15.371   12 Jun 2027 04:00:58.107            42.736         21368.000
       349   12 Jun 2027 04:02:18.075   12 Jun 2027 04:02:21.295             3.220          1610.000
       350   12 Jun 2027 04:02:50.487   12 Jun 2027 04:02:57.219             6.732          3366.000
       351   12 Jun 2027 04:04:26.638   12 Jun 2027 04:04:32.327             5.689          2844.500
       352   12 Jun 2027 04:04:37.395   12 Jun 2027 04:04:46.235             8.840          4420.000
       353   12 Jun 2027 05:35:03.596   12 Jun 2027 05:37:26.818           143.222         71611.000
       354   12 Jun 2027 05:41:32.926   12 Jun 2027 05:41:32.926             0.000             0.000
       355   12 Jun 2027 05:42:20.633   12 Jun 2027 05:42:24.491             3.858          1929.000
       356   12 Jun 2027 05:43:55.922   12 Jun 2027 05:44:06.182            10.260          5130.000
       357   12 Jun 2027 07:12:52.991   12 Jun 2027 07:14:56.739           123.748         61304.906
       358   12 Jun 2027 07:16:20.260   12 Jun 2027 07:16:21.877             1.617           808.500
       359   12 Jun 2027 07:16:28.197   12 Jun 2027 07:16:29.570             1.373           686.500
       360   12 Jun 2027 07:18:50.381   12 Jun 2027 07:18:53.234             2.853          1426.500
       361   12 Jun 2027 07:19:51.618   12 Jun 2027 07:20:05.262            13.644          6084.218
       362   12 Jun 2027 08:49:37.390   12 Jun 2027 08:49:49.300            11.910          5955.000
       363   12 Jun 2027 08:50:07.758   12 Jun 2027 08:50:31.724            23.966          9444.625
       364   12 Jun 2027 08:51:09.239   12 Jun 2027 08:51:11.340             2.101           861.125
       365   12 Jun 2027 08:52:24.610   12 Jun 2027 08:52:28.233             3.623          1811.500
       366   12 Jun 2027 08:53:17.213   12 Jun 2027 08:53:21.260             4.047          2008.812
       367   12 Jun 2027 08:53:52.797   12 Jun 2027 08:53:53.911             1.114           533.906
       368   12 Jun 2027 08:54:02.729   12 Jun 2027 08:54:08.081             5.352           247.187
       369   12 Jun 2027 08:54:27.254   12 Jun 2027 08:54:28.810             1.556           599.156
       370   12 Jun 2027 08:54:33.886   12 Jun 2027 08:54:34.452             0.566           158.625
       371   12 Jun 2027 08:55:37.651   12 Jun 2027 08:55:37.651             0.000             0.000
       372   12 Jun 2027 08:55:56.959   12 Jun 2027 08:56:07.081            10.122          2549.937
       373   12 Jun 2027 10:27:45.888   12 Jun 2027 10:27:59.772            13.884          6942.000
       374   12 Jun 2027 10:28:26.304   12 Jun 2027 10:28:29.368             3.064          1374.656
       375   12 Jun 2027 10:29:09.822   12 Jun 2027 10:29:17.643             7.821          1110.469
       376   12 Jun 2027 10:29:40.280   12 Jun 2027 10:29:44.881             4.601           707.406
       377   12 Jun 2027 10:30:18.708   12 Jun 2027 10:30:24.059             5.351          1057.094
       378   12 Jun 2027 10:30:43.759   12 Jun 2027 10:30:49.692             5.933           615.625
       379   12 Jun 2027 10:31:08.494   12 Jun 2027 10:31:09.413             0.919           444.406
       380   13 Jun 2027 04:14:01.682   13 Jun 2027 04:15:15.283            73.601         36800.500
       381   13 Jun 2027 05:47:52.313   13 Jun 2027 05:49:54.238           121.925         60962.500
       382   13 Jun 2027 05:54:14.285   13 Jun 2027 05:54:23.211             8.926          4463.000
       383   13 Jun 2027 05:54:53.086   13 Jun 2027 05:55:02.083             8.997          4498.500
       384   13 Jun 2027 05:55:54.845   13 Jun 2027 05:56:05.282            10.437          5218.500
       385   13 Jun 2027 07:24:59.498   13 Jun 2027 07:26:11.541            72.043         36021.500
       386   13 Jun 2027 07:26:57.641   13 Jun 2027 07:28:02.331            64.690         32345.000
       387   13 Jun 2027 07:28:47.909   13 Jun 2027 07:28:53.175             5.266          1870.094
       388   13 Jun 2027 07:31:00.851   13 Jun 2027 07:31:03.964             3.113          1556.500
       389   13 Jun 2027 09:02:02.544   13 Jun 2027 09:02:31.101            28.557         13764.219
       390   13 Jun 2027 09:03:01.967   13 Jun 2027 09:03:04.407             2.440           823.656
       391   13 Jun 2027 09:04:22.062   13 Jun 2027 09:04:24.322             2.260           917.969
       392   13 Jun 2027 09:04:55.559   13 Jun 2027 09:05:02.274             6.715           976.156
       393   13 Jun 2027 09:05:27.236   13 Jun 2027 09:05:30.536             3.300           780.062
       394   13 Jun 2027 09:05:54.033   13 Jun 2027 09:05:55.328             1.295           647.500
       395   13 Jun 2027 09:06:04.389   13 Jun 2027 09:06:05.645             1.256           369.937
       396   13 Jun 2027 09:06:18.496   13 Jun 2027 09:06:19.629             1.133           401.594
       397   13 Jun 2027 09:07:48.085   13 Jun 2027 09:07:54.072             5.987          2761.625
       398   13 Jun 2027 10:39:00.517   13 Jun 2027 10:39:15.768            15.251          7250.344
       399   13 Jun 2027 10:40:13.811   13 Jun 2027 10:40:17.985             4.174          1183.156
       400   13 Jun 2027 10:41:09.107   13 Jun 2027 10:41:15.570             6.463          1509.406
       401   13 Jun 2027 10:41:39.729   13 Jun 2027 10:41:41.022             1.293           513.375
       402   13 Jun 2027 10:42:16.204   13 Jun 2027 10:42:19.303             3.099           775.781
       403   13 Jun 2027 10:43:24.382   13 Jun 2027 10:43:28.771             4.389          2033.719
