uniorb/output/strategy_1/Camera/Camera_KinoSat_111710.txt

KinoSat_111710
-------------------------
    Access    *     Start Time (UTCG)     *     Stop Time (UTCG)  *   Duration (s) *   Data (Mbytes)
         1   01 Jun 2027 03:58:44.183   01 Jun 2027 03:59:45.480            61.297         30648.500
         2   01 Jun 2027 03:59:51.106   01 Jun 2027 04:00:20.508            29.402         14701.000
         3   01 Jun 2027 04:00:26.507   01 Jun 2027 04:01:16.044            49.537         24768.500
         4   01 Jun 2027 04:01:29.639   01 Jun 2027 04:01:34.439             4.800          2400.000
         5   01 Jun 2027 04:01:44.472   01 Jun 2027 04:01:46.449             1.977           988.500
         6   01 Jun 2027 04:02:21.125   01 Jun 2027 04:02:29.136             8.011          4005.500
         7   01 Jun 2027 05:37:46.109   01 Jun 2027 05:39:53.221           127.112         63556.000
         8   01 Jun 2027 07:00:18.465   01 Jun 2027 07:01:50.051            91.586         45793.000
         9   01 Jun 2027 08:36:43.871   01 Jun 2027 08:37:09.923            26.052         13026.000
        10   01 Jun 2027 08:37:38.887   01 Jun 2027 08:38:44.825            65.938         32969.000
        11   01 Jun 2027 08:39:15.559   01 Jun 2027 08:39:28.050            12.491          6245.500
        12   01 Jun 2027 10:11:52.169   01 Jun 2027 10:13:03.402            71.233         35616.500
        13   01 Jun 2027 10:13:51.714   01 Jun 2027 10:14:28.889            37.175         18587.500
        14   01 Jun 2027 10:14:39.412   01 Jun 2027 10:14:59.693            20.281         10140.500
        15   01 Jun 2027 10:15:36.553   01 Jun 2027 10:15:36.553             0.000             0.000
        16   01 Jun 2027 10:17:38.243   01 Jun 2027 10:17:53.442            15.199          7599.500
        17   01 Jun 2027 10:18:01.180   01 Jun 2027 10:18:09.132             7.952          3976.000
        18   01 Jun 2027 11:48:13.408   01 Jun 2027 11:48:52.714            39.306         19653.000
        19   01 Jun 2027 11:49:40.557   01 Jun 2027 11:50:10.816            30.259         15129.500
        20   01 Jun 2027 11:51:30.938   01 Jun 2027 11:52:15.582            44.644         22322.000
        21   01 Jun 2027 11:53:17.289   01 Jun 2027 11:53:22.599             5.310          2655.000
        22   01 Jun 2027 11:53:36.975   01 Jun 2027 11:53:38.545             1.570           785.000
        23   01 Jun 2027 11:53:52.707   01 Jun 2027 11:53:54.023             1.316           658.000
        24   02 Jun 2027 04:10:41.753   02 Jun 2027 04:11:30.234            48.481         24240.500
        25   02 Jun 2027 04:11:48.311   02 Jun 2027 04:12:57.590            69.279         34639.500
        26   02 Jun 2027 04:13:31.152   02 Jun 2027 04:13:33.714             2.562          1281.000
        27   02 Jun 2027 04:14:15.848   02 Jun 2027 04:14:27.131            11.283          5641.500
        28   02 Jun 2027 04:15:04.227   02 Jun 2027 04:15:16.314            12.087          6043.500
        29   02 Jun 2027 05:48:55.758   02 Jun 2027 05:49:57.548            61.790         30895.000
        30   02 Jun 2027 05:50:03.563   02 Jun 2027 05:50:35.599            32.036         16018.000
        31   02 Jun 2027 05:50:47.786   02 Jun 2027 05:50:58.056            10.270          5135.000
        32   02 Jun 2027 05:51:42.082   02 Jun 2027 05:51:46.997             4.915          2457.500
        33   02 Jun 2027 05:52:13.848   02 Jun 2027 05:52:18.354             4.506          2253.000
        34   02 Jun 2027 07:12:16.879   02 Jun 2027 07:13:47.129            90.250         45125.000
        35   02 Jun 2027 07:15:14.092   02 Jun 2027 07:15:22.972             8.880          4440.000
        36   02 Jun 2027 08:48:53.917   02 Jun 2027 08:50:12.411            78.494         39247.000
        37   02 Jun 2027 08:50:19.077   02 Jun 2027 08:50:19.077             0.000             0.000
        38   02 Jun 2027 08:51:27.051   02 Jun 2027 08:51:27.051             0.000             0.000
        39   02 Jun 2027 10:24:03.853   02 Jun 2027 10:25:45.480           101.627         50813.500
        40   02 Jun 2027 10:26:02.670   02 Jun 2027 10:26:56.550            53.880         26940.000
        41   02 Jun 2027 10:30:26.785   02 Jun 2027 10:30:39.971            13.186          6593.000
        42   03 Jun 2027 04:23:47.237   03 Jun 2027 04:25:10.146            82.909         41454.500
        43   03 Jun 2027 04:28:15.778   03 Jun 2027 04:28:21.229             5.451          2725.500
        44   03 Jun 2027 04:30:03.856   03 Jun 2027 04:30:17.959            14.103          7051.500
        45   03 Jun 2027 04:30:40.602   03 Jun 2027 04:31:21.197            40.595         20297.500
        46   03 Jun 2027 05:50:08.865   03 Jun 2027 05:50:15.681             6.816          3408.000
        47   03 Jun 2027 06:00:53.190   03 Jun 2027 06:01:35.282            42.092         21046.000
        48   03 Jun 2027 06:01:40.899   03 Jun 2027 06:02:17.886            36.987         18493.500
        49   03 Jun 2027 06:03:39.441   03 Jun 2027 06:03:45.528             6.087          3043.500
        50   03 Jun 2027 07:24:53.208   03 Jun 2027 07:26:53.583           120.375         60187.500
        51   03 Jun 2027 09:00:37.962   03 Jun 2027 09:02:11.797            93.835         46917.500
        52   03 Jun 2027 09:03:18.927   03 Jun 2027 09:03:25.248             6.321          3160.500
        53   03 Jun 2027 10:37:57.231   03 Jun 2027 10:38:52.070            54.839         27419.500
        54   03 Jun 2027 10:42:17.276   03 Jun 2027 10:42:49.240            31.964         15982.000
        55   04 Jun 2027 03:00:00.000   04 Jun 2027 03:00:14.175            14.175          7087.500
        56   04 Jun 2027 03:00:30.916   04 Jun 2027 03:00:41.410            10.494          5247.000
        57   04 Jun 2027 03:00:58.353   04 Jun 2027 03:01:05.816             7.463          3731.500
        58   04 Jun 2027 03:02:09.111   04 Jun 2027 03:02:13.968             4.857          2428.500
        59   04 Jun 2027 03:02:15.818   04 Jun 2027 03:02:16.174             0.356           178.000
        60   04 Jun 2027 03:02:22.639   04 Jun 2027 03:02:38.315            15.676          7838.000
        61   04 Jun 2027 03:02:46.071   04 Jun 2027 03:02:46.071             0.000             0.000
        62   04 Jun 2027 03:03:12.566   04 Jun 2027 03:03:34.846            22.280         11140.000
        63   04 Jun 2027 04:36:07.860   04 Jun 2027 04:36:56.760            48.900         24450.000
        64   04 Jun 2027 04:38:09.280   04 Jun 2027 04:38:19.887            10.607          5303.500
        65   04 Jun 2027 04:38:25.976   04 Jun 2027 04:38:30.260             4.284          2142.000
        66   04 Jun 2027 04:38:52.830   04 Jun 2027 04:39:00.346             7.516          3758.000
        67   04 Jun 2027 04:40:05.490   04 Jun 2027 04:40:05.574             0.084            42.000
        68   04 Jun 2027 04:41:04.621   04 Jun 2027 04:41:07.596             2.975          1487.500
        69   04 Jun 2027 04:41:14.288   04 Jun 2027 04:41:28.013            13.725          6862.500
        70   04 Jun 2027 04:42:08.712   04 Jun 2027 04:42:14.726             6.014          3007.000
        71   04 Jun 2027 04:42:30.074   04 Jun 2027 04:42:33.609             3.535          1767.500
        72   04 Jun 2027 04:42:56.946   04 Jun 2027 04:43:25.762            28.816         14408.000
        73   04 Jun 2027 06:01:26.103   04 Jun 2027 06:02:15.907            49.804         24902.000
        74   04 Jun 2027 06:12:51.681   04 Jun 2027 06:13:19.343            27.662         13831.000
        75   04 Jun 2027 06:14:16.337   04 Jun 2027 06:14:19.984             3.647          1823.500
        76   04 Jun 2027 07:35:31.107   04 Jun 2027 07:36:30.001            58.894         29447.000
        77   04 Jun 2027 07:37:06.609   04 Jun 2027 07:38:11.265            64.656         28804.750
        78   04 Jun 2027 09:10:52.228   04 Jun 2027 09:11:07.330            15.102          7178.156
        79   04 Jun 2027 09:11:34.760   04 Jun 2027 09:11:40.620             5.860           166.125
        80   04 Jun 2027 09:12:44.152   04 Jun 2027 09:12:48.744             4.592          1985.375
        81   04 Jun 2027 09:13:27.077   04 Jun 2027 09:13:29.500             2.423          1129.875
        82   04 Jun 2027 09:13:57.446   04 Jun 2027 09:13:59.223             1.777           791.063
        83   04 Jun 2027 09:15:20.040   04 Jun 2027 09:15:24.945             4.905          2452.500
        84   04 Jun 2027 09:15:58.125   04 Jun 2027 09:16:01.226             3.101          1109.906
        85   04 Jun 2027 09:16:07.000   04 Jun 2027 09:16:08.015             1.015            46.344
        86   04 Jun 2027 09:16:44.477   04 Jun 2027 09:16:44.477             0.000             0.000
        87   04 Jun 2027 10:47:20.039   04 Jun 2027 10:47:31.960            11.921          5208.750
        88   04 Jun 2027 10:47:56.322   04 Jun 2027 10:48:00.392             4.070           612.656
        89   04 Jun 2027 10:48:11.591   04 Jun 2027 10:48:12.236             0.645           153.969
        90   04 Jun 2027 10:48:26.216   04 Jun 2027 10:48:29.678             3.462           144.469
        91   04 Jun 2027 10:49:04.062   04 Jun 2027 10:49:05.282             1.220           563.875
        92   04 Jun 2027 10:50:24.471   04 Jun 2027 10:50:30.349             5.878           165.844
        93   04 Jun 2027 10:54:04.291   04 Jun 2027 10:54:25.303            21.012          6670.125
        94   05 Jun 2027 03:09:17.990   05 Jun 2027 03:10:15.203            57.213         28606.500
        95   05 Jun 2027 03:10:22.656   05 Jun 2027 03:10:23.971             1.315           657.500
        96   05 Jun 2027 03:10:33.714   05 Jun 2027 03:10:38.054             4.340          2170.000
        97   05 Jun 2027 03:12:08.228   05 Jun 2027 03:12:15.929             7.701          3850.500
        98   05 Jun 2027 03:12:24.124   05 Jun 2027 03:12:43.817            19.693          9846.500
        99   05 Jun 2027 03:14:47.013   05 Jun 2027 03:14:59.446            12.433          6216.500
       100   05 Jun 2027 04:48:22.661   05 Jun 2027 04:49:37.325            74.664         37332.000
       101   05 Jun 2027 04:50:21.893   05 Jun 2027 04:50:21.893             0.000             0.000
       102   05 Jun 2027 04:50:26.393   05 Jun 2027 04:50:32.017             5.624          2812.000
       103   05 Jun 2027 04:51:37.991   05 Jun 2027 04:51:50.914            12.923          6461.500
       104   05 Jun 2027 04:52:21.028   05 Jun 2027 04:52:21.028             0.000             0.000
       105   05 Jun 2027 04:54:27.924   05 Jun 2027 04:54:34.057             6.133          3066.500
       106   05 Jun 2027 06:12:39.722   05 Jun 2027 06:13:27.273            47.551         23775.500
       107   05 Jun 2027 06:24:51.015   05 Jun 2027 06:25:46.688            55.673         27836.500
       108   05 Jun 2027 07:47:07.601   05 Jun 2027 07:48:14.363            66.762         31499.500
       109   05 Jun 2027 07:51:44.239   05 Jun 2027 07:51:55.842            11.603          5789.656
       110   05 Jun 2027 09:22:01.345   05 Jun 2027 09:22:15.767            14.422          6387.375
       111   05 Jun 2027 09:23:13.204   05 Jun 2027 09:23:16.384             3.180          1232.688
       112   05 Jun 2027 09:25:41.779   05 Jun 2027 09:25:50.935             9.156          4081.563
       113   05 Jun 2027 09:25:53.643   05 Jun 2027 09:25:56.589             2.946            67.656
       114   05 Jun 2027 09:30:05.305   05 Jun 2027 09:30:13.808             8.503          3944.375
       115   05 Jun 2027 09:30:26.610   05 Jun 2027 09:30:29.804             3.194           272.219
       116   05 Jun 2027 10:59:34.795   05 Jun 2027 10:59:50.351            15.556          6388.219
       117   05 Jun 2027 11:00:14.202   05 Jun 2027 11:00:15.780             1.578           745.344
       118   05 Jun 2027 11:00:30.394   05 Jun 2027 11:00:31.911             1.517           356.750
       119   05 Jun 2027 11:02:31.947   05 Jun 2027 11:02:35.831             3.884          1741.344
       120   05 Jun 2027 11:02:59.081   05 Jun 2027 11:03:00.891             1.810           723.344
       121   05 Jun 2027 11:05:46.071   05 Jun 2027 11:05:59.117            13.046          4879.875
       122   05 Jun 2027 11:06:45.575   05 Jun 2027 11:06:54.397             8.822          1451.813
       123   06 Jun 2027 03:21:45.119   06 Jun 2027 03:22:02.545            17.426          8713.000
       124   06 Jun 2027 03:22:10.791   06 Jun 2027 03:22:40.246            29.455         14727.500
       125   06 Jun 2027 03:22:45.057   06 Jun 2027 03:23:39.082            54.025         27012.500
       126   06 Jun 2027 03:23:41.293   06 Jun 2027 03:23:53.082            11.789          5894.500
       127   06 Jun 2027 03:24:48.790   06 Jun 2027 03:25:03.376            14.586          7293.000
       128   06 Jun 2027 03:26:20.183   06 Jun 2027 03:26:20.474             0.291           145.500
       129   06 Jun 2027 03:27:03.286   06 Jun 2027 03:27:03.286             0.000             0.000
       130   06 Jun 2027 05:00:27.888   06 Jun 2027 05:01:46.822            78.934         39467.000
       131   06 Jun 2027 05:03:06.755   06 Jun 2027 05:03:19.889            13.134          6567.000
       132   06 Jun 2027 05:04:15.761   06 Jun 2027 05:04:27.260            11.499          5749.500
       133   06 Jun 2027 06:24:44.731   06 Jun 2027 06:25:49.026            64.295         32147.500
       134   06 Jun 2027 06:26:35.186   06 Jun 2027 06:26:38.666             3.480          1740.000
       135   06 Jun 2027 06:37:07.119   06 Jun 2027 06:37:23.400            16.281          8140.500
       136   06 Jun 2027 07:58:37.191   06 Jun 2027 07:59:25.180            47.989         22789.750
       137   06 Jun 2027 08:00:48.407   06 Jun 2027 08:00:51.724             3.317          1642.219
       138   06 Jun 2027 08:02:19.264   06 Jun 2027 08:02:24.486             5.222          2228.344
       139   06 Jun 2027 09:33:32.098   06 Jun 2027 09:33:44.131            12.033          5332.375
       140   06 Jun 2027 09:35:32.522   06 Jun 2027 09:35:37.019             4.497          2187.063
       141   06 Jun 2027 09:35:45.647   06 Jun 2027 09:35:47.558             1.911           236.219
       142   06 Jun 2027 09:40:02.150   06 Jun 2027 09:40:18.369            16.219          7681.562
       143   06 Jun 2027 09:40:53.334   06 Jun 2027 09:40:53.334             0.000             0.000
       144   06 Jun 2027 09:41:13.173   06 Jun 2027 09:41:17.437             4.264          1279.406
       145   06 Jun 2027 09:42:30.173   06 Jun 2027 09:42:38.174             8.001          2256.000
       146   06 Jun 2027 11:11:29.009   06 Jun 2027 11:11:40.424            11.415          5701.375
       147   06 Jun 2027 11:15:18.034   06 Jun 2027 11:15:31.781            13.747          6800.313
       148   06 Jun 2027 11:15:55.320   06 Jun 2027 11:15:55.741             0.421           210.500
       149   06 Jun 2027 11:17:18.741   06 Jun 2027 11:17:24.130             5.389          2694.500
       150   06 Jun 2027 11:17:51.253   06 Jun 2027 11:17:52.632             1.379           689.500
       151   06 Jun 2027 11:18:19.880   06 Jun 2027 11:18:23.941             4.061          1433.938
       152   07 Jun 2027 03:34:21.323   07 Jun 2027 03:34:33.248            11.925          5962.500
       153   07 Jun 2027 03:34:44.275   07 Jun 2027 03:35:45.078            60.803         30401.500
       154   07 Jun 2027 03:35:52.276   07 Jun 2027 03:36:27.858            35.582         17791.000
       155   07 Jun 2027 03:36:29.966   07 Jun 2027 03:36:33.001             3.035          1517.500
       156   07 Jun 2027 03:37:24.122   07 Jun 2027 03:37:35.736            11.614          5807.000
       157   07 Jun 2027 03:39:50.514   07 Jun 2027 03:39:57.711             7.197          3598.500
       158   07 Jun 2027 05:12:51.774   07 Jun 2027 05:14:25.717            93.943         46971.500
       159   07 Jun 2027 05:14:28.563   07 Jun 2027 05:14:30.842             2.279          1139.500
       160   07 Jun 2027 05:14:56.324   07 Jun 2027 05:15:14.542            18.218          9109.000
       161   07 Jun 2027 05:16:05.269   07 Jun 2027 05:16:20.354            15.085          7542.500
       162   07 Jun 2027 06:36:41.240   07 Jun 2027 06:37:26.522            45.282         22641.000
       163   07 Jun 2027 06:38:18.848   07 Jun 2027 06:38:39.198            20.350         10175.000
       164   07 Jun 2027 08:12:40.376   07 Jun 2027 08:13:23.753            43.377         21455.937
       165   07 Jun 2027 09:46:26.270   07 Jun 2027 09:46:40.233            13.963          6885.844
       166   07 Jun 2027 09:48:07.066   07 Jun 2027 09:48:10.349             3.283          1050.406
       167   07 Jun 2027 09:48:24.500   07 Jun 2027 09:48:32.169             7.669           388.187
       168   07 Jun 2027 09:48:43.262   07 Jun 2027 09:48:45.266             2.004           346.656
       169   07 Jun 2027 09:48:55.452   07 Jun 2027 09:48:56.226             0.774           179.375
       170   07 Jun 2027 09:52:29.745   07 Jun 2027 09:52:44.295            14.550          6666.469
       171   07 Jun 2027 09:53:34.053   07 Jun 2027 09:53:37.261             3.208          1352.250
       172   07 Jun 2027 09:54:35.001   07 Jun 2027 09:54:38.529             3.528          1683.063
       173   07 Jun 2027 11:23:49.394   07 Jun 2027 11:24:06.586            17.192          8290.500
       174   07 Jun 2027 11:24:35.797   07 Jun 2027 11:24:39.432             3.635           912.844
       175   07 Jun 2027 11:25:25.938   07 Jun 2027 11:25:29.561             3.623          1192.969
       176   07 Jun 2027 11:26:21.831   07 Jun 2027 11:26:28.793             6.962           644.125
       177   07 Jun 2027 11:27:37.127   07 Jun 2027 11:27:42.686             5.559          1606.375
       178   07 Jun 2027 11:28:10.388   07 Jun 2027 11:28:19.628             9.240           821.063
       179   07 Jun 2027 11:28:27.657   07 Jun 2027 11:28:28.129             0.472           188.688
       180   07 Jun 2027 11:28:59.591   07 Jun 2027 11:29:01.618             2.027           894.031
       181   07 Jun 2027 11:29:39.389   07 Jun 2027 11:29:39.502             0.113            56.500
       182   07 Jun 2027 11:29:51.786   07 Jun 2027 11:29:52.780             0.994           497.000
       183   07 Jun 2027 11:30:07.299   07 Jun 2027 11:30:10.308             3.009          1368.594
       184   08 Jun 2027 03:46:53.790   08 Jun 2027 03:47:20.011            26.221         13110.500
       185   08 Jun 2027 03:47:27.656   08 Jun 2027 03:49:19.968           112.312         56156.000
       186   08 Jun 2027 03:51:00.101   08 Jun 2027 03:51:09.548             9.447          4723.500
       187   08 Jun 2027 05:25:10.517   08 Jun 2027 05:26:27.488            76.971         38485.500
       188   08 Jun 2027 05:27:16.996   08 Jun 2027 05:27:16.996             0.000             0.000
       189   08 Jun 2027 05:27:32.187   08 Jun 2027 05:28:19.964            47.777         23888.500
       190   08 Jun 2027 06:48:32.771   08 Jun 2027 06:49:29.478            56.707         28353.500
       191   08 Jun 2027 06:50:00.435   08 Jun 2027 06:50:34.445            34.010         17005.000
       192   08 Jun 2027 08:24:54.968   08 Jun 2027 08:25:22.481            27.513         13756.500
       193   08 Jun 2027 08:26:35.349   08 Jun 2027 08:26:47.073            11.724          4128.782
       194   08 Jun 2027 08:26:50.325   08 Jun 2027 08:26:51.278             0.953            44.031
       195   08 Jun 2027 08:28:05.512   08 Jun 2027 08:28:12.549             7.037          1358.406
       196   08 Jun 2027 08:28:26.289   08 Jun 2027 08:28:26.425             0.136            68.000
       197   08 Jun 2027 09:58:58.995   08 Jun 2027 09:59:14.447            15.452          4989.156
       198   08 Jun 2027 10:00:40.712   08 Jun 2027 10:00:45.330             4.618          2088.437
       199   08 Jun 2027 10:02:02.823   08 Jun 2027 10:02:11.636             8.813          2353.750
       200   08 Jun 2027 10:05:00.811   08 Jun 2027 10:05:16.163            15.352          5158.344
       201   08 Jun 2027 10:05:42.876   08 Jun 2027 10:05:42.876             0.000             0.000
       202   08 Jun 2027 10:06:03.076   08 Jun 2027 10:06:06.183             3.107          1466.031
       203   08 Jun 2027 10:06:17.498   08 Jun 2027 10:06:18.885             1.387           273.781
       204   08 Jun 2027 10:06:55.775   08 Jun 2027 10:06:58.222             2.447          1113.719
       205   08 Jun 2027 11:36:03.564   08 Jun 2027 11:36:18.496            14.932          6938.312
       206   08 Jun 2027 11:38:09.141   08 Jun 2027 11:38:15.052             5.911          1839.094
       207   08 Jun 2027 11:38:34.891   08 Jun 2027 11:38:37.431             2.540           364.344
       208   08 Jun 2027 11:39:06.762   08 Jun 2027 11:39:09.427             2.665           894.313
       209   08 Jun 2027 11:39:43.972   08 Jun 2027 11:39:54.320            10.348           984.531
       210   08 Jun 2027 11:40:47.292   08 Jun 2027 11:40:51.028             3.736          1566.531
       211   08 Jun 2027 11:41:48.113   08 Jun 2027 11:41:52.574             4.461          1783.906
       212   09 Jun 2027 03:58:59.903   09 Jun 2027 04:00:01.489            61.586         30793.000
       213   09 Jun 2027 04:00:07.862   09 Jun 2027 04:01:14.005            66.143         33071.500
       214   09 Jun 2027 04:02:22.606   09 Jun 2027 04:02:30.583             7.977          3988.500
       215   09 Jun 2027 04:02:46.853   09 Jun 2027 04:02:46.853             0.000             0.000
       216   09 Jun 2027 04:03:05.812   09 Jun 2027 04:03:27.044            21.232         10616.000
       217   09 Jun 2027 05:38:04.597   09 Jun 2027 05:39:46.382           101.785         50892.500
       218   09 Jun 2027 07:00:36.589   09 Jun 2027 07:02:06.384            89.795         44897.500
       219   09 Jun 2027 07:02:30.992   09 Jun 2027 07:02:30.992             0.000             0.000
       220   09 Jun 2027 07:03:13.322   09 Jun 2027 07:03:15.143             1.821           910.500
       221   09 Jun 2027 08:37:05.799   09 Jun 2027 08:37:17.516            11.717          5858.500
       222   09 Jun 2027 08:37:26.422   09 Jun 2027 08:37:26.422             0.000             0.000
       223   09 Jun 2027 08:37:58.365   09 Jun 2027 08:38:11.280            12.915          5218.406
       224   09 Jun 2027 08:38:47.984   09 Jun 2027 08:38:51.878             3.894          1046.719
       225   09 Jun 2027 08:40:05.269   09 Jun 2027 08:40:10.235             4.966          1963.656
       226   09 Jun 2027 10:12:45.564   09 Jun 2027 10:12:59.535            13.971          6151.969
       227   09 Jun 2027 10:13:22.741   09 Jun 2027 10:13:34.314            11.573            90.906
       228   09 Jun 2027 10:15:51.787   09 Jun 2027 10:15:51.787             0.000             0.000
       229   09 Jun 2027 10:17:17.026   09 Jun 2027 10:17:28.477            11.451          5725.500
       230   09 Jun 2027 10:18:36.757   09 Jun 2027 10:18:43.091             6.334          2236.188
       231   09 Jun 2027 11:48:32.780   09 Jun 2027 11:48:46.236            13.456          5586.781
       232   09 Jun 2027 11:50:05.256   09 Jun 2027 11:50:07.354             2.098          1049.000
       233   09 Jun 2027 11:50:43.061   09 Jun 2027 11:50:46.593             3.532          1766.000
       234   09 Jun 2027 11:51:13.892   09 Jun 2027 11:51:15.362             1.470           735.000
       235   09 Jun 2027 11:52:42.882   09 Jun 2027 11:52:43.449             0.567           283.500
       236   09 Jun 2027 11:53:53.407   09 Jun 2027 11:54:04.220            10.813          4954.219
       237   09 Jun 2027 11:54:49.240   09 Jun 2027 11:54:52.375             3.135          1261.875
       238   10 Jun 2027 04:10:59.657   10 Jun 2027 04:11:44.025            44.368         22184.000
       239   10 Jun 2027 04:12:05.462   10 Jun 2027 04:12:44.982            39.520         19760.000
       240   10 Jun 2027 04:12:55.757   10 Jun 2027 04:13:15.545            19.788          9894.000
       241   10 Jun 2027 04:15:18.900   10 Jun 2027 04:15:31.146            12.246          6123.000
       242   10 Jun 2027 05:49:12.511   10 Jun 2027 05:50:52.725           100.214         50107.000
       243   10 Jun 2027 05:51:31.791   10 Jun 2027 05:51:55.836            24.045         12022.500
       244   10 Jun 2027 07:12:33.036   10 Jun 2027 07:14:10.370            97.334         48654.750
       245   10 Jun 2027 07:15:14.037   10 Jun 2027 07:15:14.145             0.108            54.000
       246   10 Jun 2027 08:49:10.839   10 Jun 2027 08:49:20.395             9.556          4778.000
       247   10 Jun 2027 08:50:29.994   10 Jun 2027 08:50:32.056             2.062          1031.000
       248   10 Jun 2027 08:51:00.720   10 Jun 2027 08:51:08.917             8.197          2949.656
       249   10 Jun 2027 08:51:11.988   10 Jun 2027 08:51:15.918             3.930            59.906
       250   10 Jun 2027 08:52:12.785   10 Jun 2027 08:52:15.281             2.496          1181.094
       251   10 Jun 2027 10:24:21.199   10 Jun 2027 10:24:33.928            12.729          6042.781
       252   10 Jun 2027 10:25:47.930   10 Jun 2027 10:25:52.661             4.731          2311.594
       253   10 Jun 2027 10:26:21.758   10 Jun 2027 10:26:21.758             0.000             0.000
       254   10 Jun 2027 10:29:17.375   10 Jun 2027 10:29:17.375             0.000             0.000
       255   10 Jun 2027 10:30:43.297   10 Jun 2027 10:30:57.250            13.953          6976.500
       256   11 Jun 2027 04:24:04.780   11 Jun 2027 04:25:32.367            87.587         43793.500
       257   11 Jun 2027 04:26:19.255   11 Jun 2027 04:26:23.762             4.507          2253.500
       258   11 Jun 2027 04:26:34.576   11 Jun 2027 04:26:44.063             9.487          4743.500
       259   11 Jun 2027 04:30:44.204   11 Jun 2027 04:30:54.723            10.519          5259.500
       260   11 Jun 2027 04:30:59.047   11 Jun 2027 04:31:37.049            38.002         19001.000
       261   11 Jun 2027 05:50:23.134   11 Jun 2027 05:50:36.223            13.089          6544.500
       262   11 Jun 2027 06:01:10.341   11 Jun 2027 06:01:52.107            41.766         20883.000
       263   11 Jun 2027 06:01:57.197   11 Jun 2027 06:02:36.011            38.814         19407.000
       264   11 Jun 2027 06:03:15.070   11 Jun 2027 06:03:26.880            11.810          5905.000
       265   11 Jun 2027 06:04:10.715   11 Jun 2027 06:04:37.643            26.928         13464.000
       266   11 Jun 2027 07:25:09.226   11 Jun 2027 07:26:28.236            79.010         39505.000
       267   11 Jun 2027 09:00:54.723   11 Jun 2027 09:01:11.963            17.240          8620.000
       268   11 Jun 2027 09:03:00.656   11 Jun 2027 09:03:15.742            15.086          4434.937
       269   11 Jun 2027 09:03:36.468   11 Jun 2027 09:03:41.057             4.589           647.688
       270   11 Jun 2027 09:04:14.773   11 Jun 2027 09:04:14.773             0.000             0.000
       271   11 Jun 2027 10:35:45.467   11 Jun 2027 10:35:57.997            12.530          4599.656
       272   11 Jun 2027 10:38:35.958   11 Jun 2027 10:38:37.188             1.230           615.000
       273   11 Jun 2027 10:39:00.964   11 Jun 2027 10:39:09.045             8.081          4040.500
       274   11 Jun 2027 10:42:33.563   11 Jun 2027 10:42:49.688            16.125          6792.844
       275   11 Jun 2027 10:43:01.740   11 Jun 2027 10:43:02.742             1.002           270.469
       276   12 Jun 2027 03:00:00.000   12 Jun 2027 03:00:16.522            16.522          8261.000
       277   12 Jun 2027 03:01:10.787   12 Jun 2027 03:01:21.696            10.909          5454.500
       278   12 Jun 2027 03:01:57.458   12 Jun 2027 03:02:06.901             9.443          4721.500
       279   12 Jun 2027 03:02:51.683   12 Jun 2027 03:03:15.628            23.945         11972.500
       280   12 Jun 2027 03:03:27.164   12 Jun 2027 03:03:34.794             7.630          3815.000
       281   12 Jun 2027 04:36:25.544   12 Jun 2027 04:37:43.689            78.145         39072.500
       282   12 Jun 2027 04:38:23.914   12 Jun 2027 04:38:36.104            12.190          6095.000
       283   12 Jun 2027 04:38:43.930   12 Jun 2027 04:38:49.339             5.409          2704.500
       284   12 Jun 2027 04:40:40.474   12 Jun 2027 04:40:40.474             0.000             0.000
       285   12 Jun 2027 04:41:19.700   12 Jun 2027 04:41:29.063             9.363          4681.500
       286   12 Jun 2027 04:41:43.028   12 Jun 2027 04:41:47.401             4.373          2186.500
       287   12 Jun 2027 04:43:15.240   12 Jun 2027 04:43:41.629            26.389         13194.500
       288   12 Jun 2027 06:01:39.460   12 Jun 2027 06:02:30.131            50.671         25335.500
       289   12 Jun 2027 06:13:09.299   12 Jun 2027 06:13:34.003            24.704         12352.000
       290   12 Jun 2027 06:14:08.767   12 Jun 2027 06:14:10.887             2.120          1060.000
       291   12 Jun 2027 07:35:48.118   12 Jun 2027 07:36:46.976            58.858         29429.000
       292   12 Jun 2027 07:37:23.683   12 Jun 2027 07:37:51.390            27.707         13150.531
       293   12 Jun 2027 07:40:00.587   12 Jun 2027 07:40:01.603             1.016           508.000
       294   12 Jun 2027 07:40:22.489   12 Jun 2027 07:40:27.512             5.023          2511.500
       295   12 Jun 2027 09:11:05.129   12 Jun 2027 09:11:19.886            14.757          5850.531
       296   12 Jun 2027 09:11:53.516   12 Jun 2027 09:11:57.009             3.493           194.438
       297   12 Jun 2027 09:14:23.441   12 Jun 2027 09:14:34.595            11.154          4538.969
       298   12 Jun 2027 09:15:36.055   12 Jun 2027 09:15:36.613             0.558           100.594
       299   12 Jun 2027 09:16:48.416   12 Jun 2027 09:16:53.372             4.956          2243.844
       300   12 Jun 2027 10:47:39.553   12 Jun 2027 10:47:47.802             8.249          4124.500
       301   12 Jun 2027 10:47:59.169   12 Jun 2027 10:48:01.104             1.935           685.375
       302   12 Jun 2027 10:49:48.863   12 Jun 2027 10:50:01.804            12.941           865.781
       303   12 Jun 2027 10:53:16.130   12 Jun 2027 10:53:27.750            11.620          4526.656
       304   12 Jun 2027 10:53:40.645   12 Jun 2027 10:53:41.218             0.573            67.625
       305   12 Jun 2027 10:53:53.050   12 Jun 2027 10:53:57.928             4.878           265.156
       306   12 Jun 2027 10:54:20.015   12 Jun 2027 10:54:21.902             1.887           551.250
       307   12 Jun 2027 10:54:29.831   12 Jun 2027 10:54:42.708            12.877           247.781
       308   12 Jun 2027 10:55:06.821   12 Jun 2027 10:55:07.971             1.150           575.000
       309   13 Jun 2027 03:09:35.972   13 Jun 2027 03:10:29.822            53.850         26925.000
       310   13 Jun 2027 03:10:37.669   13 Jun 2027 03:10:40.687             3.018          1509.000
       311   13 Jun 2027 03:11:37.640   13 Jun 2027 03:11:39.667             2.027          1013.500
       312   13 Jun 2027 03:11:54.534   13 Jun 2027 03:12:12.642            18.108          9054.000
       313   13 Jun 2027 03:12:16.402   13 Jun 2027 03:12:16.462             0.060            30.000
       314   13 Jun 2027 03:14:40.491   13 Jun 2027 03:14:40.491             0.000             0.000
       315   13 Jun 2027 03:15:18.422   13 Jun 2027 03:15:21.065             2.643          1321.500
       316   13 Jun 2027 04:48:41.371   13 Jun 2027 04:50:06.717            85.346         42673.000
       317   13 Jun 2027 04:51:51.867   13 Jun 2027 04:52:05.375            13.508          6754.000
       318   13 Jun 2027 04:53:28.674   13 Jun 2027 04:53:44.190            15.516          7758.000
       319   13 Jun 2027 04:53:51.319   13 Jun 2027 04:53:54.443             3.124          1562.000
       320   13 Jun 2027 04:55:29.428   13 Jun 2027 04:55:45.237            15.809          7904.500
       321   13 Jun 2027 06:12:55.820   13 Jun 2027 06:13:37.457            41.637         20818.500
       322   13 Jun 2027 06:14:21.163   13 Jun 2027 06:14:41.979            20.816         10408.000
       323   13 Jun 2027 06:25:08.450   13 Jun 2027 06:25:38.846            30.396         15198.000
       324   13 Jun 2027 06:26:01.619   13 Jun 2027 06:26:04.829             3.210          1605.000
       325   13 Jun 2027 07:47:24.085   13 Jun 2027 07:48:30.491            66.406         33203.000
       326   13 Jun 2027 07:49:53.551   13 Jun 2027 07:49:53.551             0.000             0.000
       327   13 Jun 2027 07:50:32.443   13 Jun 2027 07:50:50.917            18.474          4044.312
       328   13 Jun 2027 07:51:06.738   13 Jun 2027 07:51:09.256             2.518           450.031
       329   13 Jun 2027 07:52:17.752   13 Jun 2027 07:52:17.752             0.000             0.000
       330   13 Jun 2027 09:22:16.684   13 Jun 2027 09:22:31.140            14.456          6420.844
       331   13 Jun 2027 09:23:19.442   13 Jun 2027 09:23:23.541             4.099           936.219
       332   13 Jun 2027 09:23:56.766   13 Jun 2027 09:23:56.766             0.000             0.000
       333   13 Jun 2027 09:27:35.318   13 Jun 2027 09:27:51.958            16.640          7769.438
       334   13 Jun 2027 09:28:16.830   13 Jun 2027 09:28:16.830             0.000             0.000
       335   13 Jun 2027 09:28:52.526   13 Jun 2027 09:28:55.453             2.927          1463.500
       336   13 Jun 2027 09:29:01.600   13 Jun 2027 09:29:03.082             1.482           581.719
       337   13 Jun 2027 11:03:14.018   13 Jun 2027 11:03:30.844            16.826          8413.000
       338   13 Jun 2027 11:05:14.289   13 Jun 2027 11:05:27.915            13.626          6509.969
       339   13 Jun 2027 11:05:42.103   13 Jun 2027 11:05:49.165             7.062           443.375
       340   13 Jun 2027 11:06:01.513   13 Jun 2027 11:06:03.758             2.245           385.875
       341   13 Jun 2027 11:06:21.226   13 Jun 2027 11:06:22.671             1.445           526.031
       342   13 Jun 2027 11:07:02.241   13 Jun 2027 11:07:11.811             9.570           580.781
