uniorb/output/strategy_1/Camera/Camera_KinoSat_111701.txt

KinoSat_111701
-------------------------
    Access    *     Start Time (UTCG)     *     Stop Time (UTCG)  *   Duration (s) *   Data (Mbytes)
         1   01 Jun 2027 03:48:59.135   01 Jun 2027 03:49:27.282            28.147         14073.500
         2   01 Jun 2027 03:49:31.256   01 Jun 2027 03:51:22.759           111.503         55751.500
         3   01 Jun 2027 03:52:19.985   01 Jun 2027 03:52:32.163            12.178          6089.000
         4   01 Jun 2027 03:53:42.087   01 Jun 2027 03:53:45.065             2.978          1489.000
         5   01 Jun 2027 05:26:59.781   01 Jun 2027 05:29:05.790           126.009         63004.500
         6   01 Jun 2027 05:30:05.645   01 Jun 2027 05:30:28.346            22.701         11350.500
         7   01 Jun 2027 06:50:40.600   01 Jun 2027 06:51:38.676            58.076         29038.000
         8   01 Jun 2027 06:52:53.941   01 Jun 2027 06:53:14.196            20.255         10127.500
         9   01 Jun 2027 08:27:07.240   01 Jun 2027 08:28:51.498           104.258         52129.000
        10   01 Jun 2027 09:59:17.857   01 Jun 2027 09:59:24.734             6.877          3438.500
        11   01 Jun 2027 10:01:12.665   01 Jun 2027 10:01:41.989            29.324         14662.000
        12   01 Jun 2027 10:02:54.588   01 Jun 2027 10:03:01.925             7.337          3668.500
        13   01 Jun 2027 10:04:08.135   01 Jun 2027 10:04:59.165            51.030         25515.000
        14   01 Jun 2027 10:07:32.585   01 Jun 2027 10:07:55.267            22.682         11341.000
        15   01 Jun 2027 10:08:19.964   01 Jun 2027 10:08:29.960             9.996          4998.000
        16   01 Jun 2027 10:08:56.126   01 Jun 2027 10:09:06.457            10.331          5165.500
        17   01 Jun 2027 11:38:10.751   01 Jun 2027 11:39:19.059            68.308         34154.000
        18   01 Jun 2027 11:40:21.252   01 Jun 2027 11:40:21.329             0.077            38.500
        19   01 Jun 2027 11:40:40.534   01 Jun 2027 11:40:52.355            11.821          5910.500
        20   01 Jun 2027 11:41:21.176   01 Jun 2027 11:42:13.706            52.530         26265.000
        21   01 Jun 2027 11:43:04.678   01 Jun 2027 11:43:12.935             8.257          4128.500
        22   01 Jun 2027 11:44:18.168   01 Jun 2027 11:44:20.726             2.558          1279.000
        23   02 Jun 2027 04:01:05.174   02 Jun 2027 04:02:08.636            63.462         31731.000
        24   02 Jun 2027 04:02:15.936   02 Jun 2027 04:02:35.918            19.982          9991.000
        25   02 Jun 2027 04:03:16.731   02 Jun 2027 04:03:50.069            33.338         16669.000
        26   02 Jun 2027 04:03:59.948   02 Jun 2027 04:03:59.948             0.000             0.000
        27   02 Jun 2027 04:04:08.779   02 Jun 2027 04:04:28.491            19.712          9856.000
        28   02 Jun 2027 04:04:39.575   02 Jun 2027 04:04:39.937             0.362           181.000
        29   02 Jun 2027 04:05:14.552   02 Jun 2027 04:05:14.552             0.000             0.000
        30   02 Jun 2027 04:05:36.843   02 Jun 2027 04:05:41.562             4.719          2359.500
        31   02 Jun 2027 05:40:13.520   02 Jun 2027 05:41:53.079            99.559         49779.500
        32   02 Jun 2027 05:43:41.758   02 Jun 2027 05:43:46.722             4.964          2482.000
        33   02 Jun 2027 07:02:46.400   02 Jun 2027 07:04:14.914            88.514         44257.000
        34   02 Jun 2027 07:04:38.404   02 Jun 2027 07:04:39.118             0.714           357.000
        35   02 Jun 2027 07:05:26.785   02 Jun 2027 07:05:26.785             0.000             0.000
        36   02 Jun 2027 08:39:15.126   02 Jun 2027 08:40:12.484            57.358         28679.000
        37   02 Jun 2027 08:40:18.037   02 Jun 2027 08:40:56.204            38.167         19083.500
        38   02 Jun 2027 10:14:23.281   02 Jun 2027 10:16:19.560           116.279         58139.500
        39   02 Jun 2027 10:20:58.235   02 Jun 2027 10:21:07.448             9.213          4606.500
        40   02 Jun 2027 11:50:44.957   02 Jun 2027 11:52:36.221           111.264         55632.000
        41   02 Jun 2027 11:53:57.980   02 Jun 2027 11:54:15.882            17.902          8951.000
        42   02 Jun 2027 11:54:31.046   02 Jun 2027 11:54:38.195             7.149          3574.500
        43   02 Jun 2027 11:56:06.558   02 Jun 2027 11:56:08.642             2.084          1042.000
        44   03 Jun 2027 04:13:09.327   03 Jun 2027 04:13:50.725            41.398         20699.000
        45   03 Jun 2027 04:14:13.271   03 Jun 2027 04:14:49.647            36.376         18188.000
        46   03 Jun 2027 04:15:29.940   03 Jun 2027 04:15:47.301            17.361          8680.500
        47   03 Jun 2027 04:19:15.866   03 Jun 2027 04:19:17.239             1.373           686.500
        48   03 Jun 2027 05:51:22.607   03 Jun 2027 05:51:59.004            36.397         18198.500
        49   03 Jun 2027 05:52:16.965   03 Jun 2027 05:53:30.511            73.546         36773.000
        50   03 Jun 2027 07:14:49.452   03 Jun 2027 07:16:16.291            86.839         43419.500
        51   03 Jun 2027 07:17:23.732   03 Jun 2027 07:17:31.642             7.910          3955.000
        52   03 Jun 2027 07:17:53.129   03 Jun 2027 07:17:57.709             4.580          2290.000
        53   03 Jun 2027 08:51:18.166   03 Jun 2027 08:53:18.576           120.410         60205.000
        54   03 Jun 2027 08:54:20.151   03 Jun 2027 08:54:42.034            21.883         10941.500
        55   03 Jun 2027 10:26:40.886   03 Jun 2027 10:27:59.689            78.803         39401.500
        56   03 Jun 2027 10:32:50.752   03 Jun 2027 10:33:06.273            15.521          7760.500
        57   04 Jun 2027 04:26:13.993   04 Jun 2027 04:27:41.358            87.365         43682.500
        58   04 Jun 2027 04:28:34.132   04 Jun 2027 04:28:34.653             0.521           260.500
        59   04 Jun 2027 04:31:21.220   04 Jun 2027 04:31:35.480            14.260          7130.000
        60   04 Jun 2027 04:32:29.109   04 Jun 2027 04:32:43.923            14.814          7407.000
        61   04 Jun 2027 04:32:50.701   04 Jun 2027 04:32:53.822             3.121          1560.500
        62   04 Jun 2027 04:32:57.742   04 Jun 2027 04:33:04.151             6.409          3204.500
        63   04 Jun 2027 04:33:09.876   04 Jun 2027 04:33:47.658            37.782         18891.000
        64   04 Jun 2027 05:52:26.775   04 Jun 2027 05:52:48.761            21.986         10993.000
        65   04 Jun 2027 06:03:18.324   04 Jun 2027 06:04:15.768            57.444         28722.000
        66   04 Jun 2027 06:05:35.608   04 Jun 2027 06:05:53.846            18.238          9119.000
        67   04 Jun 2027 07:27:16.344   04 Jun 2027 07:29:14.830           118.486         59243.000
        68   04 Jun 2027 07:29:22.819   04 Jun 2027 07:29:23.890             1.071           535.500
        69   04 Jun 2027 09:03:01.825   04 Jun 2027 09:03:19.413            17.588          8794.000
        70   04 Jun 2027 09:05:12.808   04 Jun 2027 09:05:12.808             0.000             0.000
        71   04 Jun 2027 09:05:27.013   04 Jun 2027 09:05:38.757            11.744          5304.000
        72   04 Jun 2027 09:06:33.190   04 Jun 2027 09:06:42.478             9.288          1508.031
        73   04 Jun 2027 10:37:44.859   04 Jun 2027 10:37:52.754             7.895          3884.375
        74   04 Jun 2027 10:38:38.079   04 Jun 2027 10:38:41.642             3.563           885.000
        75   04 Jun 2027 10:39:26.957   04 Jun 2027 10:39:27.346             0.389            17.875
        76   04 Jun 2027 10:41:03.305   04 Jun 2027 10:41:09.728             6.423          2075.500
        77   04 Jun 2027 10:41:14.752   04 Jun 2027 10:41:16.682             1.930           123.656
        78   04 Jun 2027 10:43:24.930   04 Jun 2027 10:43:24.930             0.000             0.000
        79   04 Jun 2027 10:44:40.619   04 Jun 2027 10:45:00.281            19.662          6373.031
        80   05 Jun 2027 03:00:00.000   05 Jun 2027 03:00:09.191             9.191          4595.500
        81   05 Jun 2027 03:00:18.746   05 Jun 2027 03:00:45.896            27.150         13575.000
        82   05 Jun 2027 03:03:09.991   05 Jun 2027 03:03:18.591             8.600          4300.000
        83   05 Jun 2027 03:03:58.024   05 Jun 2027 03:03:59.223             1.199           599.500
        84   05 Jun 2027 03:04:37.693   05 Jun 2027 03:05:00.248            22.555         11277.500
        85   05 Jun 2027 04:38:35.778   05 Jun 2027 04:39:51.761            75.983         37991.500
        86   05 Jun 2027 04:40:34.885   05 Jun 2027 04:40:45.225            10.340          5170.000
        87   05 Jun 2027 04:40:51.809   05 Jun 2027 04:40:59.748             7.939          3969.500
        88   05 Jun 2027 04:42:32.310   05 Jun 2027 04:42:41.132             8.822          4411.000
        89   05 Jun 2027 04:42:58.960   05 Jun 2027 04:43:28.749            29.789         14894.500
        90   05 Jun 2027 04:45:25.798   05 Jun 2027 04:45:52.323            26.525         13262.500
        91   05 Jun 2027 06:03:41.341   05 Jun 2027 06:04:24.026            42.685         21342.500
        92   05 Jun 2027 06:15:19.417   05 Jun 2027 06:15:59.689            40.272         20136.000
        93   05 Jun 2027 07:37:52.824   05 Jun 2027 07:38:52.719            59.895         29947.500
        94   05 Jun 2027 07:39:32.526   05 Jun 2027 07:39:48.815            16.289          8144.500
        95   05 Jun 2027 07:41:23.476   05 Jun 2027 07:41:40.380            16.904          8389.656
        96   05 Jun 2027 09:12:56.529   05 Jun 2027 09:13:06.185             9.656          4828.000
        97   05 Jun 2027 09:13:21.813   05 Jun 2027 09:13:24.218             2.405          1101.031
        98   05 Jun 2027 09:14:16.661   05 Jun 2027 09:14:17.518             0.857           428.500
        99   05 Jun 2027 09:15:35.911   05 Jun 2027 09:15:40.361             4.450          2134.031
       100   05 Jun 2027 09:15:56.384   05 Jun 2027 09:15:57.294             0.910           358.531
       101   05 Jun 2027 09:16:08.515   05 Jun 2027 09:16:09.336             0.821           308.719
       102   05 Jun 2027 09:17:45.960   05 Jun 2027 09:17:46.303             0.343           171.500
       103   05 Jun 2027 10:49:52.818   05 Jun 2027 10:49:59.357             6.539          3269.500
       104   05 Jun 2027 10:53:03.403   05 Jun 2027 10:53:26.492            23.089          9884.781
       105   05 Jun 2027 10:54:21.625   05 Jun 2027 10:54:25.754             4.129          1657.688
       106   05 Jun 2027 10:55:55.568   05 Jun 2027 10:56:01.476             5.908          2381.187
       107   05 Jun 2027 10:56:28.978   05 Jun 2027 10:56:31.586             2.608           504.313
       108   05 Jun 2027 10:57:16.936   05 Jun 2027 10:57:17.493             0.557           278.500
       109   06 Jun 2027 03:11:52.685   06 Jun 2027 03:12:44.761            52.076         26038.000
       110   06 Jun 2027 03:12:55.965   06 Jun 2027 03:13:12.007            16.042          8021.000
       111   06 Jun 2027 03:13:59.312   06 Jun 2027 03:14:21.601            22.289         11144.500
       112   06 Jun 2027 03:15:28.133   06 Jun 2027 03:15:32.606             4.473          2236.500
       113   06 Jun 2027 03:16:43.146   06 Jun 2027 03:16:46.351             3.205          1602.500
       114   06 Jun 2027 03:17:32.466   06 Jun 2027 03:17:38.622             6.156          3078.000
       115   06 Jun 2027 04:50:53.096   06 Jun 2027 04:52:05.127            72.031         36015.500
       116   06 Jun 2027 04:52:33.998   06 Jun 2027 04:52:47.958            13.960          6980.000
       117   06 Jun 2027 04:52:55.134   06 Jun 2027 04:53:06.956            11.822          5911.000
       118   06 Jun 2027 04:54:37.135   06 Jun 2027 04:54:51.316            14.181          7090.500
       119   06 Jun 2027 04:55:20.961   06 Jun 2027 04:55:20.961             0.000             0.000
       120   06 Jun 2027 04:57:39.726   06 Jun 2027 04:57:52.857            13.131          6565.500
       121   06 Jun 2027 06:15:02.091   06 Jun 2027 06:16:13.455            71.364         35682.000
       122   06 Jun 2027 06:27:16.745   06 Jun 2027 06:27:35.944            19.199          9599.500
       123   06 Jun 2027 06:27:57.175   06 Jun 2027 06:28:11.618            14.443          7221.500
       124   06 Jun 2027 07:49:22.916   06 Jun 2027 07:50:13.560            50.644         25322.000
       125   06 Jun 2027 07:52:02.263   06 Jun 2027 07:52:17.551            15.288          6069.405
       126   06 Jun 2027 07:53:48.631   06 Jun 2027 07:53:59.893            11.262          2774.281
       127   06 Jun 2027 09:24:21.262   06 Jun 2027 09:24:32.315            11.053          5493.938
       128   06 Jun 2027 09:25:57.254   06 Jun 2027 09:26:04.644             7.390          1872.062
       129   06 Jun 2027 09:29:43.012   06 Jun 2027 09:30:02.470            19.458          6824.000
       130   06 Jun 2027 09:31:44.672   06 Jun 2027 09:31:51.542             6.870          3009.156
       131   06 Jun 2027 11:01:57.651   06 Jun 2027 11:02:12.575            14.924          5739.906
       132   06 Jun 2027 11:02:21.882   06 Jun 2027 11:02:28.734             6.852           175.906
       133   06 Jun 2027 11:02:53.279   06 Jun 2027 11:02:53.996             0.717           287.031
       134   06 Jun 2027 11:03:27.488   06 Jun 2027 11:03:29.266             1.778           828.750
       135   06 Jun 2027 11:04:03.143   06 Jun 2027 11:04:09.907             6.764           940.281
       136   06 Jun 2027 11:04:51.938   06 Jun 2027 11:04:52.765             0.827           261.688
       137   06 Jun 2027 11:04:56.581   06 Jun 2027 11:05:01.194             4.613           119.250
       138   06 Jun 2027 11:08:07.060   06 Jun 2027 11:08:20.241            13.181          5808.312
       139   06 Jun 2027 11:09:07.371   06 Jun 2027 11:09:11.981             4.610          1397.656
       140   07 Jun 2027 03:24:18.730   07 Jun 2027 03:24:24.915             6.185          3092.500
       141   07 Jun 2027 03:24:39.367   07 Jun 2027 03:26:08.413            89.046         44523.000
       142   07 Jun 2027 03:26:44.142   07 Jun 2027 03:26:56.058            11.916          5958.000
       143   07 Jun 2027 03:28:27.846   07 Jun 2027 03:28:29.821             1.975           987.500
       144   07 Jun 2027 03:29:11.812   07 Jun 2027 03:29:21.976            10.164          5082.000
       145   07 Jun 2027 05:02:59.845   07 Jun 2027 05:04:08.256            68.411         34205.500
       146   07 Jun 2027 05:04:23.226   07 Jun 2027 05:04:42.401            19.175          9587.500
       147   07 Jun 2027 05:07:19.409   07 Jun 2027 05:08:09.533            50.124         25062.000
       148   07 Jun 2027 06:27:08.770   07 Jun 2027 06:27:48.057            39.287         19643.500
       149   07 Jun 2027 08:00:58.599   07 Jun 2027 08:02:16.726            78.127         36129.626
       150   07 Jun 2027 08:03:52.450   07 Jun 2027 08:03:58.448             5.998          1993.969
       151   07 Jun 2027 08:06:11.031   07 Jun 2027 08:06:21.877            10.846          4064.375
       152   07 Jun 2027 09:35:51.589   07 Jun 2027 09:36:05.811            14.222          5354.969
       153   07 Jun 2027 09:38:09.414   07 Jun 2027 09:38:16.117             6.703          2625.469
       154   07 Jun 2027 09:38:57.002   07 Jun 2027 09:38:57.002             0.000             0.000
       155   07 Jun 2027 09:39:29.943   07 Jun 2027 09:39:34.833             4.890          2140.844
       156   07 Jun 2027 09:42:56.151   07 Jun 2027 09:43:08.920            12.769          6291.188
       157   07 Jun 2027 11:13:55.907   07 Jun 2027 11:14:21.479            25.572          6416.437
       158   07 Jun 2027 11:16:49.034   07 Jun 2027 11:16:49.034             0.000             0.000
       159   07 Jun 2027 11:18:32.069   07 Jun 2027 11:18:48.846            16.777          7830.937
       160   07 Jun 2027 11:19:21.699   07 Jun 2027 11:19:26.400             4.701           757.250
       161   07 Jun 2027 11:20:16.821   07 Jun 2027 11:20:21.564             4.743          1488.125
       162   07 Jun 2027 11:20:44.567   07 Jun 2027 11:20:47.456             2.889           718.844
       163   07 Jun 2027 11:21:03.961   07 Jun 2027 11:21:05.476             1.515           502.187
       164   08 Jun 2027 03:36:49.773   08 Jun 2027 03:36:56.430             6.657          3328.500
       165   08 Jun 2027 03:37:11.207   08 Jun 2027 03:38:11.954            60.747         30373.500
       166   08 Jun 2027 03:38:16.845   08 Jun 2027 03:39:13.749            56.904         28452.000
       167   08 Jun 2027 03:39:57.957   08 Jun 2027 03:40:06.298             8.341          4170.500
       168   08 Jun 2027 03:41:53.337   08 Jun 2027 03:42:08.088            14.751          7375.500
       169   08 Jun 2027 05:15:36.424   08 Jun 2027 05:16:51.748            75.324         37662.000
       170   08 Jun 2027 05:16:54.663   08 Jun 2027 05:17:00.702             6.039          3019.500
       171   08 Jun 2027 05:18:39.934   08 Jun 2027 05:18:55.393            15.459          7729.500
       172   08 Jun 2027 06:39:06.402   08 Jun 2027 06:40:26.077            79.675         39837.500
       173   08 Jun 2027 06:41:06.456   08 Jun 2027 06:41:08.629             2.173          1086.500
       174   08 Jun 2027 06:41:19.990   08 Jun 2027 06:41:23.496             3.506          1753.000
       175   08 Jun 2027 08:15:07.132   08 Jun 2027 08:15:35.350            28.218         14109.000
       176   08 Jun 2027 08:15:49.819   08 Jun 2027 08:15:53.760             3.941          1795.282
       177   08 Jun 2027 08:16:37.906   08 Jun 2027 08:16:37.906             0.000             0.000
       178   08 Jun 2027 08:17:46.379   08 Jun 2027 08:17:54.122             7.743          3519.344
       179   08 Jun 2027 09:48:50.978   08 Jun 2027 09:48:59.900             8.922          4413.969
       180   08 Jun 2027 09:50:39.307   08 Jun 2027 09:50:39.307             0.000             0.000
       181   08 Jun 2027 09:52:23.181   08 Jun 2027 09:52:36.197            13.016          4494.594
       182   08 Jun 2027 09:53:22.243   08 Jun 2027 09:53:27.387             5.144           957.187
       183   08 Jun 2027 09:53:53.428   08 Jun 2027 09:53:55.785             2.357           813.781
       184   08 Jun 2027 09:54:56.755   08 Jun 2027 09:55:01.743             4.988           565.469
       185   08 Jun 2027 09:56:29.243   08 Jun 2027 09:56:35.501             6.258          2734.375
       186   08 Jun 2027 09:57:24.608   08 Jun 2027 09:57:25.587             0.979           489.500
       187   08 Jun 2027 11:26:18.387   08 Jun 2027 11:26:32.692            14.305          7152.500
       188   08 Jun 2027 11:28:23.201   08 Jun 2027 11:28:32.073             8.872          4436.000
       189   08 Jun 2027 11:30:36.835   08 Jun 2027 11:30:45.275             8.440          4041.531
       190   08 Jun 2027 11:30:56.759   08 Jun 2027 11:30:58.444             1.685           338.813
       191   08 Jun 2027 11:31:14.979   08 Jun 2027 11:31:17.657             2.678           230.187
       192   08 Jun 2027 11:31:47.888   08 Jun 2027 11:31:54.720             6.832           767.781
       193   08 Jun 2027 11:32:46.779   08 Jun 2027 11:32:50.479             3.700          1626.844
       194   08 Jun 2027 11:32:56.695   08 Jun 2027 11:32:57.558             0.863           168.250
       195   09 Jun 2027 03:49:16.049   09 Jun 2027 03:49:43.220            27.171         13585.500
       196   09 Jun 2027 03:49:47.125   09 Jun 2027 03:51:36.675           109.550         54775.000
       197   09 Jun 2027 03:51:43.665   09 Jun 2027 03:51:52.499             8.834          4417.000
       198   09 Jun 2027 03:54:38.506   09 Jun 2027 03:54:43.744             5.238          2619.000
       199   09 Jun 2027 03:55:06.220   09 Jun 2027 03:55:11.156             4.936          2468.000
       200   09 Jun 2027 05:27:17.030   09 Jun 2027 05:28:40.289            83.259         41629.500
       201   09 Jun 2027 05:28:52.204   09 Jun 2027 05:28:53.498             1.294           647.000
       202   09 Jun 2027 05:29:56.957   09 Jun 2027 05:29:58.292             1.335           667.500
       203   09 Jun 2027 05:30:17.321   09 Jun 2027 05:30:31.276            13.955          6977.500
       204   09 Jun 2027 06:50:56.638   09 Jun 2027 06:52:17.725            81.087         40543.500
       205   09 Jun 2027 08:27:23.589   09 Jun 2027 08:27:45.530            21.941         10970.500
       206   09 Jun 2027 08:29:03.360   09 Jun 2027 08:29:13.571            10.211          3934.875
       207   09 Jun 2027 08:29:57.253   09 Jun 2027 08:30:01.310             4.057          1365.063
       208   09 Jun 2027 09:59:33.002   09 Jun 2027 09:59:42.546             9.544          4772.000
       209   09 Jun 2027 10:01:30.209   09 Jun 2027 10:01:32.453             2.244          1087.156
       210   09 Jun 2027 10:02:02.577   09 Jun 2027 10:02:05.205             2.628           892.437
       211   09 Jun 2027 10:03:17.673   09 Jun 2027 10:03:18.244             0.571           285.500
       212   09 Jun 2027 10:05:44.426   09 Jun 2027 10:05:55.347            10.921          5135.031
       213   09 Jun 2027 10:06:47.583   09 Jun 2027 10:06:53.553             5.970          1404.125
       214   09 Jun 2027 10:07:13.917   09 Jun 2027 10:07:19.784             5.867           550.312
       215   09 Jun 2027 10:07:38.517   09 Jun 2027 10:07:40.322             1.805           512.656
       216   09 Jun 2027 10:07:55.854   09 Jun 2027 10:07:59.322             3.468           485.375
       217   09 Jun 2027 10:08:26.227   09 Jun 2027 10:08:31.324             5.097           512.313
       218   09 Jun 2027 10:08:43.639   09 Jun 2027 10:08:46.766             3.127           350.219
       219   09 Jun 2027 10:09:16.570   09 Jun 2027 10:09:18.512             1.942           931.375
       220   09 Jun 2027 11:38:28.316   09 Jun 2027 11:38:41.234            12.918          6452.188
       221   09 Jun 2027 11:40:36.620   09 Jun 2027 11:40:43.600             6.980          1905.375
       222   09 Jun 2027 11:40:59.245   09 Jun 2027 11:41:02.349             3.104           311.844
       223   09 Jun 2027 11:41:28.083   09 Jun 2027 11:41:32.108             4.025           695.781
       224   09 Jun 2027 11:42:47.913   09 Jun 2027 11:42:52.736             4.823          2063.969
       225   09 Jun 2027 11:43:14.952   09 Jun 2027 11:43:17.234             2.282           520.250
       226   09 Jun 2027 11:43:29.499   09 Jun 2027 11:43:30.169             0.670           237.187
       227   09 Jun 2027 11:44:11.021   09 Jun 2027 11:44:13.657             2.636          1276.625
       228   09 Jun 2027 11:45:00.716   09 Jun 2027 11:45:04.933             4.217          1412.187
       229   10 Jun 2027 04:01:22.236   10 Jun 2027 04:02:24.665            62.429         31214.500
       230   10 Jun 2027 04:02:31.637   10 Jun 2027 04:03:27.850            56.213         28106.500
       231   10 Jun 2027 04:04:09.679   10 Jun 2027 04:04:15.377             5.698          2849.000
       232   10 Jun 2027 04:04:23.626   10 Jun 2027 04:04:41.973            18.347          9173.500
       233   10 Jun 2027 04:04:45.645   10 Jun 2027 04:04:55.577             9.932          4966.000
       234   10 Jun 2027 05:40:30.447   10 Jun 2027 05:42:07.269            96.822         48411.000
       235   10 Jun 2027 05:42:23.486   10 Jun 2027 05:42:25.646             2.160          1080.000
       236   10 Jun 2027 05:43:14.529   10 Jun 2027 05:43:25.101            10.572          5286.000
       237   10 Jun 2027 05:43:56.849   10 Jun 2027 05:44:02.423             5.574          2787.000
       238   10 Jun 2027 07:03:04.605   10 Jun 2027 07:04:31.277            86.672         42898.312
       239   10 Jun 2027 07:05:39.101   10 Jun 2027 07:05:42.597             3.496          1748.000
       240   10 Jun 2027 08:39:32.699   10 Jun 2027 08:39:47.556            14.857          6209.656
       241   10 Jun 2027 08:39:59.707   10 Jun 2027 08:40:03.872             4.165           271.469
       242   10 Jun 2027 08:40:37.477   10 Jun 2027 08:40:37.477             0.000             0.000
       243   10 Jun 2027 08:41:15.341   10 Jun 2027 08:41:18.287             2.946          1353.563
       244   10 Jun 2027 08:41:59.313   10 Jun 2027 08:42:01.796             2.483           545.969
       245   10 Jun 2027 10:14:43.580   10 Jun 2027 10:14:54.144            10.564          5192.719
       246   10 Jun 2027 10:17:42.061   10 Jun 2027 10:17:51.851             9.790          4779.031
       247   10 Jun 2027 10:18:12.382   10 Jun 2027 10:18:12.814             0.432           216.000
       248   10 Jun 2027 10:18:43.223   10 Jun 2027 10:18:48.223             5.000          1059.313
       249   10 Jun 2027 10:19:11.204   10 Jun 2027 10:19:15.819             4.615           437.344
       250   10 Jun 2027 10:19:25.967   10 Jun 2027 10:19:27.954             1.987           227.750
       251   10 Jun 2027 10:19:33.045   10 Jun 2027 10:19:33.535             0.490            41.844
       252   10 Jun 2027 10:19:42.934   10 Jun 2027 10:19:42.934             0.000             0.000
       253   10 Jun 2027 10:21:14.884   10 Jun 2027 10:21:22.385             7.501          3116.844
       254   10 Jun 2027 11:51:02.646   10 Jun 2027 11:51:13.823            11.177          5255.094
       255   10 Jun 2027 11:52:31.216   10 Jun 2027 11:52:31.784             0.568           284.000
       256   10 Jun 2027 11:53:08.479   10 Jun 2027 11:53:17.248             8.769          2705.062
       257   10 Jun 2027 11:54:32.260   10 Jun 2027 11:54:39.801             7.541          2344.125
       258   10 Jun 2027 11:55:00.404   10 Jun 2027 11:55:00.759             0.355           177.500
       259   10 Jun 2027 11:56:17.826   10 Jun 2027 11:56:22.022             4.196          2098.000
       260   10 Jun 2027 11:56:37.136   10 Jun 2027 11:56:40.078             2.942          1003.125
       261   11 Jun 2027 04:13:27.083   11 Jun 2027 04:14:08.331            41.248         20624.000
       262   11 Jun 2027 04:14:30.272   11 Jun 2027 04:15:41.191            70.919         35459.500
       263   11 Jun 2027 04:15:44.166   11 Jun 2027 04:15:44.508             0.342           171.000
       264   11 Jun 2027 04:16:17.923   11 Jun 2027 04:16:25.869             7.946          3973.000
       265   11 Jun 2027 04:17:42.420   11 Jun 2027 04:17:45.419             2.999          1499.500
       266   11 Jun 2027 04:18:41.718   11 Jun 2027 04:18:42.396             0.678           339.000
       267   11 Jun 2027 05:51:39.454   11 Jun 2027 05:52:15.880            36.426         18213.000
       268   11 Jun 2027 05:52:44.489   11 Jun 2027 05:53:46.204            61.715         30857.500
       269   11 Jun 2027 07:15:06.246   11 Jun 2027 07:16:30.614            84.368         42184.000
       270   11 Jun 2027 07:17:39.725   11 Jun 2027 07:18:11.058            31.333         15666.500
       271   11 Jun 2027 08:51:34.111   11 Jun 2027 08:51:44.558            10.447          5223.500
       272   11 Jun 2027 08:53:03.476   11 Jun 2027 08:53:13.630            10.154          4727.281
       273   11 Jun 2027 08:54:01.071   11 Jun 2027 08:54:01.071             0.000             0.000
       274   11 Jun 2027 08:54:40.403   11 Jun 2027 08:54:48.564             8.161          2283.344
       275   11 Jun 2027 10:26:46.494   11 Jun 2027 10:26:56.747            10.253          5126.500
       276   11 Jun 2027 10:28:19.418   11 Jun 2027 10:28:34.317            14.899          7088.812
       277   11 Jun 2027 10:29:38.556   11 Jun 2027 10:29:43.214             4.658          1767.969
       278   11 Jun 2027 10:33:07.223   11 Jun 2027 10:33:23.390            16.167          6375.281
       279   12 Jun 2027 04:26:31.624   12 Jun 2027 04:27:58.380            86.756         43378.000
       280   12 Jun 2027 04:28:44.808   12 Jun 2027 04:28:48.824             4.016          2008.000
       281   12 Jun 2027 04:29:11.152   12 Jun 2027 04:29:32.217            21.065         10532.500
       282   12 Jun 2027 04:30:43.126   12 Jun 2027 04:30:43.126             0.000             0.000
       283   12 Jun 2027 04:31:50.524   12 Jun 2027 04:31:50.524             0.000             0.000
       284   12 Jun 2027 04:32:01.330   12 Jun 2027 04:32:06.232             4.902          2451.000
       285   12 Jun 2027 04:33:01.724   12 Jun 2027 04:33:18.854            17.130          8565.000
       286   12 Jun 2027 04:33:28.289   12 Jun 2027 04:34:03.512            35.223         17611.500
       287   12 Jun 2027 05:52:40.736   12 Jun 2027 05:53:07.333            26.597         13298.500
       288   12 Jun 2027 06:03:35.202   12 Jun 2027 06:04:32.925            57.723         28861.500
       289   12 Jun 2027 07:27:32.846   12 Jun 2027 07:28:54.105            81.259         40629.500
       290   12 Jun 2027 07:29:33.643   12 Jun 2027 07:29:33.643             0.000             0.000
       291   12 Jun 2027 09:03:17.930   12 Jun 2027 09:03:45.760            27.830         13755.624
       292   12 Jun 2027 09:04:50.541   12 Jun 2027 09:04:55.080             4.539          1760.750
       293   12 Jun 2027 09:05:28.767   12 Jun 2027 09:05:30.991             2.224           640.937
       294   12 Jun 2027 09:05:46.621   12 Jun 2027 09:05:46.621             0.000             0.000
       295   12 Jun 2027 09:06:01.242   12 Jun 2027 09:06:02.466             1.224           612.000
       296   12 Jun 2027 09:06:51.273   12 Jun 2027 09:06:57.730             6.457          1802.406
       297   12 Jun 2027 10:38:39.495   12 Jun 2027 10:38:39.495             0.000             0.000
       298   12 Jun 2027 10:41:05.114   12 Jun 2027 10:41:22.084            16.970          8485.000
       299   12 Jun 2027 10:44:56.848   12 Jun 2027 10:45:15.819            18.971          7783.156
       300   12 Jun 2027 10:45:27.105   12 Jun 2027 10:45:28.287             1.182           305.563
       301   13 Jun 2027 03:00:06.183   13 Jun 2027 03:00:12.437             6.254          3127.000
       302   13 Jun 2027 03:01:00.196   13 Jun 2027 03:01:00.527             0.331           165.500
       303   13 Jun 2027 03:01:02.275   13 Jun 2027 03:01:04.190             1.915           957.500
       304   13 Jun 2027 03:01:37.439   13 Jun 2027 03:01:49.982            12.543          6271.500
       305   13 Jun 2027 03:02:10.847   13 Jun 2027 03:02:17.943             7.096          3548.000
       306   13 Jun 2027 03:02:37.855   13 Jun 2027 03:02:42.130             4.275          2137.500
       307   13 Jun 2027 03:03:24.838   13 Jun 2027 03:03:35.803            10.965          5482.500
       308   13 Jun 2027 03:04:13.700   13 Jun 2027 03:04:14.712             1.012           506.000
       309   13 Jun 2027 03:04:52.270   13 Jun 2027 03:05:13.909            21.639         10819.500
       310   13 Jun 2027 03:06:10.386   13 Jun 2027 03:06:13.950             3.564          1782.000
       311   13 Jun 2027 04:38:54.433   13 Jun 2027 04:40:05.673            71.240         35620.000
       312   13 Jun 2027 04:40:49.886   13 Jun 2027 04:40:59.809             9.923          4961.500
       313   13 Jun 2027 04:41:09.776   13 Jun 2027 04:41:16.294             6.518          3259.000
       314   13 Jun 2027 04:43:48.734   13 Jun 2027 04:43:54.355             5.621          2810.500
       315   13 Jun 2027 04:44:42.885   13 Jun 2027 04:44:47.708             4.823          2411.500
       316   13 Jun 2027 04:45:44.060   13 Jun 2027 04:46:08.191            24.131         12065.500
       317   13 Jun 2027 06:03:56.781   13 Jun 2027 06:04:39.504            42.723         21361.500
       318   13 Jun 2027 06:15:36.420   13 Jun 2027 06:16:21.392            44.972         22486.000
       319   13 Jun 2027 06:16:26.669   13 Jun 2027 06:16:34.231             7.562          3781.000
       320   13 Jun 2027 07:38:07.869   13 Jun 2027 07:39:09.161            61.292         30646.000
       321   13 Jun 2027 07:39:50.067   13 Jun 2027 07:40:19.702            29.635         14817.500
       322   13 Jun 2027 09:13:10.954   13 Jun 2027 09:13:22.022            11.068          5534.000
       323   13 Jun 2027 09:13:40.067   13 Jun 2027 09:13:46.475             6.408          1557.563
       324   13 Jun 2027 09:15:02.092   13 Jun 2027 09:15:08.202             6.110          1238.781
       325   13 Jun 2027 09:17:51.492   13 Jun 2027 09:17:51.492             0.000             0.000
       326   13 Jun 2027 09:18:04.540   13 Jun 2027 09:18:14.949            10.409          5060.625
       327   13 Jun 2027 09:19:25.450   13 Jun 2027 09:19:25.450             0.000             0.000
       328   13 Jun 2027 09:19:53.275   13 Jun 2027 09:19:55.090             1.815           907.500
       329   13 Jun 2027 10:50:10.007   13 Jun 2027 10:50:14.048             4.041          2020.500
       330   13 Jun 2027 10:53:23.145   13 Jun 2027 10:53:42.003            18.858          8633.969
       331   13 Jun 2027 10:54:38.482   13 Jun 2027 10:54:42.849             4.367          1749.281
       332   13 Jun 2027 10:55:06.257   13 Jun 2027 10:55:07.545             1.288           580.500
       333   13 Jun 2027 10:55:57.725   13 Jun 2027 10:56:01.749             4.024          1535.312
       334   13 Jun 2027 10:56:08.586   13 Jun 2027 10:56:09.591             1.005           150.531
       335   13 Jun 2027 10:56:32.660   13 Jun 2027 10:56:39.455             6.795           631.812
       336   13 Jun 2027 10:57:02.943   13 Jun 2027 10:57:06.728             3.785           531.563
       337   13 Jun 2027 10:57:31.515   13 Jun 2027 10:57:34.426             2.911           718.844
