uniorb/output/strategy_1/Camera/Camera_KinoSat_110610.txt

KinoSat_110610
-------------------------
    Access    *     Start Time (UTCG)     *     Stop Time (UTCG)  *   Duration (s) *   Data (Mbytes)
         1   01 Jun 2027 04:28:54.882   01 Jun 2027 04:31:16.190           141.308         70654.000
         2   01 Jun 2027 04:31:38.672   01 Jun 2027 04:31:38.672             0.000             0.000
         3   01 Jun 2027 04:32:50.922   01 Jun 2027 04:32:50.922             0.000             0.000
         4   01 Jun 2027 04:33:07.653   01 Jun 2027 04:33:19.062            11.409          5704.500
         5   01 Jun 2027 04:36:10.886   01 Jun 2027 04:36:29.467            18.581          9290.500
         6   01 Jun 2027 06:06:41.190   01 Jun 2027 06:08:50.458           129.268         64634.000
         7   01 Jun 2027 06:09:20.041   01 Jun 2027 06:09:31.489            11.448          5724.000
         8   01 Jun 2027 06:13:22.027   01 Jun 2027 06:13:22.381             0.354           177.000
         9   01 Jun 2027 06:13:43.715   01 Jun 2027 06:13:50.802             7.087          3543.500
        10   01 Jun 2027 07:43:26.594   01 Jun 2027 07:46:20.216           173.622         86811.000
        11   01 Jun 2027 07:48:36.556   01 Jun 2027 07:48:48.662            12.106          6053.000
        12   01 Jun 2027 09:21:31.801   01 Jun 2027 09:23:37.121           125.320         62660.000
        13   01 Jun 2027 09:25:07.459   01 Jun 2027 09:25:13.446             5.987          2993.500
        14   01 Jun 2027 10:55:22.796   01 Jun 2027 10:57:26.849           124.053         62026.500
        15   01 Jun 2027 10:58:29.433   01 Jun 2027 10:58:55.135            25.702         12851.000
        16   02 Jun 2027 03:05:38.938   02 Jun 2027 03:05:53.667            14.729          7364.500
        17   02 Jun 2027 03:08:52.326   02 Jun 2027 03:08:52.326             0.000             0.000
        18   02 Jun 2027 03:09:18.201   02 Jun 2027 03:09:19.485             1.284           642.000
        19   02 Jun 2027 03:09:41.793   02 Jun 2027 03:09:56.325            14.532          7266.000
        20   02 Jun 2027 03:11:45.296   02 Jun 2027 03:11:45.707             0.411           205.500
        21   02 Jun 2027 04:41:40.749   02 Jun 2027 04:43:38.410           117.661         58830.500
        22   02 Jun 2027 04:44:15.390   02 Jun 2027 04:44:20.242             4.852          2426.000
        23   02 Jun 2027 04:45:35.612   02 Jun 2027 04:45:35.612             0.000             0.000
        24   02 Jun 2027 04:45:53.586   02 Jun 2027 04:45:54.722             1.136           568.000
        25   02 Jun 2027 04:45:59.349   02 Jun 2027 04:46:01.397             2.048          1024.000
        26   02 Jun 2027 04:49:32.077   02 Jun 2027 04:49:51.558            19.481          9740.500
        27   02 Jun 2027 06:18:44.785   02 Jun 2027 06:19:50.196            65.411         32705.500
        28   02 Jun 2027 06:20:10.195   02 Jun 2027 06:20:58.654            48.459         24229.500
        29   02 Jun 2027 06:21:46.724   02 Jun 2027 06:21:52.646             5.922          2961.000
        30   02 Jun 2027 06:23:43.962   02 Jun 2027 06:23:50.295             6.333          3166.500
        31   02 Jun 2027 06:24:04.726   02 Jun 2027 06:24:15.338            10.612          5306.000
        32   02 Jun 2027 06:24:41.574   02 Jun 2027 06:24:41.574             0.000             0.000
        33   02 Jun 2027 06:24:51.404   02 Jun 2027 06:25:02.988            11.584          5792.000
        34   02 Jun 2027 07:55:40.581   02 Jun 2027 07:56:01.473            20.892         10446.000
        35   02 Jun 2027 07:56:13.088   02 Jun 2027 07:57:41.464            88.376         44188.000
        36   02 Jun 2027 07:58:26.290   02 Jun 2027 07:58:39.096            12.806          6403.000
        37   02 Jun 2027 07:59:35.587   02 Jun 2027 07:59:37.411             1.824           912.000
        38   02 Jun 2027 07:59:56.306   02 Jun 2027 08:00:02.978             6.672          3336.000
        39   02 Jun 2027 08:00:35.337   02 Jun 2027 08:00:38.826             3.489          1744.500
        40   02 Jun 2027 08:00:58.892   02 Jun 2027 08:01:16.694            17.802          8901.000
        41   02 Jun 2027 09:32:45.460   02 Jun 2027 09:34:31.490           106.030         53015.000
        42   02 Jun 2027 09:34:48.941   02 Jun 2027 09:34:54.144             5.203          2601.500
        43   02 Jun 2027 09:36:02.589   02 Jun 2027 09:36:16.112            13.523          6761.500
        44   02 Jun 2027 11:07:48.878   02 Jun 2027 11:08:30.672            41.794         20897.000
        45   02 Jun 2027 11:09:26.916   02 Jun 2027 11:10:43.651            76.735         38367.500
        46   02 Jun 2027 11:11:08.818   02 Jun 2027 11:11:19.027            10.209          5104.500
        47   02 Jun 2027 11:12:31.274   02 Jun 2027 11:12:44.951            13.677          6838.500
        48   03 Jun 2027 03:20:10.276   03 Jun 2027 03:20:30.609            20.333         10166.500
        49   03 Jun 2027 04:53:38.816   03 Jun 2027 04:55:56.862           138.046         69023.000
        50   03 Jun 2027 04:57:57.689   03 Jun 2027 04:58:00.390             2.701          1350.500
        51   03 Jun 2027 04:59:35.945   03 Jun 2027 04:59:35.945             0.000             0.000
        52   03 Jun 2027 05:00:58.762   03 Jun 2027 05:01:06.842             8.080          4040.000
        53   03 Jun 2027 05:01:59.873   03 Jun 2027 05:02:06.929             7.056          3528.000
        54   03 Jun 2027 06:31:11.073   03 Jun 2027 06:32:46.664            95.591         47795.500
        55   03 Jun 2027 06:34:45.971   03 Jun 2027 06:34:48.383             2.412          1206.000
        56   03 Jun 2027 06:35:13.532   03 Jun 2027 06:35:26.575            13.043          6521.500
        57   03 Jun 2027 06:36:10.132   03 Jun 2027 06:36:10.132             0.000             0.000
        58   03 Jun 2027 06:36:52.579   03 Jun 2027 06:36:57.602             5.023          2511.500
        59   03 Jun 2027 06:37:27.923   03 Jun 2027 06:37:28.529             0.606           303.000
        60   03 Jun 2027 08:08:05.867   03 Jun 2027 08:10:19.720           133.853         66926.500
        61   03 Jun 2027 08:11:26.355   03 Jun 2027 08:11:26.355             0.000             0.000
        62   03 Jun 2027 08:11:44.746   03 Jun 2027 08:11:59.117            14.371          7185.500
        63   03 Jun 2027 09:44:56.697   03 Jun 2027 09:46:51.063           114.366         57183.000
        64   03 Jun 2027 09:49:04.155   03 Jun 2027 09:49:11.883             7.728          3864.000
        65   03 Jun 2027 11:22:33.304   03 Jun 2027 11:22:58.554            25.250         12112.811
        66   03 Jun 2027 11:24:09.722   03 Jun 2027 11:24:17.759             8.037          1981.500
        67   04 Jun 2027 03:32:11.767   04 Jun 2027 03:32:22.150            10.383          5191.500
        68   04 Jun 2027 03:34:02.697   04 Jun 2027 03:34:12.826            10.129          5064.500
        69   04 Jun 2027 03:34:35.899   04 Jun 2027 03:34:35.899             0.000             0.000
        70   04 Jun 2027 03:35:08.609   04 Jun 2027 03:35:27.771            19.162          9581.000
        71   04 Jun 2027 03:35:41.657   04 Jun 2027 03:35:44.244             2.587          1293.500
        72   04 Jun 2027 05:06:41.378   04 Jun 2027 05:08:27.070           105.692         52846.000
        73   04 Jun 2027 05:09:16.092   04 Jun 2027 05:09:16.092             0.000             0.000
        74   04 Jun 2027 05:09:24.428   04 Jun 2027 05:09:50.900            26.472         13236.000
        75   04 Jun 2027 05:13:45.925   04 Jun 2027 05:14:02.079            16.154          8077.000
        76   04 Jun 2027 06:43:18.064   04 Jun 2027 06:44:56.401            98.337         49168.500
        77   04 Jun 2027 06:45:18.103   04 Jun 2027 06:45:53.209            35.106         17553.000
        78   04 Jun 2027 06:47:09.888   04 Jun 2027 06:47:14.301             4.413          2206.500
        79   04 Jun 2027 06:48:04.645   04 Jun 2027 06:48:24.804            20.159         10079.500
        80   04 Jun 2027 08:21:00.235   04 Jun 2027 08:22:16.771            76.536         35361.813
        81   04 Jun 2027 08:22:38.693   04 Jun 2027 08:22:40.450             1.757           685.063
        82   04 Jun 2027 08:23:31.679   04 Jun 2027 08:23:31.679             0.000             0.000
        83   04 Jun 2027 08:23:56.547   04 Jun 2027 08:24:01.299             4.752          1816.781
        84   04 Jun 2027 09:56:58.877   04 Jun 2027 09:57:17.025            18.148          9041.438
        85   04 Jun 2027 09:57:42.232   04 Jun 2027 09:57:46.963             4.731           604.406
        86   04 Jun 2027 09:58:22.184   04 Jun 2027 09:58:25.645             3.461          1002.469
        87   04 Jun 2027 09:59:12.065   04 Jun 2027 09:59:16.370             4.305          1249.344
        88   04 Jun 2027 10:00:37.835   04 Jun 2027 10:00:39.421             1.586           720.500
        89   05 Jun 2027 03:44:20.439   05 Jun 2027 03:44:46.276            25.837         12918.500
        90   05 Jun 2027 03:45:17.107   05 Jun 2027 03:45:43.860            26.753         13376.500
        91   05 Jun 2027 03:47:18.807   05 Jun 2027 03:47:30.366            11.559          5779.500
        92   05 Jun 2027 05:19:29.555   05 Jun 2027 05:21:18.699           109.144         54572.000
        93   05 Jun 2027 05:21:32.173   05 Jun 2027 05:21:36.491             4.318          2159.000
        94   05 Jun 2027 05:22:21.233   05 Jun 2027 05:22:27.801             6.568          3284.000
        95   05 Jun 2027 05:24:09.215   05 Jun 2027 05:24:09.215             0.000             0.000
        96   05 Jun 2027 05:24:37.758   05 Jun 2027 05:24:47.176             9.418          4709.000
        97   05 Jun 2027 05:25:07.185   05 Jun 2027 05:25:11.313             4.128          2064.000
        98   05 Jun 2027 05:25:16.275   05 Jun 2027 05:25:31.575            15.300          7650.000
        99   05 Jun 2027 05:26:05.394   05 Jun 2027 05:26:06.752             1.358           679.000
       100   05 Jun 2027 06:55:53.278   05 Jun 2027 06:57:56.578           123.300         61650.000
       101   05 Jun 2027 07:00:10.183   05 Jun 2027 07:00:23.292            13.109          6554.500
       102   05 Jun 2027 07:00:53.749   05 Jun 2027 07:00:53.749             0.000             0.000
       103   05 Jun 2027 07:01:33.339   05 Jun 2027 07:01:50.772            17.433          7393.125
       104   05 Jun 2027 08:33:06.985   05 Jun 2027 08:33:44.267            37.282         18033.031
       105   05 Jun 2027 08:34:41.860   05 Jun 2027 08:34:51.556             9.696          1751.281
       106   05 Jun 2027 08:35:40.357   05 Jun 2027 08:35:42.184             1.827           913.500
       107   05 Jun 2027 08:36:20.303   05 Jun 2027 08:36:25.505             5.202          1802.750
       108   05 Jun 2027 08:36:57.285   05 Jun 2027 08:37:00.662             3.377           898.594
       109   05 Jun 2027 10:09:25.901   05 Jun 2027 10:09:41.034            15.133          7566.500
       110   05 Jun 2027 10:10:23.535   05 Jun 2027 10:10:29.053             5.518          2031.906
       111   05 Jun 2027 10:11:12.858   05 Jun 2027 10:11:17.025             4.167          1368.906
       112   05 Jun 2027 10:11:53.788   05 Jun 2027 10:11:59.195             5.407           641.094
       113   05 Jun 2027 10:12:08.263   05 Jun 2027 10:12:11.897             3.634           111.062
       114   05 Jun 2027 10:12:26.759   05 Jun 2027 10:12:26.759             0.000             0.000
       115   05 Jun 2027 10:12:55.891   05 Jun 2027 10:12:59.556             3.665           979.281
       116   06 Jun 2027 03:56:13.351   06 Jun 2027 03:57:07.562            54.211         27105.500
       117   06 Jun 2027 03:59:21.714   06 Jun 2027 03:59:32.837            11.123          5561.500
       118   06 Jun 2027 03:59:35.611   06 Jun 2027 03:59:48.431            12.820          6410.000
       119   06 Jun 2027 05:31:10.897   06 Jun 2027 05:33:29.938           139.041         69520.500
       120   06 Jun 2027 05:37:13.222   06 Jun 2027 05:37:19.388             6.166          3083.000
       121   06 Jun 2027 05:37:46.913   06 Jun 2027 05:38:07.239            20.326         10163.000
       122   06 Jun 2027 07:07:24.879   06 Jun 2027 07:09:27.937           123.058         61031.312
       123   06 Jun 2027 07:10:52.078   06 Jun 2027 07:10:59.304             7.226          2420.375
       124   06 Jun 2027 07:12:02.083   06 Jun 2027 07:12:02.083             0.000             0.000
       125   06 Jun 2027 07:12:44.529   06 Jun 2027 07:12:44.529             0.000             0.000
       126   06 Jun 2027 07:12:54.516   06 Jun 2027 07:13:00.099             5.583          2791.500
       127   06 Jun 2027 08:45:44.867   06 Jun 2027 08:46:13.427            28.560         13486.187
       128   06 Jun 2027 08:46:39.505   06 Jun 2027 08:46:39.505             0.000             0.000
       129   06 Jun 2027 08:46:58.681   06 Jun 2027 08:47:00.827             2.146           983.344
       130   06 Jun 2027 08:48:25.070   06 Jun 2027 08:48:31.877             6.807          2458.406
       131   06 Jun 2027 08:48:49.699   06 Jun 2027 08:48:52.900             3.201           556.938
       132   06 Jun 2027 08:49:33.664   06 Jun 2027 08:49:35.393             1.729           864.500
       133   06 Jun 2027 10:21:04.266   06 Jun 2027 10:21:19.971            15.705          7702.094
       134   06 Jun 2027 10:21:33.903   06 Jun 2027 10:21:36.633             2.730           420.937
       135   06 Jun 2027 10:22:32.383   06 Jun 2027 10:22:35.356             2.973          1398.094
       136   06 Jun 2027 10:23:13.860   06 Jun 2027 10:23:15.983             2.123          1061.500
       137   06 Jun 2027 10:24:09.563   06 Jun 2027 10:24:13.404             3.841          1816.125
       138   06 Jun 2027 10:24:18.436   06 Jun 2027 10:24:25.074             6.638           157.250
       139   06 Jun 2027 10:24:40.424   06 Jun 2027 10:24:49.035             8.611           479.688
       140   06 Jun 2027 10:25:22.076   06 Jun 2027 10:25:22.076             0.000             0.000
       141   06 Jun 2027 10:26:08.370   06 Jun 2027 10:26:14.570             6.200          2479.219
       142   06 Jun 2027 10:26:27.529   06 Jun 2027 10:26:31.527             3.998           297.906
       143   07 Jun 2027 04:06:35.532   07 Jun 2027 04:07:01.491            25.959         12979.500
       144   07 Jun 2027 04:07:58.039   07 Jun 2027 04:08:29.978            31.939         15969.500
       145   07 Jun 2027 04:08:37.799   07 Jun 2027 04:08:39.760             1.961           980.500
       146   07 Jun 2027 04:08:49.243   07 Jun 2027 04:09:06.270            17.027          8513.500
       147   07 Jun 2027 05:42:43.881   07 Jun 2027 05:44:50.903           127.022         63511.000
       148   07 Jun 2027 05:45:23.446   07 Jun 2027 05:45:32.981             9.535          4767.500
       149   07 Jun 2027 05:48:15.962   07 Jun 2027 05:48:21.103             5.141          2570.500
       150   07 Jun 2027 05:49:14.875   07 Jun 2027 05:49:14.875             0.000             0.000
       151   07 Jun 2027 05:49:35.092   07 Jun 2027 05:49:40.232             5.140          2570.000
       152   07 Jun 2027 05:50:15.581   07 Jun 2027 05:50:18.090             2.509          1254.500
       153   07 Jun 2027 07:19:46.388   07 Jun 2027 07:22:12.363           145.975         70632.406
       154   07 Jun 2027 07:23:10.422   07 Jun 2027 07:23:10.422             0.000             0.000
       155   07 Jun 2027 07:23:48.913   07 Jun 2027 07:23:53.335             4.422          2211.000
       156   07 Jun 2027 07:25:37.104   07 Jun 2027 07:25:39.179             2.075          1037.500
       157   07 Jun 2027 08:57:45.996   07 Jun 2027 08:58:18.296            32.300         15376.563
       158   07 Jun 2027 08:58:42.225   07 Jun 2027 08:58:42.867             0.642            60.656
       159   07 Jun 2027 08:58:58.224   07 Jun 2027 08:59:00.745             2.521           135.250
       160   07 Jun 2027 08:59:07.870   07 Jun 2027 08:59:10.505             2.635           195.688
       161   07 Jun 2027 08:59:57.227   07 Jun 2027 08:59:57.227             0.000             0.000
       162   07 Jun 2027 09:00:43.180   07 Jun 2027 09:00:48.319             5.139          2496.687
       163   07 Jun 2027 10:30:57.356   07 Jun 2027 10:31:19.587            22.231          6923.281
       164   07 Jun 2027 10:32:38.017   07 Jun 2027 10:32:42.195             4.178          1665.469
       165   07 Jun 2027 10:33:00.385   07 Jun 2027 10:33:00.385             0.000             0.000
       166   07 Jun 2027 10:33:16.438   07 Jun 2027 10:33:21.182             4.744           940.375
       167   07 Jun 2027 10:34:21.659   07 Jun 2027 10:34:25.592             3.933          1746.656
       168   07 Jun 2027 10:35:15.039   07 Jun 2027 10:35:18.359             3.320          1545.219
       169   07 Jun 2027 10:35:39.263   07 Jun 2027 10:35:43.966             4.703           598.406
       170   07 Jun 2027 10:36:02.857   07 Jun 2027 10:36:10.032             7.175           543.406
       171   07 Jun 2027 10:36:58.337   07 Jun 2027 10:37:08.288             9.951          1491.000
       172   07 Jun 2027 10:37:49.056   07 Jun 2027 10:37:49.362             0.306           153.000
       173   07 Jun 2027 10:37:59.669   07 Jun 2027 10:38:03.505             3.836          1127.500
       174   08 Jun 2027 04:17:39.968   08 Jun 2027 04:19:04.423            84.455         42227.500
       175   08 Jun 2027 04:19:42.015   08 Jun 2027 04:19:56.711            14.696          7348.000
       176   08 Jun 2027 04:24:20.803   08 Jun 2027 04:24:20.803             0.000             0.000
       177   08 Jun 2027 04:25:38.658   08 Jun 2027 04:25:46.400             7.742          3871.000
       178   08 Jun 2027 05:54:55.636   08 Jun 2027 05:56:47.973           112.337         56168.500
       179   08 Jun 2027 05:57:23.204   08 Jun 2027 05:57:25.525             2.321          1160.500
       180   08 Jun 2027 05:57:36.135   08 Jun 2027 05:57:43.134             6.999          3499.500
       181   08 Jun 2027 05:57:57.021   08 Jun 2027 05:58:08.435            11.414          5707.000
       182   08 Jun 2027 06:01:07.340   08 Jun 2027 06:01:16.217             8.877          4438.500
       183   08 Jun 2027 06:01:18.953   08 Jun 2027 06:01:35.034            16.081          8040.500
       184   08 Jun 2027 07:31:49.558   08 Jun 2027 07:33:30.958           101.400         50700.000
       185   08 Jun 2027 07:33:59.228   08 Jun 2027 07:34:33.407            34.179         16840.531
       186   08 Jun 2027 07:37:48.988   08 Jun 2027 07:37:59.711            10.723          5361.500
       187   08 Jun 2027 09:09:45.736   08 Jun 2027 09:10:16.777            31.041         12408.781
       188   08 Jun 2027 09:10:47.676   08 Jun 2027 09:10:50.008             2.332           791.969
       189   08 Jun 2027 09:12:00.447   08 Jun 2027 09:12:04.957             4.510          1972.281
       190   08 Jun 2027 09:12:48.714   08 Jun 2027 09:12:48.891             0.177            88.500
       191   08 Jun 2027 09:13:00.779   08 Jun 2027 09:13:03.242             2.463          1231.500
       192   08 Jun 2027 09:13:37.871   08 Jun 2027 09:13:41.755             3.884          1492.094
       193   08 Jun 2027 10:43:19.576   08 Jun 2027 10:43:32.791            13.215          4297.469
       194   08 Jun 2027 10:43:47.061   08 Jun 2027 10:43:49.768             2.707            17.156
       195   08 Jun 2027 10:45:09.354   08 Jun 2027 10:45:19.737            10.383          1072.594
       196   08 Jun 2027 10:45:24.698   08 Jun 2027 10:45:25.523             0.825           155.031
       197   08 Jun 2027 10:46:09.955   08 Jun 2027 10:46:10.349             0.394            58.625
       198   08 Jun 2027 10:47:00.373   08 Jun 2027 10:47:03.481             3.108          1526.656
       199   08 Jun 2027 10:47:26.578   08 Jun 2027 10:47:26.578             0.000             0.000
       200   08 Jun 2027 10:47:35.044   08 Jun 2027 10:47:40.095             5.051           583.750
       201   08 Jun 2027 10:48:25.240   08 Jun 2027 10:48:28.834             3.594          1008.281
       202   08 Jun 2027 10:49:13.741   08 Jun 2027 10:49:16.002             2.261          1130.500
       203   08 Jun 2027 10:50:04.917   08 Jun 2027 10:50:05.820             0.903           451.500
       204   09 Jun 2027 04:29:09.215   09 Jun 2027 04:30:57.385           108.170         54085.000
       205   09 Jun 2027 04:32:22.787   09 Jun 2027 04:32:22.787             0.000             0.000
       206   09 Jun 2027 04:32:34.393   09 Jun 2027 04:32:36.426             2.033          1016.500
       207   09 Jun 2027 04:34:57.778   09 Jun 2027 04:35:17.299            19.521          9760.500
       208   09 Jun 2027 04:35:52.776   09 Jun 2027 04:35:53.073             0.297           148.500
       209   09 Jun 2027 04:36:17.540   09 Jun 2027 04:36:25.791             8.251          4125.500
       210   09 Jun 2027 04:36:44.930   09 Jun 2027 04:36:59.830            14.900          7450.000
       211   09 Jun 2027 06:06:55.770   09 Jun 2027 06:08:33.894            98.124         49062.000
       212   09 Jun 2027 06:09:12.927   09 Jun 2027 06:09:34.605            21.678         10839.000
       213   09 Jun 2027 06:11:26.830   09 Jun 2027 06:11:29.480             2.650          1325.000
       214   09 Jun 2027 06:11:42.360   09 Jun 2027 06:11:42.360             0.000             0.000
       215   09 Jun 2027 06:12:55.819   09 Jun 2027 06:13:05.579             9.760          4880.000
       216   09 Jun 2027 07:43:40.920   09 Jun 2027 07:45:21.073           100.153         49197.063
       217   09 Jun 2027 07:46:45.314   09 Jun 2027 07:46:48.239             2.925          1462.500
       218   09 Jun 2027 07:47:21.721   09 Jun 2027 07:47:30.452             8.731          2162.906
       219   09 Jun 2027 07:47:38.873   09 Jun 2027 07:47:41.767             2.894           263.156
       220   09 Jun 2027 07:49:07.286   09 Jun 2027 07:49:09.606             2.320          1160.000
       221   09 Jun 2027 09:21:46.413   09 Jun 2027 09:22:08.338            21.925         10962.500
       222   09 Jun 2027 09:22:09.938   09 Jun 2027 09:22:14.694             4.756           537.063
       223   09 Jun 2027 09:23:26.231   09 Jun 2027 09:23:40.081            13.850          2235.531
       224   09 Jun 2027 09:24:10.392   09 Jun 2027 09:24:12.314             1.922           601.500
       225   09 Jun 2027 09:24:33.537   09 Jun 2027 09:24:33.608             0.071            35.500
       226   09 Jun 2027 09:24:46.179   09 Jun 2027 09:24:48.358             2.179           903.313
       227   09 Jun 2027 09:24:50.655   09 Jun 2027 09:24:54.479             3.824            71.781
       228   09 Jun 2027 09:25:14.684   09 Jun 2027 09:25:14.814             0.130            65.000
       229   09 Jun 2027 09:25:52.471   09 Jun 2027 09:25:55.185             2.714          1332.531
       230   09 Jun 2027 10:55:37.516   09 Jun 2027 10:55:42.961             5.445          2102.000
       231   09 Jun 2027 10:56:14.273   09 Jun 2027 10:56:16.766             2.493           793.906
       232   09 Jun 2027 10:57:03.032   09 Jun 2027 10:57:12.236             9.204          1219.313
       233   09 Jun 2027 10:57:51.479   09 Jun 2027 10:57:56.828             5.349          1143.969
       234   09 Jun 2027 10:58:44.650   09 Jun 2027 10:58:48.224             3.574          1397.844
       235   09 Jun 2027 11:00:10.736   09 Jun 2027 11:00:16.155             5.419          1907.094
       236   09 Jun 2027 11:00:21.401   09 Jun 2027 11:00:22.664             1.263           163.937
       237   09 Jun 2027 11:00:32.908   09 Jun 2027 11:00:32.908             0.000             0.000
       238   09 Jun 2027 11:01:33.555   09 Jun 2027 11:01:44.689            11.134          2118.719
       239   10 Jun 2027 03:05:53.356   10 Jun 2027 03:06:09.694            16.338          8169.000
       240   10 Jun 2027 03:09:20.265   10 Jun 2027 03:09:31.301            11.036          5518.000
       241   10 Jun 2027 03:09:53.587   10 Jun 2027 03:09:55.663             2.076          1038.000
       242   10 Jun 2027 03:10:12.064   10 Jun 2027 03:10:23.578            11.514          5757.000
       243   10 Jun 2027 03:10:35.850   10 Jun 2027 03:10:39.812             3.962          1981.000
       244   10 Jun 2027 04:41:55.307   10 Jun 2027 04:43:23.408            88.101         44050.500
       245   10 Jun 2027 04:43:35.672   10 Jun 2027 04:43:52.299            16.627          8313.500
       246   10 Jun 2027 04:44:30.236   10 Jun 2027 04:44:30.864             0.628           314.000
       247   10 Jun 2027 04:45:51.359   10 Jun 2027 04:45:54.191             2.832          1416.000
       248   10 Jun 2027 04:46:06.538   10 Jun 2027 04:46:06.832             0.294           147.000
       249   10 Jun 2027 04:46:27.063   10 Jun 2027 04:46:30.216             3.153          1576.500
       250   10 Jun 2027 04:47:32.368   10 Jun 2027 04:47:38.615             6.247          3123.500
       251   10 Jun 2027 04:48:05.546   10 Jun 2027 04:48:13.001             7.455          3727.500
       252   10 Jun 2027 04:48:47.628   10 Jun 2027 04:48:47.628             0.000             0.000
       253   10 Jun 2027 04:49:25.280   10 Jun 2027 04:49:40.755            15.475          7737.500
       254   10 Jun 2027 04:49:41.892   10 Jun 2027 04:49:46.757             4.865          2432.500
       255   10 Jun 2027 04:49:58.011   10 Jun 2027 04:50:06.621             8.610          4305.000
       256   10 Jun 2027 06:18:59.807   10 Jun 2027 06:20:25.768            85.961         42980.500
       257   10 Jun 2027 06:20:29.037   10 Jun 2027 06:20:59.773            30.736         15368.000
       258   10 Jun 2027 06:22:09.403   10 Jun 2027 06:22:10.690             1.287           643.500
       259   10 Jun 2027 06:24:03.722   10 Jun 2027 06:24:05.569             1.847           923.500
       260   10 Jun 2027 06:24:18.710   10 Jun 2027 06:24:25.179             6.469          3234.500
       261   10 Jun 2027 07:55:58.923   10 Jun 2027 07:56:16.060            17.137          8568.500
       262   10 Jun 2027 07:56:27.959   10 Jun 2027 07:57:28.422            60.463         30000.406
       263   10 Jun 2027 07:57:44.166   10 Jun 2027 07:57:47.198             3.032           168.219
       264   10 Jun 2027 07:58:49.468   10 Jun 2027 07:58:53.728             4.260          1945.938
       265   10 Jun 2027 07:59:52.021   10 Jun 2027 07:59:58.592             6.571          1821.656
       266   10 Jun 2027 08:00:03.213   10 Jun 2027 08:00:04.296             1.083           144.406
       267   10 Jun 2027 08:00:30.442   10 Jun 2027 08:00:30.442             0.000             0.000
       268   10 Jun 2027 08:00:52.097   10 Jun 2027 08:00:53.876             1.779           889.500
       269   10 Jun 2027 08:01:53.599   10 Jun 2027 08:01:59.503             5.904          2248.594
       270   10 Jun 2027 09:33:00.253   10 Jun 2027 09:33:19.528            19.275          9586.969
       271   10 Jun 2027 09:34:04.612   10 Jun 2027 09:34:17.013            12.401          1408.875
       272   10 Jun 2027 09:34:43.758   10 Jun 2027 09:34:46.043             2.285           783.219
       273   10 Jun 2027 09:35:02.129   10 Jun 2027 09:35:04.452             2.323           466.500
       274   10 Jun 2027 09:35:52.095   10 Jun 2027 09:35:55.086             2.991          1069.562
       275   10 Jun 2027 09:36:18.160   10 Jun 2027 09:36:21.773             3.613           508.344
       276   10 Jun 2027 09:36:36.553   10 Jun 2027 09:36:37.684             1.131           182.844
       277   10 Jun 2027 09:37:00.521   10 Jun 2027 09:37:07.278             6.757           516.000
       278   10 Jun 2027 09:37:37.858   10 Jun 2027 09:37:42.905             5.047           657.094
       279   10 Jun 2027 11:08:03.892   10 Jun 2027 11:08:12.566             8.674          2543.687
       280   10 Jun 2027 11:08:14.209   10 Jun 2027 11:08:14.714             0.505            51.344
       281   10 Jun 2027 11:09:54.467   10 Jun 2027 11:09:57.301             2.834          1078.063
       282   10 Jun 2027 11:10:58.181   10 Jun 2027 11:11:01.876             3.695          1627.844
       283   10 Jun 2027 11:11:35.389   10 Jun 2027 11:11:39.134             3.745          1047.281
       284   10 Jun 2027 11:12:13.689   10 Jun 2027 11:12:14.174             0.485           127.562
       285   11 Jun 2027 03:20:25.159   11 Jun 2027 03:20:48.924            23.765         11882.500
       286   11 Jun 2027 03:21:25.270   11 Jun 2027 03:21:40.436            15.166          7583.000
       287   11 Jun 2027 03:21:53.549   11 Jun 2027 03:21:56.883             3.334          1667.000
       288   11 Jun 2027 03:22:09.715   11 Jun 2027 03:22:30.987            21.272         10636.000
       289   11 Jun 2027 04:53:53.371   11 Jun 2027 04:55:37.212           103.841         51920.500
       290   11 Jun 2027 04:56:59.487   11 Jun 2027 04:57:02.341             2.854          1427.000
       291   11 Jun 2027 04:57:52.626   11 Jun 2027 04:57:59.751             7.125          3562.500
       292   11 Jun 2027 05:00:18.327   11 Jun 2027 05:00:23.103             4.776          2388.000
       293   11 Jun 2027 05:01:12.878   11 Jun 2027 05:01:22.365             9.487          4743.500
       294   11 Jun 2027 05:02:14.835   11 Jun 2027 05:02:14.835             0.000             0.000
       295   11 Jun 2027 05:02:21.969   11 Jun 2027 05:02:24.223             2.254          1127.000
       296   11 Jun 2027 06:31:26.534   11 Jun 2027 06:33:09.703           103.169         51584.500
       297   11 Jun 2027 06:34:25.542   11 Jun 2027 06:34:44.413            18.871          9435.500
       298   11 Jun 2027 06:36:44.272   11 Jun 2027 06:36:46.005             1.733           866.500
       299   11 Jun 2027 06:37:44.452   11 Jun 2027 06:37:50.326             5.874          2937.000
       300   11 Jun 2027 06:37:58.360   11 Jun 2027 06:38:08.072             9.712          4856.000
       301   11 Jun 2027 08:08:20.586   11 Jun 2027 08:09:30.153            69.567         34494.719
       302   11 Jun 2027 08:11:23.054   11 Jun 2027 08:11:35.979            12.925          3528.156
       303   11 Jun 2027 08:12:39.213   11 Jun 2027 08:12:43.127             3.914          1942.781
       304   11 Jun 2027 08:13:24.189   11 Jun 2027 08:13:25.895             1.706           853.000
       305   11 Jun 2027 09:45:11.676   11 Jun 2027 09:45:32.245            20.569          9984.031
       306   11 Jun 2027 09:45:50.741   11 Jun 2027 09:45:51.833             1.092           432.281
       307   11 Jun 2027 09:46:35.548   11 Jun 2027 09:46:38.876             3.328          1366.094
       308   11 Jun 2027 09:46:54.397   11 Jun 2027 09:46:54.397             0.000             0.000
       309   11 Jun 2027 09:47:26.153   11 Jun 2027 09:47:30.798             4.645          1279.562
       310   11 Jun 2027 09:47:35.952   11 Jun 2027 09:47:42.260             6.308           156.937
       311   11 Jun 2027 09:48:07.040   11 Jun 2027 09:48:09.403             2.363           355.875
       312   11 Jun 2027 09:48:57.900   11 Jun 2027 09:49:04.146             6.246          1257.000
       313   11 Jun 2027 09:49:20.543   11 Jun 2027 09:49:21.582             1.039           509.125
       314   11 Jun 2027 09:49:27.134   11 Jun 2027 09:49:27.494             0.360           173.500
       315   11 Jun 2027 11:22:48.042   11 Jun 2027 11:22:53.128             5.086          2543.000
       316   11 Jun 2027 11:23:20.977   11 Jun 2027 11:23:26.582             5.605           956.407
       317   11 Jun 2027 11:24:25.584   11 Jun 2027 11:24:27.497             1.913           956.500
       318   12 Jun 2027 03:32:26.424   12 Jun 2027 03:33:16.689            50.265         25132.500
       319   12 Jun 2027 03:34:41.215   12 Jun 2027 03:34:41.215             0.000             0.000
       320   12 Jun 2027 05:07:08.930   12 Jun 2027 05:09:30.742           141.812         70906.000
       321   12 Jun 2027 05:10:03.106   12 Jun 2027 05:10:06.124             3.018          1509.000
       322   12 Jun 2027 05:12:48.941   12 Jun 2027 05:12:48.941             0.000             0.000
       323   12 Jun 2027 05:12:55.822   12 Jun 2027 05:13:07.091            11.269          5634.500
       324   12 Jun 2027 05:13:30.375   12 Jun 2027 05:13:30.375             0.000             0.000
       325   12 Jun 2027 05:14:16.963   12 Jun 2027 05:14:20.090             3.127          1563.500
       326   12 Jun 2027 06:43:32.870   12 Jun 2027 06:45:33.304           120.434         60217.000
       327   12 Jun 2027 06:46:04.099   12 Jun 2027 06:46:08.814             4.715          2357.500
       328   12 Jun 2027 06:47:11.015   12 Jun 2027 06:47:22.938            11.923          5961.500
       329   12 Jun 2027 06:47:53.849   12 Jun 2027 06:47:57.534             3.685          1842.500
       330   12 Jun 2027 06:49:21.593   12 Jun 2027 06:49:24.948             3.355          1677.500
       331   12 Jun 2027 08:21:15.371   12 Jun 2027 08:21:47.937            32.566         16283.000
       332   12 Jun 2027 08:22:39.080   12 Jun 2027 08:22:42.902             3.822          1788.625
       333   12 Jun 2027 08:23:56.421   12 Jun 2027 08:23:59.650             3.229          1614.500
       334   12 Jun 2027 08:24:03.606   12 Jun 2027 08:24:06.702             3.096           789.250
       335   12 Jun 2027 08:24:24.688   12 Jun 2027 08:24:25.721             1.033           516.500
       336   12 Jun 2027 08:25:20.346   12 Jun 2027 08:25:25.487             5.141          1730.531
       337   12 Jun 2027 09:57:13.739   12 Jun 2027 09:57:30.059            16.320          7906.187
       338   12 Jun 2027 09:58:04.770   12 Jun 2027 09:58:05.819             1.049           210.844
       339   12 Jun 2027 09:58:41.501   12 Jun 2027 09:58:46.745             5.244          1088.531
       340   12 Jun 2027 09:59:26.718   12 Jun 2027 09:59:31.395             4.677          1249.156
       341   12 Jun 2027 10:00:29.862   12 Jun 2027 10:00:32.580             2.718          1265.219
       342   12 Jun 2027 10:00:41.123   12 Jun 2027 10:00:48.685             7.562           227.500
       343   12 Jun 2027 10:01:19.150   12 Jun 2027 10:01:24.480             5.330           838.437
       344   13 Jun 2027 03:44:35.101   13 Jun 2027 03:45:04.772            29.671         14835.500
       345   13 Jun 2027 03:45:33.572   13 Jun 2027 03:45:59.682            26.110         13055.000
       346   13 Jun 2027 05:19:44.328   13 Jun 2027 05:21:43.380           119.052         59526.000
       347   13 Jun 2027 05:25:19.155   13 Jun 2027 05:25:33.393            14.238          7119.000
       348   13 Jun 2027 05:25:56.054   13 Jun 2027 05:26:21.427            25.373         12686.500
       349   13 Jun 2027 06:56:08.300   13 Jun 2027 06:58:11.327           123.027         61513.500
       350   13 Jun 2027 06:59:16.882   13 Jun 2027 06:59:35.665            18.783          9391.500
       351   13 Jun 2027 07:01:21.994   13 Jun 2027 07:01:23.946             1.952           976.000
       352   13 Jun 2027 08:33:21.729   13 Jun 2027 08:34:03.021            41.292         20078.812
       353   13 Jun 2027 08:34:17.715   13 Jun 2027 08:34:18.513             0.798           177.281
       354   13 Jun 2027 08:34:53.604   13 Jun 2027 08:34:57.534             3.930           737.750
       355   13 Jun 2027 08:35:34.744   13 Jun 2027 08:35:39.435             4.691           572.906
       356   13 Jun 2027 08:35:42.154   13 Jun 2027 08:35:44.249             2.095            59.687
       357   13 Jun 2027 08:36:35.507   13 Jun 2027 08:36:41.005             5.498          1601.812
       358   13 Jun 2027 08:37:02.842   13 Jun 2027 08:37:05.315             2.473           189.250
       359   13 Jun 2027 08:37:15.178   13 Jun 2027 08:37:18.142             2.964           240.344
       360   13 Jun 2027 08:37:57.579   13 Jun 2027 08:37:59.769             2.190           900.250
       361   13 Jun 2027 10:09:40.401   13 Jun 2027 10:09:55.714            15.313          7656.500
       362   13 Jun 2027 10:10:38.389   13 Jun 2027 10:10:44.369             5.980          2014.031
       363   13 Jun 2027 10:11:27.514   13 Jun 2027 10:11:30.236             2.722          1348.281
       364   13 Jun 2027 10:12:22.552   13 Jun 2027 10:12:26.828             4.276          1081.500
       365   13 Jun 2027 10:12:40.685   13 Jun 2027 10:12:41.649             0.964            11.156
       366   13 Jun 2027 10:13:11.567   13 Jun 2027 10:13:16.548             4.981           934.937
