uniorb/output/strategy_1/Camera/Camera_KinoSat_111504.txt

KinoSat_111504
-------------------------
    Access    *     Start Time (UTCG)     *     Stop Time (UTCG)  *   Duration (s) *   Data (Mbytes)
         1   01 Jun 2027 03:27:50.362   01 Jun 2027 03:28:04.085            13.723          6861.500
         2   01 Jun 2027 03:28:52.698   01 Jun 2027 03:30:47.189           114.491         57245.500
         3   01 Jun 2027 03:31:00.066   01 Jun 2027 03:31:07.748             7.682          3841.000
         4   01 Jun 2027 03:33:57.976   01 Jun 2027 03:33:58.932             0.956           478.000
         5   01 Jun 2027 03:35:59.479   01 Jun 2027 03:36:40.428            40.949         20474.500
         6   01 Jun 2027 05:06:01.420   01 Jun 2027 05:06:39.491            38.071         19035.500
         7   01 Jun 2027 05:07:08.816   01 Jun 2027 05:07:39.051            30.235         15117.500
         8   01 Jun 2027 05:08:14.968   01 Jun 2027 05:08:21.116             6.148          3074.000
         9   01 Jun 2027 05:08:52.352   01 Jun 2027 05:09:02.777            10.425          5212.500
        10   01 Jun 2027 06:30:07.416   01 Jun 2027 06:30:59.431            52.015         26007.500
        11   01 Jun 2027 06:31:31.589   01 Jun 2027 06:31:48.512            16.923          8461.500
        12   01 Jun 2027 06:31:55.895   01 Jun 2027 06:32:07.888            11.993          5996.500
        13   01 Jun 2027 08:05:52.859   01 Jun 2027 08:07:37.688           104.829         52414.500
        14   01 Jun 2027 08:09:15.236   01 Jun 2027 08:09:22.046             6.810          3405.000
        15   01 Jun 2027 09:40:50.165   01 Jun 2027 09:41:15.136            24.971         12485.500
        16   01 Jun 2027 09:42:32.701   01 Jun 2027 09:43:52.257            79.556         39778.000
        17   01 Jun 2027 09:44:24.190   01 Jun 2027 09:44:51.587            27.397         13698.500
        18   01 Jun 2027 09:47:46.627   01 Jun 2027 09:47:48.894             2.267          1133.500
        19   01 Jun 2027 11:17:02.808   01 Jun 2027 11:19:35.286           152.478         76239.000
        20   01 Jun 2027 11:20:03.120   01 Jun 2027 11:20:05.659             2.539          1269.500
        21   01 Jun 2027 11:22:23.627   01 Jun 2027 11:22:27.343             3.716          1858.000
        22   01 Jun 2027 11:23:11.574   01 Jun 2027 11:23:17.691             6.117          3058.500
        23   01 Jun 2027 11:23:17.858   01 Jun 2027 11:23:21.412             3.554          1777.000
        24   02 Jun 2027 03:40:55.750   02 Jun 2027 03:42:55.811           120.061         60030.500
        25   02 Jun 2027 03:43:15.279   02 Jun 2027 03:43:21.851             6.572          3286.000
        26   02 Jun 2027 03:43:27.845   02 Jun 2027 03:43:28.741             0.896           448.000
        27   02 Jun 2027 03:47:08.240   02 Jun 2027 03:47:10.484             2.244          1122.000
        28   02 Jun 2027 03:47:53.627   02 Jun 2027 03:48:34.605            40.978         20489.000
        29   02 Jun 2027 05:06:53.591   02 Jun 2027 05:07:34.416            40.825         20412.500
        30   02 Jun 2027 05:17:57.625   02 Jun 2027 05:18:22.108            24.483         12241.500
        31   02 Jun 2027 05:18:50.341   02 Jun 2027 05:18:56.788             6.447          3223.500
        32   02 Jun 2027 05:19:17.212   02 Jun 2027 05:19:17.212             0.000             0.000
        33   02 Jun 2027 05:19:56.681   02 Jun 2027 05:20:07.401            10.720          5360.000
        34   02 Jun 2027 06:40:56.076   02 Jun 2027 06:42:26.145            90.069         45034.500
        35   02 Jun 2027 08:16:28.360   02 Jun 2027 08:16:38.897            10.537          5268.500
        36   02 Jun 2027 08:17:38.838   02 Jun 2027 08:19:53.462           134.624         67312.000
        37   02 Jun 2027 08:20:50.204   02 Jun 2027 08:21:07.919            17.715          8857.500
        38   02 Jun 2027 09:52:23.671   02 Jun 2027 09:52:26.027             2.356          1178.000
        39   02 Jun 2027 09:52:56.420   02 Jun 2027 09:53:31.493            35.073         17536.500
        40   02 Jun 2027 09:54:36.676   02 Jun 2027 09:54:36.864             0.188            94.000
        41   02 Jun 2027 09:55:25.209   02 Jun 2027 09:55:52.420            27.211         13605.500
        42   02 Jun 2027 09:59:16.463   02 Jun 2027 09:59:58.128            41.665         20832.500
        43   02 Jun 2027 11:29:25.061   02 Jun 2027 11:31:15.577           110.516         55258.000
        44   02 Jun 2027 11:31:18.845   02 Jun 2027 11:31:30.760            11.915          5957.500
        45   02 Jun 2027 11:31:52.419   02 Jun 2027 11:32:06.889            14.470          7235.000
        46   03 Jun 2027 03:53:21.974   03 Jun 2027 03:54:51.739            89.765         44882.500
        47   03 Jun 2027 03:56:24.088   03 Jun 2027 03:56:24.763             0.675           337.500
        48   03 Jun 2027 03:57:17.718   03 Jun 2027 03:57:19.859             2.141          1070.500
        49   03 Jun 2027 03:57:36.543   03 Jun 2027 03:57:40.994             4.451          2225.500
        50   03 Jun 2027 03:58:59.528   03 Jun 2027 03:59:14.571            15.043          7521.500
        51   03 Jun 2027 04:00:09.859   03 Jun 2027 04:00:32.746            22.887         11443.500
        52   03 Jun 2027 05:18:17.331   03 Jun 2027 05:19:09.463            52.132         26066.000
        53   03 Jun 2027 05:30:00.218   03 Jun 2027 05:30:28.232            28.014         14007.000
        54   03 Jun 2027 05:31:14.527   03 Jun 2027 05:31:18.185             3.658          1829.000
        55   03 Jun 2027 06:52:12.708   03 Jun 2027 06:53:26.413            73.705         36852.500
        56   03 Jun 2027 06:54:14.403   03 Jun 2027 06:54:41.230            26.827         13413.500
        57   03 Jun 2027 08:27:20.077   03 Jun 2027 08:29:00.741           100.664         50332.000
        58   03 Jun 2027 08:29:22.070   03 Jun 2027 08:29:40.340            18.270          9135.000
        59   03 Jun 2027 08:31:38.412   03 Jun 2027 08:32:02.980            24.568         12284.000
        60   03 Jun 2027 08:32:34.450   03 Jun 2027 08:32:38.035             3.585          1792.500
        61   03 Jun 2027 08:34:00.037   03 Jun 2027 08:34:16.654            16.617          8308.500
        62   03 Jun 2027 10:04:33.425   03 Jun 2027 10:05:45.618            72.193         36096.500
        63   03 Jun 2027 10:06:10.016   03 Jun 2027 10:06:16.151             6.135          2165.311
        64   03 Jun 2027 10:07:16.519   03 Jun 2027 10:07:22.100             5.581          1823.875
        65   03 Jun 2027 10:07:51.745   03 Jun 2027 10:07:57.044             5.299           826.906
        66   03 Jun 2027 10:08:59.110   03 Jun 2027 10:09:05.116             6.006          1843.563
        67   03 Jun 2027 10:09:36.836   03 Jun 2027 10:09:36.969             0.133            66.500
        68   03 Jun 2027 10:11:00.991   03 Jun 2027 10:11:08.138             7.147          3545.781
        69   03 Jun 2027 10:11:17.351   03 Jun 2027 10:11:20.052             2.701           287.906
        70   03 Jun 2027 10:11:58.290   03 Jun 2027 10:11:58.852             0.562           281.000
        71   03 Jun 2027 11:41:29.662   03 Jun 2027 11:41:49.312            19.650          8403.156
        72   03 Jun 2027 11:43:15.404   03 Jun 2027 11:43:20.037             4.633          1923.906
        73   03 Jun 2027 11:43:30.388   03 Jun 2027 11:43:33.921             3.533           323.469
        74   03 Jun 2027 11:44:02.564   03 Jun 2027 11:44:03.274             0.710           355.000
        75   03 Jun 2027 11:44:13.544   03 Jun 2027 11:44:13.544             0.000             0.000
        76   03 Jun 2027 11:44:46.947   03 Jun 2027 11:44:51.987             5.040          1729.969
        77   03 Jun 2027 11:45:33.107   03 Jun 2027 11:45:36.858             3.751          1127.437
        78   03 Jun 2027 11:46:13.928   03 Jun 2027 11:46:14.690             0.762           381.000
        79   03 Jun 2027 11:46:43.586   03 Jun 2027 11:46:46.057             2.471          1235.500
        80   04 Jun 2027 04:05:35.531   04 Jun 2027 04:06:33.372            57.841         28920.500
        81   04 Jun 2027 04:07:25.826   04 Jun 2027 04:07:53.876            28.050         14025.000
        82   04 Jun 2027 04:08:33.811   04 Jun 2027 04:08:34.506             0.695           347.500
        83   04 Jun 2027 04:08:57.485   04 Jun 2027 04:09:00.644             3.159          1579.500
        84   04 Jun 2027 04:09:24.407   04 Jun 2027 04:09:33.235             8.828          4414.000
        85   04 Jun 2027 04:10:26.022   04 Jun 2027 04:10:45.552            19.530          9765.000
        86   04 Jun 2027 04:12:23.163   04 Jun 2027 04:12:34.984            11.821          5910.500
        87   04 Jun 2027 05:29:45.252   04 Jun 2027 05:31:10.170            84.918         42459.000
        88   04 Jun 2027 05:41:57.473   04 Jun 2027 05:42:13.633            16.160          8080.000
        89   04 Jun 2027 07:03:58.343   04 Jun 2027 07:05:19.379            81.036         40518.000
        90   04 Jun 2027 07:06:01.547   04 Jun 2027 07:06:29.968            28.421         14210.500
        91   04 Jun 2027 07:06:34.664   04 Jun 2027 07:06:40.333             5.669          2834.500
        92   04 Jun 2027 08:38:49.534   04 Jun 2027 08:39:23.147            33.613         16806.500
        93   04 Jun 2027 08:40:06.064   04 Jun 2027 08:40:10.495             4.431          1903.063
        94   04 Jun 2027 08:40:33.772   04 Jun 2027 08:40:36.198             2.426           152.125
        95   04 Jun 2027 08:42:58.491   04 Jun 2027 08:42:58.491             0.000             0.000
        96   04 Jun 2027 08:44:23.556   04 Jun 2027 08:44:39.577            16.021          7104.938
        97   04 Jun 2027 08:47:06.357   04 Jun 2027 08:47:15.763             9.406          3145.188
        98   04 Jun 2027 08:47:24.272   04 Jun 2027 08:47:25.879             1.607           153.406
        99   04 Jun 2027 10:16:35.479   04 Jun 2027 10:16:54.619            19.140          5949.469
       100   04 Jun 2027 10:17:31.759   04 Jun 2027 10:17:34.840             3.081          1045.063
       101   04 Jun 2027 10:17:39.978   04 Jun 2027 10:17:40.787             0.809           160.563
       102   04 Jun 2027 10:18:12.340   04 Jun 2027 10:18:14.413             2.073           933.750
       103   04 Jun 2027 10:19:39.811   04 Jun 2027 10:19:39.811             0.000             0.000
       104   04 Jun 2027 10:20:35.710   04 Jun 2027 10:20:42.377             6.667          3333.500
       105   04 Jun 2027 10:21:15.871   04 Jun 2027 10:21:20.044             4.173          1548.062
       106   04 Jun 2027 10:21:32.789   04 Jun 2027 10:21:36.226             3.437           398.281
       107   04 Jun 2027 10:21:59.919   04 Jun 2027 10:22:00.947             1.028           467.656
       108   04 Jun 2027 10:22:21.578   04 Jun 2027 10:22:21.647             0.069            34.500
       109   04 Jun 2027 10:22:23.486   04 Jun 2027 10:22:32.497             9.011           667.688
       110   04 Jun 2027 10:22:43.602   04 Jun 2027 10:22:46.312             2.710           215.031
       111   04 Jun 2027 10:23:24.873   04 Jun 2027 10:23:29.701             4.828          1205.031
       112   04 Jun 2027 11:53:23.092   04 Jun 2027 11:53:36.278            13.186          6593.000
       113   04 Jun 2027 11:54:58.520   04 Jun 2027 11:55:12.498            13.978          4823.844
       114   04 Jun 2027 11:55:22.146   04 Jun 2027 11:55:25.010             2.864           180.469
       115   04 Jun 2027 11:56:11.064   04 Jun 2027 11:56:12.997             1.933           966.500
       116   04 Jun 2027 11:56:57.570   04 Jun 2027 11:57:05.212             7.642          1696.938
       117   04 Jun 2027 11:57:25.774   04 Jun 2027 11:57:27.111             1.337           574.875
       118   04 Jun 2027 11:57:35.847   04 Jun 2027 11:57:36.581             0.734            54.312
       119   04 Jun 2027 11:57:45.097   04 Jun 2027 11:57:46.481             1.384           266.125
       120   04 Jun 2027 11:58:16.385   04 Jun 2027 11:58:29.208            12.823           908.562
       121   04 Jun 2027 11:58:44.992   04 Jun 2027 11:58:48.153             3.161           493.250
       122   04 Jun 2027 11:58:53.669   04 Jun 2027 11:58:53.837             0.168            84.000
       123   04 Jun 2027 11:59:15.666   04 Jun 2027 11:59:16.719             1.053           526.500
       124   04 Jun 2027 11:59:41.004   04 Jun 2027 11:59:47.436             6.432           896.594
       125   05 Jun 2027 04:17:45.151   05 Jun 2027 04:19:09.068            83.917         41958.500
       126   05 Jun 2027 04:21:16.527   05 Jun 2027 04:21:41.199            24.672         12336.000
       127   05 Jun 2027 04:21:49.261   05 Jun 2027 04:21:51.009             1.748           874.000
       128   05 Jun 2027 05:41:48.220   05 Jun 2027 05:43:11.178            82.958         41479.000
       129   05 Jun 2027 05:43:23.657   05 Jun 2027 05:43:28.525             4.868          2434.000
       130   05 Jun 2027 07:17:45.422   05 Jun 2027 07:19:56.937           131.515         65414.843
       131   05 Jun 2027 07:20:35.436   05 Jun 2027 07:20:36.543             1.107           553.500
       132   05 Jun 2027 08:51:35.293   05 Jun 2027 08:51:48.853            13.560          6719.719
       133   05 Jun 2027 08:52:19.780   05 Jun 2027 08:52:22.479             2.699           287.312
       134   05 Jun 2027 08:53:56.096   05 Jun 2027 08:54:01.913             5.817          2731.594
       135   05 Jun 2027 08:54:43.868   05 Jun 2027 08:54:47.579             3.711          1150.562
       136   05 Jun 2027 08:56:16.312   05 Jun 2027 08:56:28.504            12.192          2427.719
       137   05 Jun 2027 08:57:32.501   05 Jun 2027 08:57:38.798             6.297          1975.219
       138   05 Jun 2027 08:58:03.842   05 Jun 2027 08:58:05.554             1.712           595.219
       139   05 Jun 2027 08:59:25.496   05 Jun 2027 08:59:31.074             5.578          2483.375
       140   05 Jun 2027 09:00:03.704   05 Jun 2027 09:00:04.337             0.633            82.875
       141   05 Jun 2027 10:28:38.793   05 Jun 2027 10:29:00.625            21.832          7129.656
       142   05 Jun 2027 10:29:26.345   05 Jun 2027 10:29:28.676             2.331           246.688
       143   05 Jun 2027 10:30:04.324   05 Jun 2027 10:30:08.063             3.739           673.531
       144   05 Jun 2027 10:30:13.846   05 Jun 2027 10:30:14.715             0.869           165.063
       145   05 Jun 2027 10:30:32.423   05 Jun 2027 10:30:34.167             1.744           527.969
       146   05 Jun 2027 10:31:20.501   05 Jun 2027 10:31:24.565             4.064          1205.250
       147   05 Jun 2027 10:33:03.085   05 Jun 2027 10:33:10.029             6.944          3034.375
       148   05 Jun 2027 10:33:36.015   05 Jun 2027 10:33:38.653             2.638           695.281
       149   05 Jun 2027 10:33:45.603   05 Jun 2027 10:33:46.915             1.312            51.563
       150   05 Jun 2027 10:34:09.146   05 Jun 2027 10:34:10.602             1.456           688.906
       151   05 Jun 2027 10:35:10.752   05 Jun 2027 10:35:15.071             4.319          1879.688
       152   05 Jun 2027 10:35:31.360   05 Jun 2027 10:35:32.921             1.561           509.031
       153   06 Jun 2027 04:30:18.993   06 Jun 2027 04:31:47.214            88.221         44110.500
       154   06 Jun 2027 04:33:08.847   06 Jun 2027 04:33:25.249            16.402          8201.000
       155   06 Jun 2027 04:33:36.091   06 Jun 2027 04:33:39.673             3.582          1791.000
       156   06 Jun 2027 05:53:42.449   06 Jun 2027 05:55:57.667           135.218         67609.000
       157   06 Jun 2027 07:30:04.093   06 Jun 2027 07:31:35.497            91.404         45702.000
       158   06 Jun 2027 07:32:38.913   06 Jun 2027 07:32:50.579            11.666          3322.500
       159   06 Jun 2027 09:03:33.538   06 Jun 2027 09:03:47.780            14.242          5985.750
       160   06 Jun 2027 09:05:26.530   06 Jun 2027 09:05:26.530             0.000             0.000
       161   06 Jun 2027 09:06:46.019   06 Jun 2027 09:06:54.906             8.887          3698.250
       162   06 Jun 2027 09:09:51.591   06 Jun 2027 09:10:02.674            11.083          5417.500
       163   06 Jun 2027 09:10:57.302   06 Jun 2027 09:11:06.651             9.349          1245.906
       164   06 Jun 2027 09:11:34.552   06 Jun 2027 09:11:40.543             5.991           816.406
       165   06 Jun 2027 09:11:52.971   06 Jun 2027 09:11:53.966             0.995            75.750
       166   06 Jun 2027 09:12:01.329   06 Jun 2027 09:12:02.389             1.060            68.188
       167   06 Jun 2027 10:41:05.323   06 Jun 2027 10:41:21.180            15.857          7006.156
       168   06 Jun 2027 10:42:40.205   06 Jun 2027 10:42:43.406             3.201           804.344
       169   06 Jun 2027 10:43:39.765   06 Jun 2027 10:43:47.281             7.516          1505.656
       170   06 Jun 2027 10:44:24.830   06 Jun 2027 10:44:31.489             6.659          1173.406
       171   06 Jun 2027 10:45:10.916   06 Jun 2027 10:45:13.364             2.448           902.063
       172   06 Jun 2027 10:46:00.672   06 Jun 2027 10:46:02.542             1.870           868.156
       173   06 Jun 2027 10:46:14.261   06 Jun 2027 10:46:14.845             0.584           235.188
       174   06 Jun 2027 10:46:25.812   06 Jun 2027 10:46:25.812             0.000             0.000
       175   06 Jun 2027 10:46:50.133   06 Jun 2027 10:46:55.136             5.003           980.438
       176   06 Jun 2027 10:47:43.139   06 Jun 2027 10:47:49.405             6.266          1175.188
       177   07 Jun 2027 03:03:53.951   07 Jun 2027 03:04:00.691             6.740          3370.000
       178   07 Jun 2027 03:04:10.150   07 Jun 2027 03:04:36.793            26.643         13321.500
       179   07 Jun 2027 03:05:14.007   07 Jun 2027 03:05:34.294            20.287         10143.500
       180   07 Jun 2027 03:05:38.595   07 Jun 2027 03:05:40.690             2.095          1047.500
       181   07 Jun 2027 03:05:47.958   07 Jun 2027 03:05:52.314             4.356          2178.000
       182   07 Jun 2027 03:05:57.316   07 Jun 2027 03:05:59.050             1.734           867.000
       183   07 Jun 2027 03:06:38.824   07 Jun 2027 03:06:45.267             6.443          3221.500
       184   07 Jun 2027 03:08:33.045   07 Jun 2027 03:08:49.144            16.099          8049.500
       185   07 Jun 2027 04:41:57.551   07 Jun 2027 04:43:06.241            68.690         34345.000
       186   07 Jun 2027 04:44:54.694   07 Jun 2027 04:45:32.716            38.022         19011.000
       187   07 Jun 2027 06:05:33.620   07 Jun 2027 06:06:35.171            61.551         30775.500
       188   07 Jun 2027 07:42:05.977   07 Jun 2027 07:43:53.167           107.190         50859.500
       189   07 Jun 2027 07:43:57.943   07 Jun 2027 07:43:59.948             2.005           149.125
       190   07 Jun 2027 07:45:30.226   07 Jun 2027 07:45:33.339             3.113          1556.500
       191   07 Jun 2027 09:16:35.439   07 Jun 2027 09:16:47.610            12.171          6085.500
       192   07 Jun 2027 09:18:02.503   07 Jun 2027 09:18:08.280             5.777          2359.344
       193   07 Jun 2027 09:19:04.255   07 Jun 2027 09:19:12.181             7.926          1669.875
       194   07 Jun 2027 09:21:06.027   07 Jun 2027 09:21:10.463             4.436          2218.000
       195   07 Jun 2027 09:23:03.105   07 Jun 2027 09:23:15.360            12.255          4299.594
       196   07 Jun 2027 09:23:41.087   07 Jun 2027 09:23:44.758             3.671           732.281
       197   07 Jun 2027 09:23:58.419   07 Jun 2027 09:23:59.140             0.721           360.500
       198   07 Jun 2027 10:53:12.879   07 Jun 2027 10:53:27.679            14.800          7182.250
       199   07 Jun 2027 10:55:12.819   07 Jun 2027 10:55:18.495             5.676          1834.563
       200   07 Jun 2027 10:55:23.404   07 Jun 2027 10:55:24.374             0.970           153.406
       201   07 Jun 2027 10:55:29.455   07 Jun 2027 10:55:32.363             2.908           158.781
       202   07 Jun 2027 10:56:03.602   07 Jun 2027 10:56:12.742             9.140           892.000
       203   07 Jun 2027 10:57:31.998   07 Jun 2027 10:57:36.659             4.661          2245.406
       204   07 Jun 2027 10:57:54.065   07 Jun 2027 10:57:57.539             3.474           543.938
       205   07 Jun 2027 10:58:04.049   07 Jun 2027 10:58:07.003             2.954           119.188
       206   07 Jun 2027 10:58:14.140   07 Jun 2027 10:58:16.073             1.933           223.031
       207   07 Jun 2027 10:59:18.309   07 Jun 2027 10:59:23.284             4.975          1906.500
       208   07 Jun 2027 10:59:35.673   07 Jun 2027 10:59:38.183             2.510           387.156
       209   07 Jun 2027 10:59:46.119   07 Jun 2027 10:59:52.510             6.391           196.844
       210   08 Jun 2027 03:16:02.359   08 Jun 2027 03:17:02.095            59.736         29868.000
       211   08 Jun 2027 03:17:11.657   08 Jun 2027 03:17:21.956            10.299          5149.500
       212   08 Jun 2027 03:18:09.606   08 Jun 2027 03:18:28.515            18.909          9454.500
       213   08 Jun 2027 03:19:44.298   08 Jun 2027 03:20:01.831            17.533          8766.500
       214   08 Jun 2027 03:20:58.030   08 Jun 2027 03:20:58.030             0.000             0.000
       215   08 Jun 2027 03:21:12.543   08 Jun 2027 03:21:16.310             3.767          1883.500
       216   08 Jun 2027 03:22:17.632   08 Jun 2027 03:22:21.014             3.382          1691.000
       217   08 Jun 2027 04:54:21.080   08 Jun 2027 04:54:50.919            29.839         14919.500
       218   08 Jun 2027 04:55:09.820   08 Jun 2027 04:55:38.905            29.085         14542.500
       219   08 Jun 2027 04:55:54.681   08 Jun 2027 04:56:14.951            20.270         10135.000
       220   08 Jun 2027 04:56:30.162   08 Jun 2027 04:56:30.769             0.607           303.500
       221   08 Jun 2027 04:57:50.091   08 Jun 2027 04:58:01.587            11.496          5748.000
       222   08 Jun 2027 06:17:43.955   08 Jun 2027 06:18:34.501            50.546         25273.000
       223   08 Jun 2027 07:54:15.433   08 Jun 2027 07:55:36.552            81.119         39452.531
       224   08 Jun 2027 07:55:51.425   08 Jun 2027 07:55:52.131             0.706           353.000
       225   08 Jun 2027 09:29:24.627   08 Jun 2027 09:29:37.638            13.011          6377.469
       226   08 Jun 2027 09:29:46.041   08 Jun 2027 09:29:49.825             3.784           194.875
       227   08 Jun 2027 09:30:49.368   08 Jun 2027 09:30:52.939             3.571           152.594
       228   08 Jun 2027 09:32:23.546   08 Jun 2027 09:32:30.579             7.033          1333.937
       229   08 Jun 2027 09:33:14.555   08 Jun 2027 09:33:16.257             1.702           851.000
       230   08 Jun 2027 09:33:45.264   08 Jun 2027 09:33:47.955             2.691          1188.750
       231   08 Jun 2027 09:34:36.991   08 Jun 2027 09:34:38.075             1.084           542.000
       232   08 Jun 2027 09:35:36.400   08 Jun 2027 09:35:41.625             5.225          2241.781
       233   08 Jun 2027 11:05:48.251   08 Jun 2027 11:06:01.659            13.408          6040.781
       234   08 Jun 2027 11:06:56.356   08 Jun 2027 11:07:18.179            21.823          1220.437
       235   08 Jun 2027 11:07:28.665   08 Jun 2027 11:07:30.937             2.272           327.688
       236   08 Jun 2027 11:07:38.971   08 Jun 2027 11:07:39.456             0.485           242.500
       237   08 Jun 2027 11:07:44.439   08 Jun 2027 11:07:44.957             0.518           160.906
       238   08 Jun 2027 11:07:48.826   08 Jun 2027 11:07:50.615             1.789           120.906
       239   08 Jun 2027 11:07:56.817   08 Jun 2027 11:08:05.324             8.507           193.813
       240   08 Jun 2027 11:08:25.293   08 Jun 2027 11:08:35.954            10.661           624.031
       241   08 Jun 2027 11:09:15.036   08 Jun 2027 11:09:17.002             1.966           687.938
       242   08 Jun 2027 11:09:45.634   08 Jun 2027 11:09:48.071             2.437           706.312
       243   08 Jun 2027 11:10:02.609   08 Jun 2027 11:10:03.653             1.044           111.688
       244   08 Jun 2027 11:10:13.690   08 Jun 2027 11:10:14.639             0.949            82.531
       245   08 Jun 2027 11:10:37.528   08 Jun 2027 11:10:40.866             3.338           629.563
       246   08 Jun 2027 11:10:57.652   08 Jun 2027 11:10:59.396             1.744           151.969
       247   08 Jun 2027 11:11:45.805   08 Jun 2027 11:11:49.290             3.485          1328.062
       248   09 Jun 2027 03:28:07.331   09 Jun 2027 03:28:18.446            11.115          5557.500
       249   09 Jun 2027 03:29:09.207   09 Jun 2027 03:31:01.665           112.458         56229.000
       250   09 Jun 2027 03:33:01.829   09 Jun 2027 03:33:02.388             0.559           279.500
       251   09 Jun 2027 03:34:15.244   09 Jun 2027 03:34:16.782             1.538           769.000
       252   09 Jun 2027 03:35:54.958   09 Jun 2027 03:35:56.554             1.596           798.000
       253   09 Jun 2027 05:06:17.866   09 Jun 2027 05:06:56.521            38.655         19327.500
       254   09 Jun 2027 05:07:22.842   09 Jun 2027 05:07:56.675            33.833         16916.500
       255   09 Jun 2027 05:09:29.113   09 Jun 2027 05:09:41.989            12.876          6438.000
       256   09 Jun 2027 06:30:21.824   09 Jun 2027 06:31:49.012            87.188         43594.000
       257   09 Jun 2027 08:06:08.847   09 Jun 2027 08:06:50.987            42.140         20403.468
       258   09 Jun 2027 08:07:42.715   09 Jun 2027 08:07:45.977             3.262          1616.500
       259   09 Jun 2027 08:08:35.437   09 Jun 2027 08:08:37.925             2.488          1216.156
       260   09 Jun 2027 08:09:22.758   09 Jun 2027 08:09:28.538             5.780          1198.281
       261   09 Jun 2027 09:41:06.285   09 Jun 2027 09:41:20.540            14.255          5463.406
       262   09 Jun 2027 09:42:50.463   09 Jun 2027 09:42:56.400             5.937          2497.875
       263   09 Jun 2027 09:44:09.562   09 Jun 2027 09:44:14.789             5.227          1779.500
       264   09 Jun 2027 09:46:37.811   09 Jun 2027 09:46:49.176            11.365          4323.719
       265   09 Jun 2027 09:47:08.784   09 Jun 2027 09:47:11.834             3.050           612.750
       266   09 Jun 2027 09:47:31.345   09 Jun 2027 09:47:33.217             1.872           471.969
       267   09 Jun 2027 09:48:04.335   09 Jun 2027 09:48:05.720             1.385           504.656
       268   09 Jun 2027 11:17:20.329   09 Jun 2027 11:17:37.667            17.338          7131.844
       269   09 Jun 2027 11:17:52.402   09 Jun 2027 11:17:53.716             1.314           268.563
       270   09 Jun 2027 11:18:27.506   09 Jun 2027 11:18:29.393             1.887           141.781
       271   09 Jun 2027 11:18:52.354   09 Jun 2027 11:18:53.197             0.843            52.813
       272   09 Jun 2027 11:19:27.861   09 Jun 2027 11:19:28.903             1.042           499.594
       273   09 Jun 2027 11:20:10.257   09 Jun 2027 11:20:17.672             7.415          1292.313
       274   09 Jun 2027 11:20:20.448   09 Jun 2027 11:20:24.831             4.383            38.594
       275   09 Jun 2027 11:21:39.038   09 Jun 2027 11:21:50.416            11.378          2257.812
       276   09 Jun 2027 11:22:38.034   09 Jun 2027 11:22:42.932             4.898          1488.062
       277   09 Jun 2027 11:22:53.850   09 Jun 2027 11:22:55.098             1.248           341.187
       278   09 Jun 2027 11:22:58.839   09 Jun 2027 11:22:58.839             0.000             0.000
       279   09 Jun 2027 11:23:13.281   09 Jun 2027 11:23:17.997             4.716           568.219
       280   09 Jun 2027 11:23:26.574   09 Jun 2027 11:23:29.680             3.106           268.031
       281   09 Jun 2027 11:23:35.745   09 Jun 2027 11:23:37.982             2.237            62.500
       282   10 Jun 2027 03:41:12.629   10 Jun 2027 03:43:17.527           124.898         62449.000
       283   10 Jun 2027 03:43:55.766   10 Jun 2027 03:44:05.087             9.321          4660.500
       284   10 Jun 2027 03:46:37.976   10 Jun 2027 03:46:37.976             0.000             0.000
       285   10 Jun 2027 03:46:47.726   10 Jun 2027 03:46:48.374             0.648           324.000
       286   10 Jun 2027 03:47:44.874   10 Jun 2027 03:47:49.663             4.789          2394.500
       287   10 Jun 2027 05:07:07.491   10 Jun 2027 05:07:51.941            44.450         22225.000
       288   10 Jun 2027 05:18:14.267   10 Jun 2027 05:18:55.265            40.998         20499.000
       289   10 Jun 2027 05:19:13.058   10 Jun 2027 05:19:31.966            18.908          9454.000
       290   10 Jun 2027 06:41:11.360   10 Jun 2027 06:42:03.893            52.533         26266.500
       291   10 Jun 2027 06:42:57.809   10 Jun 2027 06:43:19.126            21.317         10658.500
       292   10 Jun 2027 06:45:08.388   10 Jun 2027 06:45:14.112             5.724          2862.000
       293   10 Jun 2027 08:16:29.076   10 Jun 2027 08:16:56.249            27.173         11942.875
       294   10 Jun 2027 08:18:31.908   10 Jun 2027 08:18:37.773             5.865          2808.500
       295   10 Jun 2027 08:19:38.090   10 Jun 2027 08:19:44.995             6.905          1714.813
       296   10 Jun 2027 08:20:17.268   10 Jun 2027 08:20:22.293             5.025           214.281
       297   10 Jun 2027 08:21:49.031   10 Jun 2027 08:21:55.607             6.576          2563.313
       298   10 Jun 2027 09:52:39.364   10 Jun 2027 09:52:42.953             3.589          1794.500
       299   10 Jun 2027 09:53:11.440   10 Jun 2027 09:53:19.611             8.171          3222.125
       300   10 Jun 2027 09:53:46.214   10 Jun 2027 09:53:48.770             2.556           672.094
       301   10 Jun 2027 09:54:23.262   10 Jun 2027 09:54:28.677             5.415          1077.875
       302   10 Jun 2027 09:54:35.920   10 Jun 2027 09:54:36.477             0.557           163.219
       303   10 Jun 2027 09:55:44.410   10 Jun 2027 09:55:48.519             4.109          1927.312
       304   10 Jun 2027 09:56:16.854   10 Jun 2027 09:56:20.431             3.577           373.781
       305   10 Jun 2027 09:57:17.058   10 Jun 2027 09:57:17.058             0.000             0.000
       306   10 Jun 2027 09:58:36.849   10 Jun 2027 09:58:44.950             8.101          3798.125
       307   10 Jun 2027 09:59:23.505   10 Jun 2027 09:59:26.874             3.369          1204.844
       308   10 Jun 2027 09:59:47.609   10 Jun 2027 09:59:53.255             5.646           536.344
       309   10 Jun 2027 10:00:10.810   10 Jun 2027 10:00:13.896             3.086           548.594
       310   10 Jun 2027 11:29:42.071   10 Jun 2027 11:29:59.070            16.999          8407.125
       311   10 Jun 2027 11:31:21.461   10 Jun 2027 11:31:28.911             7.450          1602.594
       312   10 Jun 2027 11:31:37.314   10 Jun 2027 11:31:38.209             0.895           181.375
       313   10 Jun 2027 11:33:19.182   10 Jun 2027 11:33:25.001             5.819          2189.844
       314   10 Jun 2027 11:33:54.833   10 Jun 2027 11:33:59.327             4.494           779.437
       315   10 Jun 2027 11:34:00.207   10 Jun 2027 11:34:00.207             0.000             0.000
       316   10 Jun 2027 11:34:29.558   10 Jun 2027 11:34:32.260             2.702           944.719
       317   10 Jun 2027 11:34:36.026   10 Jun 2027 11:34:37.523             1.497           117.687
       318   10 Jun 2027 11:34:56.700   10 Jun 2027 11:34:57.561             0.861           158.344
       319   10 Jun 2027 11:35:21.451   10 Jun 2027 11:35:23.290             1.839           746.563
       320   10 Jun 2027 11:35:39.329   10 Jun 2027 11:35:40.568             1.239           377.906
       321   11 Jun 2027 03:53:42.335   11 Jun 2027 03:55:31.860           109.525         54762.500
       322   11 Jun 2027 03:55:42.016   11 Jun 2027 03:55:49.030             7.014          3507.000
       323   11 Jun 2027 03:58:37.031   11 Jun 2027 03:58:45.534             8.503          4251.500
       324   11 Jun 2027 04:00:27.283   11 Jun 2027 04:00:49.641            22.358         11179.000
       325   11 Jun 2027 05:18:34.171   11 Jun 2027 05:19:07.349            33.178         16589.000
       326   11 Jun 2027 05:30:17.159   11 Jun 2027 05:31:12.140            54.981         27490.500
       327   11 Jun 2027 06:52:29.808   11 Jun 2027 06:53:41.998            72.190         36095.000
       328   11 Jun 2027 06:54:31.255   11 Jun 2027 06:54:49.321            18.066          9033.000
       329   11 Jun 2027 06:56:45.029   11 Jun 2027 06:57:05.959            20.930         10465.000
       330   11 Jun 2027 08:27:35.524   11 Jun 2027 08:27:59.427            23.903         11871.875
       331   11 Jun 2027 08:28:40.777   11 Jun 2027 08:28:42.884             2.107          1002.281
       332   11 Jun 2027 08:30:30.016   11 Jun 2027 08:30:35.933             5.917          2746.469
       333   11 Jun 2027 08:30:56.762   11 Jun 2027 08:30:58.900             2.138           624.250
       334   11 Jun 2027 08:31:31.284   11 Jun 2027 08:31:31.284             0.000             0.000
       335   11 Jun 2027 08:32:46.279   11 Jun 2027 08:32:54.322             8.043          2853.469
       336   11 Jun 2027 08:33:13.821   11 Jun 2027 08:33:15.145             1.324           598.125
       337   11 Jun 2027 10:04:52.064   11 Jun 2027 10:05:07.777            15.713          5458.406
       338   11 Jun 2027 10:05:52.530   11 Jun 2027 10:05:54.865             2.335           923.656
       339   11 Jun 2027 10:06:13.147   11 Jun 2027 10:06:16.816             3.669           412.812
       340   11 Jun 2027 10:07:43.548   11 Jun 2027 10:07:49.630             6.082          2710.375
       341   11 Jun 2027 10:08:31.499   11 Jun 2027 10:08:34.323             2.824           791.625
       342   11 Jun 2027 10:09:21.028   11 Jun 2027 10:09:24.454             3.426           293.438
       343   11 Jun 2027 10:09:58.846   11 Jun 2027 10:10:03.817             4.971          1074.750
       344   11 Jun 2027 10:10:36.607   11 Jun 2027 10:10:38.031             1.424           712.000
       345   11 Jun 2027 10:11:00.704   11 Jun 2027 10:11:01.714             1.010           505.000
       346   11 Jun 2027 10:11:51.346   11 Jun 2027 10:11:55.798             4.452          1827.062
       347   11 Jun 2027 11:41:45.177   11 Jun 2027 11:42:00.035            14.858          5850.125
       348   11 Jun 2027 11:42:35.353   11 Jun 2027 11:42:38.296             2.943          1103.688
       349   11 Jun 2027 11:43:05.145   11 Jun 2027 11:43:10.933             5.788           357.312
       350   11 Jun 2027 11:46:31.600   11 Jun 2027 11:46:47.424            15.824          6076.906
       351   11 Jun 2027 11:47:10.330   11 Jun 2027 11:47:10.330             0.000             0.000
       352   11 Jun 2027 11:47:43.942   11 Jun 2027 11:47:48.596             4.654          1428.875
       353   12 Jun 2027 04:05:51.281   12 Jun 2027 04:07:06.781            75.500         37750.000
       354   12 Jun 2027 04:07:20.861   12 Jun 2027 04:07:53.878            33.017         16508.500
       355   12 Jun 2027 04:10:40.521   12 Jun 2027 04:11:01.774            21.253         10626.500
       356   12 Jun 2027 04:12:40.468   12 Jun 2027 04:12:45.908             5.440          2720.000
       357   12 Jun 2027 05:30:03.119   12 Jun 2027 05:31:08.886            65.767         32883.500
       358   12 Jun 2027 05:31:51.384   12 Jun 2027 05:31:54.674             3.290          1645.000
       359   12 Jun 2027 05:32:16.825   12 Jun 2027 05:32:17.377             0.552           276.000
       360   12 Jun 2027 05:42:18.069   12 Jun 2027 05:42:50.015            31.946         15973.000
       361   12 Jun 2027 07:04:15.039   12 Jun 2027 07:05:35.543            80.504         40252.000
       362   12 Jun 2027 07:06:17.671   12 Jun 2027 07:06:42.069            24.398          9553.501
       363   12 Jun 2027 07:08:48.824   12 Jun 2027 07:08:51.041             2.217          1108.500
       364   12 Jun 2027 07:09:21.360   12 Jun 2027 07:09:21.360             0.000             0.000
       365   12 Jun 2027 08:39:04.487   12 Jun 2027 08:39:21.745            17.258          8602.937
       366   12 Jun 2027 08:40:21.966   12 Jun 2027 08:40:25.503             3.537          1674.562
       367   12 Jun 2027 08:40:51.240   12 Jun 2027 08:40:55.286             4.046           148.187
       368   12 Jun 2027 08:41:08.457   12 Jun 2027 08:41:08.457             0.000             0.000
       369   12 Jun 2027 08:43:16.192   12 Jun 2027 08:43:25.363             9.171          4385.312
       370   12 Jun 2027 08:44:46.494   12 Jun 2027 08:44:54.274             7.780          2337.156
       371   12 Jun 2027 08:47:22.790   12 Jun 2027 08:47:32.477             9.687          3171.344
       372   12 Jun 2027 10:16:51.760   12 Jun 2027 10:17:09.790            18.030          6726.437
       373   12 Jun 2027 10:17:34.428   12 Jun 2027 10:17:40.583             6.155           766.000
       374   12 Jun 2027 10:17:55.801   12 Jun 2027 10:17:56.676             0.875           437.500
       375   12 Jun 2027 10:18:28.716   12 Jun 2027 10:18:33.341             4.625          1039.312
       376   12 Jun 2027 10:18:56.971   12 Jun 2027 10:18:58.712             1.741           728.375
       377   12 Jun 2027 10:19:56.394   12 Jun 2027 10:19:59.959             3.565          1730.500
       378   12 Jun 2027 10:21:08.611   12 Jun 2027 10:21:11.984             3.373          1569.562
       379   12 Jun 2027 10:21:31.240   12 Jun 2027 10:21:32.488             1.248           263.344
       380   12 Jun 2027 10:21:48.279   12 Jun 2027 10:21:50.817             2.538           337.500
       381   12 Jun 2027 10:22:29.433   12 Jun 2027 10:22:32.084             2.651           805.375
       382   12 Jun 2027 10:23:25.691   12 Jun 2027 10:23:34.267             8.576          1675.219
       383   12 Jun 2027 10:23:49.180   12 Jun 2027 10:23:51.430             2.250           466.031
       384   12 Jun 2027 10:24:13.866   12 Jun 2027 10:24:16.202             2.336           692.344
       385   12 Jun 2027 11:53:36.715   12 Jun 2027 11:53:49.847            13.132          6081.219
       386   12 Jun 2027 11:54:21.362   12 Jun 2027 11:54:32.877            11.515           984.844
       387   12 Jun 2027 11:54:57.284   12 Jun 2027 11:55:05.516             8.232           762.719
       388   12 Jun 2027 11:56:25.488   12 Jun 2027 11:56:28.343             2.855          1427.500
       389   12 Jun 2027 11:56:38.625   12 Jun 2027 11:56:40.217             1.592           796.000
       390   12 Jun 2027 11:57:17.388   12 Jun 2027 11:57:20.424             3.036          1431.500
       391   12 Jun 2027 11:58:30.297   12 Jun 2027 11:58:33.988             3.691          1845.500
       392   12 Jun 2027 11:59:57.219   12 Jun 2027 12:00:00.000             2.781          1390.500
       393   13 Jun 2027 04:18:01.878   13 Jun 2027 04:19:31.825            89.947         44973.500
       394   13 Jun 2027 04:19:46.032   13 Jun 2027 04:19:46.032             0.000             0.000
       395   13 Jun 2027 04:21:07.203   13 Jun 2027 04:21:36.628            29.425         14712.500
       396   13 Jun 2027 05:42:04.245   13 Jun 2027 05:43:10.305            66.060         33030.000
       397   13 Jun 2027 05:43:28.981   13 Jun 2027 05:43:39.531            10.550          5275.000
       398   13 Jun 2027 07:18:02.306   13 Jun 2027 07:19:38.422            96.116         48058.000
       399   13 Jun 2027 07:21:11.020   13 Jun 2027 07:21:11.020             0.000             0.000
       400   13 Jun 2027 07:21:45.683   13 Jun 2027 07:21:56.431            10.748          5374.000
       401   13 Jun 2027 08:51:51.448   13 Jun 2027 08:52:30.981            39.533         19300.750
       402   13 Jun 2027 08:53:13.366   13 Jun 2027 08:53:15.067             1.701           280.344
       403   13 Jun 2027 08:54:12.799   13 Jun 2027 08:54:14.697             1.898           949.000
       404   13 Jun 2027 08:54:23.048   13 Jun 2027 08:54:24.557             1.509           392.875
       405   13 Jun 2027 08:55:31.511   13 Jun 2027 08:55:34.628             3.117          1236.500
       406   13 Jun 2027 08:56:46.108   13 Jun 2027 08:56:52.002             5.894          2233.750
       407   13 Jun 2027 08:57:17.522   13 Jun 2027 08:57:21.685             4.163           790.875
       408   13 Jun 2027 08:57:39.676   13 Jun 2027 08:57:46.311             6.635           562.219
       409   13 Jun 2027 08:58:16.138   13 Jun 2027 08:58:16.138             0.000             0.000
       410   13 Jun 2027 08:58:27.790   13 Jun 2027 08:58:28.067             0.277           138.500
       411   13 Jun 2027 08:59:00.500   13 Jun 2027 08:59:09.834             9.334          2118.312
       412   13 Jun 2027 08:59:55.255   13 Jun 2027 09:00:00.457             5.202          1206.813
       413   13 Jun 2027 10:28:57.435   13 Jun 2027 10:29:18.478            21.043          8399.000
       414   13 Jun 2027 10:29:33.926   13 Jun 2027 10:29:36.522             2.596           272.156
       415   13 Jun 2027 10:29:52.585   13 Jun 2027 10:29:54.285             1.700           494.406
       416   13 Jun 2027 10:29:58.570   13 Jun 2027 10:30:00.085             1.515            52.375
       417   13 Jun 2027 10:30:08.683   13 Jun 2027 10:30:10.362             1.679           215.750
       418   13 Jun 2027 10:30:58.581   13 Jun 2027 10:31:03.528             4.947          1506.844
       419   13 Jun 2027 10:31:49.467   13 Jun 2027 10:31:52.220             2.753          1223.000
       420   13 Jun 2027 10:32:33.128   13 Jun 2027 10:32:35.966             2.838           832.187
       421   13 Jun 2027 10:33:05.297   13 Jun 2027 10:33:07.231             1.934           615.094
       422   13 Jun 2027 10:33:47.690   13 Jun 2027 10:33:49.598             1.908           772.844
       423   13 Jun 2027 10:34:30.461   13 Jun 2027 10:34:35.785             5.324          1275.500
       424   13 Jun 2027 10:34:39.730   13 Jun 2027 10:34:42.087             2.357           118.125
       425   13 Jun 2027 10:34:47.405   13 Jun 2027 10:34:49.531             2.126           166.187
       426   13 Jun 2027 10:35:03.163   13 Jun 2027 10:35:06.194             3.031           398.688
       427   13 Jun 2027 10:35:29.213   13 Jun 2027 10:35:31.573             2.360           620.750
       428   13 Jun 2027 10:35:47.477   13 Jun 2027 10:35:48.978             1.501           497.000
