uniorb/output/strategy_1/Camera/Camera_KinoSat_110709.txt

KinoSat_110709
-------------------------
    Access    *     Start Time (UTCG)     *     Stop Time (UTCG)  *   Duration (s) *   Data (Mbytes)
         1   01 Jun 2027 03:01:23.349   01 Jun 2027 03:01:31.758             8.409          4204.500
         2   01 Jun 2027 03:01:43.860   01 Jun 2027 03:02:01.530            17.670          8835.000
         3   01 Jun 2027 03:03:27.938   01 Jun 2027 03:03:27.938             0.000             0.000
         4   01 Jun 2027 03:03:51.803   01 Jun 2027 03:04:17.469            25.666         12833.000
         5   01 Jun 2027 04:37:08.283   01 Jun 2027 04:38:53.158           104.875         52437.500
         6   01 Jun 2027 04:38:58.187   01 Jun 2027 04:39:08.451            10.264          5132.000
         7   01 Jun 2027 04:40:40.623   01 Jun 2027 04:40:59.121            18.498          9249.000
         8   01 Jun 2027 06:11:52.090   01 Jun 2027 06:13:43.715           111.625         55812.500
         9   01 Jun 2027 06:15:17.918   01 Jun 2027 06:15:24.193             6.275          3137.500
        10   01 Jun 2027 06:16:23.576   01 Jun 2027 06:16:30.910             7.334          3667.000
        11   01 Jun 2027 06:16:39.829   01 Jun 2027 06:16:40.330             0.501           250.500
        12   01 Jun 2027 06:17:37.511   01 Jun 2027 06:17:48.633            11.122          5561.000
        13   01 Jun 2027 06:18:45.797   01 Jun 2027 06:19:07.149            21.352         10676.000
        14   01 Jun 2027 07:48:39.733   01 Jun 2027 07:49:57.850            78.117         39058.500
        15   01 Jun 2027 07:50:31.349   01 Jun 2027 07:50:59.408            28.059         14029.500
        16   01 Jun 2027 07:51:37.967   01 Jun 2027 07:52:25.893            47.926         23963.000
        17   01 Jun 2027 09:26:55.008   01 Jun 2027 09:28:31.502            96.494         48247.000
        18   01 Jun 2027 09:29:24.013   01 Jun 2027 09:29:47.312            23.299         11649.500
        19   01 Jun 2027 09:29:58.508   01 Jun 2027 09:30:10.258            11.750          5875.000
        20   01 Jun 2027 11:00:12.534   01 Jun 2027 11:01:44.686            92.152         46076.000
        21   01 Jun 2027 11:02:01.357   01 Jun 2027 11:02:44.592            43.235         21617.500
        22   01 Jun 2027 11:03:04.229   01 Jun 2027 11:03:13.363             9.134          4567.000
        23   01 Jun 2027 11:07:15.226   01 Jun 2027 11:07:23.878             8.652          4326.000
        24   02 Jun 2027 03:11:59.146   02 Jun 2027 03:12:20.795            21.649         10824.500
        25   02 Jun 2027 03:15:28.659   02 Jun 2027 03:15:28.659             0.000             0.000
        26   02 Jun 2027 03:15:32.767   02 Jun 2027 03:15:41.195             8.428          4214.000
        27   02 Jun 2027 04:47:03.088   02 Jun 2027 04:48:20.128            77.040         38520.000
        28   02 Jun 2027 04:48:52.732   02 Jun 2027 04:49:32.077            39.345         19672.500
        29   02 Jun 2027 04:52:13.969   02 Jun 2027 04:52:47.502            33.533         16766.500
        30   02 Jun 2027 06:24:00.222   02 Jun 2027 06:25:43.625           103.403         51701.500
        31   02 Jun 2027 06:26:42.809   02 Jun 2027 06:26:48.948             6.139          3069.500
        32   02 Jun 2027 06:27:27.618   02 Jun 2027 06:27:29.487             1.869           934.500
        33   02 Jun 2027 06:28:07.203   02 Jun 2027 06:28:22.278            15.075          7537.500
        34   02 Jun 2027 06:31:19.480   02 Jun 2027 06:31:20.229             0.749           374.500
        35   02 Jun 2027 08:00:58.910   02 Jun 2027 08:02:55.592           116.682         58341.000
        36   02 Jun 2027 08:03:39.211   02 Jun 2027 08:04:05.697            26.486         13243.000
        37   02 Jun 2027 08:04:23.401   02 Jun 2027 08:04:35.534            12.133          6066.500
        38   02 Jun 2027 09:38:53.138   02 Jun 2027 09:40:36.714           103.576         51788.000
        39   02 Jun 2027 09:40:37.881   02 Jun 2027 09:41:04.091            26.210         13105.000
        40   02 Jun 2027 09:42:38.344   02 Jun 2027 09:42:43.913             5.569          2784.500
        41   02 Jun 2027 11:12:12.028   02 Jun 2027 11:14:04.208           112.180         56090.000
        42   02 Jun 2027 11:14:38.523   02 Jun 2027 11:14:43.484             4.961          2480.500
        43   02 Jun 2027 11:15:30.403   02 Jun 2027 11:15:32.559             2.156          1078.000
        44   02 Jun 2027 11:17:10.531   02 Jun 2027 11:17:16.189             5.658          2829.000
        45   02 Jun 2027 11:17:25.258   02 Jun 2027 11:17:43.140            17.882          8941.000
        46   03 Jun 2027 03:23:28.980   03 Jun 2027 03:23:45.662            16.682          8341.000
        47   03 Jun 2027 03:27:29.626   03 Jun 2027 03:27:42.805            13.179          6589.500
        48   03 Jun 2027 04:58:28.089   03 Jun 2027 05:00:39.804           131.715         65857.500
        49   03 Jun 2027 05:01:58.212   03 Jun 2027 05:01:59.873             1.661           830.500
        50   03 Jun 2027 05:02:59.107   03 Jun 2027 05:03:09.049             9.942          4971.000
        51   03 Jun 2027 05:04:13.552   03 Jun 2027 05:04:30.149            16.597          8298.500
        52   03 Jun 2027 06:36:04.245   03 Jun 2027 06:37:13.908            69.663         34831.500
        53   03 Jun 2027 06:37:54.019   03 Jun 2027 06:38:20.581            26.562         13281.000
        54   03 Jun 2027 06:38:39.412   03 Jun 2027 06:38:43.521             4.109          2054.500
        55   03 Jun 2027 06:38:52.944   03 Jun 2027 06:39:02.692             9.748          4874.000
        56   03 Jun 2027 06:39:13.098   03 Jun 2027 06:39:22.601             9.503          4751.500
        57   03 Jun 2027 06:43:08.115   03 Jun 2027 06:43:26.738            18.623          9311.500
        58   03 Jun 2027 08:12:47.990   03 Jun 2027 08:14:48.034           120.044         60022.000
        59   03 Jun 2027 08:14:50.007   03 Jun 2027 08:15:11.188            21.181         10590.500
        60   03 Jun 2027 08:16:50.396   03 Jun 2027 08:17:01.150            10.754          5377.000
        61   03 Jun 2027 08:19:08.838   03 Jun 2027 08:19:25.542            16.704          8352.000
        62   03 Jun 2027 09:50:52.513   03 Jun 2027 09:52:23.449            90.936         45468.000
        63   03 Jun 2027 09:52:43.525   03 Jun 2027 09:52:47.271             3.746          1873.000
        64   03 Jun 2027 09:53:32.258   03 Jun 2027 09:53:32.258             0.000             0.000
        65   03 Jun 2027 09:54:04.760   03 Jun 2027 09:54:08.254             3.494          1747.000
        66   03 Jun 2027 09:54:32.179   03 Jun 2027 09:54:33.132             0.953           476.500
        67   03 Jun 2027 09:54:59.796   03 Jun 2027 09:55:01.768             1.972           986.000
        68   03 Jun 2027 11:24:37.493   03 Jun 2027 11:24:54.610            17.117          7719.688
        69   03 Jun 2027 11:26:00.540   03 Jun 2027 11:26:04.932             4.392          2060.312
        70   03 Jun 2027 11:26:33.625   03 Jun 2027 11:26:33.625             0.000             0.000
        71   03 Jun 2027 11:26:37.516   03 Jun 2027 11:26:41.547             4.031          1018.250
        72   03 Jun 2027 11:27:05.646   03 Jun 2027 11:27:07.258             1.612           753.094
        73   03 Jun 2027 11:28:03.031   03 Jun 2027 11:28:10.353             7.322          1063.906
        74   03 Jun 2027 11:28:26.013   03 Jun 2027 11:28:30.873             4.860            75.000
        75   03 Jun 2027 11:28:52.021   03 Jun 2027 11:28:52.021             0.000             0.000
        76   03 Jun 2027 11:29:15.625   03 Jun 2027 11:29:25.292             9.667          1185.187
        77   03 Jun 2027 11:30:27.737   03 Jun 2027 11:30:37.868            10.131          1737.719
        78   03 Jun 2027 11:31:11.412   03 Jun 2027 11:31:12.735             1.323           211.531
        79   04 Jun 2027 03:35:05.078   04 Jun 2027 03:35:46.338            41.260         20630.000
        80   04 Jun 2027 03:36:33.929   04 Jun 2027 03:36:35.536             1.607           803.500
        81   04 Jun 2027 03:37:03.187   04 Jun 2027 03:37:03.187             0.000             0.000
        82   04 Jun 2027 03:41:00.087   04 Jun 2027 03:41:04.052             3.965          1982.500
        83   04 Jun 2027 05:09:58.739   04 Jun 2027 05:12:17.546           138.807         69403.500
        84   04 Jun 2027 05:14:29.331   04 Jun 2027 05:14:31.739             2.408          1204.000
        85   04 Jun 2027 05:15:00.807   04 Jun 2027 05:15:02.032             1.225           612.500
        86   04 Jun 2027 05:17:01.537   04 Jun 2027 05:17:01.537             0.000             0.000
        87   04 Jun 2027 05:18:52.606   04 Jun 2027 05:19:10.237            17.631          8815.500
        88   04 Jun 2027 06:48:02.305   04 Jun 2027 06:49:07.053            64.748         32374.000
        89   04 Jun 2027 06:50:12.835   04 Jun 2027 06:51:06.637            53.802         26901.000
        90   04 Jun 2027 06:51:09.259   04 Jun 2027 06:51:13.342             4.083          2041.500
        91   04 Jun 2027 06:51:42.622   04 Jun 2027 06:51:42.937             0.315           157.500
        92   04 Jun 2027 06:51:48.884   04 Jun 2027 06:52:14.973            26.089         13044.500
        93   04 Jun 2027 08:24:55.543   04 Jun 2027 08:25:53.944            58.401         28173.657
        94   04 Jun 2027 08:27:09.323   04 Jun 2027 08:27:11.954             2.631          1307.844
        95   04 Jun 2027 08:28:39.724   04 Jun 2027 08:28:39.969             0.245           122.500
        96   04 Jun 2027 08:29:20.478   04 Jun 2027 08:29:30.109             9.631          3802.313
        97   04 Jun 2027 08:30:30.460   04 Jun 2027 08:30:36.133             5.673          1720.719
        98   04 Jun 2027 08:31:05.762   04 Jun 2027 08:31:09.315             3.553           732.719
        99   04 Jun 2027 10:02:05.730   04 Jun 2027 10:02:27.497            21.767          9557.312
       100   04 Jun 2027 10:02:44.520   04 Jun 2027 10:02:46.629             2.109           421.375
       101   04 Jun 2027 10:03:11.838   04 Jun 2027 10:03:12.400             0.562           281.000
       102   04 Jun 2027 10:03:44.386   04 Jun 2027 10:03:51.071             6.685          1312.813
       103   04 Jun 2027 10:04:19.408   04 Jun 2027 10:04:19.408             0.000             0.000
       104   04 Jun 2027 10:04:30.543   04 Jun 2027 10:04:34.438             3.895          1233.500
       105   04 Jun 2027 10:05:08.999   04 Jun 2027 10:05:12.359             3.360          1080.031
       106   04 Jun 2027 10:05:24.376   04 Jun 2027 10:05:25.371             0.995           375.531
       107   04 Jun 2027 10:05:58.051   04 Jun 2027 10:06:01.466             3.415           938.344
       108   04 Jun 2027 10:06:21.733   04 Jun 2027 10:06:26.496             4.763           598.000
       109   04 Jun 2027 10:06:32.424   04 Jun 2027 10:06:34.607             2.183           173.344
       110   04 Jun 2027 10:06:44.055   04 Jun 2027 10:06:46.186             2.131            87.125
       111   04 Jun 2027 11:36:52.433   04 Jun 2027 11:36:55.543             3.110          1255.844
       112   04 Jun 2027 11:38:48.251   04 Jun 2027 11:38:58.931            10.680          2304.406
       113   04 Jun 2027 11:39:46.488   04 Jun 2027 11:39:53.856             7.368          1271.844
       114   04 Jun 2027 11:41:05.866   04 Jun 2027 11:41:12.964             7.098          2250.312
       115   04 Jun 2027 11:42:07.286   04 Jun 2027 11:42:10.124             2.838           943.750
       116   05 Jun 2027 03:49:23.748   05 Jun 2027 03:49:35.141            11.393          5696.500
       117   05 Jun 2027 03:50:31.178   05 Jun 2027 03:51:16.271            45.093         22546.500
       118   05 Jun 2027 03:51:20.857   05 Jun 2027 03:51:32.116            11.259          5629.500
       119   05 Jun 2027 05:22:57.222   05 Jun 2027 05:25:04.442           127.220         63610.000
       120   05 Jun 2027 05:25:31.575   05 Jun 2027 05:25:40.956             9.381          4690.500
       121   05 Jun 2027 05:25:46.679   05 Jun 2027 05:25:49.005             2.326          1163.000
       122   05 Jun 2027 05:29:08.340   05 Jun 2027 05:29:14.784             6.444          3222.000
       123   05 Jun 2027 05:30:30.982   05 Jun 2027 05:30:40.011             9.029          4514.500
       124   05 Jun 2027 05:31:10.023   05 Jun 2027 05:31:20.743            10.720          5360.000
       125   05 Jun 2027 07:00:24.194   05 Jun 2027 07:02:23.737           119.543         59771.500
       126   05 Jun 2027 07:03:05.312   05 Jun 2027 07:03:16.262            10.950          5475.000
       127   05 Jun 2027 07:04:38.119   05 Jun 2027 07:04:44.595             6.476          3200.938
       128   05 Jun 2027 07:05:56.453   05 Jun 2027 07:05:56.453             0.000             0.000
       129   05 Jun 2027 08:37:24.470   05 Jun 2027 08:37:58.924            34.454         16998.625
       130   05 Jun 2027 08:38:14.426   05 Jun 2027 08:38:20.133             5.707           258.688
       131   05 Jun 2027 08:39:37.377   05 Jun 2027 08:39:46.380             9.003          2391.844
       132   05 Jun 2027 08:40:41.259   05 Jun 2027 08:40:43.292             2.033          1016.500
       133   05 Jun 2027 08:41:13.109   05 Jun 2027 08:41:23.221            10.112          1630.250
       134   05 Jun 2027 08:42:34.384   05 Jun 2027 08:42:38.429             4.045          1949.188
       135   05 Jun 2027 08:43:11.166   05 Jun 2027 08:43:15.868             4.702          1023.031
       136   05 Jun 2027 10:14:18.489   05 Jun 2027 10:14:34.889            16.400          8186.500
       137   05 Jun 2027 10:15:12.657   05 Jun 2027 10:15:16.315             3.658          1180.250
       138   05 Jun 2027 10:15:18.976   05 Jun 2027 10:15:19.894             0.918            83.156
       139   05 Jun 2027 10:15:40.709   05 Jun 2027 10:15:44.174             3.465           630.531
       140   05 Jun 2027 10:16:38.103   05 Jun 2027 10:16:48.946            10.843          1430.344
       141   05 Jun 2027 10:17:29.360   05 Jun 2027 10:17:42.869            13.509           944.531
       142   05 Jun 2027 10:18:09.553   05 Jun 2027 10:18:13.213             3.660           585.562
       143   05 Jun 2027 11:51:27.652   05 Jun 2027 11:51:35.091             7.439          1669.719
       144   05 Jun 2027 11:51:45.417   05 Jun 2027 11:51:49.251             3.834           322.688
       145   05 Jun 2027 11:52:26.754   05 Jun 2027 11:52:26.754             0.000             0.000
       146   05 Jun 2027 11:52:35.843   05 Jun 2027 11:52:43.956             8.113           687.781
       147   05 Jun 2027 11:53:46.059   05 Jun 2027 11:53:50.386             4.327          1433.062
       148   06 Jun 2027 04:01:29.304   06 Jun 2027 04:02:21.999            52.695         26347.500
       149   06 Jun 2027 04:03:39.945   06 Jun 2027 04:03:39.945             0.000             0.000
       150   06 Jun 2027 04:04:32.714   06 Jun 2027 04:04:32.714             0.000             0.000
       151   06 Jun 2027 04:04:47.641   06 Jun 2027 04:05:02.389            14.748          7374.000
       152   06 Jun 2027 05:33:40.320   06 Jun 2027 05:33:48.530             8.210          4105.000
       153   06 Jun 2027 05:35:36.047   06 Jun 2027 05:37:40.296           124.249         62124.500
       154   06 Jun 2027 05:38:10.885   06 Jun 2027 05:38:41.778            30.893         15446.500
       155   06 Jun 2027 05:43:17.713   06 Jun 2027 05:43:25.075             7.362          3681.000
       156   06 Jun 2027 07:12:33.933   06 Jun 2027 07:14:27.043           113.110         56513.750
       157   06 Jun 2027 07:14:55.260   06 Jun 2027 07:14:59.531             4.271           791.938
       158   06 Jun 2027 07:15:45.652   06 Jun 2027 07:15:48.841             3.189          1199.906
       159   06 Jun 2027 07:16:56.972   06 Jun 2027 07:16:58.982             2.010          1005.000
       160   06 Jun 2027 07:17:50.977   06 Jun 2027 07:17:55.983             5.006          1946.656
       161   06 Jun 2027 08:49:49.811   06 Jun 2027 08:50:18.637            28.826         12758.625
       162   06 Jun 2027 08:51:17.028   06 Jun 2027 08:51:19.803             2.775          1029.719
       163   06 Jun 2027 08:51:55.082   06 Jun 2027 08:52:01.495             6.413          1094.844
       164   06 Jun 2027 08:52:32.340   06 Jun 2027 08:52:36.397             4.057           938.156
       165   06 Jun 2027 08:52:50.241   06 Jun 2027 08:52:50.241             0.000             0.000
       166   06 Jun 2027 08:53:19.201   06 Jun 2027 08:53:23.028             3.827          1310.000
       167   06 Jun 2027 08:53:50.551   06 Jun 2027 08:53:52.429             1.878           713.656
       168   06 Jun 2027 08:54:30.825   06 Jun 2027 08:54:35.151             4.326          1199.875
       169   06 Jun 2027 10:26:19.274   06 Jun 2027 10:26:37.027            17.753          7319.219
       170   06 Jun 2027 10:27:41.588   06 Jun 2027 10:27:51.884            10.296          1448.062
       171   06 Jun 2027 10:28:37.449   06 Jun 2027 10:28:40.652             3.203          1352.937
       172   06 Jun 2027 10:28:55.794   06 Jun 2027 10:29:02.312             6.518           457.250
       173   06 Jun 2027 10:29:57.540   06 Jun 2027 10:29:59.727             2.187          1093.500
       174   06 Jun 2027 10:30:23.041   06 Jun 2027 10:30:25.943             2.902          1194.938
       175   06 Jun 2027 10:31:13.171   06 Jun 2027 10:31:16.203             3.032          1458.062
       176   07 Jun 2027 04:13:38.284   07 Jun 2027 04:14:30.963            52.679         26339.500
       177   07 Jun 2027 04:16:15.411   07 Jun 2027 04:16:37.640            22.229         11114.500
       178   07 Jun 2027 04:17:04.395   07 Jun 2027 04:17:04.395             0.000             0.000
       179   07 Jun 2027 05:48:48.806   07 Jun 2027 05:50:54.319           125.513         62756.500
       180   07 Jun 2027 05:51:18.243   07 Jun 2027 05:51:25.818             7.575          3787.500
       181   07 Jun 2027 05:51:45.163   07 Jun 2027 05:51:45.163             0.000             0.000
       182   07 Jun 2027 05:54:20.359   07 Jun 2027 05:54:24.777             4.418          2209.000
       183   07 Jun 2027 05:54:48.745   07 Jun 2027 05:55:00.643            11.898          5949.000
       184   07 Jun 2027 07:25:08.019   07 Jun 2027 07:26:20.842            72.823         36411.500
       185   07 Jun 2027 07:26:35.650   07 Jun 2027 07:27:23.648            47.998         23999.000
       186   07 Jun 2027 07:28:20.876   07 Jun 2027 07:28:26.772             5.896          2948.000
       187   07 Jun 2027 07:28:50.490   07 Jun 2027 07:28:51.653             1.163           581.500
       188   07 Jun 2027 07:29:04.325   07 Jun 2027 07:29:09.741             5.416          2071.687
       189   07 Jun 2027 09:02:31.832   07 Jun 2027 09:03:06.744            34.912         13791.719
       190   07 Jun 2027 09:03:46.205   07 Jun 2027 09:03:48.384             2.179           867.531
       191   07 Jun 2027 09:03:55.170   07 Jun 2027 09:04:01.967             6.797           212.062
       192   07 Jun 2027 09:04:52.781   07 Jun 2027 09:04:56.366             3.585          1587.937
       193   07 Jun 2027 09:05:26.363   07 Jun 2027 09:05:28.467             2.104           919.344
       194   07 Jun 2027 09:06:06.330   07 Jun 2027 09:06:08.075             1.745           872.500
       195   07 Jun 2027 09:06:27.674   07 Jun 2027 09:06:30.036             2.362           923.187
       196   07 Jun 2027 10:38:44.052   07 Jun 2027 10:38:58.006            13.954          6809.844
       197   07 Jun 2027 10:39:18.652   07 Jun 2027 10:39:22.053             3.401           575.406
       198   07 Jun 2027 10:39:36.035   07 Jun 2027 10:39:38.414             2.379           436.937
       199   07 Jun 2027 10:40:15.149   07 Jun 2027 10:40:18.833             3.684          1095.562
       200   07 Jun 2027 10:40:35.930   07 Jun 2027 10:40:37.172             1.242           533.156
       201   07 Jun 2027 10:41:21.168   07 Jun 2027 10:41:27.469             6.301          1298.344
       202   07 Jun 2027 10:41:52.598   07 Jun 2027 10:41:56.812             4.214           631.344
       203   07 Jun 2027 10:42:11.619   07 Jun 2027 10:42:16.002             4.383           396.062
       204   08 Jun 2027 04:25:39.524   08 Jun 2027 04:26:46.666            67.142         33571.000
       205   08 Jun 2027 04:27:52.063   08 Jun 2027 04:28:04.299            12.236          6118.000
       206   08 Jun 2027 06:00:52.248   08 Jun 2027 06:03:01.810           129.562         64781.000
       207   08 Jun 2027 06:06:13.780   08 Jun 2027 06:06:17.248             3.468          1734.000
       208   08 Jun 2027 06:06:47.285   08 Jun 2027 06:06:55.097             7.812          3906.000
       209   08 Jun 2027 07:36:47.279   08 Jun 2027 07:38:05.746            78.467         39233.500
       210   08 Jun 2027 07:38:19.678   08 Jun 2027 07:38:31.475            11.797          5898.500
       211   08 Jun 2027 07:39:21.302   08 Jun 2027 07:39:56.569            35.267         17633.500
       212   08 Jun 2027 07:40:02.957   08 Jun 2027 07:40:08.381             5.424          1479.844
       213   08 Jun 2027 07:41:33.972   08 Jun 2027 07:41:40.824             6.852          2498.281
       214   08 Jun 2027 09:14:44.651   08 Jun 2027 09:15:08.916            24.265         10649.812
       215   08 Jun 2027 09:15:23.212   08 Jun 2027 09:15:24.161             0.949           101.594
       216   08 Jun 2027 09:15:30.171   08 Jun 2027 09:15:31.004             0.833           160.219
       217   08 Jun 2027 09:16:02.554   08 Jun 2027 09:16:06.849             4.295           885.719
       218   08 Jun 2027 09:16:48.845   08 Jun 2027 09:16:51.872             3.027          1072.719
       219   08 Jun 2027 09:16:54.348   08 Jun 2027 09:16:55.224             0.876            22.875
       220   08 Jun 2027 09:18:07.472   08 Jun 2027 09:18:11.351             3.879          1872.469
       221   08 Jun 2027 09:18:22.529   08 Jun 2027 09:18:27.905             5.376           349.313
       222   08 Jun 2027 10:50:37.716   08 Jun 2027 10:50:54.316            16.600          7413.531
       223   08 Jun 2027 10:51:09.817   08 Jun 2027 10:51:13.838             4.021           101.125
       224   08 Jun 2027 10:51:41.716   08 Jun 2027 10:51:45.106             3.390           871.188
       225   08 Jun 2027 10:52:05.101   08 Jun 2027 10:52:06.014             0.913           397.438
       226   08 Jun 2027 10:52:09.754   08 Jun 2027 10:52:11.083             1.329           116.875
       227   08 Jun 2027 10:52:34.491   08 Jun 2027 10:52:39.743             5.252           731.500
       228   08 Jun 2027 10:53:23.083   08 Jun 2027 10:53:28.199             5.116           980.125
       229   08 Jun 2027 10:53:32.280   08 Jun 2027 10:53:32.280             0.000             0.000
       230   08 Jun 2027 10:53:37.788   08 Jun 2027 10:53:42.919             5.131           243.062
       231   08 Jun 2027 10:54:00.755   08 Jun 2027 10:54:09.118             8.363            69.000
       232   08 Jun 2027 10:54:21.393   08 Jun 2027 10:54:34.006            12.613           220.500
       233   08 Jun 2027 10:55:21.376   08 Jun 2027 10:55:26.830             5.454          1358.562
       234   08 Jun 2027 10:55:35.876   08 Jun 2027 10:55:36.415             0.539           106.750
       235   09 Jun 2027 03:00:59.938   09 Jun 2027 03:01:10.690            10.752          5376.000
       236   09 Jun 2027 03:02:41.309   09 Jun 2027 03:02:54.635            13.326          6663.000
       237   09 Jun 2027 03:04:29.423   09 Jun 2027 03:04:32.045             2.622          1311.000
       238   09 Jun 2027 04:37:22.886   09 Jun 2027 04:38:52.717            89.831         44915.500
       239   09 Jun 2027 04:39:09.671   09 Jun 2027 04:39:38.246            28.575         14287.500
       240   09 Jun 2027 04:40:08.835   09 Jun 2027 04:40:20.873            12.038          6019.000
       241   09 Jun 2027 04:40:46.553   09 Jun 2027 04:40:55.513             8.960          4480.000
       242   09 Jun 2027 04:41:14.391   09 Jun 2027 04:41:21.699             7.308          3654.000
       243   09 Jun 2027 06:12:06.762   09 Jun 2027 06:13:28.903            82.141         41070.500
       244   09 Jun 2027 06:15:24.291   09 Jun 2027 06:15:32.594             8.303          4151.500
       245   09 Jun 2027 06:16:46.063   09 Jun 2027 06:16:54.365             8.302          4151.000
       246   09 Jun 2027 06:17:35.616   09 Jun 2027 06:17:41.436             5.820          2910.000
       247   09 Jun 2027 06:18:06.286   09 Jun 2027 06:18:18.600            12.314          6157.000
       248   09 Jun 2027 07:48:54.760   09 Jun 2027 07:50:28.471            93.711         46088.063
       249   09 Jun 2027 07:51:01.958   09 Jun 2027 07:51:04.056             2.098          1046.469
       250   09 Jun 2027 07:51:18.905   09 Jun 2027 07:51:21.364             2.459           464.031
       251   09 Jun 2027 07:51:50.780   09 Jun 2027 07:51:52.633             1.853           755.187
       252   09 Jun 2027 07:52:18.379   09 Jun 2027 07:52:19.889             1.510           755.000
       253   09 Jun 2027 07:52:42.735   09 Jun 2027 07:52:44.458             1.723           763.500
       254   09 Jun 2027 07:53:27.962   09 Jun 2027 07:53:34.654             6.692          1171.500
       255   09 Jun 2027 09:27:09.800   09 Jun 2027 09:27:32.820            23.020          9856.656
       256   09 Jun 2027 09:28:28.909   09 Jun 2027 09:28:33.998             5.089          1752.781
       257   09 Jun 2027 09:28:41.520   09 Jun 2027 09:28:43.275             1.755             1.563
       258   09 Jun 2027 09:29:09.612   09 Jun 2027 09:29:12.065             2.453           784.375
       259   09 Jun 2027 09:29:57.003   09 Jun 2027 09:29:58.799             1.796           592.969
       260   09 Jun 2027 09:30:28.646   09 Jun 2027 09:30:32.149             3.503           932.719
       261   09 Jun 2027 11:00:26.959   09 Jun 2027 11:00:45.631            18.672          8147.344
       262   09 Jun 2027 11:02:05.587   09 Jun 2027 11:02:07.453             1.866           933.000
       263   09 Jun 2027 11:02:25.873   09 Jun 2027 11:02:31.865             5.992          1540.812
       264   09 Jun 2027 11:02:59.443   09 Jun 2027 11:03:04.013             4.570           861.812
       265   09 Jun 2027 11:03:07.028   09 Jun 2027 11:03:08.038             1.010            19.906
       266   09 Jun 2027 11:03:43.377   09 Jun 2027 11:03:43.377             0.000             0.000
       267   09 Jun 2027 11:04:08.241   09 Jun 2027 11:04:13.602             5.361          1540.062
       268   09 Jun 2027 11:04:31.076   09 Jun 2027 11:04:33.095             2.019           477.156
       269   09 Jun 2027 11:04:56.972   09 Jun 2027 11:04:59.364             2.392           746.156
       270   09 Jun 2027 11:05:56.652   09 Jun 2027 11:05:59.401             2.749          1192.844
       271   09 Jun 2027 11:06:35.324   09 Jun 2027 11:06:46.386            11.062           705.656
       272   09 Jun 2027 11:07:34.034   09 Jun 2027 11:07:37.592             3.558          1489.000
       273   10 Jun 2027 03:12:13.474   10 Jun 2027 03:13:03.457            49.983         24991.500
       274   10 Jun 2027 03:15:44.694   10 Jun 2027 03:15:45.922             1.228           614.000
       275   10 Jun 2027 03:15:55.907   10 Jun 2027 03:16:02.353             6.446          3223.000
       276   10 Jun 2027 04:47:17.167   10 Jun 2027 04:48:35.080            77.913         38956.500
       277   10 Jun 2027 04:49:07.223   10 Jun 2027 04:49:19.645            12.422          6211.000
       278   10 Jun 2027 04:49:32.367   10 Jun 2027 04:49:40.755             8.388          4194.000
       279   10 Jun 2027 04:51:11.279   10 Jun 2027 04:51:21.801            10.522          5261.000
       280   10 Jun 2027 04:52:44.932   10 Jun 2027 04:53:03.738            18.806          9403.000
       281   10 Jun 2027 04:53:45.566   10 Jun 2027 04:53:45.566             0.000             0.000
       282   10 Jun 2027 06:24:14.956   10 Jun 2027 06:25:33.500            78.544         39272.000
       283   10 Jun 2027 06:25:44.720   10 Jun 2027 06:25:55.889            11.169          5584.500
       284   10 Jun 2027 06:26:20.800   10 Jun 2027 06:26:25.081             4.281          2140.500
       285   10 Jun 2027 06:26:52.979   10 Jun 2027 06:26:57.592             4.613          2306.500
       286   10 Jun 2027 06:27:18.177   10 Jun 2027 06:27:27.542             9.365          4682.500
       287   10 Jun 2027 06:29:19.691   10 Jun 2027 06:29:39.314            19.623          9811.500
       288   10 Jun 2027 08:01:13.237   10 Jun 2027 08:01:53.599            40.362         20181.000
       289   10 Jun 2027 08:02:14.279   10 Jun 2027 08:02:48.011            33.732         13543.844
       290   10 Jun 2027 08:03:01.023   10 Jun 2027 08:03:03.113             2.090           245.406
       291   10 Jun 2027 08:03:36.745   10 Jun 2027 08:03:41.169             4.424           311.031
       292   10 Jun 2027 08:04:19.431   10 Jun 2027 08:04:27.737             8.306          1195.687
       293   10 Jun 2027 08:04:50.369   10 Jun 2027 08:04:50.369             0.000             0.000
       294   10 Jun 2027 08:04:55.802   10 Jun 2027 08:05:00.042             4.240           877.031
       295   10 Jun 2027 08:05:50.349   10 Jun 2027 08:05:55.314             4.965          1488.063
       296   10 Jun 2027 08:06:38.387   10 Jun 2027 08:06:40.185             1.798           899.000
       297   10 Jun 2027 09:39:07.914   10 Jun 2027 09:39:25.807            17.893          8946.500
       298   10 Jun 2027 09:39:48.046   10 Jun 2027 09:39:51.863             3.817          1084.094
       299   10 Jun 2027 09:40:25.753   10 Jun 2027 09:40:28.403             2.650           647.063
       300   10 Jun 2027 09:41:04.934   10 Jun 2027 09:41:07.041             2.107           737.625
       301   10 Jun 2027 09:42:07.852   10 Jun 2027 09:42:14.349             6.497          1532.906
       302   10 Jun 2027 09:42:35.807   10 Jun 2027 09:42:36.782             0.975           451.500
       303   10 Jun 2027 09:42:46.978   10 Jun 2027 09:42:47.809             0.831           196.250
       304   10 Jun 2027 11:12:26.912   10 Jun 2027 11:12:37.139            10.227          5083.906
       305   10 Jun 2027 11:13:55.610   10 Jun 2027 11:13:59.218             3.608          1256.750
       306   10 Jun 2027 11:14:20.792   10 Jun 2027 11:14:23.254             2.462           547.906
       307   10 Jun 2027 11:15:37.170   10 Jun 2027 11:15:39.761             2.591          1295.500
       308   10 Jun 2027 11:16:02.926   10 Jun 2027 11:16:05.309             2.383           920.375
       309   10 Jun 2027 11:16:36.923   10 Jun 2027 11:16:40.401             3.478           976.344
       310   10 Jun 2027 11:17:32.075   10 Jun 2027 11:17:36.057             3.982          1179.719
       311   10 Jun 2027 11:18:27.906   10 Jun 2027 11:18:31.240             3.334          1497.719
       312   10 Jun 2027 11:19:26.608   10 Jun 2027 11:19:35.663             9.055          1730.250
       313   11 Jun 2027 03:23:43.379   11 Jun 2027 03:24:49.417            66.038         33019.000
       314   11 Jun 2027 03:25:45.507   11 Jun 2027 03:25:47.037             1.530           765.000
       315   11 Jun 2027 03:27:58.503   11 Jun 2027 03:27:58.503             0.000             0.000
       316   11 Jun 2027 04:58:42.160   11 Jun 2027 05:00:18.327            96.167         48083.500
       317   11 Jun 2027 05:00:23.103   11 Jun 2027 05:00:25.072             1.969           984.500
       318   11 Jun 2027 05:01:22.365   11 Jun 2027 05:01:41.305            18.940          9470.000
       319   11 Jun 2027 05:02:06.326   11 Jun 2027 05:02:06.446             0.120            60.000
       320   11 Jun 2027 05:03:15.107   11 Jun 2027 05:03:15.244             0.137            68.500
       321   11 Jun 2027 05:04:29.166   11 Jun 2027 05:04:46.457            17.291          8645.500
       322   11 Jun 2027 06:36:18.408   11 Jun 2027 06:37:58.360            99.952         49976.000
       323   11 Jun 2027 06:38:23.888   11 Jun 2027 06:38:26.879             2.991          1495.500
       324   11 Jun 2027 06:39:18.750   11 Jun 2027 06:39:23.310             4.560          2280.000
       325   11 Jun 2027 06:40:25.025   11 Jun 2027 06:40:28.240             3.215          1607.500
       326   11 Jun 2027 06:40:30.827   11 Jun 2027 06:40:52.644            21.817         10908.500
       327   11 Jun 2027 08:13:02.659   11 Jun 2027 08:13:53.662            51.003         25269.094
       328   11 Jun 2027 08:14:08.238   11 Jun 2027 08:14:10.247             2.009           119.688
       329   11 Jun 2027 08:14:52.459   11 Jun 2027 08:14:59.562             7.103          1319.125
       330   11 Jun 2027 08:15:05.254   11 Jun 2027 08:15:12.150             6.896            77.469
       331   11 Jun 2027 08:15:57.888   11 Jun 2027 08:16:02.599             4.711           996.563
       332   11 Jun 2027 08:17:18.075   11 Jun 2027 08:17:23.528             5.453          2358.625
       333   11 Jun 2027 08:18:07.224   11 Jun 2027 08:18:08.294             1.070           535.000
       334   11 Jun 2027 08:19:23.469   11 Jun 2027 08:19:36.621            13.152          3139.438
       335   11 Jun 2027 09:51:07.318   11 Jun 2027 09:51:24.898            17.580          8790.000
       336   11 Jun 2027 09:51:49.102   11 Jun 2027 09:51:52.401             3.299           794.531
       337   11 Jun 2027 09:52:17.990   11 Jun 2027 09:52:17.990             0.000             0.000
       338   11 Jun 2027 09:52:46.932   11 Jun 2027 09:52:51.692             4.760          1390.000
       339   11 Jun 2027 09:53:34.888   11 Jun 2027 09:53:38.081             3.193          1349.875
       340   11 Jun 2027 09:54:19.721   11 Jun 2027 09:54:22.133             2.412          1011.469
       341   11 Jun 2027 09:54:29.899   11 Jun 2027 09:54:32.647             2.748           242.687
       342   11 Jun 2027 11:24:52.823   11 Jun 2027 11:25:00.362             7.539          3250.188
       343   11 Jun 2027 11:25:30.704   11 Jun 2027 11:25:34.489             3.785           419.250
       344   11 Jun 2027 11:26:03.008   11 Jun 2027 11:26:03.008             0.000             0.000
       345   11 Jun 2027 11:26:10.333   11 Jun 2027 11:26:15.284             4.951           783.125
       346   11 Jun 2027 11:26:20.876   11 Jun 2027 11:26:22.726             1.850           174.750
       347   11 Jun 2027 11:26:53.783   11 Jun 2027 11:26:54.197             0.414           164.031
       348   11 Jun 2027 11:27:20.366   11 Jun 2027 11:27:24.863             4.497           748.688
       349   11 Jun 2027 11:28:03.666   11 Jun 2027 11:28:06.435             2.769           531.031
       350   11 Jun 2027 11:29:10.987   11 Jun 2027 11:29:18.733             7.746          1669.219
       351   11 Jun 2027 11:30:10.208   11 Jun 2027 11:30:15.794             5.586          1405.344
       352   11 Jun 2027 11:30:36.894   11 Jun 2027 11:30:38.391             1.497           659.375
       353   12 Jun 2027 03:35:19.570   12 Jun 2027 03:36:30.211            70.641         35320.500
       354   12 Jun 2027 03:41:16.725   12 Jun 2027 03:41:16.725             0.000             0.000
       355   12 Jun 2027 05:10:12.704   12 Jun 2027 05:12:31.923           139.219         69609.500
       356   12 Jun 2027 05:13:25.176   12 Jun 2027 05:13:30.375             5.199          2599.500
       357   12 Jun 2027 05:17:18.330   12 Jun 2027 05:17:18.330             0.000             0.000
       358   12 Jun 2027 05:17:20.234   12 Jun 2027 05:17:23.365             3.131          1565.500
       359   12 Jun 2027 05:19:08.414   12 Jun 2027 05:19:18.186             9.772          4886.000
       360   12 Jun 2027 05:19:25.543   12 Jun 2027 05:19:25.543             0.000             0.000
       361   12 Jun 2027 06:48:17.343   12 Jun 2027 06:50:14.281           116.938         58469.000
       362   12 Jun 2027 06:50:54.291   12 Jun 2027 06:51:07.103            12.812          5143.375
       363   12 Jun 2027 06:53:11.729   12 Jun 2027 06:53:16.445             4.716          2358.000
       364   12 Jun 2027 06:53:24.951   12 Jun 2027 06:53:25.513             0.562           281.000
       365   12 Jun 2027 06:54:20.028   12 Jun 2027 06:54:27.970             7.942          3204.000
       366   12 Jun 2027 06:55:42.184   12 Jun 2027 06:55:42.184             0.000             0.000
       367   12 Jun 2027 08:25:10.564   12 Jun 2027 08:25:25.487            14.923          7461.500
       368   12 Jun 2027 08:25:43.084   12 Jun 2027 08:26:07.250            24.166          9331.500
       369   12 Jun 2027 08:26:20.740   12 Jun 2027 08:26:21.314             0.574           205.563
       370   12 Jun 2027 08:26:59.906   12 Jun 2027 08:27:02.387             2.481           854.188
       371   12 Jun 2027 08:27:28.482   12 Jun 2027 08:27:29.362             0.880           440.000
       372   12 Jun 2027 08:28:01.600   12 Jun 2027 08:28:09.132             7.532          1313.688
       373   12 Jun 2027 08:28:20.393   12 Jun 2027 08:28:20.863             0.470           191.469
       374   12 Jun 2027 08:29:14.135   12 Jun 2027 08:29:18.153             4.018          1664.750
       375   12 Jun 2027 08:30:14.178   12 Jun 2027 08:30:17.984             3.806          1620.687
       376   12 Jun 2027 08:30:46.040   12 Jun 2027 08:30:53.569             7.529           827.281
       377   12 Jun 2027 08:31:22.354   12 Jun 2027 08:31:23.977             1.623           732.031
       378   12 Jun 2027 10:02:20.446   12 Jun 2027 10:02:38.840            18.394          7893.969
       379   12 Jun 2027 10:03:03.886   12 Jun 2027 10:03:05.752             1.866           561.156
       380   12 Jun 2027 10:03:12.604   12 Jun 2027 10:03:14.407             1.803            69.688
       381   12 Jun 2027 10:03:59.140   12 Jun 2027 10:04:07.033             7.893          1017.719
       382   12 Jun 2027 10:04:46.025   12 Jun 2027 10:04:49.213             3.188          1218.500
       383   12 Jun 2027 10:05:24.334   12 Jun 2027 10:05:27.052             2.718          1097.531
       384   12 Jun 2027 10:05:38.751   12 Jun 2027 10:05:43.009             4.258           365.594
       385   12 Jun 2027 10:06:15.085   12 Jun 2027 10:06:17.568             2.483          1002.375
       386   12 Jun 2027 10:06:24.401   12 Jun 2027 10:06:25.081             0.680           213.531
       387   12 Jun 2027 10:06:26.411   12 Jun 2027 10:06:27.789             1.378            41.562
       388   12 Jun 2027 11:37:07.526   12 Jun 2027 11:37:10.795             3.269          1634.500
       389   12 Jun 2027 11:39:02.727   12 Jun 2027 11:39:14.596            11.869          2379.656
       390   12 Jun 2027 11:39:51.233   12 Jun 2027 11:40:02.150            10.917          1115.063
       391   12 Jun 2027 11:40:39.882   12 Jun 2027 11:40:42.373             2.491          1179.125
       392   12 Jun 2027 11:40:58.611   12 Jun 2027 11:41:02.584             3.973           507.438
       393   12 Jun 2027 11:41:51.828   12 Jun 2027 11:41:54.746             2.918           920.312
       394   12 Jun 2027 11:42:19.956   12 Jun 2027 11:42:23.469             3.513           764.375
       395   13 Jun 2027 03:49:38.536   13 Jun 2027 03:50:28.703            50.167         25083.500
       396   13 Jun 2027 05:23:11.896   13 Jun 2027 05:25:22.364           130.468         65234.000
       397   13 Jun 2027 05:25:33.393   13 Jun 2027 05:25:33.393             0.000             0.000
       398   13 Jun 2027 05:25:56.054   13 Jun 2027 05:25:59.234             3.180          1590.000
       399   13 Jun 2027 05:27:28.977   13 Jun 2027 05:27:34.152             5.175          2587.500
       400   13 Jun 2027 05:29:14.976   13 Jun 2027 05:29:20.267             5.291          2645.500
       401   13 Jun 2027 05:31:08.471   13 Jun 2027 05:31:32.644            24.173         12086.500
       402   13 Jun 2027 07:00:39.541   13 Jun 2027 07:02:50.168           130.627         65313.500
       403   13 Jun 2027 07:03:56.934   13 Jun 2027 07:04:06.245             9.311          4655.500
       404   13 Jun 2027 07:04:34.382   13 Jun 2027 07:04:42.961             8.579          4274.875
       405   13 Jun 2027 07:05:51.980   13 Jun 2027 07:05:59.352             7.372          2138.156
       406   13 Jun 2027 08:37:39.071   13 Jun 2027 08:38:09.205            30.134         14809.969
       407   13 Jun 2027 08:38:55.639   13 Jun 2027 08:38:57.932             2.293          1019.375
       408   13 Jun 2027 08:39:10.842   13 Jun 2027 08:39:11.382             0.540           214.375
       409   13 Jun 2027 08:39:20.955   13 Jun 2027 08:39:23.159             2.204           299.156
       410   13 Jun 2027 08:40:59.073   13 Jun 2027 08:41:03.176             4.103          2051.500
       411   13 Jun 2027 08:42:25.477   13 Jun 2027 08:42:34.917             9.440          3480.062
       412   13 Jun 2027 08:42:55.083   13 Jun 2027 08:42:55.168             0.085            42.500
       413   13 Jun 2027 08:43:23.673   13 Jun 2027 08:43:26.217             2.544          1106.031
       414   13 Jun 2027 10:14:33.057   13 Jun 2027 10:14:50.443            17.386          8313.937
       415   13 Jun 2027 10:15:30.397   13 Jun 2027 10:15:35.698             5.301          1135.219
       416   13 Jun 2027 10:16:40.207   13 Jun 2027 10:16:44.379             4.172          1976.594
       417   13 Jun 2027 10:17:16.473   13 Jun 2027 10:17:23.877             7.404           966.844
       418   13 Jun 2027 10:17:56.153   13 Jun 2027 10:18:04.073             7.920           802.594
       419   13 Jun 2027 10:18:51.232   13 Jun 2027 10:18:53.609             2.377          1103.719
       420   13 Jun 2027 10:19:07.564   13 Jun 2027 10:19:08.462             0.898           354.750
       421   13 Jun 2027 11:51:42.473   13 Jun 2027 11:51:49.721             7.248          2074.531
       422   13 Jun 2027 11:52:30.696   13 Jun 2027 11:52:33.357             2.661          1280.469
       423   13 Jun 2027 11:53:22.928   13 Jun 2027 11:53:29.026             6.098          1549.094
       424   13 Jun 2027 11:53:36.094   13 Jun 2027 11:53:41.893             5.799           125.313
       425   13 Jun 2027 11:54:05.905   13 Jun 2027 11:54:05.905             0.000             0.000
