uniorb/output/strategy_1/Camera/Camera_KinoSat_111403.txt

KinoSat_111403
-------------------------
    Access    *     Start Time (UTCG)     *     Stop Time (UTCG)  *   Duration (s) *   Data (Mbytes)
         1   01 Jun 2027 03:42:41.616   01 Jun 2027 03:45:07.387           145.771         72885.500
         2   01 Jun 2027 03:45:52.972   01 Jun 2027 03:45:59.288             6.316          3158.000
         3   01 Jun 2027 03:46:41.047   01 Jun 2027 03:46:47.696             6.649          3324.500
         4   01 Jun 2027 03:49:39.835   01 Jun 2027 03:49:41.255             1.420           710.000
         5   01 Jun 2027 05:07:03.284   01 Jun 2027 05:08:06.033            62.749         31374.500
         6   01 Jun 2027 05:19:16.949   01 Jun 2027 05:19:48.665            31.716         15858.000
         7   01 Jun 2027 06:41:13.105   01 Jun 2027 06:42:27.961            74.856         37428.000
         8   01 Jun 2027 06:43:28.787   01 Jun 2027 06:43:46.511            17.724          8862.000
         9   01 Jun 2027 08:16:01.282   01 Jun 2027 08:17:57.827           116.545         58272.500
        10   01 Jun 2027 08:23:23.748   01 Jun 2027 08:23:50.152            26.404         13202.000
        11   01 Jun 2027 09:53:50.244   01 Jun 2027 09:55:16.842            86.598         43299.000
        12   01 Jun 2027 09:55:31.488   01 Jun 2027 09:55:54.044            22.556         11278.000
        13   01 Jun 2027 09:56:53.419   01 Jun 2027 09:56:53.419             0.000             0.000
        14   01 Jun 2027 09:58:45.044   01 Jun 2027 09:58:58.690            13.646          6823.000
        15   01 Jun 2027 09:59:48.048   01 Jun 2027 09:59:57.985             9.937          4968.500
        16   01 Jun 2027 11:30:34.639   01 Jun 2027 11:31:22.737            48.098         24049.000
        17   01 Jun 2027 11:31:33.044   01 Jun 2027 11:31:44.147            11.103          5551.500
        18   01 Jun 2027 11:32:17.024   01 Jun 2027 11:33:16.345            59.321         29660.500
        19   01 Jun 2027 11:34:59.770   01 Jun 2027 11:35:16.014            16.244          8122.000
        20   01 Jun 2027 11:36:55.478   01 Jun 2027 11:37:12.077            16.599          8299.500
        21   02 Jun 2027 03:55:00.883   02 Jun 2027 03:56:44.366           103.483         51741.500
        22   02 Jun 2027 03:56:59.903   02 Jun 2027 03:57:08.519             8.616          4308.000
        23   02 Jun 2027 03:58:39.918   02 Jun 2027 03:58:46.826             6.908          3454.000
        24   02 Jun 2027 05:19:02.413   02 Jun 2027 05:20:10.389            67.976         33988.000
        25   02 Jun 2027 06:54:59.212   02 Jun 2027 06:57:03.276           124.064         62032.000
        26   02 Jun 2027 06:57:50.095   02 Jun 2027 06:57:52.166             2.071          1035.500
        27   02 Jun 2027 06:58:00.265   02 Jun 2027 06:58:05.641             5.376          2688.000
        28   02 Jun 2027 08:28:49.985   02 Jun 2027 08:30:53.669           123.684         61842.000
        29   02 Jun 2027 08:33:30.207   02 Jun 2027 08:33:30.207             0.000             0.000
        30   02 Jun 2027 08:34:13.266   02 Jun 2027 08:34:29.813            16.547          8273.500
        31   02 Jun 2027 08:36:35.229   02 Jun 2027 08:36:35.888             0.659           329.500
        32   02 Jun 2027 10:05:56.850   02 Jun 2027 10:07:30.246            93.396         46698.000
        33   02 Jun 2027 10:07:44.845   02 Jun 2027 10:07:52.505             7.660          3830.000
        34   02 Jun 2027 10:11:11.782   02 Jun 2027 10:11:13.442             1.660           830.000
        35   02 Jun 2027 10:12:15.757   02 Jun 2027 10:12:40.502            24.745         12372.500
        36   02 Jun 2027 11:42:59.514   02 Jun 2027 11:43:23.049            23.535         11767.500
        37   02 Jun 2027 11:43:24.512   02 Jun 2027 11:44:39.776            75.264         37632.000
        38   02 Jun 2027 11:44:46.467   02 Jun 2027 11:44:46.968             0.501           250.500
        39   02 Jun 2027 11:44:53.695   02 Jun 2027 11:44:56.225             2.530          1265.000
        40   02 Jun 2027 11:45:41.159   02 Jun 2027 11:45:46.571             5.412          2706.000
        41   02 Jun 2027 11:46:27.165   02 Jun 2027 11:46:28.235             1.070           535.000
        42   02 Jun 2027 11:48:06.220   02 Jun 2027 11:48:14.788             8.568          4284.000
        43   02 Jun 2027 11:48:22.776   02 Jun 2027 11:48:22.776             0.000             0.000
        44   02 Jun 2027 11:48:26.436   02 Jun 2027 11:48:26.711             0.275           137.500
        45   02 Jun 2027 11:48:45.166   02 Jun 2027 11:48:49.108             3.942          1971.000
        46   02 Jun 2027 11:48:58.270   02 Jun 2027 11:49:00.677             2.407          1203.500
        47   03 Jun 2027 04:07:35.467   03 Jun 2027 04:09:07.645            92.178         46089.000
        48   03 Jun 2027 04:09:50.743   03 Jun 2027 04:09:54.923             4.180          2090.000
        49   03 Jun 2027 05:30:56.811   03 Jun 2027 05:32:11.594            74.783         37391.500
        50   03 Jun 2027 05:32:54.573   03 Jun 2027 05:33:14.994            20.421         10210.500
        51   03 Jun 2027 07:07:21.121   03 Jun 2027 07:09:26.307           125.186         62593.000
        52   03 Jun 2027 07:09:34.813   03 Jun 2027 07:09:43.690             8.877          4438.500
        53   03 Jun 2027 07:09:53.016   03 Jun 2027 07:09:54.450             1.434           717.000
        54   03 Jun 2027 08:41:02.190   03 Jun 2027 08:42:47.716           105.526         52763.000
        55   03 Jun 2027 08:43:01.606   03 Jun 2027 08:43:16.620            15.014          7507.000
        56   03 Jun 2027 08:45:43.222   03 Jun 2027 08:45:43.222             0.000             0.000
        57   03 Jun 2027 08:47:52.857   03 Jun 2027 08:47:55.405             2.548          1274.000
        58   03 Jun 2027 08:48:10.705   03 Jun 2027 08:48:18.036             7.331          3665.500
        59   03 Jun 2027 08:48:18.215   03 Jun 2027 08:48:38.812            20.597         10298.500
        60   03 Jun 2027 10:18:23.127   03 Jun 2027 10:19:24.354            61.227         30613.500
        61   03 Jun 2027 10:19:30.670   03 Jun 2027 10:19:34.263             3.593          1796.500
        62   03 Jun 2027 10:20:43.449   03 Jun 2027 10:20:46.100             2.651          1325.500
        63   03 Jun 2027 10:21:24.848   03 Jun 2027 10:21:32.462             7.614          2132.283
        64   03 Jun 2027 10:22:50.213   03 Jun 2027 10:22:59.820             9.607          2429.719
        65   03 Jun 2027 10:24:30.949   03 Jun 2027 10:24:33.704             2.755          1377.500
        66   03 Jun 2027 11:55:20.121   03 Jun 2027 11:55:39.508            19.387          8348.844
        67   03 Jun 2027 11:56:57.179   03 Jun 2027 11:57:03.859             6.680          2156.312
        68   03 Jun 2027 11:57:16.467   03 Jun 2027 11:57:20.152             3.685           394.000
        69   03 Jun 2027 11:57:55.083   03 Jun 2027 11:57:59.247             4.164           838.938
        70   03 Jun 2027 11:58:02.266   03 Jun 2027 11:58:08.843             6.577            94.344
        71   03 Jun 2027 11:58:16.088   03 Jun 2027 11:58:16.570             0.482           226.406
        72   03 Jun 2027 11:58:24.974   03 Jun 2027 11:58:25.189             0.215            48.500
        73   03 Jun 2027 11:59:37.075   03 Jun 2027 11:59:40.797             3.722          1861.000
        74   03 Jun 2027 11:59:43.485   03 Jun 2027 11:59:48.358             4.873           385.437
        75   04 Jun 2027 04:19:50.151   04 Jun 2027 04:21:06.946            76.795         38397.500
        76   04 Jun 2027 04:22:04.650   04 Jun 2027 04:22:05.568             0.918           459.000
        77   04 Jun 2027 05:42:44.205   04 Jun 2027 05:44:21.033            96.828         48414.000
        78   04 Jun 2027 07:19:23.071   04 Jun 2027 07:21:48.668           145.597         72798.500
        79   04 Jun 2027 07:22:23.686   04 Jun 2027 07:22:37.559            13.873          6936.500
        80   04 Jun 2027 07:22:53.481   04 Jun 2027 07:22:54.571             1.090           545.000
        81   04 Jun 2027 08:54:22.640   04 Jun 2027 08:54:44.437            21.797         10466.282
        82   04 Jun 2027 08:55:08.804   04 Jun 2027 08:55:15.285             6.481           469.094
        83   04 Jun 2027 08:55:39.570   04 Jun 2027 08:55:41.930             2.360           473.031
        84   04 Jun 2027 08:56:55.170   04 Jun 2027 08:57:00.007             4.837          2259.188
        85   04 Jun 2027 08:57:33.348   04 Jun 2027 08:57:35.520             2.172           773.937
        86   04 Jun 2027 08:58:35.196   04 Jun 2027 08:58:38.674             3.478          1687.406
        87   04 Jun 2027 08:59:20.866   04 Jun 2027 08:59:24.767             3.901          1226.688
        88   04 Jun 2027 08:59:30.586   04 Jun 2027 08:59:31.507             0.921           175.281
        89   04 Jun 2027 08:59:56.320   04 Jun 2027 08:59:57.239             0.919           459.500
        90   04 Jun 2027 09:00:38.554   04 Jun 2027 09:00:42.076             3.522          1300.375
        91   04 Jun 2027 09:00:57.284   04 Jun 2027 09:00:57.284             0.000             0.000
        92   04 Jun 2027 09:01:09.169   04 Jun 2027 09:01:10.916             1.747           683.906
        93   04 Jun 2027 10:30:30.802   04 Jun 2027 10:30:42.978            12.176          5740.125
        94   04 Jun 2027 10:32:45.410   04 Jun 2027 10:32:50.383             4.973          2262.937
        95   04 Jun 2027 10:33:16.888   04 Jun 2027 10:33:20.566             3.678           678.031
        96   04 Jun 2027 10:34:43.058   04 Jun 2027 10:34:49.233             6.175          2039.625
        97   04 Jun 2027 10:34:56.082   04 Jun 2027 10:34:57.075             0.993           214.031
        98   04 Jun 2027 10:36:18.787   04 Jun 2027 10:36:24.754             5.967          2461.938
        99   04 Jun 2027 10:36:38.220   04 Jun 2027 10:36:38.909             0.689           344.500
       100   04 Jun 2027 10:36:43.797   04 Jun 2027 10:36:46.667             2.870           229.063
       101   04 Jun 2027 10:37:04.939   04 Jun 2027 10:37:05.703             0.764           371.781
       102   05 Jun 2027 04:31:36.355   05 Jun 2027 04:32:07.491            31.136         15568.000
       103   05 Jun 2027 04:32:25.911   05 Jun 2027 04:33:48.255            82.344         41172.000
       104   05 Jun 2027 04:34:53.045   05 Jun 2027 04:34:55.490             2.445          1222.500
       105   05 Jun 2027 05:54:58.737   05 Jun 2027 05:56:13.322            74.585         37292.500
       106   05 Jun 2027 07:31:30.525   05 Jun 2027 07:33:27.854           117.329         58664.500
       107   05 Jun 2027 07:34:35.258   05 Jun 2027 07:34:47.664            12.406          6203.000
       108   05 Jun 2027 09:06:40.714   05 Jun 2027 09:06:58.304            17.590          8156.500
       109   05 Jun 2027 09:08:03.385   05 Jun 2027 09:08:07.354             3.969          1984.500
       110   05 Jun 2027 09:08:10.926   05 Jun 2027 09:08:13.716             2.790           160.906
       111   05 Jun 2027 09:08:16.410   05 Jun 2027 09:08:16.587             0.177            68.719
       112   05 Jun 2027 09:09:35.255   05 Jun 2027 09:09:38.152             2.897          1194.906
       113   05 Jun 2027 09:11:56.282   05 Jun 2027 09:12:07.368            11.086          4316.562
       114   05 Jun 2027 09:12:57.050   05 Jun 2027 09:12:59.632             2.582          1291.000
       115   05 Jun 2027 09:13:14.067   05 Jun 2027 09:13:15.809             1.742           681.969
       116   05 Jun 2027 10:43:04.792   05 Jun 2027 10:43:19.125            14.333          6925.187
       117   05 Jun 2027 10:44:14.571   05 Jun 2027 10:44:23.186             8.615           242.437
       118   05 Jun 2027 10:45:13.651   05 Jun 2027 10:45:15.315             1.664           832.000
       119   05 Jun 2027 10:46:12.277   05 Jun 2027 10:46:17.633             5.356          1800.281
       120   05 Jun 2027 10:46:28.140   05 Jun 2027 10:46:33.355             5.215           164.094
       121   05 Jun 2027 10:46:53.856   05 Jun 2027 10:46:58.905             5.049           534.094
       122   05 Jun 2027 10:47:01.391   05 Jun 2027 10:47:01.936             0.545            77.687
       123   05 Jun 2027 10:47:38.987   05 Jun 2027 10:47:43.628             4.641          1137.313
       124   05 Jun 2027 10:48:36.230   05 Jun 2027 10:48:40.399             4.169          1515.031
       125   05 Jun 2027 10:48:57.139   05 Jun 2027 10:48:57.139             0.000             0.000
       126   06 Jun 2027 03:05:23.398   06 Jun 2027 03:05:30.316             6.918          3459.000
       127   06 Jun 2027 03:06:24.340   06 Jun 2027 03:06:58.968            34.628         17314.000
       128   06 Jun 2027 03:07:07.866   06 Jun 2027 03:07:19.973            12.107          6053.500
       129   06 Jun 2027 03:07:37.536   06 Jun 2027 03:07:44.664             7.128          3564.000
       130   06 Jun 2027 03:08:36.106   06 Jun 2027 03:08:38.326             2.220          1110.000
       131   06 Jun 2027 03:09:00.831   06 Jun 2027 03:09:03.652             2.821          1410.500
       132   06 Jun 2027 03:10:02.429   06 Jun 2027 03:10:08.115             5.686          2843.000
       133   06 Jun 2027 03:10:20.329   06 Jun 2027 03:10:25.974             5.645          2822.500
       134   06 Jun 2027 03:11:20.809   06 Jun 2027 03:11:26.026             5.217          2608.500
       135   06 Jun 2027 03:13:00.793   06 Jun 2027 03:13:06.241             5.448          2724.000
       136   06 Jun 2027 03:13:12.007   06 Jun 2027 03:13:22.055            10.048          5024.000
       137   06 Jun 2027 04:43:33.202   06 Jun 2027 04:44:12.093            38.891         19445.500
       138   06 Jun 2027 04:44:34.471   06 Jun 2027 04:45:06.623            32.152         16076.000
       139   06 Jun 2027 04:45:45.857   06 Jun 2027 04:45:52.776             6.919          3459.500
       140   06 Jun 2027 06:07:28.665   06 Jun 2027 06:08:39.026            70.361         35180.500
       141   06 Jun 2027 07:43:23.434   06 Jun 2027 07:45:03.009            99.575         48528.313
       142   06 Jun 2027 07:45:35.303   06 Jun 2027 07:45:35.303             0.000             0.000
       143   06 Jun 2027 07:45:59.677   06 Jun 2027 07:46:04.484             4.807          1746.000
       144   06 Jun 2027 07:46:24.531   06 Jun 2027 07:46:24.531             0.000             0.000
       145   06 Jun 2027 09:18:19.424   06 Jun 2027 09:18:29.755            10.331          5165.500
       146   06 Jun 2027 09:18:36.512   06 Jun 2027 09:18:39.733             3.221          1181.156
       147   06 Jun 2027 09:20:11.861   06 Jun 2027 09:20:18.508             6.647          2745.938
       148   06 Jun 2027 09:20:58.389   06 Jun 2027 09:21:05.045             6.656           850.125
       149   06 Jun 2027 09:21:17.550   06 Jun 2027 09:21:17.849             0.299            57.750
       150   06 Jun 2027 09:21:31.515   06 Jun 2027 09:21:32.083             0.568           177.594
       151   06 Jun 2027 09:24:57.348   06 Jun 2027 09:25:11.636            14.288          6359.687
       152   06 Jun 2027 09:25:17.818   06 Jun 2027 09:25:17.946             0.128            40.531
       153   06 Jun 2027 10:54:38.635   06 Jun 2027 10:54:55.273            16.638          6815.406
       154   06 Jun 2027 10:55:14.520   06 Jun 2027 10:55:18.639             4.119            41.969
       155   06 Jun 2027 10:57:03.739   06 Jun 2027 10:57:08.227             4.488          2244.000
       156   06 Jun 2027 10:57:33.299   06 Jun 2027 10:57:34.050             0.751           375.500
       157   06 Jun 2027 10:58:23.558   06 Jun 2027 10:58:28.527             4.969          2076.406
       158   06 Jun 2027 10:58:54.904   06 Jun 2027 10:58:55.538             0.634           317.000
       159   06 Jun 2027 10:59:43.533   06 Jun 2027 10:59:48.099             4.566          1686.250
       160   06 Jun 2027 11:00:16.196   06 Jun 2027 11:00:18.651             2.455           851.781
       161   06 Jun 2027 11:00:34.364   06 Jun 2027 11:00:35.364             1.000           276.187
       162   06 Jun 2027 11:01:00.435   06 Jun 2027 11:01:02.011             1.576           783.469
       163   07 Jun 2027 03:18:27.994   07 Jun 2027 03:19:58.432            90.438         45219.000
       164   07 Jun 2027 03:20:39.228   07 Jun 2027 03:20:39.228             0.000             0.000
       165   07 Jun 2027 03:20:44.126   07 Jun 2027 03:20:57.118            12.992          6496.000
       166   07 Jun 2027 03:24:56.889   07 Jun 2027 03:25:01.387             4.498          2249.000
       167   07 Jun 2027 03:25:12.647   07 Jun 2027 03:25:26.033            13.386          6693.000
       168   07 Jun 2027 04:44:16.957   07 Jun 2027 04:44:28.136            11.179          5589.500
       169   07 Jun 2027 04:55:29.200   07 Jun 2027 04:56:50.235            81.035         40517.500
       170   07 Jun 2027 06:18:05.978   07 Jun 2027 06:18:39.478            33.500         16750.000
       171   07 Jun 2027 06:19:20.147   07 Jun 2027 06:19:46.539            26.392         13196.000
       172   07 Jun 2027 06:22:23.562   07 Jun 2027 06:22:39.530            15.968          7984.000
       173   07 Jun 2027 07:53:41.575   07 Jun 2027 07:54:21.790            40.215         20107.500
       174   07 Jun 2027 07:55:07.811   07 Jun 2027 07:55:43.596            35.785         17472.593
       175   07 Jun 2027 07:55:59.323   07 Jun 2027 07:56:00.441             1.118           491.469
       176   07 Jun 2027 07:57:19.502   07 Jun 2027 07:57:24.680             5.178          2402.406
       177   07 Jun 2027 07:58:20.245   07 Jun 2027 07:58:23.828             3.583          1444.469
       178   07 Jun 2027 09:29:52.807   07 Jun 2027 09:29:58.543             5.736          2868.000
       179   07 Jun 2027 09:32:12.305   07 Jun 2027 09:32:31.124            18.819          6164.625
       180   07 Jun 2027 09:33:00.653   07 Jun 2027 09:33:03.469             2.816           123.406
       181   07 Jun 2027 09:34:01.647   07 Jun 2027 09:34:06.404             4.757          1818.062
       182   07 Jun 2027 09:34:26.809   07 Jun 2027 09:34:27.529             0.720           132.281
       183   07 Jun 2027 09:35:10.205   07 Jun 2027 09:35:12.345             2.140           987.656
       184   07 Jun 2027 09:37:09.413   07 Jun 2027 09:37:17.113             7.700          3127.781
       185   07 Jun 2027 11:06:58.613   07 Jun 2027 11:07:16.436            17.823          6874.219
       186   07 Jun 2027 11:08:35.425   07 Jun 2027 11:08:40.391             4.966          2396.750
       187   07 Jun 2027 11:09:00.853   07 Jun 2027 11:09:03.091             2.238           639.437
       188   07 Jun 2027 11:09:10.453   07 Jun 2027 11:09:11.427             0.974           230.062
       189   07 Jun 2027 11:09:26.318   07 Jun 2027 11:09:29.815             3.497           398.094
       190   07 Jun 2027 11:09:42.351   07 Jun 2027 11:09:42.440             0.089            44.500
       191   07 Jun 2027 11:10:37.344   07 Jun 2027 11:10:41.356             4.012          1903.625
       192   07 Jun 2027 11:11:14.014   07 Jun 2027 11:11:18.450             4.436           998.406
       193   07 Jun 2027 11:11:46.299   07 Jun 2027 11:11:50.458             4.159           870.281
       194   07 Jun 2027 11:12:57.093   07 Jun 2027 11:13:02.038             4.945          2082.344
       195   08 Jun 2027 03:30:57.499   08 Jun 2027 03:32:30.291            92.792         46396.000
       196   08 Jun 2027 03:32:56.811   08 Jun 2027 03:33:00.954             4.143          2071.500
       197   08 Jun 2027 03:35:06.657   08 Jun 2027 03:35:29.600            22.943         11471.500
       198   08 Jun 2027 03:36:14.991   08 Jun 2027 03:36:14.991             0.000             0.000
       199   08 Jun 2027 03:37:08.297   08 Jun 2027 03:37:38.392            30.095         15047.500
       200   08 Jun 2027 04:55:48.995   08 Jun 2027 04:56:08.754            19.759          9879.500
       201   08 Jun 2027 04:56:59.293   08 Jun 2027 04:56:59.293             0.000             0.000
       202   08 Jun 2027 05:07:31.795   08 Jun 2027 05:08:25.377            53.582         26791.000
       203   08 Jun 2027 05:08:37.446   08 Jun 2027 05:08:37.446             0.000             0.000
       204   08 Jun 2027 06:29:45.469   08 Jun 2027 06:30:55.341            69.872         34936.000
       205   08 Jun 2027 06:34:24.641   08 Jun 2027 06:34:24.641             0.000             0.000
       206   08 Jun 2027 06:34:31.461   08 Jun 2027 06:34:50.508            19.047          9523.500
       207   08 Jun 2027 08:04:47.982   08 Jun 2027 08:05:34.435            46.453         22973.750
       208   08 Jun 2027 08:06:18.439   08 Jun 2027 08:06:24.592             6.153          1164.562
       209   08 Jun 2027 08:07:08.637   08 Jun 2027 08:07:11.722             3.085          1323.406
       210   08 Jun 2027 08:07:31.830   08 Jun 2027 08:07:33.181             1.351           610.156
       211   08 Jun 2027 08:07:54.608   08 Jun 2027 08:07:57.642             3.034           281.844
       212   08 Jun 2027 08:09:32.139   08 Jun 2027 08:09:38.977             6.838          2562.094
       213   08 Jun 2027 08:09:47.300   08 Jun 2027 08:09:47.747             0.447           183.906
       214   08 Jun 2027 08:10:04.502   08 Jun 2027 08:10:08.137             3.635           448.875
       215   08 Jun 2027 08:10:22.258   08 Jun 2027 08:10:24.553             2.295           421.187
       216   08 Jun 2027 08:11:16.672   08 Jun 2027 08:11:18.466             1.794           897.000
       217   08 Jun 2027 08:12:44.685   08 Jun 2027 08:12:53.840             9.155          3224.063
       218   08 Jun 2027 08:12:55.817   08 Jun 2027 08:12:56.271             0.454            61.781
       219   08 Jun 2027 09:42:12.390   08 Jun 2027 09:42:22.028             9.638          4742.125
       220   08 Jun 2027 09:45:19.968   08 Jun 2027 09:45:19.968             0.000             0.000
       221   08 Jun 2027 09:45:40.976   08 Jun 2027 09:45:53.795            12.819          5472.062
       222   08 Jun 2027 09:46:05.504   08 Jun 2027 09:46:05.504             0.000             0.000
       223   08 Jun 2027 09:47:31.259   08 Jun 2027 09:47:39.486             8.227          3045.750
       224   08 Jun 2027 09:48:06.790   08 Jun 2027 09:48:09.203             2.413           851.937
       225   08 Jun 2027 09:48:23.224   08 Jun 2027 09:48:23.673             0.449           134.625
       226   08 Jun 2027 09:48:30.771   08 Jun 2027 09:48:33.957             3.186           221.813
       227   08 Jun 2027 09:49:05.980   08 Jun 2027 09:49:08.044             2.064           789.625
       228   08 Jun 2027 09:49:24.861   08 Jun 2027 09:49:30.635             5.774           497.750
       229   08 Jun 2027 11:19:00.228   08 Jun 2027 11:19:14.964            14.736          7048.938
       230   08 Jun 2027 11:19:57.771   08 Jun 2027 11:20:03.669             5.898          1337.719
       231   08 Jun 2027 11:20:19.175   08 Jun 2027 11:20:20.839             1.664            66.031
       232   08 Jun 2027 11:20:51.951   08 Jun 2027 11:21:00.894             8.943           847.438
       233   08 Jun 2027 11:21:13.346   08 Jun 2027 11:21:15.369             2.023           389.125
       234   08 Jun 2027 11:21:44.878   08 Jun 2027 11:21:45.735             0.857           385.531
       235   08 Jun 2027 11:22:49.127   08 Jun 2027 11:22:53.016             3.889          1851.781
       236   08 Jun 2027 11:23:13.589   08 Jun 2027 11:23:14.295             0.706           353.000
       237   08 Jun 2027 11:23:25.607   08 Jun 2027 11:23:26.692             1.085           542.500
       238   08 Jun 2027 11:24:31.313   08 Jun 2027 11:24:37.069             5.756          2057.781
       239   08 Jun 2027 11:25:01.294   08 Jun 2027 11:25:01.602             0.308           154.000
       240   08 Jun 2027 11:25:05.086   08 Jun 2027 11:25:07.972             2.886           666.969
       241   09 Jun 2027 03:42:58.314   09 Jun 2027 03:45:00.113           121.799         60899.500
       242   09 Jun 2027 03:47:12.464   09 Jun 2027 03:47:27.612            15.148          7574.000
       243   09 Jun 2027 03:49:56.738   09 Jun 2027 03:50:03.439             6.701          3350.500
       244   09 Jun 2027 05:07:20.305   09 Jun 2027 05:08:09.948            49.643         24821.500
       245   09 Jun 2027 05:19:33.414   09 Jun 2027 05:20:03.579            30.165         15082.500
       246   09 Jun 2027 06:41:28.402   09 Jun 2027 06:42:42.399            73.997         36998.500
       247   09 Jun 2027 06:43:38.202   09 Jun 2027 06:43:38.202             0.000             0.000
       248   09 Jun 2027 06:44:02.560   09 Jun 2027 06:44:12.167             9.607          4803.500
       249   09 Jun 2027 06:46:25.448   09 Jun 2027 06:46:25.448             0.000             0.000
       250   09 Jun 2027 08:16:16.623   09 Jun 2027 08:16:56.200            39.577         17019.625
       251   09 Jun 2027 08:18:06.052   09 Jun 2027 08:18:09.706             3.654          1809.594
       252   09 Jun 2027 08:18:44.660   09 Jun 2027 08:18:44.660             0.000             0.000
       253   09 Jun 2027 08:20:37.288   09 Jun 2027 08:20:46.372             9.084          4388.125
       254   09 Jun 2027 08:21:13.524   09 Jun 2027 08:21:16.511             2.987           810.219
       255   09 Jun 2027 08:21:29.673   09 Jun 2027 08:21:31.018             1.345           338.344
       256   09 Jun 2027 08:22:24.965   09 Jun 2027 08:22:27.708             2.743          1296.781
       257   09 Jun 2027 08:22:35.634   09 Jun 2027 08:22:37.135             1.501           247.687
       258   09 Jun 2027 08:23:01.489   09 Jun 2027 08:23:02.381             0.892           446.000
       259   09 Jun 2027 08:23:42.753   09 Jun 2027 08:23:48.071             5.318          1524.656
       260   09 Jun 2027 08:24:50.559   09 Jun 2027 08:24:53.436             2.877          1152.062
       261   09 Jun 2027 08:24:59.633   09 Jun 2027 08:25:00.739             1.106           139.031
       262   09 Jun 2027 09:54:06.509   09 Jun 2027 09:54:25.887            19.378          5985.125
       263   09 Jun 2027 09:56:11.374   09 Jun 2027 09:56:11.374             0.000             0.000
       264   09 Jun 2027 09:57:09.206   09 Jun 2027 09:57:19.103             9.897          4348.313
       265   09 Jun 2027 09:57:44.168   09 Jun 2027 09:57:47.403             3.235           783.281
       266   09 Jun 2027 09:58:18.191   09 Jun 2027 09:58:22.263             4.072           348.656
       267   09 Jun 2027 09:58:23.142   09 Jun 2027 09:58:24.856             1.714            26.937
       268   09 Jun 2027 09:59:03.833   09 Jun 2027 09:59:09.503             5.670          1218.031
       269   09 Jun 2027 09:59:32.698   09 Jun 2027 09:59:34.424             1.726           570.562
       270   09 Jun 2027 09:59:44.757   09 Jun 2027 09:59:45.416             0.659           322.906
       271   09 Jun 2027 10:00:04.864   09 Jun 2027 10:00:07.917             3.053           477.438
       272   09 Jun 2027 10:00:21.022   09 Jun 2027 10:00:23.155             2.133           226.125
       273   09 Jun 2027 10:00:59.915   09 Jun 2027 10:01:04.669             4.754          1055.844
       274   09 Jun 2027 11:30:51.010   09 Jun 2027 11:31:06.011            15.001          7173.875
       275   09 Jun 2027 11:31:41.161   09 Jun 2027 11:31:47.870             6.709          1080.937
       276   09 Jun 2027 11:32:34.257   09 Jun 2027 11:32:36.577             2.320          1011.062
       277   09 Jun 2027 11:33:01.639   09 Jun 2027 11:33:05.909             4.270           591.563
       278   09 Jun 2027 11:33:15.394   09 Jun 2027 11:33:15.993             0.599            69.781
       279   09 Jun 2027 11:33:22.531   09 Jun 2027 11:33:22.531             0.000             0.000
       280   09 Jun 2027 11:33:47.084   09 Jun 2027 11:33:49.982             2.898           849.906
       281   09 Jun 2027 11:34:44.605   09 Jun 2027 11:34:50.911             6.306          1706.969
       282   09 Jun 2027 11:35:14.328   09 Jun 2027 11:35:15.405             1.077           466.594
       283   09 Jun 2027 11:36:10.334   09 Jun 2027 11:36:17.157             6.823          1681.906
       284   09 Jun 2027 11:37:11.423   09 Jun 2027 11:37:17.637             6.214          1370.750
       285   09 Jun 2027 11:37:36.970   09 Jun 2027 11:37:37.070             0.100            50.000
       286   10 Jun 2027 03:55:19.485   10 Jun 2027 03:57:14.853           115.368         57684.000
       287   10 Jun 2027 03:58:25.295   10 Jun 2027 03:58:28.766             3.471          1735.500
       288   10 Jun 2027 03:59:06.043   10 Jun 2027 03:59:06.043             0.000             0.000
       289   10 Jun 2027 04:00:03.008   10 Jun 2027 04:00:05.806             2.798          1399.000
       290   10 Jun 2027 05:19:18.632   10 Jun 2027 05:20:44.636            86.004         43002.000
       291   10 Jun 2027 06:55:15.521   10 Jun 2027 06:57:07.118           111.597         55798.500
       292   10 Jun 2027 06:57:45.424   10 Jun 2027 06:57:45.424             0.000             0.000
       293   10 Jun 2027 08:29:04.906   10 Jun 2027 08:29:22.988            18.082          8111.875
       294   10 Jun 2027 08:30:09.411   10 Jun 2027 08:30:14.434             5.023          1431.094
       295   10 Jun 2027 08:30:33.445   10 Jun 2027 08:30:33.445             0.000             0.000
       296   10 Jun 2027 08:31:16.949   10 Jun 2027 08:31:20.508             3.559          1764.563
       297   10 Jun 2027 08:31:38.164   10 Jun 2027 08:31:41.476             3.312           301.719
       298   10 Jun 2027 08:32:53.549   10 Jun 2027 08:32:58.033             4.484           940.719
       299   10 Jun 2027 08:33:02.684   10 Jun 2027 08:33:05.173             2.489           145.344
       300   10 Jun 2027 08:33:16.746   10 Jun 2027 08:33:19.540             2.794           302.063
       301   10 Jun 2027 08:33:45.878   10 Jun 2027 08:33:46.188             0.310           155.000
       302   10 Jun 2027 08:35:30.287   10 Jun 2027 08:35:38.810             8.523          3539.812
       303   10 Jun 2027 08:36:53.505   10 Jun 2027 08:36:58.825             5.320          2227.500
       304   10 Jun 2027 08:37:12.506   10 Jun 2027 08:37:13.361             0.855           361.062
       305   10 Jun 2027 10:06:13.705   10 Jun 2027 10:06:28.349            14.644          6763.531
       306   10 Jun 2027 10:07:15.328   10 Jun 2027 10:07:17.514             2.186           752.125
       307   10 Jun 2027 10:07:31.153   10 Jun 2027 10:07:32.075             0.922           338.312
       308   10 Jun 2027 10:10:08.162   10 Jun 2027 10:10:16.310             8.148          3700.062
       309   10 Jun 2027 10:11:15.035   10 Jun 2027 10:11:17.185             2.150          1075.000
       310   10 Jun 2027 10:11:25.117   10 Jun 2027 10:11:29.072             3.955          1008.031
       311   10 Jun 2027 10:12:30.312   10 Jun 2027 10:12:35.731             5.419          1913.750
       312   10 Jun 2027 10:12:38.464   10 Jun 2027 10:12:42.369             3.905            85.406
       313   10 Jun 2027 10:13:10.835   10 Jun 2027 10:13:13.962             3.127           860.500
       314   10 Jun 2027 10:13:21.050   10 Jun 2027 10:13:24.669             3.619           221.500
       315   10 Jun 2027 11:43:16.516   10 Jun 2027 11:43:28.157            11.641          5820.500
       316   10 Jun 2027 11:43:41.714   10 Jun 2027 11:43:44.697             2.983          1250.656
       317   10 Jun 2027 11:44:36.907   10 Jun 2027 11:44:42.161             5.254           989.188
       318   10 Jun 2027 11:45:20.597   10 Jun 2027 11:45:21.623             1.026           409.187
       319   10 Jun 2027 11:46:02.717   10 Jun 2027 11:46:07.367             4.650          1284.187
       320   10 Jun 2027 11:46:28.787   10 Jun 2027 11:46:34.670             5.883           603.031
       321   10 Jun 2027 11:46:46.014   10 Jun 2027 11:46:48.145             2.131           354.500
       322   10 Jun 2027 11:47:01.255   10 Jun 2027 11:47:01.837             0.582           291.000
       323   10 Jun 2027 11:47:30.614   10 Jun 2027 11:47:37.448             6.834           981.875
       324   10 Jun 2027 11:48:54.597   10 Jun 2027 11:48:59.930             5.333          2410.906
       325   10 Jun 2027 11:49:03.351   10 Jun 2027 11:49:03.760             0.409           106.906
       326   10 Jun 2027 11:49:13.340   10 Jun 2027 11:49:18.206             4.866           299.375
       327   11 Jun 2027 04:07:51.056   11 Jun 2027 04:09:12.454            81.398         40699.000
       328   11 Jun 2027 04:09:22.262   11 Jun 2027 04:09:29.322             7.060          3530.000
       329   11 Jun 2027 04:10:05.539   11 Jun 2027 04:10:22.787            17.248          8624.000
       330   11 Jun 2027 04:10:35.592   11 Jun 2027 04:10:37.163             1.571           785.500
       331   11 Jun 2027 04:11:09.743   11 Jun 2027 04:11:20.523            10.780          5390.000
       332   11 Jun 2027 05:31:12.006   11 Jun 2027 05:32:27.437            75.431         37715.500
       333   11 Jun 2027 07:07:37.065   11 Jun 2027 07:09:50.405           133.340         66670.000
       334   11 Jun 2027 07:10:36.363   11 Jun 2027 07:10:36.363             0.000             0.000
       335   11 Jun 2027 08:41:25.314   11 Jun 2027 08:41:40.997            15.683          7834.532
       336   11 Jun 2027 08:43:05.270   11 Jun 2027 08:43:08.107             2.837          1389.500
       337   11 Jun 2027 08:44:02.867   11 Jun 2027 08:44:09.308             6.441          1711.250
       338   11 Jun 2027 08:44:25.452   11 Jun 2027 08:44:29.702             4.250           104.031
       339   11 Jun 2027 08:45:35.237   11 Jun 2027 08:45:41.985             6.748          1834.344
       340   11 Jun 2027 08:46:01.267   11 Jun 2027 08:46:03.793             2.526           452.063
       341   11 Jun 2027 08:46:32.011   11 Jun 2027 08:46:32.520             0.509           254.500
       342   11 Jun 2027 08:47:18.051   11 Jun 2027 08:47:18.051             0.000             0.000
       343   11 Jun 2027 08:48:01.702   11 Jun 2027 08:48:10.153             8.451          3409.969
       344   11 Jun 2027 08:48:12.633   11 Jun 2027 08:48:12.633             0.000             0.000
       345   11 Jun 2027 08:48:28.370   11 Jun 2027 08:48:30.214             1.844           555.969
       346   11 Jun 2027 08:49:25.568   11 Jun 2027 08:49:32.462             6.894          1415.844
       347   11 Jun 2027 10:18:40.187   11 Jun 2027 10:18:55.426            15.239          6235.000
       348   11 Jun 2027 10:19:10.998   11 Jun 2027 10:19:12.580             1.582             4.563
       349   11 Jun 2027 10:19:48.980   11 Jun 2027 10:19:52.157             3.177           313.656
       350   11 Jun 2027 10:20:36.210   11 Jun 2027 10:20:41.017             4.807          1053.938
       351   11 Jun 2027 10:21:52.323   11 Jun 2027 10:21:57.447             5.124          2182.813
       352   11 Jun 2027 10:23:26.830   11 Jun 2027 10:23:33.698             6.868          2083.500
       353   11 Jun 2027 10:23:55.726   11 Jun 2027 10:23:56.181             0.455           227.500
       354   11 Jun 2027 10:24:04.205   11 Jun 2027 10:24:06.937             2.732           623.844
       355   11 Jun 2027 10:25:12.363   11 Jun 2027 10:25:15.480             3.117          1558.500
       356   11 Jun 2027 10:25:19.295   11 Jun 2027 10:25:21.447             2.152           605.281
       357   11 Jun 2027 11:55:40.840   11 Jun 2027 11:55:56.463            15.623          7785.000
       358   11 Jun 2027 11:57:13.115   11 Jun 2027 11:57:14.780             1.665           832.500
       359   11 Jun 2027 11:57:24.555   11 Jun 2027 11:57:27.281             2.726          1363.000
       360   11 Jun 2027 11:58:23.686   11 Jun 2027 11:58:28.043             4.357          2010.281
       361   11 Jun 2027 11:58:41.300   11 Jun 2027 11:58:42.379             1.079           273.375
       362   11 Jun 2027 11:59:54.233   11 Jun 2027 11:59:57.970             3.737          1868.500
       363   12 Jun 2027 04:20:06.398   12 Jun 2027 04:21:21.579            75.181         37590.500
       364   12 Jun 2027 04:22:24.429   12 Jun 2027 04:22:36.943            12.514          6257.000
       365   12 Jun 2027 05:43:00.214   12 Jun 2027 05:44:28.599            88.385         44192.500
       366   12 Jun 2027 07:19:38.925   12 Jun 2027 07:21:44.849           125.924         62962.000
       367   12 Jun 2027 07:22:25.554   12 Jun 2027 07:22:38.748            13.194          6597.000
       368   12 Jun 2027 08:54:39.835   12 Jun 2027 08:54:57.409            17.574          8169.750
       369   12 Jun 2027 08:55:35.016   12 Jun 2027 08:55:37.444             2.428           967.031
       370   12 Jun 2027 08:55:57.486   12 Jun 2027 08:55:58.571             1.085           476.250
       371   12 Jun 2027 08:58:14.482   12 Jun 2027 08:58:24.919            10.437          3354.563
       372   12 Jun 2027 09:00:13.290   12 Jun 2027 09:00:13.290             0.000             0.000
       373   12 Jun 2027 09:00:39.946   12 Jun 2027 09:00:50.646            10.700          3899.656
       374   12 Jun 2027 09:01:16.162   12 Jun 2027 09:01:21.382             5.220           675.781
       375   12 Jun 2027 09:01:28.707   12 Jun 2027 09:01:31.024             2.317           228.906
       376   12 Jun 2027 10:30:49.692   12 Jun 2027 10:31:04.763            15.071          5876.875
       377   12 Jun 2027 10:31:27.479   12 Jun 2027 10:31:29.310             1.831           261.844
       378   12 Jun 2027 10:31:51.113   12 Jun 2027 10:31:52.014             0.901           158.562
       379   12 Jun 2027 10:32:49.659   12 Jun 2027 10:32:57.237             7.578          1577.406
       380   12 Jun 2027 10:33:16.261   12 Jun 2027 10:33:17.592             1.331           449.594
       381   12 Jun 2027 10:33:21.493   12 Jun 2027 10:33:23.335             1.842            97.719
       382   12 Jun 2027 10:33:55.240   12 Jun 2027 10:33:58.895             3.655           954.781
       383   12 Jun 2027 10:34:36.978   12 Jun 2027 10:34:38.157             1.179           558.625
       384   12 Jun 2027 10:35:09.995   12 Jun 2027 10:35:12.013             2.018           618.000
       385   12 Jun 2027 10:35:15.181   12 Jun 2027 10:35:17.840             2.659            67.781
       386   12 Jun 2027 10:35:38.187   12 Jun 2027 10:35:40.140             1.953           635.844
       387   12 Jun 2027 10:35:57.306   12 Jun 2027 10:35:58.011             0.705           274.937
       388   12 Jun 2027 10:36:01.794   12 Jun 2027 10:36:04.955             3.161            87.156
       389   12 Jun 2027 10:36:46.605   12 Jun 2027 10:36:49.256             2.651          1174.406
       390   12 Jun 2027 10:36:54.267   12 Jun 2027 10:36:57.446             3.179            95.938
       391   12 Jun 2027 10:36:57.963   12 Jun 2027 10:36:58.643             0.680            16.156
       392   12 Jun 2027 10:37:10.153   12 Jun 2027 10:37:12.628             2.475           359.688
       393   12 Jun 2027 10:37:18.414   12 Jun 2027 10:37:18.944             0.530            95.750
       394   13 Jun 2027 04:31:52.515   13 Jun 2027 04:32:24.490            31.975         15987.500
       395   13 Jun 2027 04:32:41.941   13 Jun 2027 04:33:48.275            66.334         33167.000
       396   13 Jun 2027 04:34:13.048   13 Jun 2027 04:34:14.763             1.715           857.500
       397   13 Jun 2027 04:35:11.868   13 Jun 2027 04:35:27.711            15.843          7921.500
       398   13 Jun 2027 05:55:14.538   13 Jun 2027 05:56:24.934            70.396         35198.000
       399   13 Jun 2027 05:58:12.590   13 Jun 2027 05:58:13.854             1.264           632.000
       400   13 Jun 2027 07:31:47.019   13 Jun 2027 07:33:58.906           131.887         65314.407
       401   13 Jun 2027 09:06:57.525   13 Jun 2027 09:07:13.644            16.119          7501.969
       402   13 Jun 2027 09:08:25.491   13 Jun 2027 09:08:28.806             3.315          1657.500
       403   13 Jun 2027 09:08:30.009   13 Jun 2027 09:08:30.996             0.987           493.500
       404   13 Jun 2027 09:08:48.803   13 Jun 2027 09:08:53.726             4.923           687.063
       405   13 Jun 2027 09:09:13.277   13 Jun 2027 09:09:15.253             1.976            41.500
       406   13 Jun 2027 09:10:10.989   13 Jun 2027 09:10:17.133             6.144          1605.625
       407   13 Jun 2027 09:12:13.422   13 Jun 2027 09:12:21.799             8.377          3634.031
       408   13 Jun 2027 09:12:38.563   13 Jun 2027 09:12:42.440             3.877           408.625
       409   13 Jun 2027 09:13:19.750   13 Jun 2027 09:13:24.492             4.742          1165.937
       410   13 Jun 2027 10:43:19.528   13 Jun 2027 10:43:34.409            14.881          5486.781
       411   13 Jun 2027 10:45:02.741   13 Jun 2027 10:45:07.578             4.837          2011.281
       412   13 Jun 2027 10:45:14.516   13 Jun 2027 10:45:17.224             2.708            84.219
       413   13 Jun 2027 10:45:50.617   13 Jun 2027 10:45:52.113             1.496           748.000
       414   13 Jun 2027 10:47:14.055   13 Jun 2027 10:47:19.972             5.917          2646.688
       415   13 Jun 2027 10:48:03.011   13 Jun 2027 10:48:12.126             9.115           669.063
       416   13 Jun 2027 10:48:39.178   13 Jun 2027 10:48:40.411             1.233           526.000
       417   13 Jun 2027 10:49:16.446   13 Jun 2027 10:49:21.477             5.031           874.469
