uniorb/output/strategy_1/Camera/Camera_KinoSat_110608.txt

KinoSat_110608
-------------------------
    Access    *     Start Time (UTCG)     *     Stop Time (UTCG)  *   Duration (s) *   Data (Mbytes)
         1   01 Jun 2027 03:15:12.391   01 Jun 2027 03:16:14.608            62.217         31108.500
         2   01 Jun 2027 03:16:26.047   01 Jun 2027 03:16:33.932             7.885          3942.500
         3   01 Jun 2027 03:17:18.269   01 Jun 2027 03:17:18.269             0.000             0.000
         4   01 Jun 2027 03:18:23.118   01 Jun 2027 03:18:30.523             7.405          3702.500
         5   01 Jun 2027 04:48:44.848   01 Jun 2027 04:50:29.232           104.384         52192.000
         6   01 Jun 2027 04:50:35.350   01 Jun 2027 04:50:44.825             9.475          4737.500
         7   01 Jun 2027 04:51:16.091   01 Jun 2027 04:51:16.091             0.000             0.000
         8   01 Jun 2027 04:52:21.077   01 Jun 2027 04:52:29.845             8.768          4384.000
         9   01 Jun 2027 04:54:30.482   01 Jun 2027 04:54:35.835             5.353          2676.500
        10   01 Jun 2027 04:55:29.141   01 Jun 2027 04:55:38.655             9.514          4757.000
        11   01 Jun 2027 04:56:14.753   01 Jun 2027 04:56:14.753             0.000             0.000
        12   01 Jun 2027 04:56:18.718   01 Jun 2027 04:56:23.844             5.126          2563.000
        13   01 Jun 2027 04:56:31.341   01 Jun 2027 04:56:43.168            11.827          5913.500
        14   01 Jun 2027 04:56:57.512   01 Jun 2027 04:56:57.872             0.360           180.000
        15   01 Jun 2027 04:57:18.073   01 Jun 2027 04:57:19.109             1.036           518.000
        16   01 Jun 2027 06:26:10.878   01 Jun 2027 06:28:04.534           113.656         56828.000
        17   01 Jun 2027 06:30:08.554   01 Jun 2027 06:30:16.562             8.008          4004.000
        18   01 Jun 2027 06:30:34.197   01 Jun 2027 06:30:43.963             9.766          4883.000
        19   01 Jun 2027 06:31:51.133   01 Jun 2027 06:31:55.895             4.762          2381.000
        20   01 Jun 2027 08:03:13.479   01 Jun 2027 08:05:22.596           129.117         64558.500
        21   01 Jun 2027 08:05:32.192   01 Jun 2027 08:05:35.677             3.485          1742.500
        22   01 Jun 2027 08:06:26.552   01 Jun 2027 08:06:32.463             5.911          2955.500
        23   01 Jun 2027 08:07:05.521   01 Jun 2027 08:07:08.848             3.327          1663.500
        24   01 Jun 2027 08:08:23.542   01 Jun 2027 08:08:28.407             4.865          2432.500
        25   01 Jun 2027 09:40:01.252   01 Jun 2027 09:41:28.647            87.395         43697.500
        26   01 Jun 2027 09:42:13.370   01 Jun 2027 09:42:40.119            26.749         13374.500
        27   01 Jun 2027 11:15:16.511   01 Jun 2027 11:15:19.874             3.363          1681.500
        28   01 Jun 2027 11:16:59.648   01 Jun 2027 11:19:19.824           140.176         70088.000
        29   02 Jun 2027 03:27:18.434   02 Jun 2027 03:27:36.199            17.765          8882.500
        30   02 Jun 2027 03:29:04.588   02 Jun 2027 03:29:21.143            16.555          8277.500
        31   02 Jun 2027 03:30:31.115   02 Jun 2027 03:30:42.111            10.996          5498.000
        32   02 Jun 2027 04:59:27.904   02 Jun 2027 04:59:37.959            10.055          5027.500
        33   02 Jun 2027 05:01:23.230   02 Jun 2027 05:03:18.017           114.787         57393.500
        34   02 Jun 2027 05:03:40.918   02 Jun 2027 05:03:48.965             8.047          4023.500
        35   02 Jun 2027 05:04:31.976   02 Jun 2027 05:04:50.970            18.994          9497.000
        36   02 Jun 2027 05:07:37.378   02 Jun 2027 05:07:38.395             1.017           508.500
        37   02 Jun 2027 05:08:02.206   02 Jun 2027 05:08:11.908             9.702          4851.000
        38   02 Jun 2027 05:08:28.529   02 Jun 2027 05:08:30.818             2.289          1144.500
        39   02 Jun 2027 05:08:46.428   02 Jun 2027 05:08:50.261             3.833          1916.500
        40   02 Jun 2027 06:38:21.995   02 Jun 2027 06:40:05.199           103.204         51602.000
        41   02 Jun 2027 06:41:10.672   02 Jun 2027 06:41:11.413             0.741           370.500
        42   02 Jun 2027 06:41:40.733   02 Jun 2027 06:42:02.068            21.335         10667.500
        43   02 Jun 2027 08:15:26.243   02 Jun 2027 08:17:41.303           135.060         67530.000
        44   02 Jun 2027 08:17:54.673   02 Jun 2027 08:18:17.468            22.795         11397.500
        45   02 Jun 2027 08:19:37.352   02 Jun 2027 08:19:45.718             8.366          4183.000
        46   02 Jun 2027 08:19:49.656   02 Jun 2027 08:19:51.598             1.942           971.000
        47   02 Jun 2027 09:52:04.822   02 Jun 2027 09:53:52.789           107.967         53983.500
        48   02 Jun 2027 09:54:41.369   02 Jun 2027 09:54:45.022             3.653          1826.500
        49   02 Jun 2027 09:56:44.897   02 Jun 2027 09:56:58.848            13.951          6975.500
        50   02 Jun 2027 11:30:24.251   02 Jun 2027 11:31:14.520            50.269         25134.500
        51   03 Jun 2027 03:39:25.976   03 Jun 2027 03:39:43.547            17.571          8785.500
        52   03 Jun 2027 03:41:22.449   03 Jun 2027 03:41:25.557             3.108          1554.000
        53   03 Jun 2027 03:42:55.607   03 Jun 2027 03:43:00.544             4.937          2468.500
        54   03 Jun 2027 05:14:33.640   03 Jun 2027 05:16:32.532           118.892         59446.000
        55   03 Jun 2027 05:17:30.281   03 Jun 2027 05:17:48.257            17.976          8988.000
        56   03 Jun 2027 05:18:07.266   03 Jun 2027 05:18:07.266             0.000             0.000
        57   03 Jun 2027 05:19:31.065   03 Jun 2027 05:19:50.490            19.425          9712.500
        58   03 Jun 2027 05:20:19.380   03 Jun 2027 05:20:19.380             0.000             0.000
        59   03 Jun 2027 05:21:07.729   03 Jun 2027 05:21:17.267             9.538          4769.000
        60   03 Jun 2027 06:50:55.254   03 Jun 2027 06:52:49.505           114.251         57125.500
        61   03 Jun 2027 06:53:14.191   03 Jun 2027 06:53:14.959             0.768           384.000
        62   03 Jun 2027 06:53:24.850   03 Jun 2027 06:53:43.525            18.675          9337.500
        63   03 Jun 2027 06:56:32.389   03 Jun 2027 06:56:39.199             6.810          3405.000
        64   03 Jun 2027 08:28:20.909   03 Jun 2027 08:30:52.057           151.148         75574.000
        65   03 Jun 2027 08:32:02.980   03 Jun 2027 08:32:09.692             6.712          3356.000
        66   03 Jun 2027 10:04:31.825   03 Jun 2027 10:05:53.907            82.082         41041.000
        67   03 Jun 2027 10:06:02.217   03 Jun 2027 10:06:04.784             2.567           753.469
        68   03 Jun 2027 10:07:26.949   03 Jun 2027 10:07:30.857             3.908          1954.000
        69   03 Jun 2027 10:07:37.937   03 Jun 2027 10:07:39.783             1.846           479.688
        70   04 Jun 2027 03:51:28.825   04 Jun 2027 03:52:04.944            36.119         18059.500
        71   04 Jun 2027 03:53:23.542   04 Jun 2027 03:53:24.404             0.862           431.000
        72   04 Jun 2027 03:53:26.590   04 Jun 2027 03:53:33.977             7.387          3693.500
        73   04 Jun 2027 03:54:22.306   04 Jun 2027 03:54:30.135             7.829          3914.500
        74   04 Jun 2027 05:26:40.492   04 Jun 2027 05:28:14.617            94.125         47062.500
        75   04 Jun 2027 05:28:42.868   04 Jun 2027 05:29:00.908            18.040          9020.000
        76   04 Jun 2027 05:29:31.297   04 Jun 2027 05:29:57.675            26.378         13189.000
        77   04 Jun 2027 05:32:26.707   04 Jun 2027 05:32:49.132            22.425         11212.500
        78   04 Jun 2027 05:33:17.847   04 Jun 2027 05:33:19.338             1.491           745.500
        79   04 Jun 2027 07:02:36.476   04 Jun 2027 07:04:00.226            83.750         41875.000
        80   04 Jun 2027 07:05:06.766   04 Jun 2027 07:05:58.315            51.549         25774.500
        81   04 Jun 2027 07:06:07.319   04 Jun 2027 07:06:09.363             2.044          1022.000
        82   04 Jun 2027 07:07:22.634   04 Jun 2027 07:07:25.555             2.921          1460.500
        83   04 Jun 2027 07:07:40.835   04 Jun 2027 07:07:57.195            16.360          8180.000
        84   04 Jun 2027 08:40:28.257   04 Jun 2027 08:41:14.465            46.208         22588.063
        85   04 Jun 2027 08:41:15.161   04 Jun 2027 08:41:17.934             2.773            21.750
        86   04 Jun 2027 08:42:07.212   04 Jun 2027 08:42:07.491             0.279           139.500
        87   04 Jun 2027 08:42:20.342   04 Jun 2027 08:42:27.538             7.196          1802.031
        88   04 Jun 2027 08:43:03.817   04 Jun 2027 08:43:09.722             5.905           913.562
        89   04 Jun 2027 08:43:24.569   04 Jun 2027 08:43:33.090             8.521           386.875
        90   04 Jun 2027 08:43:47.526   04 Jun 2027 08:43:50.942             3.416           451.125
        91   04 Jun 2027 08:43:58.297   04 Jun 2027 08:43:58.967             0.670           229.844
        92   04 Jun 2027 08:44:43.422   04 Jun 2027 08:44:47.469             4.047          1389.219
        93   04 Jun 2027 10:16:26.254   04 Jun 2027 10:16:45.098            18.844          9422.000
        94   04 Jun 2027 10:17:33.281   04 Jun 2027 10:17:37.331             4.050          2007.063
        95   04 Jun 2027 10:17:53.685   04 Jun 2027 10:17:54.177             0.492           246.000
        96   04 Jun 2027 10:19:18.514   04 Jun 2027 10:19:24.605             6.091          2817.875
        97   04 Jun 2027 10:19:34.234   04 Jun 2027 10:19:39.811             5.577           239.625
        98   04 Jun 2027 10:20:00.546   04 Jun 2027 10:20:01.694             1.148           525.031
        99   04 Jun 2027 10:20:44.690   04 Jun 2027 10:20:49.674             4.984          1251.938
       100   04 Jun 2027 10:20:56.629   04 Jun 2027 10:20:58.834             2.205            80.594
       101   04 Jun 2027 10:21:06.068   04 Jun 2027 10:21:07.048             0.980           226.063
       102   04 Jun 2027 10:21:16.127   04 Jun 2027 10:21:16.997             0.870           283.719
       103   05 Jun 2027 04:03:12.806   05 Jun 2027 04:04:17.531            64.725         32362.500
       104   05 Jun 2027 05:37:55.998   05 Jun 2027 05:40:25.376           149.378         74689.000
       105   05 Jun 2027 05:42:55.832   05 Jun 2027 05:43:07.958            12.126          6063.000
       106   05 Jun 2027 05:44:49.350   05 Jun 2027 05:44:49.442             0.092            46.000
       107   05 Jun 2027 05:45:22.853   05 Jun 2027 05:45:27.490             4.637          2318.500
       108   05 Jun 2027 07:14:42.012   05 Jun 2027 07:17:01.409           139.397         69698.500
       109   05 Jun 2027 07:18:31.151   05 Jun 2027 07:18:40.405             9.254          3907.406
       110   05 Jun 2027 07:19:56.937   05 Jun 2027 07:20:02.439             5.502          2281.594
       111   05 Jun 2027 07:20:21.740   05 Jun 2027 07:20:21.740             0.000             0.000
       112   05 Jun 2027 08:52:57.783   05 Jun 2027 08:53:26.094            28.311         13862.500
       113   05 Jun 2027 08:54:01.913   05 Jun 2027 08:54:06.103             4.190          1119.344
       114   05 Jun 2027 08:55:48.673   05 Jun 2027 08:55:54.749             6.076          3038.000
       115   05 Jun 2027 08:56:42.328   05 Jun 2027 08:56:46.846             4.518          1603.156
       116   05 Jun 2027 10:26:16.797   05 Jun 2027 10:26:35.792            18.995          8033.531
       117   05 Jun 2027 10:27:44.023   05 Jun 2027 10:27:44.895             0.872           436.000
       118   05 Jun 2027 10:28:13.795   05 Jun 2027 10:28:21.060             7.265          1709.750
       119   05 Jun 2027 10:28:37.548   05 Jun 2027 10:28:38.793             1.245           288.875
       120   05 Jun 2027 10:28:48.780   05 Jun 2027 10:29:00.625            11.845           185.375
       121   05 Jun 2027 10:30:23.616   05 Jun 2027 10:30:28.346             4.730          1617.156
       122   05 Jun 2027 10:31:37.197   05 Jun 2027 10:31:43.104             5.907          2024.187
       123   05 Jun 2027 10:31:58.572   05 Jun 2027 10:31:58.572             0.000             0.000
       124   05 Jun 2027 10:32:28.776   05 Jun 2027 10:32:31.245             2.469          1082.469
       125   05 Jun 2027 10:33:18.346   05 Jun 2027 10:33:25.501             7.155          1254.000
       126   05 Jun 2027 10:33:43.953   05 Jun 2027 10:33:45.603             1.650           248.062
       127   06 Jun 2027 04:13:13.705   06 Jun 2027 04:14:27.099            73.394         36697.000
       128   06 Jun 2027 04:15:34.405   06 Jun 2027 04:15:39.523             5.118          2559.000
       129   06 Jun 2027 04:17:26.416   06 Jun 2027 04:17:26.416             0.000             0.000
       130   06 Jun 2027 04:19:06.615   06 Jun 2027 04:19:27.030            20.415         10207.500
       131   06 Jun 2027 05:50:01.384   06 Jun 2027 05:52:20.065           138.681         69340.500
       132   06 Jun 2027 05:52:57.652   06 Jun 2027 05:53:04.883             7.231          3615.500
       133   06 Jun 2027 05:54:32.398   06 Jun 2027 05:54:34.106             1.708           854.000
       134   06 Jun 2027 05:56:23.501   06 Jun 2027 05:56:48.408            24.907         12453.500
       135   06 Jun 2027 07:27:02.397   06 Jun 2027 07:27:57.465            55.068         27534.000
       136   06 Jun 2027 07:28:26.470   06 Jun 2027 07:29:37.336            70.866         35433.000
       137   06 Jun 2027 07:31:11.200   06 Jun 2027 07:31:19.209             8.009          3708.563
       138   06 Jun 2027 07:31:51.091   06 Jun 2027 07:31:54.934             3.843           996.312
       139   06 Jun 2027 07:33:01.535   06 Jun 2027 07:33:08.453             6.918          1829.813
       140   06 Jun 2027 09:04:55.787   06 Jun 2027 09:05:21.150            25.363         12234.469
       141   06 Jun 2027 09:06:34.935   06 Jun 2027 09:06:43.549             8.614          2068.344
       142   06 Jun 2027 09:07:13.989   06 Jun 2027 09:07:20.647             6.658           951.250
       143   06 Jun 2027 09:07:56.777   06 Jun 2027 09:07:59.179             2.402          1129.062
       144   06 Jun 2027 09:08:03.300   06 Jun 2027 09:08:03.891             0.591           128.781
       145   06 Jun 2027 09:08:20.054   06 Jun 2027 09:08:24.927             4.873           412.406
       146   06 Jun 2027 09:08:41.995   06 Jun 2027 09:08:44.387             2.392           531.250
       147   06 Jun 2027 09:08:46.086   06 Jun 2027 09:08:47.201             1.115            53.094
       148   06 Jun 2027 10:38:12.809   06 Jun 2027 10:38:26.421            13.612          6613.125
       149   06 Jun 2027 10:39:11.201   06 Jun 2027 10:39:13.331             2.130           498.500
       150   06 Jun 2027 10:39:26.209   06 Jun 2027 10:39:26.637             0.428           136.594
       151   06 Jun 2027 10:39:48.226   06 Jun 2027 10:39:49.655             1.429           457.906
       152   06 Jun 2027 10:40:04.144   06 Jun 2027 10:40:06.745             2.601           439.875
       153   06 Jun 2027 10:40:23.637   06 Jun 2027 10:40:27.396             3.759            85.219
       154   06 Jun 2027 10:41:28.844   06 Jun 2027 10:41:35.013             6.169          1805.469
       155   06 Jun 2027 10:41:47.088   06 Jun 2027 10:41:47.088             0.000             0.000
       156   06 Jun 2027 10:42:21.330   06 Jun 2027 10:42:24.263             2.933          1447.406
       157   06 Jun 2027 10:42:40.317   06 Jun 2027 10:42:43.406             3.089           482.281
       158   06 Jun 2027 10:43:34.145   06 Jun 2027 10:43:39.765             5.620          1437.562
       159   06 Jun 2027 10:43:47.281   06 Jun 2027 10:43:48.472             1.191           234.875
       160   06 Jun 2027 10:44:15.424   06 Jun 2027 10:44:17.824             2.400           842.250
       161   06 Jun 2027 10:45:14.419   06 Jun 2027 10:45:22.015             7.596          1517.500
       162   06 Jun 2027 10:45:56.941   06 Jun 2027 10:45:59.874             2.933          1091.437
       163   07 Jun 2027 04:24:33.646   07 Jun 2027 04:26:17.994           104.348         52174.000
       164   07 Jun 2027 04:26:40.600   07 Jun 2027 04:26:42.178             1.578           789.000
       165   07 Jun 2027 04:26:44.170   07 Jun 2027 04:26:46.020             1.850           925.000
       166   07 Jun 2027 04:28:16.440   07 Jun 2027 04:28:31.158            14.718          7359.000
       167   07 Jun 2027 04:30:47.516   07 Jun 2027 04:30:47.516             0.000             0.000
       168   07 Jun 2027 04:32:36.629   07 Jun 2027 04:32:43.419             6.790          3395.000
       169   07 Jun 2027 04:32:52.876   07 Jun 2027 04:33:07.447            14.571          7285.500
       170   07 Jun 2027 06:02:08.338   07 Jun 2027 06:03:33.695            85.357         42678.500
       171   07 Jun 2027 06:03:41.875   07 Jun 2027 06:04:00.852            18.977          9488.500
       172   07 Jun 2027 06:04:21.612   07 Jun 2027 06:04:35.496            13.884          6942.000
       173   07 Jun 2027 06:06:35.171   07 Jun 2027 06:06:35.171             0.000             0.000
       174   07 Jun 2027 06:08:15.326   07 Jun 2027 06:08:46.048            30.722         15361.000
       175   07 Jun 2027 06:09:30.563   07 Jun 2027 06:09:30.794             0.231           115.500
       176   07 Jun 2027 07:38:51.605   07 Jun 2027 07:40:50.683           119.078         59539.000
       177   07 Jun 2027 07:41:55.335   07 Jun 2027 07:42:01.661             6.326          2177.468
       178   07 Jun 2027 07:43:06.531   07 Jun 2027 07:43:06.531             0.000             0.000
       179   07 Jun 2027 07:43:34.129   07 Jun 2027 07:43:39.211             5.082          2541.000
       180   07 Jun 2027 09:16:55.143   07 Jun 2027 09:17:24.112            28.969         12586.094
       181   07 Jun 2027 09:17:43.456   07 Jun 2027 09:17:46.705             3.249           384.313
       182   07 Jun 2027 09:18:19.238   07 Jun 2027 09:18:21.813             2.575           881.688
       183   07 Jun 2027 09:19:12.181   07 Jun 2027 09:19:12.181             0.000             0.000
       184   07 Jun 2027 09:19:44.221   07 Jun 2027 09:19:51.285             7.064          2162.000
       185   07 Jun 2027 09:19:58.933   07 Jun 2027 09:20:00.328             1.395           215.719
       186   07 Jun 2027 09:20:40.468   07 Jun 2027 09:20:42.191             1.723           797.125
       187   07 Jun 2027 10:50:38.790   07 Jun 2027 10:50:41.725             2.935          1303.437
       188   07 Jun 2027 10:51:54.725   07 Jun 2027 10:52:07.614            12.889          1795.313
       189   07 Jun 2027 10:53:01.549   07 Jun 2027 10:53:05.468             3.919          1587.844
       190   07 Jun 2027 10:53:11.943   07 Jun 2027 10:53:12.879             0.936           202.344
       191   07 Jun 2027 10:53:35.363   07 Jun 2027 10:53:37.407             2.044           280.312
       192   07 Jun 2027 10:54:18.637   07 Jun 2027 10:54:21.891             3.254          1217.906
       193   07 Jun 2027 10:55:20.028   07 Jun 2027 10:55:24.374             4.346          1795.562
       194   07 Jun 2027 10:55:42.309   07 Jun 2027 10:55:42.309             0.000             0.000
       195   07 Jun 2027 10:56:24.282   07 Jun 2027 10:56:30.379             6.097          1554.031
       196   07 Jun 2027 10:57:13.209   07 Jun 2027 10:57:14.138             0.929           464.500
       197   07 Jun 2027 10:57:18.192   07 Jun 2027 10:57:22.083             3.891           875.969
       198   08 Jun 2027 03:01:09.010   08 Jun 2027 03:01:17.334             8.324          4162.000
       199   08 Jun 2027 03:03:12.023   08 Jun 2027 03:03:12.716             0.693           346.500
       200   08 Jun 2027 03:03:30.336   08 Jun 2027 03:03:30.336             0.000             0.000
       201   08 Jun 2027 03:03:51.795   08 Jun 2027 03:04:00.416             8.621          4310.500
       202   08 Jun 2027 03:04:28.272   08 Jun 2027 03:04:39.668            11.396          5698.000
       203   08 Jun 2027 03:05:20.632   08 Jun 2027 03:05:28.425             7.793          3896.500
       204   08 Jun 2027 03:07:10.291   08 Jun 2027 03:07:10.291             0.000             0.000
       205   08 Jun 2027 04:36:03.552   08 Jun 2027 04:37:35.132            91.580         45790.000
       206   08 Jun 2027 04:38:27.737   08 Jun 2027 04:38:27.737             0.000             0.000
       207   08 Jun 2027 04:38:37.918   08 Jun 2027 04:38:39.645             1.727           863.500
       208   08 Jun 2027 04:38:59.736   08 Jun 2027 04:39:07.776             8.040          4020.000
       209   08 Jun 2027 04:40:08.290   08 Jun 2027 04:40:11.316             3.026          1513.000
       210   08 Jun 2027 04:40:34.058   08 Jun 2027 04:40:44.297            10.239          5119.500
       211   08 Jun 2027 04:41:00.151   08 Jun 2027 04:41:08.716             8.565          4282.500
       212   08 Jun 2027 04:44:57.759   08 Jun 2027 04:45:12.910            15.151          7575.500
       213   08 Jun 2027 06:14:03.711   08 Jun 2027 06:15:40.957            97.246         48623.000
       214   08 Jun 2027 06:18:34.501   08 Jun 2027 06:18:49.612            15.111          7555.500
       215   08 Jun 2027 06:19:14.374   08 Jun 2027 06:19:24.974            10.600          5300.000
       216   08 Jun 2027 06:20:56.711   08 Jun 2027 06:21:03.694             6.983          3491.500
       217   08 Jun 2027 07:50:58.644   08 Jun 2027 07:51:36.221            37.577         18788.500
       218   08 Jun 2027 07:53:06.185   08 Jun 2027 07:54:15.433            69.248         34576.906
       219   08 Jun 2027 07:54:42.575   08 Jun 2027 07:54:47.880             5.305           842.031
       220   08 Jun 2027 07:55:27.899   08 Jun 2027 07:55:28.586             0.687           343.500
       221   08 Jun 2027 07:56:45.279   08 Jun 2027 07:56:51.752             6.473          3230.844
       222   08 Jun 2027 09:28:32.618   08 Jun 2027 09:28:54.935            22.317         10788.469
       223   08 Jun 2027 09:29:39.805   08 Jun 2027 09:29:42.322             2.517          1258.500
       224   08 Jun 2027 09:29:52.283   08 Jun 2027 09:29:56.877             4.594           435.125
       225   08 Jun 2027 09:30:21.283   08 Jun 2027 09:30:28.422             7.139           751.719
       226   08 Jun 2027 09:31:22.158   08 Jun 2027 09:31:26.068             3.910          1613.187
       227   08 Jun 2027 09:31:41.835   08 Jun 2027 09:31:49.883             8.048           492.719
       228   08 Jun 2027 09:31:53.854   08 Jun 2027 09:31:54.623             0.769           124.094
       229   08 Jun 2027 09:32:42.466   08 Jun 2027 09:32:49.305             6.839          1495.094
       230   08 Jun 2027 11:02:55.684   08 Jun 2027 11:03:00.461             4.777          1832.812
       231   08 Jun 2027 11:03:15.597   08 Jun 2027 11:03:20.011             4.414           223.719
       232   08 Jun 2027 11:03:32.983   08 Jun 2027 11:03:35.534             2.551           190.781
       233   08 Jun 2027 11:04:07.265   08 Jun 2027 11:04:07.484             0.219           109.500
       234   08 Jun 2027 11:04:44.784   08 Jun 2027 11:04:51.090             6.306           564.469
       235   08 Jun 2027 11:05:12.430   08 Jun 2027 11:05:17.731             5.301           219.844
       236   08 Jun 2027 11:05:45.149   08 Jun 2027 11:05:47.882             2.733           856.813
       237   08 Jun 2027 11:06:15.389   08 Jun 2027 11:06:17.302             1.913           784.906
       238   08 Jun 2027 11:06:47.395   08 Jun 2027 11:06:47.395             0.000             0.000
       239   08 Jun 2027 11:07:35.220   08 Jun 2027 11:07:39.275             4.055          2027.500
       240   08 Jun 2027 11:07:51.067   08 Jun 2027 11:07:52.713             1.646           447.844
       241   08 Jun 2027 11:08:10.573   08 Jun 2027 11:08:13.752             3.179           429.875
       242   09 Jun 2027 03:15:26.785   09 Jun 2027 03:15:55.750            28.965         14482.500
       243   09 Jun 2027 03:17:25.355   09 Jun 2027 03:17:33.071             7.716          3858.000
       244   09 Jun 2027 03:18:32.385   09 Jun 2027 03:18:56.128            23.743         11871.500
       245   09 Jun 2027 04:48:59.700   09 Jun 2027 04:50:40.344           100.644         50322.000
       246   09 Jun 2027 04:50:46.025   09 Jun 2027 04:50:59.802            13.777          6888.500
       247   09 Jun 2027 04:51:53.677   09 Jun 2027 04:52:02.919             9.242          4621.000
       248   09 Jun 2027 04:56:13.076   09 Jun 2027 04:56:30.269            17.193          8596.500
       249   09 Jun 2027 04:57:32.662   09 Jun 2027 04:57:33.702             1.040           520.000
       250   09 Jun 2027 06:26:25.696   09 Jun 2027 06:28:14.395           108.699         54349.500
       251   09 Jun 2027 06:28:44.443   09 Jun 2027 06:28:50.647             6.204          3102.000
       252   09 Jun 2027 06:29:50.331   09 Jun 2027 06:29:59.672             9.341          4670.500
       253   09 Jun 2027 06:30:05.941   09 Jun 2027 06:30:09.285             3.344          1672.000
       254   09 Jun 2027 08:03:27.881   09 Jun 2027 08:04:37.797            69.916         31344.375
       255   09 Jun 2027 08:05:03.334   09 Jun 2027 08:05:06.346             3.012           795.625
       256   09 Jun 2027 08:05:45.980   09 Jun 2027 08:05:45.980             0.000             0.000
       257   09 Jun 2027 08:06:02.539   09 Jun 2027 08:06:08.847             6.308           853.031
       258   09 Jun 2027 08:06:48.219   09 Jun 2027 08:06:50.987             2.768           853.219
       259   09 Jun 2027 08:06:55.246   09 Jun 2027 08:06:55.335             0.089            44.500
       260   09 Jun 2027 08:07:24.239   09 Jun 2027 08:07:27.651             3.412           928.157
       261   09 Jun 2027 08:07:55.592   09 Jun 2027 08:07:57.002             1.410           705.000
       262   09 Jun 2027 08:08:38.277   09 Jun 2027 08:08:38.277             0.000             0.000
       263   09 Jun 2027 08:08:42.901   09 Jun 2027 08:08:51.350             8.449          1516.312
       264   09 Jun 2027 09:40:16.365   09 Jun 2027 09:40:37.251            20.886          8143.937
       265   09 Jun 2027 09:41:21.074   09 Jun 2027 09:41:24.906             3.832          1369.469
       266   09 Jun 2027 09:41:53.685   09 Jun 2027 09:41:56.763             3.078           805.281
       267   09 Jun 2027 09:42:17.997   09 Jun 2027 09:42:19.479             1.482           663.563
       268   09 Jun 2027 09:42:44.290   09 Jun 2027 09:42:48.171             3.881           739.094
       269   09 Jun 2027 09:44:01.548   09 Jun 2027 09:44:06.094             4.546          2079.031
       270   09 Jun 2027 09:44:14.789   09 Jun 2027 09:44:18.129             3.340           218.875
       271   09 Jun 2027 09:44:39.923   09 Jun 2027 09:44:41.581             1.658           681.062
       272   09 Jun 2027 09:44:46.095   09 Jun 2027 09:44:49.382             3.287           141.062
       273   09 Jun 2027 11:15:31.953   09 Jun 2027 11:15:34.125             2.172          1086.000
       274   09 Jun 2027 11:17:18.699   09 Jun 2027 11:17:23.041             4.342          1222.656
       275   09 Jun 2027 11:17:34.541   09 Jun 2027 11:17:37.667             3.126           359.375
       276   09 Jun 2027 11:17:48.801   09 Jun 2027 11:17:51.402             2.601           171.969
       277   09 Jun 2027 11:18:03.403   09 Jun 2027 11:18:03.403             0.000             0.000
       278   09 Jun 2027 11:18:20.806   09 Jun 2027 11:18:22.969             2.163           908.781
       279   09 Jun 2027 11:18:39.422   09 Jun 2027 11:18:42.744             3.322           313.406
       280   09 Jun 2027 11:19:45.812   09 Jun 2027 11:19:51.708             5.896          1970.875
       281   10 Jun 2027 03:27:33.122   10 Jun 2027 03:28:19.188            46.066         23033.000
       282   10 Jun 2027 03:29:21.048   10 Jun 2027 03:29:21.048             0.000             0.000
       283   10 Jun 2027 03:29:35.895   10 Jun 2027 03:29:38.613             2.718          1359.000
       284   10 Jun 2027 04:59:42.756   10 Jun 2027 04:59:51.637             8.881          4440.500
       285   10 Jun 2027 05:01:38.377   10 Jun 2027 05:01:50.633            12.256          6128.000
       286   10 Jun 2027 05:01:58.245   10 Jun 2027 05:03:55.406           117.161         58580.500
       287   10 Jun 2027 05:04:39.663   10 Jun 2027 05:04:39.663             0.000             0.000
       288   10 Jun 2027 05:04:49.375   10 Jun 2027 05:05:00.697            11.322          5661.000
       289   10 Jun 2027 05:05:47.019   10 Jun 2027 05:05:59.433            12.414          6207.000
       290   10 Jun 2027 05:07:51.078   10 Jun 2027 05:07:53.422             2.344          1172.000
       291   10 Jun 2027 05:09:28.231   10 Jun 2027 05:09:28.389             0.158            79.000
       292   10 Jun 2027 06:38:36.590   10 Jun 2027 06:40:10.398            93.808         46904.000
       293   10 Jun 2027 06:40:57.942   10 Jun 2027 06:41:16.642            18.700          9350.000
       294   10 Jun 2027 06:42:52.256   10 Jun 2027 06:43:00.862             8.606          4303.000
       295   10 Jun 2027 08:15:42.736   10 Jun 2027 08:16:31.046            48.310         23614.125
       296   10 Jun 2027 08:16:56.249   10 Jun 2027 08:16:59.055             2.806           547.594
       297   10 Jun 2027 08:17:23.849   10 Jun 2027 08:17:27.757             3.908           774.812
       298   10 Jun 2027 08:18:24.381   10 Jun 2027 08:18:31.813             7.432          1255.500
       299   10 Jun 2027 08:18:47.288   10 Jun 2027 08:18:50.869             3.581           483.594
       300   10 Jun 2027 08:20:05.038   10 Jun 2027 08:20:09.694             4.656          2317.781
       301   10 Jun 2027 08:20:10.411   10 Jun 2027 08:20:10.889             0.478            17.656
       302   10 Jun 2027 08:20:30.895   10 Jun 2027 08:20:32.020             1.125           562.500
       303   10 Jun 2027 09:52:19.549   10 Jun 2027 09:52:39.364            19.815          8903.594
       304   10 Jun 2027 09:53:45.487   10 Jun 2027 09:53:51.356             5.869          1641.750
       305   10 Jun 2027 09:54:00.032   10 Jun 2027 09:54:00.032             0.000             0.000
       306   10 Jun 2027 09:54:35.529   10 Jun 2027 09:54:38.997             3.468          1260.656
       307   10 Jun 2027 09:54:52.021   10 Jun 2027 09:54:56.258             4.237           407.000
       308   10 Jun 2027 09:55:00.955   10 Jun 2027 09:55:01.340             0.385            30.844
       309   10 Jun 2027 09:55:28.424   10 Jun 2027 09:55:34.350             5.926           838.937
       310   10 Jun 2027 09:55:47.460   10 Jun 2027 09:55:48.519             1.059           398.969
       311   10 Jun 2027 09:56:05.891   10 Jun 2027 09:56:10.184             4.293           478.250
       312   10 Jun 2027 09:56:59.509   10 Jun 2027 09:57:04.314             4.805           882.375
       313   10 Jun 2027 11:30:38.751   10 Jun 2027 11:30:43.720             4.969          2405.313
       314   10 Jun 2027 11:30:59.345   10 Jun 2027 11:31:07.962             8.617           226.625
       315   11 Jun 2027 03:39:40.647   11 Jun 2027 03:40:09.868            29.221         14610.500
       316   11 Jun 2027 03:41:07.943   11 Jun 2027 03:41:07.943             0.000             0.000
       317   11 Jun 2027 05:14:48.535   11 Jun 2027 05:17:18.069           149.534         74767.000
       318   11 Jun 2027 05:20:34.886   11 Jun 2027 05:20:34.886             0.000             0.000
       319   11 Jun 2027 05:21:10.267   11 Jun 2027 05:21:31.671            21.404         10702.000
       320   11 Jun 2027 06:51:10.193   11 Jun 2027 06:52:29.722            79.529         39764.500
       321   11 Jun 2027 06:52:52.337   11 Jun 2027 06:53:19.462            27.125         13562.500
       322   11 Jun 2027 06:54:09.548   11 Jun 2027 06:54:30.357            20.809         10404.500
       323   11 Jun 2027 06:55:26.219   11 Jun 2027 06:55:31.739             5.520          2760.000
       324   11 Jun 2027 06:55:49.165   11 Jun 2027 06:55:59.024             9.859          4929.500
       325   11 Jun 2027 06:56:16.230   11 Jun 2027 06:56:25.483             9.253          4626.500
       326   11 Jun 2027 08:28:35.396   11 Jun 2027 08:29:23.200            47.804         21739.187
       327   11 Jun 2027 08:29:40.383   11 Jun 2027 08:29:40.383             0.000             0.000
       328   11 Jun 2027 08:29:48.851   11 Jun 2027 08:29:55.191             6.340           731.375
       329   11 Jun 2027 08:30:54.083   11 Jun 2027 08:30:58.900             4.817          1610.875
       330   11 Jun 2027 08:31:10.043   11 Jun 2027 08:31:10.396             0.353           176.500
       331   11 Jun 2027 08:31:19.408   11 Jun 2027 08:31:21.897             2.489           284.844
       332   11 Jun 2027 08:32:24.206   11 Jun 2027 08:32:24.206             0.000             0.000
       333   11 Jun 2027 08:32:51.629   11 Jun 2027 08:32:58.699             7.070          2227.813
       334   11 Jun 2027 10:04:46.335   11 Jun 2027 10:05:07.777            21.442          8280.781
       335   11 Jun 2027 10:05:46.900   11 Jun 2027 10:05:49.642             2.742          1206.406
       336   11 Jun 2027 10:06:58.064   11 Jun 2027 10:07:09.700            11.636          2138.188
       337   11 Jun 2027 10:07:35.027   11 Jun 2027 10:07:36.970             1.943           633.219
       338   11 Jun 2027 10:07:49.630   11 Jun 2027 10:07:52.650             3.020           121.750
       339   11 Jun 2027 10:08:23.377   11 Jun 2027 10:08:26.969             3.592           916.344
       340   12 Jun 2027 03:51:43.285   12 Jun 2027 03:52:09.977            26.692         13346.000
       341   12 Jun 2027 03:53:39.730   12 Jun 2027 03:54:36.688            56.958         28479.000
       342   12 Jun 2027 05:26:55.435   12 Jun 2027 05:28:44.840           109.405         54702.500
       343   12 Jun 2027 05:30:13.032   12 Jun 2027 05:30:13.032             0.000             0.000
       344   12 Jun 2027 05:31:54.674   12 Jun 2027 05:32:16.825            22.151         11075.500
       345   12 Jun 2027 05:33:14.362   12 Jun 2027 05:33:34.182            19.820          9910.000
       346   12 Jun 2027 07:02:50.798   12 Jun 2027 07:05:00.478           129.680         64415.375
       347   12 Jun 2027 07:06:13.013   12 Jun 2027 07:06:17.621             4.608          2266.719
       348   12 Jun 2027 07:07:37.203   12 Jun 2027 07:07:37.203             0.000             0.000
       349   12 Jun 2027 08:40:43.233   12 Jun 2027 08:41:13.612            30.379         13812.219
       350   12 Jun 2027 08:41:31.186   12 Jun 2027 08:41:33.444             2.258            67.031
       351   12 Jun 2027 08:42:50.144   12 Jun 2027 08:42:57.777             7.633          2245.719
       352   12 Jun 2027 08:43:19.911   12 Jun 2027 08:43:25.363             5.452           691.687
       353   12 Jun 2027 10:16:40.740   12 Jun 2027 10:16:59.741            19.001          7945.656
       354   12 Jun 2027 10:17:48.133   12 Jun 2027 10:17:50.828             2.695          1347.500
       355   12 Jun 2027 10:17:58.415   12 Jun 2027 10:17:58.415             0.000             0.000
       356   12 Jun 2027 10:18:37.159   12 Jun 2027 10:18:44.018             6.859          1611.094
       357   12 Jun 2027 10:18:55.076   12 Jun 2027 10:18:56.971             1.895            32.500
       358   12 Jun 2027 10:19:22.375   12 Jun 2027 10:19:25.095             2.720           628.469
       359   12 Jun 2027 10:19:40.851   12 Jun 2027 10:19:42.571             1.720           492.375
       360   12 Jun 2027 10:20:16.482   12 Jun 2027 10:20:17.225             0.743           259.531
       361   12 Jun 2027 10:21:33.423   12 Jun 2027 10:21:36.714             3.291          1431.500
       362   12 Jun 2027 10:21:48.189   12 Jun 2027 10:21:48.281             0.092            46.000
       363   13 Jun 2027 04:03:27.062   13 Jun 2027 04:04:11.531            44.469         22234.500
       364   13 Jun 2027 04:06:48.564   13 Jun 2027 04:06:57.195             8.631          4315.500
       365   13 Jun 2027 04:07:36.925   13 Jun 2027 04:07:42.924             5.999          2999.500
       366   13 Jun 2027 05:38:10.365   13 Jun 2027 05:39:58.774           108.409         54204.500
       367   13 Jun 2027 05:40:32.373   13 Jun 2027 05:41:05.615            33.242         16621.000
       368   13 Jun 2027 05:42:02.448   13 Jun 2027 05:42:06.316             3.868          1934.000
       369   13 Jun 2027 05:43:10.756   13 Jun 2027 05:43:23.586            12.830          6415.000
       370   13 Jun 2027 05:45:03.824   13 Jun 2027 05:45:04.079             0.255           127.500
       371   13 Jun 2027 05:45:37.558   13 Jun 2027 05:45:42.204             4.646          2323.000
       372   13 Jun 2027 07:14:56.739   13 Jun 2027 07:17:22.747           146.008         73004.000
       373   13 Jun 2027 07:19:34.414   13 Jun 2027 07:19:41.829             7.415          3707.500
       374   13 Jun 2027 07:20:03.106   13 Jun 2027 07:20:09.980             6.874          2715.281
       375   13 Jun 2027 08:53:12.313   13 Jun 2027 08:53:40.474            28.161         14080.500
       376   13 Jun 2027 08:54:20.535   13 Jun 2027 08:54:25.717             5.182          2081.750
       377   13 Jun 2027 08:54:43.583   13 Jun 2027 08:54:45.432             1.849           337.406
       378   13 Jun 2027 08:55:12.587   13 Jun 2027 08:55:16.026             3.439           703.125
       379   13 Jun 2027 08:55:58.262   13 Jun 2027 08:56:01.863             3.601           679.187
       380   13 Jun 2027 08:56:59.213   13 Jun 2027 08:57:07.383             8.170          1727.344
       381   13 Jun 2027 10:26:31.052   13 Jun 2027 10:26:44.931            13.879          6656.813
       382   13 Jun 2027 10:28:27.544   13 Jun 2027 10:28:34.874             7.330           814.094
       383   13 Jun 2027 10:29:47.214   13 Jun 2027 10:29:51.393             4.179          1969.313
       384   13 Jun 2027 10:30:18.313   13 Jun 2027 10:30:19.670             1.357           678.500
       385   13 Jun 2027 10:30:29.445   13 Jun 2027 10:30:31.047             1.602           377.844
       386   13 Jun 2027 10:31:53.730   13 Jun 2027 10:32:00.718             6.988          2583.844
       387   13 Jun 2027 10:32:13.505   13 Jun 2027 10:32:15.030             1.525           113.625
       388   13 Jun 2027 10:33:07.231   13 Jun 2027 10:33:17.409            10.178          1000.187
