uniorb/output/strategy_4/Drop/Drop_KinoSat_111008.txt

KinoSat_111008
-------------------------
    Access    *     Start Time (UTCG)     *     Stop Time (UTCG)  *   Duration (s)        *       Station  *  Data (Mbytes)
         1   01 Jun 2027 03:00:38.155   01 Jun 2027 03:01:28.763            50.608                Anadyr1          1581.500
         2   01 Jun 2027 03:01:28.763   01 Jun 2027 03:02:40.007            71.244                Anadyr2          2226.375
         3   01 Jun 2027 03:11:58.720   01 Jun 2027 03:12:10.684            11.964              Murmansk1           373.875
         4   01 Jun 2027 03:12:13.803   01 Jun 2027 03:12:48.451            34.648                Norilsk          1082.750
         5   01 Jun 2027 03:12:53.762   01 Jun 2027 03:13:15.174            21.412                 Moscow           669.125
         6   01 Jun 2027 03:13:30.123   01 Jun 2027 03:15:36.266           126.143              Murmansk2          3941.969
         7   01 Jun 2027 03:15:46.102   01 Jun 2027 03:15:56.727            10.625              Murmansk2           332.031
         8   01 Jun 2027 03:18:32.837   01 Jun 2027 03:19:37.018            64.181                 Moscow          2005.656
         9   01 Jun 2027 03:32:47.829   01 Jun 2027 03:33:29.735            41.906               CapeTown          1309.562
        10   01 Jun 2027 04:34:25.139   01 Jun 2027 04:36:01.518            96.379                Anadyr1          3011.844
        11   01 Jun 2027 04:36:10.886   01 Jun 2027 04:36:29.467            18.581               Magadan2           580.656
        12   01 Jun 2027 04:36:29.467   01 Jun 2027 04:37:01.722            32.255               Magadan1          1007.969
        13   01 Jun 2027 04:37:04.579   01 Jun 2027 04:37:23.983            19.404                Norilsk           606.375
        14   01 Jun 2027 04:37:24.342   01 Jun 2027 04:38:39.359            75.017                Anadyr1          2344.281
        15   01 Jun 2027 04:38:39.359   01 Jun 2027 04:38:42.255             2.896                Anadyr2            90.500
        16   01 Jun 2027 04:39:22.195   01 Jun 2027 04:41:05.519           103.324                Anadyr1          3228.875
        17   01 Jun 2027 06:11:57.484   01 Jun 2027 06:13:22.381            84.897                Irkutsk          2653.031
        18   01 Jun 2027 06:13:38.934   01 Jun 2027 06:16:07.617           148.683                Anadyr2          4646.344
        19   01 Jun 2027 06:16:49.682   01 Jun 2027 06:16:53.063             3.381               Magadan1           105.656
        20   01 Jun 2027 06:52:44.009   01 Jun 2027 06:54:03.373            79.364            RioGallegos          2480.125
        21   01 Jun 2027 07:47:08.315   01 Jun 2027 07:47:50.914            42.599               Magadan2          1331.219
        22   01 Jun 2027 07:48:16.008   01 Jun 2027 07:51:58.036           222.028               Magadan1          6938.375
        23   01 Jun 2027 07:52:02.438   01 Jun 2027 07:52:54.269            51.831                Novosib          1619.719
        24   01 Jun 2027 08:28:46.572   01 Jun 2027 08:29:12.417            25.845            RioGallegos           807.656
        25   01 Jun 2027 09:02:25.946   01 Jun 2027 09:03:28.743            62.797                Sumatra          1962.406
        26   01 Jun 2027 09:04:54.291   01 Jun 2027 09:06:13.800            79.509                Sumatra          2484.656
        27   01 Jun 2027 09:14:38.853   01 Jun 2027 09:15:58.157            79.304                  Delhi          2478.250
        28   01 Jun 2027 09:24:34.323   01 Jun 2027 09:25:20.941            46.618                Novosib          1456.812
        29   01 Jun 2027 09:25:41.871   01 Jun 2027 09:26:09.664            27.793                Irkutsk           868.531
        30   01 Jun 2027 09:26:20.654   01 Jun 2027 09:28:31.502           130.848                Irkutsk          4089.000
        31   01 Jun 2027 11:02:50.213   01 Jun 2027 11:03:04.229            14.016              Murmansk1           438.000
        32   01 Jun 2027 11:03:13.363   01 Jun 2027 11:06:33.547           200.184                 Moscow          6255.750
        33   01 Jun 2027 12:26:04.453   01 Jun 2027 12:26:51.128            46.675                  Delhi          1458.594
        34   01 Jun 2027 12:27:02.153   01 Jun 2027 12:29:26.833           144.680                  Delhi          4521.250
        35   01 Jun 2027 12:30:59.030   01 Jun 2027 12:34:08.440           189.410                 Moscow          5919.062
        36   01 Jun 2027 12:34:15.911   01 Jun 2027 12:36:06.577           110.666              Murmansk2          3458.312
        37   01 Jun 2027 12:36:06.577   01 Jun 2027 12:36:48.876            42.299              Murmansk1          1321.844
        38   01 Jun 2027 13:46:36.745   01 Jun 2027 13:49:08.991           152.246               CapeTown          4757.688
        39   01 Jun 2027 13:52:56.207   01 Jun 2027 13:54:12.188            75.981               CapeTown          2374.406
        40   01 Jun 2027 14:10:52.962   01 Jun 2027 14:12:08.200            75.238              Murmansk2          2351.188
        41   01 Jun 2027 14:12:09.902   01 Jun 2027 14:13:34.988            85.086              Murmansk1          2658.937
        42   01 Jun 2027 14:25:38.738   01 Jun 2027 14:27:40.277           121.539                Anadyr2          3798.094
        43   01 Jun 2027 14:27:58.398   01 Jun 2027 14:29:16.101            77.703                Anadyr1          2428.219
        44   01 Jun 2027 14:31:14.475   01 Jun 2027 14:31:47.369            32.894                Anadyr2          1027.937
        45   01 Jun 2027 15:23:29.442   01 Jun 2027 15:24:22.864            53.422               CapeTown          1669.438
        46   01 Jun 2027 15:49:35.090   01 Jun 2027 15:50:38.740            63.650              Murmansk2          1989.062
        47   01 Jun 2027 15:51:42.231   01 Jun 2027 15:52:13.418            31.187              Murmansk1           974.594
        48   01 Jun 2027 15:53:15.797   01 Jun 2027 15:54:08.668            52.871              Murmansk2          1652.219
        49   01 Jun 2027 16:00:55.654   01 Jun 2027 16:03:15.785           140.131                Anadyr1          4379.094
        50   01 Jun 2027 16:03:31.080   01 Jun 2027 16:03:31.951             0.871                Anadyr1            27.219
        51   01 Jun 2027 16:05:17.944   01 Jun 2027 16:07:26.397           128.453               Magadan1          4014.156
        52   01 Jun 2027 16:07:26.397   01 Jun 2027 16:08:05.928            39.531               Magadan2          1235.344
        53   01 Jun 2027 17:36:48.052   01 Jun 2027 17:39:25.743           157.691                Anadyr2          4927.844
        54   01 Jun 2027 17:39:27.328   01 Jun 2027 17:40:47.448            80.120                Anadyr1          2503.750
        55   01 Jun 2027 17:40:54.481   01 Jun 2027 17:43:55.732           181.251               Magadan2          5664.094
        56   01 Jun 2027 17:45:03.172   01 Jun 2027 17:45:16.163            12.991               Magadan2           405.969
        57   01 Jun 2027 19:12:41.732   01 Jun 2027 19:14:34.573           112.841                Anadyr1          3526.281
        58   01 Jun 2027 19:14:51.165   01 Jun 2027 19:16:36.952           105.787                Anadyr2          3305.844
        59   01 Jun 2027 19:17:00.542   01 Jun 2027 19:18:30.939            90.397               Magadan1          2824.906
        60   01 Jun 2027 19:18:30.939   01 Jun 2027 19:19:37.431            66.492               Magadan2          2077.875
        61   01 Jun 2027 19:19:55.200   01 Jun 2027 19:20:52.961            57.761               Magadan2          1805.031
        62   01 Jun 2027 19:22:09.003   01 Jun 2027 19:23:52.138           103.135                Irkutsk          3222.969
        63   01 Jun 2027 20:07:01.843   01 Jun 2027 20:09:09.671           127.828            RioGallegos          3994.625
        64   01 Jun 2027 20:50:16.228   01 Jun 2027 20:50:22.101             5.873                Anadyr1           183.531
        65   01 Jun 2027 20:50:33.248   01 Jun 2027 20:53:14.841           161.593                Norilsk          5049.781
        66   01 Jun 2027 20:53:15.381   01 Jun 2027 20:53:51.357            35.976               Magadan1          1124.250
        67   01 Jun 2027 20:54:00.359   01 Jun 2027 20:54:32.151            31.792                Norilsk           993.500
        68   01 Jun 2027 20:54:39.629   01 Jun 2027 20:56:11.688            92.059                Irkutsk          2876.844
        69   01 Jun 2027 20:56:13.395   01 Jun 2027 20:57:57.474           104.079                Novosib          3252.469
        70   01 Jun 2027 21:08:21.383   01 Jun 2027 21:11:18.613           177.230                Sumatra          5538.438
        71   01 Jun 2027 22:26:30.975   01 Jun 2027 22:26:47.460            16.485                Norilsk           515.156
        72   01 Jun 2027 22:27:08.197   01 Jun 2027 22:27:47.481            39.284               Magadan2          1227.625
        73   01 Jun 2027 22:27:47.481   01 Jun 2027 22:28:36.598            49.117               Magadan1          1534.906
        74   01 Jun 2027 22:30:15.325   01 Jun 2027 22:30:31.898            16.573                Norilsk           517.906
        75   01 Jun 2027 22:30:40.069   01 Jun 2027 22:31:05.250            25.181                Irkutsk           786.906
        76   01 Jun 2027 22:31:14.495   01 Jun 2027 22:32:07.246            52.751                Novosib          1648.469
        77   01 Jun 2027 22:32:24.458   01 Jun 2027 22:32:43.216            18.758                Novosib           586.188
        78   01 Jun 2027 22:33:06.286   01 Jun 2027 22:33:42.167            35.881                Novosib          1121.281
        79   01 Jun 2027 22:38:06.058   01 Jun 2027 22:40:14.927           128.869                  Delhi          4027.156
        80   01 Jun 2027 23:56:20.146   01 Jun 2027 23:57:12.936            52.790                Anadyr2          1649.687
        81   01 Jun 2027 23:57:44.025   01 Jun 2027 23:58:38.247            54.222                Anadyr2          1694.437
        82   02 Jun 2027 00:02:26.373   02 Jun 2027 00:04:09.229           102.856               Magadan2          3214.250
        83   02 Jun 2027 00:04:49.663   02 Jun 2027 00:08:21.832           212.169              Murmansk2          6630.281
        84   02 Jun 2027 00:09:19.071   02 Jun 2027 00:09:44.817            25.746              Murmansk2           804.562
        85   02 Jun 2027 00:10:16.774   02 Jun 2027 00:11:13.551            56.777                 Moscow          1774.281
        86   02 Jun 2027 00:14:19.585   02 Jun 2027 00:14:35.022            15.437                 Moscow           482.406
        87   02 Jun 2027 00:14:53.541   02 Jun 2027 00:16:09.406            75.865                 Moscow          2370.781
        88   02 Jun 2027 01:29:48.696   02 Jun 2027 01:30:18.163            29.467                Anadyr1           920.844
        89   02 Jun 2027 01:31:15.232   02 Jun 2027 01:31:56.495            41.263                Anadyr2          1289.469
        90   02 Jun 2027 01:32:28.592   02 Jun 2027 01:32:50.490            21.898                Anadyr2           684.313
        91   02 Jun 2027 01:34:33.010   02 Jun 2027 01:35:31.663            58.653                Anadyr1          1832.906
        92   02 Jun 2027 01:35:58.635   02 Jun 2027 01:37:05.662            67.027               Magadan2          2094.594
        93   02 Jun 2027 01:37:38.190   02 Jun 2027 01:37:52.141            13.951               Magadan2           435.969
        94   02 Jun 2027 01:38:15.191   02 Jun 2027 01:38:32.690            17.499                Norilsk           546.844
        95   02 Jun 2027 01:40:37.684   02 Jun 2027 01:42:29.668           111.984              Murmansk2          3499.500
        96   02 Jun 2027 01:42:50.036   02 Jun 2027 01:42:58.684             8.648                Novosib           270.250
        97   02 Jun 2027 01:43:09.013   02 Jun 2027 01:43:11.655             2.642                Novosib            82.562
        98   02 Jun 2027 01:43:56.871   02 Jun 2027 01:45:37.894           101.023                 Moscow          3156.969
        99   02 Jun 2027 01:56:05.439   02 Jun 2027 01:56:12.088             6.649                 Moscow           207.781
       100   02 Jun 2027 02:10:48.296   02 Jun 2027 02:11:26.683            38.387               CapeTown          1199.594
       101   02 Jun 2027 02:18:17.107   02 Jun 2027 02:18:51.406            34.299               CapeTown          1071.844
       102   02 Jun 2027 03:04:30.421   02 Jun 2027 03:05:05.332            34.911                Anadyr2          1090.969
       103   02 Jun 2027 03:06:51.331   02 Jun 2027 03:06:55.241             3.910               Magadan1           122.188
       104   02 Jun 2027 03:08:35.208   02 Jun 2027 03:09:04.438            29.230               Magadan2           913.438
       105   02 Jun 2027 03:11:07.239   02 Jun 2027 03:11:22.358            15.119               Magadan2           472.469
       106   02 Jun 2027 03:11:41.120   02 Jun 2027 03:13:31.562           110.442               Magadan2          3451.312
       107   02 Jun 2027 03:13:36.728   02 Jun 2027 03:17:24.732           228.004                Anadyr1          7125.125
       108   02 Jun 2027 04:46:21.219   02 Jun 2027 04:47:58.251            97.032               Magadan2          3032.250
       109   02 Jun 2027 04:48:00.949   02 Jun 2027 04:49:25.299            84.350                Anadyr2          2635.938
       110   02 Jun 2027 04:49:25.299   02 Jun 2027 04:49:43.914            18.615                Anadyr1           581.719
       111   02 Jun 2027 04:49:51.558   02 Jun 2027 04:52:53.785           182.227               Magadan2          5694.594
       112   02 Jun 2027 06:24:23.582   02 Jun 2027 06:25:01.793            38.211                Anadyr1          1194.094
       113   02 Jun 2027 06:25:17.836   02 Jun 2027 06:28:09.797           171.961                Anadyr2          5373.781
       114   02 Jun 2027 08:00:15.857   02 Jun 2027 08:00:24.130             8.273               Magadan2           258.531
       115   02 Jun 2027 08:00:25.894   02 Jun 2027 08:00:34.416             8.522               Magadan2           266.312
       116   02 Jun 2027 08:01:17.953   02 Jun 2027 08:03:42.213           144.260               Magadan1          4508.125
       117   02 Jun 2027 08:04:35.534   02 Jun 2027 08:04:37.755             2.221              Murmansk1            69.406
       118   02 Jun 2027 08:39:26.289   02 Jun 2027 08:42:49.640           203.351            RioGallegos          6354.719
       119   02 Jun 2027 08:51:55.361   02 Jun 2027 08:52:09.728            14.367            RioGallegos           448.969
       120   02 Jun 2027 09:14:18.278   02 Jun 2027 09:17:22.552           184.274                Sumatra          5758.562
       121   02 Jun 2027 09:17:34.853   02 Jun 2027 09:17:47.466            12.613                Sumatra           394.156
       122   02 Jun 2027 09:34:51.637   02 Jun 2027 09:35:27.520            35.883                Irkutsk          1121.344
       123   02 Jun 2027 09:36:43.434   02 Jun 2027 09:37:47.161            63.727                Irkutsk          1991.469
       124   02 Jun 2027 09:38:00.353   02 Jun 2027 09:38:02.691             2.338                Irkutsk            73.063
       125   02 Jun 2027 09:38:05.559   02 Jun 2027 09:38:22.094            16.535                Irkutsk           516.719
       126   02 Jun 2027 09:38:31.960   02 Jun 2027 09:38:46.203            14.243                Norilsk           445.094
       127   02 Jun 2027 09:38:53.403   02 Jun 2027 09:39:13.435            20.032                Irkutsk           626.000
       128   02 Jun 2027 09:39:32.807   02 Jun 2027 09:39:57.463            24.656                Norilsk           770.500
       129   02 Jun 2027 09:40:03.288   02 Jun 2027 09:40:25.470            22.182                Norilsk           693.188
       130   02 Jun 2027 10:19:01.504   02 Jun 2027 10:19:13.825            12.321            RioGallegos           385.031
       131   02 Jun 2027 10:19:23.171   02 Jun 2027 10:20:06.009            42.838            RioGallegos          1338.688
       132   02 Jun 2027 10:53:31.893   02 Jun 2027 10:54:08.919            37.026                Sumatra          1157.062
       133   02 Jun 2027 10:57:10.216   02 Jun 2027 10:57:19.011             8.795                Sumatra           274.844
       134   02 Jun 2027 11:00:52.620   02 Jun 2027 11:01:38.295            45.675                  Delhi          1427.344
       135   02 Jun 2027 11:13:51.254   02 Jun 2027 11:14:12.046            20.792                Norilsk           649.750
       136   02 Jun 2027 11:14:21.743   02 Jun 2027 11:14:29.107             7.364                Novosib           230.125
       137   02 Jun 2027 11:15:23.794   02 Jun 2027 11:15:26.979             3.185                Novosib            99.531
       138   02 Jun 2027 11:15:47.719   02 Jun 2027 11:16:04.874            17.155                Novosib           536.094
       139   02 Jun 2027 11:16:12.284   02 Jun 2027 11:16:47.279            34.995                Novosib          1093.594
       140   02 Jun 2027 12:42:54.412   02 Jun 2027 12:44:34.602           100.190                 Moscow          3130.937
       141   02 Jun 2027 12:45:38.367   02 Jun 2027 12:46:28.071            49.704                 Moscow          1553.250
       142   02 Jun 2027 12:46:58.289   02 Jun 2027 12:49:38.348           160.059              Murmansk1          5001.844
       143   02 Jun 2027 12:49:38.348   02 Jun 2027 12:49:58.045            19.697              Murmansk2           615.531
       144   02 Jun 2027 12:51:33.061   02 Jun 2027 12:51:52.271            19.210                Norilsk           600.313
       145   02 Jun 2027 13:57:56.318   02 Jun 2027 13:59:40.362           104.044               CapeTown          3251.375
       146   02 Jun 2027 13:59:44.661   02 Jun 2027 14:00:52.460            67.799               CapeTown          2118.719
       147   02 Jun 2027 14:04:29.767   02 Jun 2027 14:05:06.536            36.769               CapeTown          1149.031
       148   02 Jun 2027 14:23:07.533   02 Jun 2027 14:25:36.610           149.077              Murmansk2          4658.656
       149   02 Jun 2027 14:27:25.911   02 Jun 2027 14:27:32.150             6.239              Murmansk1           194.969
       150   02 Jun 2027 14:27:50.558   02 Jun 2027 14:28:09.165            18.607              Murmansk1           581.469
       151   02 Jun 2027 14:31:34.444   02 Jun 2027 14:31:58.880            24.436              Murmansk1           763.625
       152   02 Jun 2027 14:37:29.973   02 Jun 2027 14:40:28.454           178.481                Anadyr1          5577.531
       153   02 Jun 2027 15:34:25.785   02 Jun 2027 15:35:28.578            62.793               CapeTown          1962.281
       154   02 Jun 2027 16:02:08.754   02 Jun 2027 16:02:52.974            44.220              Murmansk2          1381.875
       155   02 Jun 2027 16:05:11.097   02 Jun 2027 16:05:26.101            15.004              Murmansk1           468.875
       156   02 Jun 2027 16:05:39.803   02 Jun 2027 16:07:10.413            90.610              Murmansk1          2831.563
       157   02 Jun 2027 16:12:55.791   02 Jun 2027 16:14:38.979           103.188                Anadyr1          3224.625
       158   02 Jun 2027 16:16:43.216   02 Jun 2027 16:17:59.110            75.894               Magadan2          2371.687
       159   02 Jun 2027 16:19:10.416   02 Jun 2027 16:20:12.908            62.492               Magadan1          1952.875
       160   02 Jun 2027 16:21:23.665   02 Jun 2027 16:23:01.223            97.558               Magadan1          3048.687
       161   02 Jun 2027 17:48:49.498   02 Jun 2027 17:50:53.245           123.747                Anadyr2          3867.094
       162   02 Jun 2027 17:51:13.961   02 Jun 2027 17:52:16.944            62.983               Magadan2          1968.219
       163   02 Jun 2027 17:52:32.240   02 Jun 2027 17:52:51.131            18.891               Magadan2           590.344
       164   02 Jun 2027 17:52:57.025   02 Jun 2027 17:53:28.927            31.902               Magadan2           996.937
       165   02 Jun 2027 17:55:13.508   02 Jun 2027 17:55:25.682            12.174               Magadan2           380.437
       166   02 Jun 2027 17:58:39.040   02 Jun 2027 17:59:09.600            30.560               Magadan1           955.000
       167   02 Jun 2027 19:24:41.936   02 Jun 2027 19:26:35.845           113.909                Anadyr1          3559.656
       168   02 Jun 2027 19:26:45.999   02 Jun 2027 19:28:36.031           110.032                Anadyr2          3438.500
       169   02 Jun 2027 19:28:43.583   02 Jun 2027 19:30:13.431            89.848               Magadan2          2807.750
       170   02 Jun 2027 19:30:13.431   02 Jun 2027 19:30:47.589            34.158               Magadan1          1067.438
       171   02 Jun 2027 19:32:40.065   02 Jun 2027 19:33:19.876            39.811               Magadan2          1244.094
       172   02 Jun 2027 19:33:21.211   02 Jun 2027 19:34:49.211            88.000                Irkutsk          2750.000
       173   02 Jun 2027 19:36:42.061   02 Jun 2027 19:36:55.904            13.843                Irkutsk           432.594
       174   02 Jun 2027 19:37:27.268   02 Jun 2027 19:38:33.209            65.941                Irkutsk          2060.656
       175   02 Jun 2027 19:51:01.029   02 Jun 2027 19:51:22.733            21.704                Sumatra           678.250
       176   02 Jun 2027 21:01:25.861   02 Jun 2027 21:02:16.178            50.317                Anadyr2          1572.406
       177   02 Jun 2027 21:02:34.185   02 Jun 2027 21:03:30.635            56.450                Norilsk          1764.062
       178   02 Jun 2027 21:03:35.718   02 Jun 2027 21:03:51.651            15.933               Magadan1           497.906
       179   02 Jun 2027 21:03:56.738   02 Jun 2027 21:04:29.482            32.744                Norilsk          1023.250
       180   02 Jun 2027 21:06:24.912   02 Jun 2027 21:06:41.137            16.225               Magadan1           507.031
       181   02 Jun 2027 21:06:50.930   02 Jun 2027 21:06:58.425             7.495                Norilsk           234.219
       182   02 Jun 2027 21:07:35.668   02 Jun 2027 21:08:02.911            27.243               Magadan1           851.344
       183   02 Jun 2027 21:08:07.736   02 Jun 2027 21:08:16.153             8.417                Norilsk           263.031
       184   02 Jun 2027 21:08:36.862   02 Jun 2027 21:11:26.468           169.606                Novosib          5300.188
       185   02 Jun 2027 21:12:44.194   02 Jun 2027 21:13:22.889            38.695                Novosib          1209.219
       186   02 Jun 2027 21:20:16.597   02 Jun 2027 21:21:30.808            74.211                Sumatra          2319.094
       187   02 Jun 2027 21:28:53.285   02 Jun 2027 21:29:38.849            45.564                Sumatra          1423.875
       188   02 Jun 2027 22:38:32.965   02 Jun 2027 22:39:05.231            32.266                Norilsk          1008.313
       189   02 Jun 2027 22:39:09.531   02 Jun 2027 22:40:09.263            59.732               Magadan2          1866.625
       190   02 Jun 2027 22:42:25.836   02 Jun 2027 22:44:30.375           124.539                Novosib          3891.844
       191   02 Jun 2027 22:48:40.469   02 Jun 2027 22:49:23.829            43.360                Novosib          1355.000
       192   02 Jun 2027 22:49:55.149   02 Jun 2027 22:51:59.287           124.138                  Delhi          3879.313
       193   02 Jun 2027 22:52:34.855   02 Jun 2027 22:53:09.733            34.878                  Delhi          1089.938
       194   02 Jun 2027 22:59:07.145   02 Jun 2027 22:59:23.897            16.752                  Delhi           523.500
       195   03 Jun 2027 00:08:01.193   03 Jun 2027 00:08:15.369            14.176                Anadyr1           443.000
       196   03 Jun 2027 00:10:29.942   03 Jun 2027 00:10:34.851             4.909                Anadyr1           153.406
       197   03 Jun 2027 00:10:41.103   03 Jun 2027 00:11:07.310            26.207                Anadyr2           818.969
       198   03 Jun 2027 00:14:10.657   03 Jun 2027 00:15:15.086            64.429               Magadan2          2013.406
       199   03 Jun 2027 00:15:18.696   03 Jun 2027 00:16:01.500            42.804               Magadan1          1337.625
       200   03 Jun 2027 00:16:48.340   03 Jun 2027 00:21:15.163           266.823              Murmansk2          8338.219
       201   03 Jun 2027 00:21:36.577   03 Jun 2027 00:22:30.676            54.099                 Moscow          1690.594
       202   03 Jun 2027 00:25:26.610   03 Jun 2027 00:25:41.164            14.554                 Moscow           454.812
       203   03 Jun 2027 00:26:43.222   03 Jun 2027 00:27:26.699            43.477                 Moscow          1358.656
       204   03 Jun 2027 00:49:03.108   03 Jun 2027 00:50:09.661            66.553               CapeTown          2079.781
       205   03 Jun 2027 00:51:54.686   03 Jun 2027 00:52:32.601            37.915               CapeTown          1184.844
       206   03 Jun 2027 01:44:13.762   03 Jun 2027 01:44:43.563            29.801                Anadyr2           931.281
       207   03 Jun 2027 01:46:08.114   03 Jun 2027 01:48:22.086           133.972               Magadan2          4186.625
       208   03 Jun 2027 01:52:39.297   03 Jun 2027 01:54:16.945            97.648              Murmansk1          3051.500
       209   03 Jun 2027 01:55:55.753   03 Jun 2027 01:57:35.233            99.480                 Moscow          3108.750
       210   03 Jun 2027 02:19:55.410   03 Jun 2027 02:21:00.495            65.085               CapeTown          2033.906
       211   03 Jun 2027 03:18:16.351   03 Jun 2027 03:18:32.517            16.166               Magadan2           505.187
       212   03 Jun 2027 03:19:21.908   03 Jun 2027 03:20:30.609            68.701               Magadan2          2146.906
       213   03 Jun 2027 03:23:07.510   03 Jun 2027 03:25:24.798           137.288               Magadan2          4290.250
       214   03 Jun 2027 03:25:24.798   03 Jun 2027 03:28:58.629           213.831               Magadan1          6682.219
       215   03 Jun 2027 04:59:48.858   03 Jun 2027 05:00:00.628            11.770                Anadyr2           367.813
       216   03 Jun 2027 05:00:06.905   03 Jun 2027 05:02:14.834           127.929                Anadyr2          3997.781
       217   03 Jun 2027 05:03:14.458   03 Jun 2027 05:04:08.119            53.661                Anadyr1          1676.906
       218   03 Jun 2027 05:04:49.160   03 Jun 2027 05:05:16.988            27.828                Anadyr1           869.625
       219   03 Jun 2027 06:32:53.265   03 Jun 2027 06:33:14.367            21.102               Magadan1           659.438
       220   03 Jun 2027 06:33:19.187   03 Jun 2027 06:33:56.259            37.072                Anadyr1          1158.500
       221   03 Jun 2027 06:33:56.259   03 Jun 2027 06:34:02.115             5.856                Anadyr2           183.000
       222   03 Jun 2027 06:34:32.368   03 Jun 2027 06:35:32.764            60.396                Anadyr1          1887.375
       223   03 Jun 2027 06:35:43.134   03 Jun 2027 06:37:02.435            79.301               Magadan1          2478.156
       224   03 Jun 2027 06:37:17.973   03 Jun 2027 06:38:10.818            52.845               Magadan2          1651.406
       225   03 Jun 2027 06:38:31.343   03 Jun 2027 06:38:49.109            17.766               Magadan1           555.187
       226   03 Jun 2027 06:39:02.692   03 Jun 2027 06:39:06.126             3.434               Magadan2           107.312
       227   03 Jun 2027 06:39:06.126   03 Jun 2027 06:39:13.098             6.972               Magadan1           217.875
       228   03 Jun 2027 06:39:13.548   03 Jun 2027 06:39:43.492            29.944                Anadyr2           935.750
       229   03 Jun 2027 06:39:43.492   03 Jun 2027 06:40:13.976            30.484                Anadyr1           952.625
       230   03 Jun 2027 06:49:59.656   03 Jun 2027 06:50:09.709            10.053              Murmansk2           314.156
       231   03 Jun 2027 08:10:01.762   03 Jun 2027 08:11:07.673            65.911               Magadan2          2059.719
       232   03 Jun 2027 08:11:25.817   03 Jun 2027 08:12:09.971            44.154               Magadan1          1379.813
       233   03 Jun 2027 08:12:56.271   03 Jun 2027 08:13:06.682            10.411               Magadan2           325.344
       234   03 Jun 2027 08:13:55.761   03 Jun 2027 08:14:37.898            42.137                Novosib          1316.781
       235   03 Jun 2027 08:14:44.797   03 Jun 2027 08:15:19.560            34.763               Magadan1          1086.344
       236   03 Jun 2027 08:15:40.142   03 Jun 2027 08:16:12.240            32.098                Irkutsk          1003.062
       237   03 Jun 2027 08:16:15.386   03 Jun 2027 08:16:20.526             5.140                Norilsk           160.625
       238   03 Jun 2027 08:16:22.102   03 Jun 2027 08:16:44.600            22.498                Irkutsk           703.063
       239   03 Jun 2027 08:51:36.000   03 Jun 2027 08:52:29.755            53.755            RioGallegos          1679.844
       240   03 Jun 2027 09:26:16.303   03 Jun 2027 09:26:57.059            40.756                Sumatra          1273.625
       241   03 Jun 2027 09:30:23.736   03 Jun 2027 09:30:35.061            11.325                Sumatra           353.906
       242   03 Jun 2027 09:33:02.488   03 Jun 2027 09:34:59.527           117.039                Sumatra          3657.469
       243   03 Jun 2027 09:48:42.028   03 Jun 2027 09:48:46.755             4.727                Irkutsk           147.719
       244   03 Jun 2027 09:48:55.029   03 Jun 2027 09:49:45.039            50.010                Irkutsk          1562.812
       245   03 Jun 2027 09:50:07.399   03 Jun 2027 09:50:15.162             7.763                Irkutsk           242.594
       246   03 Jun 2027 09:50:16.504   03 Jun 2027 09:50:23.839             7.335                Irkutsk           229.219
       247   03 Jun 2027 09:50:38.026   03 Jun 2027 09:50:49.368            11.342                Novosib           354.437
       248   03 Jun 2027 09:50:52.643   03 Jun 2027 09:50:56.316             3.673                Novosib           114.781
       249   03 Jun 2027 09:51:01.452   03 Jun 2027 09:51:18.429            16.977                Irkutsk           530.531
       250   03 Jun 2027 09:51:30.286   03 Jun 2027 09:52:04.361            34.075                Novosib          1064.844
       251   03 Jun 2027 09:52:36.895   03 Jun 2027 09:53:19.656            42.761                Novosib          1336.281
       252   03 Jun 2027 10:32:43.890   03 Jun 2027 10:33:03.550            19.660            RioGallegos           614.375
       253   03 Jun 2027 10:34:25.080   03 Jun 2027 10:35:15.994            50.914            RioGallegos          1591.062
       254   03 Jun 2027 11:10:35.423   03 Jun 2027 11:10:40.627             5.204                  Delhi           162.625
       255   03 Jun 2027 11:11:02.733   03 Jun 2027 11:11:10.770             8.037                  Delhi           251.156
       256   03 Jun 2027 11:13:35.078   03 Jun 2027 11:15:01.567            86.489                  Delhi          2702.781
       257   03 Jun 2027 11:24:43.771   03 Jun 2027 11:24:55.496            11.725                Novosib           366.406
       258   03 Jun 2027 11:26:07.384   03 Jun 2027 11:26:26.486            19.102                Novosib           596.937
       259   03 Jun 2027 11:27:04.592   03 Jun 2027 11:27:15.005            10.413                Novosib           325.406
       260   03 Jun 2027 11:27:21.935   03 Jun 2027 11:28:12.100            50.165                Novosib          1567.656
       261   03 Jun 2027 11:28:19.686   03 Jun 2027 11:28:56.621            36.935                Novosib          1154.219
       262   03 Jun 2027 12:55:26.727   03 Jun 2027 12:56:00.602            33.875                 Moscow          1058.594
       263   03 Jun 2027 12:56:33.153   03 Jun 2027 12:57:15.977            42.824                 Moscow          1338.250
       264   03 Jun 2027 12:58:04.365   03 Jun 2027 12:58:51.857            47.492                 Moscow          1484.125
       265   03 Jun 2027 12:59:03.363   03 Jun 2027 12:59:34.973            31.610              Murmansk1           987.813
       266   03 Jun 2027 12:59:34.973   03 Jun 2027 13:00:09.976            35.003              Murmansk2          1093.844
       267   03 Jun 2027 13:00:38.876   03 Jun 2027 13:01:39.897            61.021              Murmansk2          1906.906
       268   03 Jun 2027 13:01:54.122   03 Jun 2027 13:02:03.130             9.008              Murmansk2           281.500
       269   03 Jun 2027 13:03:16.784   03 Jun 2027 13:03:54.141            37.357                Norilsk          1167.406
       270   03 Jun 2027 13:05:58.836   03 Jun 2027 13:06:23.805            24.969                Norilsk           780.281
       271   03 Jun 2027 14:09:28.025   03 Jun 2027 14:12:40.654           192.629               CapeTown          6019.656
       272   03 Jun 2027 14:13:46.177   03 Jun 2027 14:14:09.345            23.168               CapeTown           724.000
       273   03 Jun 2027 14:15:05.998   03 Jun 2027 14:15:49.229            43.231               CapeTown          1350.969
       274   03 Jun 2027 14:35:24.116   03 Jun 2027 14:36:23.635            59.519              Murmansk1          1859.969
       275   03 Jun 2027 14:37:35.706   03 Jun 2027 14:38:08.008            32.302              Murmansk2          1009.437
       276   03 Jun 2027 14:40:07.144   03 Jun 2027 14:40:14.888             7.744              Murmansk1           242.000
       277   03 Jun 2027 14:49:23.622   03 Jun 2027 14:51:40.474           136.852                Anadyr1          4276.625
       278   03 Jun 2027 14:53:07.262   03 Jun 2027 14:53:09.763             2.501                Anadyr2            78.156
       279   03 Jun 2027 14:54:06.287   03 Jun 2027 14:55:01.195            54.908                Anadyr1          1715.875
       280   03 Jun 2027 15:45:28.215   03 Jun 2027 15:46:18.117            49.902               CapeTown          1559.437
       281   03 Jun 2027 16:14:45.669   03 Jun 2027 16:17:04.096           138.427              Murmansk2          4325.844
       282   03 Jun 2027 16:24:56.275   03 Jun 2027 16:25:51.254            54.979                Anadyr1          1718.094
       283   03 Jun 2027 16:26:01.414   03 Jun 2027 16:26:39.569            38.155                Anadyr2          1192.344
       284   03 Jun 2027 16:26:43.929   03 Jun 2027 16:26:59.696            15.767                Anadyr2           492.719
       285   03 Jun 2027 16:28:21.196   03 Jun 2027 16:31:04.607           163.411               Magadan2          5106.594
       286   03 Jun 2027 16:31:49.997   03 Jun 2027 16:32:30.895            40.898               Magadan1          1278.062
       287   03 Jun 2027 16:34:09.307   03 Jun 2027 16:34:51.335            42.028               Magadan1          1313.375
       288   03 Jun 2027 18:00:50.918   03 Jun 2027 18:03:19.022           148.104                Anadyr2          4628.250
       289   03 Jun 2027 18:03:20.916   03 Jun 2027 18:05:51.736           150.820               Magadan2          4713.125
       290   03 Jun 2027 18:12:46.983   03 Jun 2027 18:13:17.999            31.016               Magadan1           969.250
       291   03 Jun 2027 18:58:52.553   03 Jun 2027 19:00:04.941            72.388            RioGallegos          2262.125
       292   03 Jun 2027 19:36:41.787   03 Jun 2027 19:36:58.443            16.656                Anadyr2           520.500
       293   03 Jun 2027 19:37:53.179   03 Jun 2027 19:38:36.959            43.780                Anadyr1          1368.125
       294   03 Jun 2027 19:38:41.762   03 Jun 2027 19:40:34.585           112.823                Anadyr2          3525.719
       295   03 Jun 2027 19:40:59.949   03 Jun 2027 19:41:45.997            46.048                Anadyr2          1439.000
       296   03 Jun 2027 19:42:15.794   03 Jun 2027 19:42:47.608            31.814               Magadan1           994.188
       297   03 Jun 2027 19:43:05.674   03 Jun 2027 19:43:26.886            21.212                Norilsk           662.875
       298   03 Jun 2027 19:44:14.495   03 Jun 2027 19:47:32.334           197.839                Irkutsk          6182.469
       299   03 Jun 2027 19:48:05.250   03 Jun 2027 19:49:00.934            55.684                Irkutsk          1740.125
       300   03 Jun 2027 19:49:29.528   03 Jun 2027 19:49:41.216            11.688                Irkutsk           365.250
       301   03 Jun 2027 20:00:00.027   03 Jun 2027 20:01:33.409            93.382                Sumatra          2918.188
       302   03 Jun 2027 20:02:10.169   03 Jun 2027 20:02:20.266            10.097                Sumatra           315.531
       303   03 Jun 2027 20:04:37.441   03 Jun 2027 20:06:16.565            99.124                Sumatra          3097.625
       304   03 Jun 2027 21:16:27.047   03 Jun 2027 21:16:28.809             1.762                Norilsk            55.063
       305   03 Jun 2027 21:18:33.147   03 Jun 2027 21:20:11.059            97.912                Irkutsk          3059.750
       306   03 Jun 2027 21:20:47.245   03 Jun 2027 21:20:51.317             4.072                Irkutsk           127.250
       307   03 Jun 2027 21:21:03.266   03 Jun 2027 21:22:19.173            75.907                Novosib          2372.094
       308   03 Jun 2027 21:24:12.403   03 Jun 2027 21:25:14.292            61.889                Novosib          1934.031
       309   03 Jun 2027 21:32:17.414   03 Jun 2027 21:32:29.568            12.154                Sumatra           379.813
       310   03 Jun 2027 21:36:37.629   03 Jun 2027 21:38:03.387            85.758                Sumatra          2679.938
       311   03 Jun 2027 22:50:34.938   03 Jun 2027 22:50:57.643            22.705                Norilsk           709.531
       312   03 Jun 2027 22:51:10.227   03 Jun 2027 22:52:35.289            85.062               Magadan2          2658.188
       313   03 Jun 2027 22:53:57.272   03 Jun 2027 22:57:22.250           204.978              Murmansk1          6405.563
       314   03 Jun 2027 23:01:48.341   03 Jun 2027 23:02:50.938            62.597                  Delhi          1956.156
       315   03 Jun 2027 23:05:42.964   03 Jun 2027 23:05:51.896             8.932                  Delhi           279.125
       316   03 Jun 2027 23:07:06.789   03 Jun 2027 23:07:46.723            39.934                  Delhi          1247.937
       317   04 Jun 2027 00:19:42.451   04 Jun 2027 00:19:58.828            16.377                Anadyr2           511.781
       318   04 Jun 2027 00:20:14.238   04 Jun 2027 00:20:19.706             5.468                Anadyr2           170.875
       319   04 Jun 2027 00:21:09.779   04 Jun 2027 00:22:14.325            64.546                Anadyr2          2017.062
       320   04 Jun 2027 00:22:41.478   04 Jun 2027 00:22:49.976             8.498                Anadyr2           265.563
       321   04 Jun 2027 00:25:50.548   04 Jun 2027 00:27:17.479            86.931               Magadan1          2716.594
       322   04 Jun 2027 00:27:22.983   04 Jun 2027 00:29:35.661           132.678               Magadan2          4146.188
       323   04 Jun 2027 00:29:51.223   04 Jun 2027 00:31:59.785           128.562              Murmansk1          4017.563
       324   04 Jun 2027 00:33:06.074   04 Jun 2027 00:33:42.549            36.475                 Moscow          1139.844
       325   04 Jun 2027 00:59:42.651   04 Jun 2027 01:01:31.976           109.325               CapeTown          3416.406
       326   04 Jun 2027 01:03:17.789   04 Jun 2027 01:04:24.846            67.057               CapeTown          2095.531
       327   04 Jun 2027 01:53:23.988   04 Jun 2027 01:53:41.677            17.689                Anadyr2           552.781
       328   04 Jun 2027 01:57:36.784   04 Jun 2027 01:59:07.787            91.003               Magadan1          2843.844
       329   04 Jun 2027 01:59:21.674   04 Jun 2027 02:00:04.842            43.168               Magadan2          1349.000
       330   04 Jun 2027 02:04:40.999   04 Jun 2027 02:04:41.347             0.348              Murmansk1            10.875
       331   04 Jun 2027 02:04:56.157   04 Jun 2027 02:05:16.188            20.031              Murmansk2           625.969
       332   04 Jun 2027 02:05:41.353   04 Jun 2027 02:06:31.237            49.884              Murmansk2          1558.875
       333   04 Jun 2027 02:06:57.175   04 Jun 2027 02:07:33.119            35.944              Murmansk2          1123.250
       334   04 Jun 2027 02:07:55.468   04 Jun 2027 02:09:29.820            94.352                 Moscow          2948.500
       335   04 Jun 2027 02:31:49.624   04 Jun 2027 02:32:27.780            38.156               CapeTown          1192.375
       336   04 Jun 2027 02:39:49.283   04 Jun 2027 02:40:33.834            44.551               CapeTown          1392.219
       337   04 Jun 2027 03:30:19.180   04 Jun 2027 03:30:34.693            15.513                Anadyr2           484.781
       338   04 Jun 2027 03:32:24.444   04 Jun 2027 03:32:43.094            18.650               Magadan1           582.813
       339   04 Jun 2027 03:34:35.899   04 Jun 2027 03:35:27.771            51.872               Magadan1          1621.000
       340   04 Jun 2027 03:35:41.657   04 Jun 2027 03:38:30.571           168.914               Magadan1          5278.562
       341   04 Jun 2027 03:38:35.211   04 Jun 2027 03:41:27.551           172.340                Anadyr2          5385.625
       342   04 Jun 2027 05:14:13.076   04 Jun 2027 05:17:16.205           183.129                Anadyr2          5722.781
       343   04 Jun 2027 06:45:31.614   04 Jun 2027 06:46:02.331            30.717               Magadan2           959.906
       344   04 Jun 2027 06:46:13.732   04 Jun 2027 06:46:41.961            28.229                Anadyr1           882.156
       345   04 Jun 2027 06:46:43.091   04 Jun 2027 06:46:59.106            16.015               Magadan2           500.469
       346   04 Jun 2027 06:47:01.294   04 Jun 2027 06:47:18.271            16.977               Magadan2           530.531
       347   04 Jun 2027 06:47:20.910   04 Jun 2027 06:47:44.750            23.840               Magadan1           745.000
       348   04 Jun 2027 06:47:53.595   04 Jun 2027 06:48:24.549            30.954                Anadyr2           967.313
       349   04 Jun 2027 06:48:27.966   04 Jun 2027 06:49:01.981            34.015               Magadan2          1062.969
       350   04 Jun 2027 06:49:20.934   04 Jun 2027 06:49:52.515            31.581               Magadan2           986.906
       351   04 Jun 2027 06:50:03.125   04 Jun 2027 06:50:38.745            35.620                Norilsk          1113.125
       352   04 Jun 2027 06:50:51.972   04 Jun 2027 06:51:04.181            12.209               Magadan2           381.531
       353   04 Jun 2027 06:51:12.052   04 Jun 2027 06:51:45.338            33.286                Anadyr2          1040.187
       354   04 Jun 2027 06:52:35.374   04 Jun 2027 06:52:38.305             2.931              Murmansk2            91.594
       355   04 Jun 2027 06:52:44.059   04 Jun 2027 06:53:04.072            20.013              Murmansk2           625.406
       356   04 Jun 2027 08:22:08.026   04 Jun 2027 08:23:06.324            58.298               Magadan1          1821.812
       357   04 Jun 2027 08:25:21.908   04 Jun 2027 08:25:54.870            32.962               Magadan1          1030.062
       358   04 Jun 2027 08:26:30.281   04 Jun 2027 08:27:09.323            39.042                Irkutsk          1220.062
       359   04 Jun 2027 08:27:15.372   04 Jun 2027 08:27:56.752            41.380                Irkutsk          1293.125
       360   04 Jun 2027 08:28:05.284   04 Jun 2027 08:28:12.710             7.426                Irkutsk           232.063
       361   04 Jun 2027 08:28:18.197   04 Jun 2027 08:28:27.873             9.676                Norilsk           302.375
       362   04 Jun 2027 08:28:54.820   04 Jun 2027 08:29:16.234            21.414                Norilsk           669.188
       363   04 Jun 2027 09:03:49.531   04 Jun 2027 09:04:41.323            51.792            RioGallegos          1618.500
       364   04 Jun 2027 09:38:19.933   04 Jun 2027 09:38:36.202            16.269                Sumatra           508.406
       365   04 Jun 2027 09:40:40.708   04 Jun 2027 09:41:23.751            43.043                Sumatra          1345.094
       366   04 Jun 2027 09:47:53.840   04 Jun 2027 09:48:01.455             7.615                Sumatra           237.969
       367   04 Jun 2027 10:00:53.603   04 Jun 2027 10:01:15.786            22.183                Irkutsk           693.219
       368   04 Jun 2027 10:01:55.193   04 Jun 2027 10:01:57.845             2.652                Novosib            82.875
       369   04 Jun 2027 10:02:27.497   04 Jun 2027 10:02:28.778             1.281                Irkutsk            40.031
       370   04 Jun 2027 10:02:39.510   04 Jun 2027 10:02:55.753            16.243                Novosib           507.594
       371   04 Jun 2027 10:02:57.336   04 Jun 2027 10:03:09.016            11.680                Novosib           365.000
       372   04 Jun 2027 10:03:13.560   04 Jun 2027 10:03:16.958             3.398                Norilsk           106.187
       373   04 Jun 2027 10:03:26.862   04 Jun 2027 10:04:16.239            49.377                Irkutsk          1543.031
       374   04 Jun 2027 10:04:22.705   04 Jun 2027 10:04:40.070            17.365                Norilsk           542.656
       375   04 Jun 2027 10:45:23.834   04 Jun 2027 10:46:23.085            59.251            RioGallegos          1851.594
       376   04 Jun 2027 11:22:48.877   04 Jun 2027 11:24:17.609            88.732                  Delhi          2772.875
       377   04 Jun 2027 11:38:27.771   04 Jun 2027 11:38:38.968            11.197                Norilsk           349.906
       378   04 Jun 2027 11:38:58.931   04 Jun 2027 11:39:08.949            10.018                Novosib           313.062
       379   04 Jun 2027 11:39:55.830   04 Jun 2027 11:39:58.162             2.332                Norilsk            72.875
       380   04 Jun 2027 11:40:03.392   04 Jun 2027 11:40:13.323             9.931                Norilsk           310.344
       381   04 Jun 2027 11:40:14.274   04 Jun 2027 11:40:18.628             4.354                Novosib           136.062
       382   04 Jun 2027 13:06:53.577   04 Jun 2027 13:08:05.522            71.945                 Moscow          2248.281
       383   04 Jun 2027 13:08:30.701   04 Jun 2027 13:09:05.306            34.605                 Moscow          1081.406
       384   04 Jun 2027 13:09:54.295   04 Jun 2027 13:11:06.664            72.369                 Moscow          2261.531
       385   04 Jun 2027 13:11:15.301   04 Jun 2027 13:11:45.641            30.340              Murmansk2           948.125
       386   04 Jun 2027 13:11:45.641   04 Jun 2027 13:12:11.630            25.989              Murmansk1           812.156
       387   04 Jun 2027 13:12:34.937   04 Jun 2027 13:13:41.537            66.600              Murmansk1          2081.250
       388   04 Jun 2027 13:14:52.308   04 Jun 2027 13:15:23.615            31.307              Murmansk2           978.344
       389   04 Jun 2027 13:15:55.828   04 Jun 2027 13:16:07.469            11.641                Norilsk           363.781
       390   04 Jun 2027 13:17:33.633   04 Jun 2027 13:18:01.105            27.472                Norilsk           858.500
       391   04 Jun 2027 14:21:07.507   04 Jun 2027 14:24:06.905           179.398               CapeTown          5606.187
       392   04 Jun 2027 14:24:32.700   04 Jun 2027 14:26:00.046            87.346               CapeTown          2729.563
       393   04 Jun 2027 14:47:42.783   04 Jun 2027 14:49:39.441           116.658              Murmansk1          3645.562
       394   04 Jun 2027 15:01:19.009   04 Jun 2027 15:03:08.286           109.277                Anadyr1          3414.906
       395   04 Jun 2027 15:03:08.286   04 Jun 2027 15:03:50.583            42.297                Anadyr2          1321.781
       396   04 Jun 2027 15:56:29.987   04 Jun 2027 15:57:00.179            30.192               CapeTown           943.500
       397   04 Jun 2027 16:06:12.726   04 Jun 2027 16:06:30.993            18.267               CapeTown           570.844
       398   04 Jun 2027 16:27:26.311   04 Jun 2027 16:31:08.377           222.066              Murmansk2          6939.562
       399   04 Jun 2027 16:36:57.035   04 Jun 2027 16:37:58.741            61.706                Anadyr2          1928.313
       400   04 Jun 2027 16:38:45.599   04 Jun 2027 16:39:35.952            50.353                Anadyr2          1573.531
       401   04 Jun 2027 16:40:05.741   04 Jun 2027 16:42:45.309           159.568               Magadan2          4986.500
       402   04 Jun 2027 16:45:29.110   04 Jun 2027 16:46:09.878            40.768               Magadan2          1274.000
       403   04 Jun 2027 18:12:52.283   04 Jun 2027 18:15:32.156           159.873                Anadyr1          4996.031
       404   04 Jun 2027 18:15:37.732   04 Jun 2027 18:18:05.666           147.934               Magadan1          4622.938
       405   04 Jun 2027 18:22:24.477   04 Jun 2027 18:22:47.165            22.688               Magadan2           709.000
       406   04 Jun 2027 19:09:11.346   04 Jun 2027 19:11:43.297           151.951            RioGallegos          4748.469
       407   04 Jun 2027 19:48:41.222   04 Jun 2027 19:48:57.233            16.011                Anadyr1           500.344
       408   04 Jun 2027 19:49:50.135   04 Jun 2027 19:50:38.365            48.230                Anadyr2          1507.188
       409   04 Jun 2027 19:50:52.492   04 Jun 2027 19:54:06.926           194.434                Norilsk          6076.062
       410   04 Jun 2027 19:55:49.319   04 Jun 2027 19:57:16.348            87.029                Irkutsk          2719.656
       411   04 Jun 2027 19:57:50.318   04 Jun 2027 19:59:06.338            76.020                Irkutsk          2375.625
       412   04 Jun 2027 20:00:07.795   04 Jun 2027 20:01:06.795            59.000                Irkutsk          1843.750
       413   04 Jun 2027 20:01:58.626   04 Jun 2027 20:02:25.366            26.740                Irkutsk           835.625
       414   04 Jun 2027 20:10:49.531   04 Jun 2027 20:13:06.214           136.683                Sumatra          4271.344
       415   04 Jun 2027 20:16:29.869   04 Jun 2027 20:17:30.320            60.451                Sumatra          1889.094
       416   04 Jun 2027 21:30:31.790   04 Jun 2027 21:32:06.054            94.264                Irkutsk          2945.750
       417   04 Jun 2027 21:32:13.091   04 Jun 2027 21:33:22.957            69.866                Novosib          2183.312
       418   04 Jun 2027 21:41:21.877   04 Jun 2027 21:43:02.555           100.678                  Delhi          3146.188
       419   04 Jun 2027 21:44:51.521   04 Jun 2027 21:46:11.575            80.054                  Delhi          2501.688
       420   04 Jun 2027 23:03:10.067   04 Jun 2027 23:03:10.837             0.770               Magadan2            24.062
       421   04 Jun 2027 23:03:43.557   04 Jun 2027 23:04:24.957            41.400                Norilsk          1293.750
       422   04 Jun 2027 23:04:31.063   04 Jun 2027 23:04:47.422            16.359               Magadan2           511.219
       423   04 Jun 2027 23:05:36.477   04 Jun 2027 23:09:08.423           211.946              Murmansk1          6623.313
       424   04 Jun 2027 23:13:45.173   04 Jun 2027 23:13:52.710             7.537                  Delhi           235.531
       425   04 Jun 2027 23:16:55.718   04 Jun 2027 23:17:35.723            40.005                  Delhi          1250.156
       426   04 Jun 2027 23:17:58.458   04 Jun 2027 23:19:36.844            98.386                  Delhi          3074.562
       427   05 Jun 2027 00:31:24.101   05 Jun 2027 00:31:41.430            17.329                Anadyr1           541.531
       428   05 Jun 2027 00:33:06.912   05 Jun 2027 00:33:21.204            14.292                Anadyr1           446.625
       429   05 Jun 2027 00:33:47.857   05 Jun 2027 00:33:59.843            11.986                Anadyr2           374.562
       430   05 Jun 2027 00:34:12.155   05 Jun 2027 00:34:25.224            13.069                Anadyr1           408.406
       431   05 Jun 2027 00:34:33.443   05 Jun 2027 00:34:40.873             7.430                Anadyr2           232.188
       432   05 Jun 2027 00:37:26.431   05 Jun 2027 00:39:29.888           123.457               Magadan2          3858.031
       433   05 Jun 2027 00:40:47.754   05 Jun 2027 00:45:03.755           256.001              Murmansk2          8000.031
       434   05 Jun 2027 00:52:10.486   05 Jun 2027 00:53:46.588            96.102                 Moscow          3003.188
       435   05 Jun 2027 01:13:00.065   05 Jun 2027 01:13:02.048             1.983               CapeTown            61.969
       436   05 Jun 2027 01:14:21.174   05 Jun 2027 01:15:11.635            50.461               CapeTown          1576.906
       437   05 Jun 2027 02:05:13.673   05 Jun 2027 02:06:11.081            57.408                Anadyr2          1794.000
       438   05 Jun 2027 02:09:06.292   05 Jun 2027 02:10:37.226            90.934               Magadan2          2841.687
       439   05 Jun 2027 02:12:52.340   05 Jun 2027 02:13:03.504            11.164               Magadan1           348.875
       440   05 Jun 2027 02:14:15.820   05 Jun 2027 02:14:39.607            23.787                Norilsk           743.344
       441   05 Jun 2027 02:16:42.755   05 Jun 2027 02:18:34.143           111.388              Murmansk1          3480.875
       442   05 Jun 2027 02:19:12.711   05 Jun 2027 02:19:51.845            39.134                Novosib          1222.937
       443   05 Jun 2027 02:23:25.207   05 Jun 2027 02:23:44.971            19.764                 Moscow           617.625
       444   05 Jun 2027 02:30:39.497   05 Jun 2027 02:30:47.820             8.323                 Moscow           260.094
       445   05 Jun 2027 02:32:25.086   05 Jun 2027 02:32:41.832            16.746                 Moscow           523.313
       446   05 Jun 2027 02:43:48.791   05 Jun 2027 02:44:01.341            12.550               CapeTown           392.187
       447   05 Jun 2027 02:47:02.490   05 Jun 2027 02:47:39.262            36.772               CapeTown          1149.125
       448   05 Jun 2027 02:50:29.732   05 Jun 2027 02:50:47.747            18.015               CapeTown           562.969
       449   05 Jun 2027 03:46:36.726   05 Jun 2027 03:47:10.304            33.578               Magadan1          1049.313
       450   05 Jun 2027 03:47:18.807   05 Jun 2027 03:50:31.178           192.371               Magadan1          6011.594
       451   05 Jun 2027 03:50:53.093   05 Jun 2027 03:50:57.919             4.826               Magadan1           150.813
       452   05 Jun 2027 03:51:37.895   05 Jun 2027 03:52:30.312            52.417               Magadan1          1638.031
       453   05 Jun 2027 03:52:58.523   05 Jun 2027 03:53:00.886             2.363               Magadan2            73.844
       454   05 Jun 2027 05:25:43.443   05 Jun 2027 05:29:14.784           211.341                Anadyr1          6604.406
       455   05 Jun 2027 06:58:32.770   05 Jun 2027 06:58:34.670             1.900               Magadan1            59.375
       456   05 Jun 2027 06:58:36.047   05 Jun 2027 06:59:20.210            44.163               Magadan1          1380.094
       457   05 Jun 2027 06:59:20.210   05 Jun 2027 06:59:24.249             4.039               Magadan2           126.219
       458   05 Jun 2027 06:59:32.191   05 Jun 2027 07:00:39.913            67.722                Anadyr2          2116.312
       459   05 Jun 2027 07:01:00.868   05 Jun 2027 07:01:23.762            22.894               Magadan2           715.438
       460   05 Jun 2027 07:01:23.762   05 Jun 2027 07:01:34.060            10.298               Magadan1           321.812
       461   05 Jun 2027 07:01:44.403   05 Jun 2027 07:02:22.841            38.438                Anadyr1          1201.187
       462   05 Jun 2027 07:02:23.737   05 Jun 2027 07:03:05.312            41.575               Magadan2          1299.219
       463   05 Jun 2027 07:03:09.699   05 Jun 2027 07:03:37.532            27.833                Anadyr1           869.781
       464   05 Jun 2027 07:03:53.485   05 Jun 2027 07:04:38.119            44.634               Magadan1          1394.813
       465   05 Jun 2027 07:04:42.054   05 Jun 2027 07:04:44.595             2.541               Magadan1            79.406
       466   05 Jun 2027 07:04:51.293   05 Jun 2027 07:04:51.417             0.124              Murmansk2             3.875
       467   05 Jun 2027 07:43:08.044   05 Jun 2027 07:43:28.074            20.030            RioGallegos           625.937
       468   05 Jun 2027 08:17:09.850   05 Jun 2027 08:18:55.723           105.873                Sumatra          3308.531
       469   05 Jun 2027 08:38:34.824   05 Jun 2027 08:38:58.391            23.567                Irkutsk           736.469
       470   05 Jun 2027 08:39:06.194   05 Jun 2027 08:39:51.562            45.368                Irkutsk          1417.750
       471   05 Jun 2027 08:40:10.289   05 Jun 2027 08:40:39.147            28.858                Irkutsk           901.813
       472   05 Jun 2027 09:16:07.165   05 Jun 2027 09:16:44.682            37.517            RioGallegos          1172.406
       473   05 Jun 2027 09:50:29.385   05 Jun 2027 09:51:42.646            73.261                Sumatra          2289.406
       474   05 Jun 2027 10:01:18.518   05 Jun 2027 10:01:45.994            27.476                  Delhi           858.625
       475   05 Jun 2027 10:11:02.326   05 Jun 2027 10:11:31.204            28.878                Irkutsk           902.437
       476   05 Jun 2027 10:13:40.819   05 Jun 2027 10:14:06.709            25.890                Novosib           809.062
       477   05 Jun 2027 10:14:21.747   05 Jun 2027 10:14:22.773             1.026                Novosib            32.063
       478   05 Jun 2027 10:14:24.313   05 Jun 2027 10:14:25.585             1.272                Novosib            39.750
       479   05 Jun 2027 10:14:27.969   05 Jun 2027 10:14:36.883             8.914                Norilsk           278.563
       480   05 Jun 2027 10:14:38.026   05 Jun 2027 10:14:47.414             9.388                Irkutsk           293.375
       481   05 Jun 2027 10:15:01.289   05 Jun 2027 10:15:28.716            27.427                Novosib           857.094
       482   05 Jun 2027 10:15:31.971   05 Jun 2027 10:15:38.911             6.940                Irkutsk           216.875
