uniorb/output/strategy_4/Drop/Drop_KinoSat_111309.txt

KinoSat_111309
-------------------------
    Access    *     Start Time (UTCG)     *     Stop Time (UTCG)  *   Duration (s)        *       Station  *  Data (Mbytes)
         1   01 Jun 2027 04:27:17.176   01 Jun 2027 04:27:39.347            22.171                Norilsk           692.844
         2   01 Jun 2027 04:27:59.436   01 Jun 2027 04:31:08.628           189.192              Murmansk1          5912.250
         3   01 Jun 2027 04:47:54.017   01 Jun 2027 04:48:03.849             9.832               CapeTown           307.250
         4   01 Jun 2027 04:48:32.264   01 Jun 2027 04:48:38.566             6.302               CapeTown           196.938
         5   01 Jun 2027 04:49:00.294   01 Jun 2027 04:49:17.226            16.932               CapeTown           529.125
         6   01 Jun 2027 05:51:06.824   01 Jun 2027 05:56:05.325           298.501                Anadyr2          9328.156
         7   01 Jun 2027 07:27:50.739   01 Jun 2027 07:30:25.988           155.249                Irkutsk          4851.531
         8   01 Jun 2027 07:30:30.051   01 Jun 2027 07:31:41.469            71.418               Magadan2          2231.812
         9   01 Jun 2027 07:31:56.516   01 Jun 2027 07:31:57.091             0.575                Norilsk            17.969
        10   01 Jun 2027 07:32:11.264   01 Jun 2027 07:32:33.763            22.499              Murmansk1           703.094
        11   01 Jun 2027 09:01:40.143   01 Jun 2027 09:01:48.872             8.729                Irkutsk           272.781
        12   01 Jun 2027 09:02:28.433   01 Jun 2027 09:06:39.508           251.075               Magadan2          7846.094
        13   01 Jun 2027 09:08:06.746   01 Jun 2027 09:08:33.134            26.388                Novosib           824.625
        14   01 Jun 2027 09:09:21.379   01 Jun 2027 09:09:37.631            16.252              Murmansk1           507.875
        15   01 Jun 2027 09:09:37.631   01 Jun 2027 09:09:58.172            20.541              Murmansk2           641.906
        16   01 Jun 2027 09:11:40.721   01 Jun 2027 09:11:50.389             9.668                Norilsk           302.125
        17   01 Jun 2027 09:42:07.149   01 Jun 2027 09:44:29.749           142.600            RioGallegos          4456.250
        18   01 Jun 2027 10:17:17.146   01 Jun 2027 10:19:56.002           158.856                Sumatra          4964.250
        19   01 Jun 2027 10:39:17.922   01 Jun 2027 10:40:48.931            91.009                Norilsk          2844.031
        20   01 Jun 2027 10:40:54.094   01 Jun 2027 10:43:20.527           146.433                Irkutsk          4576.031
        21   01 Jun 2027 10:43:48.629   01 Jun 2027 10:44:13.174            24.545                 Moscow           767.031
        22   01 Jun 2027 11:20:29.357   01 Jun 2027 11:20:46.801            17.444            RioGallegos           545.125
        23   01 Jun 2027 11:54:47.082   01 Jun 2027 11:55:10.907            23.825                Sumatra           744.531
        24   01 Jun 2027 11:57:20.820   01 Jun 2027 11:59:38.066           137.246                Sumatra          4288.937
        25   01 Jun 2027 12:08:50.307   01 Jun 2027 12:11:13.227           142.920                Novosib          4466.250
        26   01 Jun 2027 12:12:31.561   01 Jun 2027 12:13:05.953            34.392                Norilsk          1074.750
        27   01 Jun 2027 12:13:53.505   01 Jun 2027 12:15:03.881            70.376                Irkutsk          2199.250
        28   01 Jun 2027 12:16:52.088   01 Jun 2027 12:16:56.527             4.439                Norilsk           138.719
        29   01 Jun 2027 12:17:33.001   01 Jun 2027 12:17:59.568            26.567                Norilsk           830.219
        30   01 Jun 2027 13:40:27.387   01 Jun 2027 13:40:50.695            23.308                  Delhi           728.375
        31   01 Jun 2027 13:41:19.912   01 Jun 2027 13:41:51.090            31.178                  Delhi           974.312
        32   01 Jun 2027 13:42:03.997   01 Jun 2027 13:44:31.974           147.977                  Delhi          4624.281
        33   01 Jun 2027 13:47:46.349   01 Jun 2027 13:47:55.217             8.868                 Moscow           277.125
        34   01 Jun 2027 13:49:04.048   01 Jun 2027 13:50:27.845            83.797              Murmansk2          2618.656
        35   01 Jun 2027 13:50:27.845   01 Jun 2027 13:50:49.643            21.798              Murmansk1           681.188
        36   01 Jun 2027 13:51:40.483   01 Jun 2027 13:52:34.885            54.402                Norilsk          1700.062
        37   01 Jun 2027 13:53:46.700   01 Jun 2027 13:54:19.872            33.172                Norilsk          1036.625
        38   01 Jun 2027 13:54:55.785   01 Jun 2027 13:56:34.328            98.543                Norilsk          3079.469
        39   01 Jun 2027 15:02:23.622   01 Jun 2027 15:03:57.016            93.394               CapeTown          2918.563
        40   01 Jun 2027 15:25:37.155   01 Jun 2027 15:26:25.406            48.251              Murmansk1          1507.844
        41   01 Jun 2027 15:29:10.052   01 Jun 2027 15:29:58.458            48.406              Murmansk2          1512.688
        42   01 Jun 2027 15:40:28.657   01 Jun 2027 15:41:47.417            78.760                Anadyr2          2461.250
        43   01 Jun 2027 15:42:20.674   01 Jun 2027 15:42:32.743            12.069                Anadyr1           377.156
        44   01 Jun 2027 15:42:41.411   01 Jun 2027 15:42:56.997            15.586                Anadyr1           487.063
        45   01 Jun 2027 15:43:27.432   01 Jun 2027 15:43:28.378             0.946                Anadyr1            29.563
        46   01 Jun 2027 15:43:35.089   01 Jun 2027 15:44:20.795            45.706                Anadyr1          1428.313
        47   01 Jun 2027 17:03:38.474   01 Jun 2027 17:06:59.425           200.951                 Moscow          6279.719
        48   01 Jun 2027 17:07:07.729   01 Jun 2027 17:07:55.249            47.520              Murmansk1          1485.000
        49   01 Jun 2027 17:08:29.646   01 Jun 2027 17:10:05.042            95.396              Murmansk1          2981.125
        50   01 Jun 2027 17:20:17.835   01 Jun 2027 17:22:24.731           126.896               Magadan1          3965.500
        51   01 Jun 2027 18:51:35.768   01 Jun 2027 18:57:25.720           349.952                Anadyr2         10936.000
        52   01 Jun 2027 18:57:47.588   01 Jun 2027 18:58:03.869            16.281               Magadan2           508.781
        53   01 Jun 2027 19:01:56.928   01 Jun 2027 19:02:22.392            25.464               Magadan2           795.750
        54   01 Jun 2027 19:04:41.349   01 Jun 2027 19:04:53.449            12.100               Magadan1           378.125
        55   01 Jun 2027 20:27:30.070   01 Jun 2027 20:31:14.310           224.240                Anadyr1          7007.500
        56   01 Jun 2027 20:31:16.983   01 Jun 2027 20:33:42.457           145.474               Magadan1          4546.063
        57   01 Jun 2027 20:33:42.457   01 Jun 2027 20:34:04.508            22.051               Magadan2           689.094
        58   01 Jun 2027 20:34:39.294   01 Jun 2027 20:34:58.720            19.426               Magadan2           607.062
        59   01 Jun 2027 20:37:13.645   01 Jun 2027 20:37:29.081            15.436               Magadan2           482.375
        60   01 Jun 2027 20:40:32.897   01 Jun 2027 20:41:15.752            42.855               Magadan1          1339.219
        61   01 Jun 2027 21:21:52.154   01 Jun 2027 21:23:54.349           122.195            RioGallegos          3818.594
        62   01 Jun 2027 21:24:34.905   01 Jun 2027 21:25:17.289            42.384            RioGallegos          1324.500
        63   01 Jun 2027 22:03:04.571   01 Jun 2027 22:03:50.006            45.435                Anadyr2          1419.844
        64   01 Jun 2027 22:05:20.501   01 Jun 2027 22:05:47.299            26.798                Norilsk           837.438
        65   01 Jun 2027 22:05:51.256   01 Jun 2027 22:07:40.226           108.970               Magadan2          3405.313
        66   01 Jun 2027 22:08:26.981   01 Jun 2027 22:09:04.918            37.937                Norilsk          1185.531
        67   01 Jun 2027 22:09:28.759   01 Jun 2027 22:11:10.203           101.444                Irkutsk          3170.125
        68   01 Jun 2027 22:13:07.114   01 Jun 2027 22:13:16.087             8.973                Novosib           280.406
        69   01 Jun 2027 22:13:26.857   01 Jun 2027 22:13:47.374            20.517                Novosib           641.156
        70   01 Jun 2027 22:23:11.795   01 Jun 2027 22:23:57.155            45.360                Sumatra          1417.500
        71   01 Jun 2027 22:29:26.062   01 Jun 2027 22:29:57.540            31.478                Sumatra           983.688
        72   01 Jun 2027 22:33:19.385   01 Jun 2027 22:33:58.350            38.965                Sumatra          1217.656
        73   01 Jun 2027 23:37:44.360   01 Jun 2027 23:39:32.679           108.319                Anadyr1          3384.969
        74   01 Jun 2027 23:39:32.679   01 Jun 2027 23:39:48.595            15.916                Anadyr2           497.375
        75   01 Jun 2027 23:40:29.232   01 Jun 2027 23:40:37.049             7.817                Anadyr2           244.281
        76   01 Jun 2027 23:41:18.296   01 Jun 2027 23:41:39.693            21.397                Norilsk           668.656
        77   01 Jun 2027 23:41:56.983   01 Jun 2027 23:43:51.086           114.103               Magadan2          3565.719
        78   01 Jun 2027 23:43:51.086   01 Jun 2027 23:43:59.148             8.062               Magadan1           251.937
        79   01 Jun 2027 23:45:11.003   01 Jun 2027 23:46:24.769            73.766                Irkutsk          2305.188
        80   01 Jun 2027 23:46:59.904   01 Jun 2027 23:47:49.969            50.065                Novosib          1564.531
        81   01 Jun 2027 23:51:00.807   01 Jun 2027 23:51:07.037             6.230                Novosib           194.687
        82   01 Jun 2027 23:52:57.759   01 Jun 2027 23:53:42.663            44.904                  Delhi          1403.250
        83   01 Jun 2027 23:54:45.343   01 Jun 2027 23:54:56.253            10.910                  Delhi           340.937
        84   01 Jun 2027 23:56:19.967   01 Jun 2027 23:57:05.159            45.192                  Delhi          1412.250
        85   02 Jun 2027 00:03:15.740   02 Jun 2027 00:04:18.814            63.074                  Delhi          1971.062
        86   02 Jun 2027 00:38:54.019   02 Jun 2027 00:39:20.806            26.787            RioGallegos           837.094
        87   02 Jun 2027 01:11:14.209   02 Jun 2027 01:11:58.737            44.528                Anadyr1          1391.500
        88   02 Jun 2027 01:12:11.600   02 Jun 2027 01:12:47.884            36.284                Anadyr1          1133.875
        89   02 Jun 2027 01:13:21.917   02 Jun 2027 01:13:45.792            23.875                Anadyr1           746.094
        90   02 Jun 2027 01:14:21.160   02 Jun 2027 01:14:33.150            11.990                Anadyr2           374.687
        91   02 Jun 2027 01:17:17.392   02 Jun 2027 01:17:34.399            17.007                Norilsk           531.469
        92   02 Jun 2027 01:17:35.232   02 Jun 2027 01:20:01.354           146.122               Magadan1          4566.313
        93   02 Jun 2027 01:21:05.797   02 Jun 2027 01:22:26.645            80.848                Novosib          2526.500
        94   02 Jun 2027 01:23:28.934   02 Jun 2027 01:23:41.222            12.288              Murmansk2           384.000
        95   02 Jun 2027 01:24:15.929   02 Jun 2027 01:24:48.842            32.913                 Moscow          1028.531
        96   02 Jun 2027 01:25:11.187   02 Jun 2027 01:25:26.169            14.982              Murmansk2           468.187
        97   02 Jun 2027 01:26:55.182   02 Jun 2027 01:27:07.682            12.500                 Moscow           390.625
        98   02 Jun 2027 01:28:49.170   02 Jun 2027 01:28:55.651             6.481                  Delhi           202.531
        99   02 Jun 2027 01:29:44.318   02 Jun 2027 01:29:55.925            11.607                  Delhi           362.719
       100   02 Jun 2027 01:33:27.754   02 Jun 2027 01:33:40.256            12.502                  Delhi           390.688
       101   02 Jun 2027 01:36:23.754   02 Jun 2027 01:37:02.229            38.475                  Delhi          1202.344
       102   02 Jun 2027 02:44:40.973   02 Jun 2027 02:45:25.955            44.982                Anadyr2          1405.687
       103   02 Jun 2027 02:45:56.798   02 Jun 2027 02:48:18.799           142.001                Anadyr2          4437.531
       104   02 Jun 2027 02:48:37.881   02 Jun 2027 02:48:57.955            20.074                Anadyr2           627.312
       105   02 Jun 2027 02:49:38.440   02 Jun 2027 02:50:56.059            77.619               Magadan2          2425.594
       106   02 Jun 2027 02:53:03.961   02 Jun 2027 02:53:35.273            31.312                Norilsk           978.500
       107   02 Jun 2027 02:55:25.053   02 Jun 2027 02:55:53.017            27.964              Murmansk1           873.875
       108   02 Jun 2027 02:56:36.478   02 Jun 2027 02:57:24.466            47.988              Murmansk2          1499.625
       109   02 Jun 2027 02:58:05.554   02 Jun 2027 02:59:06.926            61.372                Novosib          1917.875
       110   02 Jun 2027 03:01:08.822   02 Jun 2027 03:01:13.768             4.946                Norilsk           154.562
       111   02 Jun 2027 03:01:14.879   02 Jun 2027 03:01:24.153             9.274              Murmansk1           289.812
       112   02 Jun 2027 03:01:33.084   02 Jun 2027 03:01:36.735             3.651                 Moscow           114.094
       113   02 Jun 2027 03:01:39.095   02 Jun 2027 03:02:01.732            22.637              Murmansk1           707.406
       114   02 Jun 2027 03:02:01.732   02 Jun 2027 03:03:02.802            61.070              Murmansk2          1908.438
       115   02 Jun 2027 03:03:12.605   02 Jun 2027 03:03:23.089            10.484              Murmansk2           327.625
       116   02 Jun 2027 03:03:28.688   02 Jun 2027 03:04:17.108            48.420                Norilsk          1513.125
       117   02 Jun 2027 03:04:21.539   02 Jun 2027 03:05:10.586            49.047                Norilsk          1532.719
       118   02 Jun 2027 03:05:35.030   02 Jun 2027 03:06:16.259            41.229              Murmansk1          1288.406
       119   02 Jun 2027 03:06:17.375   02 Jun 2027 03:06:49.360            31.985                 Moscow           999.531
       120   02 Jun 2027 03:06:51.704   02 Jun 2027 03:07:06.069            14.365              Murmansk2           448.906
       121   02 Jun 2027 03:07:15.789   02 Jun 2027 03:08:53.726            97.937                 Moscow          3060.531
       122   02 Jun 2027 03:22:58.344   02 Jun 2027 03:25:00.793           122.449               CapeTown          3826.531
       123   02 Jun 2027 04:19:19.080   02 Jun 2027 04:21:17.702           118.622                Anadyr2          3706.937
       124   02 Jun 2027 04:21:33.374   02 Jun 2027 04:22:05.858            32.484               Magadan2          1015.125
       125   02 Jun 2027 04:26:49.720   02 Jun 2027 04:27:52.389            62.669                Anadyr1          1958.406
       126   02 Jun 2027 04:27:52.389   02 Jun 2027 04:28:52.608            60.219                Anadyr2          1881.844
       127   02 Jun 2027 04:29:00.083   02 Jun 2027 04:30:36.848            96.765               Magadan1          3023.906
       128   02 Jun 2027 04:38:18.624   02 Jun 2027 04:39:01.374            42.750                Norilsk          1335.938
       129   02 Jun 2027 04:39:07.205   02 Jun 2027 04:39:27.833            20.628                Norilsk           644.625
       130   02 Jun 2027 06:02:13.329   02 Jun 2027 06:02:16.344             3.015               Magadan2            94.219
       131   02 Jun 2027 06:02:34.000   02 Jun 2027 06:02:54.803            20.803               Magadan1           650.094
       132   02 Jun 2027 06:02:54.803   02 Jun 2027 06:04:00.768            65.965               Magadan2          2061.406
       133   02 Jun 2027 06:04:03.895   02 Jun 2027 06:05:26.619            82.724               Magadan2          2585.125
       134   02 Jun 2027 07:38:18.714   02 Jun 2027 07:39:59.324           100.610               Magadan2          3144.062
       135   02 Jun 2027 07:39:59.324   02 Jun 2027 07:40:23.590            24.266               Magadan1           758.313
       136   02 Jun 2027 07:40:26.082   02 Jun 2027 07:40:52.823            26.741                Anadyr2           835.656
       137   02 Jun 2027 07:41:48.369   02 Jun 2027 07:42:06.419            18.050               Magadan2           564.062
       138   02 Jun 2027 07:42:20.066   02 Jun 2027 07:42:54.733            34.667                Anadyr1          1083.344
       139   02 Jun 2027 08:19:17.724   02 Jun 2027 08:19:22.596             4.872            RioGallegos           152.250
       140   02 Jun 2027 09:14:13.387   02 Jun 2027 09:15:19.898            66.511               Magadan1          2078.469
       141   02 Jun 2027 09:15:22.295   02 Jun 2027 09:15:42.592            20.297               Magadan2           634.281
       142   02 Jun 2027 09:16:12.822   02 Jun 2027 09:17:52.822           100.000               Magadan1          3125.000
       143   02 Jun 2027 09:18:36.183   02 Jun 2027 09:18:36.405             0.222               Magadan2             6.938
       144   02 Jun 2027 09:18:38.379   02 Jun 2027 09:19:18.761            40.382                Irkutsk          1261.938
       145   02 Jun 2027 09:20:00.037   02 Jun 2027 09:20:04.471             4.434                Novosib           138.562
       146   02 Jun 2027 09:54:12.372   02 Jun 2027 09:54:12.824             0.452            RioGallegos            14.125
       147   02 Jun 2027 09:55:08.989   02 Jun 2027 09:56:22.217            73.228            RioGallegos          2288.375
       148   02 Jun 2027 09:58:19.939   02 Jun 2027 09:58:23.790             3.851            RioGallegos           120.344
       149   02 Jun 2027 09:59:29.487   02 Jun 2027 09:59:58.143            28.656            RioGallegos           895.500
       150   02 Jun 2027 10:29:07.945   02 Jun 2027 10:29:20.742            12.797                Sumatra           399.906
       151   02 Jun 2027 10:29:49.981   02 Jun 2027 10:31:04.491            74.510                Sumatra          2328.437
       152   02 Jun 2027 10:42:27.524   02 Jun 2027 10:43:23.034            55.510                  Delhi          1734.687
       153   02 Jun 2027 10:51:32.631   02 Jun 2027 10:51:40.522             7.891                Irkutsk           246.594
       154   02 Jun 2027 10:51:51.597   02 Jun 2027 10:52:28.156            36.559                Novosib          1142.469
       155   02 Jun 2027 10:52:36.178   02 Jun 2027 10:52:42.573             6.395                Irkutsk           199.844
       156   02 Jun 2027 10:52:45.642   02 Jun 2027 10:53:22.552            36.910                Irkutsk          1153.438
       157   02 Jun 2027 10:53:34.375   02 Jun 2027 10:53:47.381            13.006                Novosib           406.438
       158   02 Jun 2027 10:54:16.332   02 Jun 2027 10:55:17.644            61.312                Irkutsk          1916.000
       159   02 Jun 2027 11:35:22.483   02 Jun 2027 11:36:19.398            56.915            RioGallegos          1778.594
       160   02 Jun 2027 12:09:49.162   02 Jun 2027 12:11:18.071            88.909                Sumatra          2778.406
       161   02 Jun 2027 12:20:45.600   02 Jun 2027 12:21:41.978            56.378                Novosib          1761.813
       162   02 Jun 2027 12:23:36.949   02 Jun 2027 12:23:47.585            10.636                Novosib           332.375
       163   02 Jun 2027 12:24:10.673   02 Jun 2027 12:25:09.496            58.823                Novosib          1838.219
       164   02 Jun 2027 12:34:44.260   02 Jun 2027 12:35:14.081            29.821                Norilsk           931.906
       165   02 Jun 2027 13:54:30.288   02 Jun 2027 13:57:14.524           164.236                  Delhi          5132.375
       166   02 Jun 2027 13:58:58.040   02 Jun 2027 14:00:10.085            72.045                 Moscow          2251.406
       167   02 Jun 2027 14:01:04.599   02 Jun 2027 14:02:49.825           105.226              Murmansk1          3288.313
       168   02 Jun 2027 14:02:49.825   02 Jun 2027 14:03:37.722            47.897              Murmansk2          1496.781
       169   02 Jun 2027 14:04:17.775   02 Jun 2027 14:04:52.703            34.928                Norilsk          1091.500
       170   02 Jun 2027 14:06:57.947   02 Jun 2027 14:07:44.277            46.330                Norilsk          1447.812
       171   02 Jun 2027 15:12:53.509   02 Jun 2027 15:14:06.933            73.424               CapeTown          2294.500
       172   02 Jun 2027 15:14:29.691   02 Jun 2027 15:15:37.409            67.718               CapeTown          2116.188
       173   02 Jun 2027 15:17:09.588   02 Jun 2027 15:17:40.951            31.363               CapeTown           980.094
       174   02 Jun 2027 15:37:51.283   02 Jun 2027 15:38:43.293            52.010              Murmansk1          1625.313
       175   02 Jun 2027 15:44:32.573   02 Jun 2027 15:46:08.803            96.230              Murmansk1          3007.188
       176   02 Jun 2027 15:52:19.319   02 Jun 2027 15:52:51.111            31.792                Anadyr1           993.500
       177   02 Jun 2027 15:54:56.371   02 Jun 2027 15:55:50.404            54.033                Anadyr1          1688.531
       178   02 Jun 2027 15:55:55.804   02 Jun 2027 15:56:03.368             7.564                Anadyr2           236.375
       179   02 Jun 2027 16:47:05.127   02 Jun 2027 16:49:27.361           142.234               CapeTown          4444.813
       180   02 Jun 2027 17:16:46.629   02 Jun 2027 17:17:36.446            49.817              Murmansk1          1556.781
       181   02 Jun 2027 17:18:26.173   02 Jun 2027 17:19:51.712            85.539              Murmansk2          2673.094
       182   02 Jun 2027 17:27:43.602   02 Jun 2027 17:28:06.749            23.147                Anadyr2           723.344
       183   02 Jun 2027 17:28:29.456   02 Jun 2027 17:28:46.821            17.365                Anadyr1           542.656
       184   02 Jun 2027 17:28:56.794   02 Jun 2027 17:29:04.240             7.446                Anadyr1           232.687
       185   02 Jun 2027 17:31:37.715   02 Jun 2027 17:33:43.936           126.221               Magadan1          3944.406
       186   02 Jun 2027 17:33:51.532   02 Jun 2027 17:34:02.371            10.839               Magadan1           338.719
       187   02 Jun 2027 19:03:37.357   02 Jun 2027 19:07:45.692           248.335                Anadyr2          7760.469
       188   02 Jun 2027 19:08:15.585   02 Jun 2027 19:09:43.759            88.174               Magadan2          2755.437
       189   02 Jun 2027 19:09:50.063   02 Jun 2027 19:10:36.041            45.978               Magadan1          1436.813
       190   02 Jun 2027 19:14:57.966   02 Jun 2027 19:15:08.157            10.191               Magadan2           318.469
       191   02 Jun 2027 19:17:54.993   02 Jun 2027 19:17:59.274             4.281               Magadan2           133.781
       192   02 Jun 2027 20:39:30.504   02 Jun 2027 20:43:13.778           223.274                Anadyr2          6977.312
       193   02 Jun 2027 20:43:23.920   02 Jun 2027 20:45:23.682           119.762                Norilsk          3742.563
       194   02 Jun 2027 20:45:39.877   02 Jun 2027 20:46:30.533            50.656               Magadan1          1583.000
       195   02 Jun 2027 20:47:53.624   02 Jun 2027 20:48:58.248            64.624                Irkutsk          2019.500
       196   02 Jun 2027 20:49:34.785   02 Jun 2027 20:49:56.122            21.337                Irkutsk           666.781
       197   02 Jun 2027 20:51:19.656   02 Jun 2027 20:52:59.255            99.599                Irkutsk          3112.469
       198   02 Jun 2027 21:33:43.486   02 Jun 2027 21:33:54.587            11.101            RioGallegos           346.906
       199   02 Jun 2027 21:34:30.936   02 Jun 2027 21:34:44.665            13.729            RioGallegos           429.031
       200   02 Jun 2027 21:42:09.026   02 Jun 2027 21:42:18.482             9.456            RioGallegos           295.500
       201   02 Jun 2027 22:15:00.374   02 Jun 2027 22:15:28.377            28.003                Anadyr1           875.094
       202   02 Jun 2027 22:15:44.115   02 Jun 2027 22:15:51.290             7.175                Anadyr2           224.219
       203   02 Jun 2027 22:16:08.392   02 Jun 2027 22:17:23.923            75.531                Anadyr1          2360.344
       204   02 Jun 2027 22:17:38.897   02 Jun 2027 22:19:20.826           101.929                Norilsk          3185.281
       205   02 Jun 2027 22:19:58.212   02 Jun 2027 22:20:57.494            59.282               Magadan1          1852.563
       206   02 Jun 2027 22:22:27.957   02 Jun 2027 22:23:12.796            44.839                Irkutsk          1401.219
       207   02 Jun 2027 22:23:18.549   02 Jun 2027 22:24:49.455            90.906                Novosib          2840.812
       208   02 Jun 2027 22:35:05.541   02 Jun 2027 22:35:41.120            35.579                Sumatra          1111.844
       209   02 Jun 2027 22:43:31.293   02 Jun 2027 22:44:39.026            67.733                Sumatra          2116.656
       210   02 Jun 2027 23:49:30.709   02 Jun 2027 23:50:04.367            33.658                Anadyr1          1051.812
       211   02 Jun 2027 23:50:04.367   02 Jun 2027 23:50:08.595             4.228                Anadyr2           132.125
       212   02 Jun 2027 23:50:34.277   02 Jun 2027 23:51:32.126            57.849                Anadyr1          1807.781
       213   02 Jun 2027 23:52:11.104   02 Jun 2027 23:52:27.266            16.162                Anadyr1           505.062
       214   02 Jun 2027 23:53:20.439   02 Jun 2027 23:53:39.990            19.551                Norilsk           610.969
       215   02 Jun 2027 23:53:58.689   02 Jun 2027 23:55:43.630           104.941               Magadan1          3279.406
       216   02 Jun 2027 23:57:14.245   02 Jun 2027 23:58:16.488            62.243                Novosib          1945.094
       217   03 Jun 2027 00:00:35.161   03 Jun 2027 00:00:55.042            19.881                Novosib           621.281
       218   03 Jun 2027 00:02:35.278   03 Jun 2027 00:03:54.886            79.608                Novosib          2487.750
       219   03 Jun 2027 00:05:40.394   03 Jun 2027 00:07:07.836            87.442                  Delhi          2732.562
       220   03 Jun 2027 00:46:30.714   03 Jun 2027 00:47:03.926            33.212            RioGallegos          1037.875
       221   03 Jun 2027 00:52:33.446   03 Jun 2027 00:53:14.803            41.357            RioGallegos          1292.406
       222   03 Jun 2027 01:22:55.234   03 Jun 2027 01:23:19.373            24.139                Anadyr2           754.344
       223   03 Jun 2027 01:24:07.680   03 Jun 2027 01:24:20.732            13.052                Anadyr2           407.875
       224   03 Jun 2027 01:24:47.553   03 Jun 2027 01:25:09.767            22.214                Anadyr2           694.188
       225   03 Jun 2027 01:25:29.264   03 Jun 2027 01:25:46.443            17.179                Anadyr2           536.844
       226   03 Jun 2027 01:25:56.630   03 Jun 2027 01:26:09.567            12.937                Anadyr1           404.281
       227   03 Jun 2027 01:28:20.603   03 Jun 2027 01:28:38.546            17.943                Anadyr1           560.719
       228   03 Jun 2027 01:28:44.046   03 Jun 2027 01:28:55.165            11.119                Anadyr1           347.469
       229   03 Jun 2027 01:29:06.309   03 Jun 2027 01:31:14.319           128.010               Magadan1          4000.313
       230   03 Jun 2027 01:31:36.055   03 Jun 2027 01:31:57.910            21.855              Murmansk2           682.969
       231   03 Jun 2027 01:33:00.566   03 Jun 2027 01:34:05.077            64.511              Murmansk2          2015.969
       232   03 Jun 2027 01:34:38.182   03 Jun 2027 01:35:24.286            46.104                Novosib          1440.750
       233   03 Jun 2027 01:39:07.016   03 Jun 2027 01:39:23.930            16.914                 Moscow           528.562
       234   03 Jun 2027 01:42:26.513   03 Jun 2027 01:42:32.095             5.582                  Delhi           174.438
       235   03 Jun 2027 01:42:39.966   03 Jun 2027 01:44:27.922           107.956                  Delhi          3373.625
       236   03 Jun 2027 02:56:27.662   03 Jun 2027 02:59:07.815           160.153                Anadyr2          5004.781
       237   03 Jun 2027 02:59:43.681   03 Jun 2027 02:59:44.939             1.258                Anadyr2            39.312
       238   03 Jun 2027 03:00:00.180   03 Jun 2027 03:00:39.283            39.103                Anadyr1          1221.969
       239   03 Jun 2027 03:14:13.550   03 Jun 2027 03:15:05.536            51.986                Norilsk          1624.562
       240   03 Jun 2027 03:15:12.888   03 Jun 2027 03:16:06.497            53.609                Norilsk          1675.281
       241   03 Jun 2027 03:16:56.693   03 Jun 2027 03:17:08.955            12.262                Novosib           383.188
       242   03 Jun 2027 03:17:46.525   03 Jun 2027 03:21:02.040           195.515                 Moscow          6109.844
       243   03 Jun 2027 03:34:46.163   03 Jun 2027 03:38:16.691           210.528               CapeTown          6579.000
       244   03 Jun 2027 04:31:18.170   03 Jun 2027 04:35:38.348           260.178                Anadyr1          8130.562
       245   03 Jun 2027 04:35:52.639   03 Jun 2027 04:36:08.594            15.955               Magadan1           498.594
       246   03 Jun 2027 04:37:39.733   03 Jun 2027 04:37:59.981            20.248               Magadan2           632.750
       247   03 Jun 2027 04:38:25.939   03 Jun 2027 04:39:31.270            65.331                Anadyr2          2041.594
       248   03 Jun 2027 04:39:56.423   03 Jun 2027 04:41:34.160            97.737               Magadan1          3054.281
       249   03 Jun 2027 06:12:39.878   03 Jun 2027 06:12:58.830            18.952                Anadyr2           592.250
       250   03 Jun 2027 06:12:58.830   03 Jun 2027 06:14:14.032            75.202                Anadyr1          2350.063
       251   03 Jun 2027 06:14:23.199   03 Jun 2027 06:14:39.321            16.122               Magadan2           503.813
       252   03 Jun 2027 06:14:39.321   03 Jun 2027 06:14:53.227            13.906               Magadan1           434.562
       253   03 Jun 2027 06:15:13.002   03 Jun 2027 06:16:23.240            70.238                Anadyr2          2194.937
       254   03 Jun 2027 06:16:36.758   03 Jun 2027 06:16:57.906            21.148               Magadan1           660.875
       255   03 Jun 2027 06:16:57.906   03 Jun 2027 06:17:20.035            22.129               Magadan2           691.531
       256   03 Jun 2027 06:17:38.180   03 Jun 2027 06:17:55.199            17.019                Anadyr2           531.844
       257   03 Jun 2027 07:47:52.990   03 Jun 2027 07:48:17.124            24.134                Anadyr2           754.187
       258   03 Jun 2027 07:48:23.225   03 Jun 2027 07:48:41.676            18.451                Anadyr1           576.594
       259   03 Jun 2027 07:48:57.092   03 Jun 2027 07:49:26.687            29.595                Anadyr1           924.844
       260   03 Jun 2027 07:49:51.930   03 Jun 2027 07:50:21.259            29.329               Magadan2           916.531
       261   03 Jun 2027 07:50:38.179   03 Jun 2027 07:51:54.953            76.774                Anadyr2          2399.188
       262   03 Jun 2027 07:52:12.457   03 Jun 2027 07:52:55.595            43.138               Magadan1          1348.062
       263   03 Jun 2027 07:53:11.830   03 Jun 2027 07:53:14.339             2.509               Magadan2            78.406
       264   03 Jun 2027 07:53:19.771   03 Jun 2027 07:54:08.343            48.572               Magadan2          1517.875
       265   03 Jun 2027 07:54:58.384   03 Jun 2027 07:55:16.343            17.959                Anadyr1           561.219
       266   03 Jun 2027 08:31:00.268   03 Jun 2027 08:31:45.226            44.958            RioGallegos          1404.938
       267   03 Jun 2027 08:33:19.758   03 Jun 2027 08:33:34.900            15.142            RioGallegos           473.188
       268   03 Jun 2027 09:10:26.726   03 Jun 2027 09:10:50.152            23.426                Sumatra           732.063
       269   03 Jun 2027 09:24:18.639   03 Jun 2027 09:24:56.434            37.795               Magadan2          1181.094
       270   03 Jun 2027 09:26:12.839   03 Jun 2027 09:27:12.975            60.136               Magadan1          1879.250
       271   03 Jun 2027 09:27:39.973   03 Jun 2027 09:27:49.706             9.733                Irkutsk           304.156
       272   03 Jun 2027 09:28:00.366   03 Jun 2027 09:28:05.128             4.762               Magadan2           148.813
       273   03 Jun 2027 09:28:14.417   03 Jun 2027 09:29:03.446            49.029               Magadan2          1532.156
       274   03 Jun 2027 09:29:25.156   03 Jun 2027 09:29:34.846             9.690                Irkutsk           302.813
       275   03 Jun 2027 09:29:50.222   03 Jun 2027 09:30:16.363            26.141               Magadan2           816.906
       276   03 Jun 2027 09:30:41.630   03 Jun 2027 09:30:43.219             1.589                Irkutsk            49.656
       277   03 Jun 2027 09:30:45.861   03 Jun 2027 09:31:03.294            17.433                Novosib           544.781
       278   03 Jun 2027 09:31:06.052   03 Jun 2027 09:31:14.247             8.195                Irkutsk           256.094
       279   03 Jun 2027 09:31:17.221   03 Jun 2027 09:31:23.508             6.287                Irkutsk           196.469
       280   03 Jun 2027 09:31:24.696   03 Jun 2027 09:31:36.134            11.438                Norilsk           357.437
       281   03 Jun 2027 10:06:21.165   03 Jun 2027 10:07:23.309            62.144            RioGallegos          1942.000
       282   03 Jun 2027 10:41:04.553   03 Jun 2027 10:41:52.971            48.418                Sumatra          1513.063
       283   03 Jun 2027 10:53:55.775   03 Jun 2027 10:55:37.020           101.245                  Delhi          3163.906
       284   03 Jun 2027 11:03:39.355   03 Jun 2027 11:03:40.781             1.426                Irkutsk            44.562
       285   03 Jun 2027 11:04:40.701   03 Jun 2027 11:04:57.195            16.494                Novosib           515.438
       286   03 Jun 2027 11:05:05.668   03 Jun 2027 11:05:08.106             2.438                Irkutsk            76.187
       287   03 Jun 2027 11:05:14.309   03 Jun 2027 11:05:15.077             0.768                Novosib            24.000
       288   03 Jun 2027 11:05:20.906   03 Jun 2027 11:05:50.680            29.774                Irkutsk           930.437
       289   03 Jun 2027 11:06:16.734   03 Jun 2027 11:06:29.086            12.352                Novosib           386.000
       290   03 Jun 2027 11:06:41.157   03 Jun 2027 11:07:02.927            21.770                Norilsk           680.312
       291   03 Jun 2027 11:07:10.099   03 Jun 2027 11:08:21.540            71.441                Novosib          2232.531
       292   03 Jun 2027 11:50:14.776   03 Jun 2027 11:50:41.273            26.497            RioGallegos           828.031
       293   03 Jun 2027 12:27:38.045   03 Jun 2027 12:29:44.406           126.361                  Delhi          3948.781
       294   03 Jun 2027 12:33:06.364   03 Jun 2027 12:33:19.320            12.956                Novosib           404.875
       295   03 Jun 2027 12:35:41.032   03 Jun 2027 12:35:48.483             7.451                Novosib           232.844
       296   03 Jun 2027 12:37:09.750   03 Jun 2027 12:38:14.039            64.289                Norilsk          2009.031
       297   03 Jun 2027 12:40:42.429   03 Jun 2027 12:40:58.664            16.235                Norilsk           507.344
       298   03 Jun 2027 12:41:32.283   03 Jun 2027 12:41:50.706            18.423                Norilsk           575.719
       299   03 Jun 2027 12:46:46.557   03 Jun 2027 12:47:01.632            15.075                Norilsk           471.094
       300   03 Jun 2027 14:09:41.115   03 Jun 2027 14:12:24.481           163.366                 Moscow          5105.187
       301   03 Jun 2027 14:12:48.040   03 Jun 2027 14:13:30.617            42.577                 Moscow          1330.531
       302   03 Jun 2027 14:13:57.209   03 Jun 2027 14:16:27.788           150.579              Murmansk2          4705.594
       303   03 Jun 2027 14:16:58.485   03 Jun 2027 14:17:19.538            21.053                Norilsk           657.906
       304   03 Jun 2027 14:20:33.693   03 Jun 2027 14:20:54.060            20.367                Norilsk           636.469
       305   03 Jun 2027 15:24:22.638   03 Jun 2027 15:27:23.243           180.605               CapeTown          5643.906
       306   03 Jun 2027 15:28:38.830   03 Jun 2027 15:29:17.373            38.543               CapeTown          1204.469
       307   03 Jun 2027 15:46:56.448   03 Jun 2027 15:47:30.553            34.105                 Moscow          1065.781
       308   03 Jun 2027 15:50:07.399   03 Jun 2027 15:50:09.510             2.111              Murmansk1            65.969
       309   03 Jun 2027 15:50:26.940   03 Jun 2027 15:52:17.379           110.439              Murmansk2          3451.219
       310   03 Jun 2027 16:04:12.603   03 Jun 2027 16:04:38.760            26.157                Anadyr2           817.406
       311   03 Jun 2027 16:04:38.760   03 Jun 2027 16:05:46.705            67.945                Anadyr1          2123.281
       312   03 Jun 2027 16:06:18.010   03 Jun 2027 16:06:55.274            37.264                Anadyr2          1164.500
       313   03 Jun 2027 16:10:15.935   03 Jun 2027 16:11:25.919            69.984                Anadyr2          2187.000
       314   03 Jun 2027 17:04:13.199   03 Jun 2027 17:04:23.279            10.080               CapeTown           315.000
       315   03 Jun 2027 17:29:22.681   03 Jun 2027 17:32:33.551           190.870              Murmansk2          5964.687
       316   03 Jun 2027 17:34:07.710   03 Jun 2027 17:34:28.277            20.567              Murmansk1           642.719
       317   03 Jun 2027 17:39:44.147   03 Jun 2027 17:40:50.517            66.370                Anadyr1          2074.062
       318   03 Jun 2027 17:43:13.518   03 Jun 2027 17:44:10.392            56.874               Magadan2          1777.313
       319   03 Jun 2027 17:44:10.392   03 Jun 2027 17:44:24.646            14.254               Magadan1           445.438
       320   03 Jun 2027 17:45:29.308   03 Jun 2027 17:46:14.033            44.725               Magadan1          1397.656
       321   03 Jun 2027 17:49:53.944   03 Jun 2027 17:49:55.883             1.939               Magadan1            60.594
       322   03 Jun 2027 19:15:38.929   03 Jun 2027 19:19:35.470           236.541                Anadyr2          7391.906
       323   03 Jun 2027 19:19:52.140   03 Jun 2027 19:21:11.878            79.738               Magadan1          2491.812
       324   03 Jun 2027 19:21:11.878   03 Jun 2027 19:21:43.723            31.845               Magadan2           995.156
       325   03 Jun 2027 19:23:57.272   03 Jun 2027 19:24:21.268            23.996               Magadan2           749.875
       326   03 Jun 2027 19:25:39.226   03 Jun 2027 19:25:58.964            19.738               Magadan2           616.812
       327   03 Jun 2027 19:26:25.066   03 Jun 2027 19:26:36.395            11.329               Magadan1           354.031
       328   03 Jun 2027 19:27:00.601   03 Jun 2027 19:27:29.674            29.073               Magadan2           908.531
       329   03 Jun 2027 20:51:30.603   03 Jun 2027 20:55:18.028           227.425                Anadyr1          7107.031
       330   03 Jun 2027 20:55:24.629   03 Jun 2027 20:55:48.709            24.080                Norilsk           752.500
       331   03 Jun 2027 20:56:01.048   03 Jun 2027 20:56:08.494             7.446                Norilsk           232.687
       332   03 Jun 2027 20:56:11.968   03 Jun 2027 20:57:21.434            69.466                Norilsk          2170.813
       333   03 Jun 2027 20:57:31.162   03 Jun 2027 20:57:58.531            27.369               Magadan1           855.281
       334   03 Jun 2027 20:59:10.296   03 Jun 2027 21:01:59.138           168.842                Irkutsk          5276.312
       335   03 Jun 2027 21:05:09.019   03 Jun 2027 21:05:22.256            13.237                Irkutsk           413.656
       336   03 Jun 2027 21:15:15.105   03 Jun 2027 21:16:29.453            74.348                Sumatra          2323.375
       337   03 Jun 2027 21:17:11.362   03 Jun 2027 21:18:29.587            78.225                Sumatra          2444.531
       338   03 Jun 2027 22:29:22.839   03 Jun 2027 22:31:22.825           119.986                Norilsk          3749.563
       339   03 Jun 2027 22:31:48.171   03 Jun 2027 22:32:00.258            12.087               Magadan1           377.719
       340   03 Jun 2027 22:33:21.819   03 Jun 2027 22:34:35.761            73.942                Irkutsk          2310.687
       341   03 Jun 2027 22:35:05.380   03 Jun 2027 22:35:17.865            12.485                Novosib           390.156
       342   03 Jun 2027 22:36:58.377   03 Jun 2027 22:37:13.125            14.748                Novosib           460.875
       343   03 Jun 2027 22:37:17.690   03 Jun 2027 22:37:39.719            22.029                Novosib           688.406
       344   03 Jun 2027 22:38:03.543   03 Jun 2027 22:38:21.820            18.277                Novosib           571.156
       345   03 Jun 2027 22:47:04.962   03 Jun 2027 22:47:22.885            17.923                Sumatra           560.094
       346   03 Jun 2027 22:49:38.614   03 Jun 2027 22:49:51.686            13.072                Sumatra           408.500
       347   03 Jun 2027 22:51:11.077   03 Jun 2027 22:51:42.438            31.361                Sumatra           980.031
       348   03 Jun 2027 22:53:00.734   03 Jun 2027 22:53:40.255            39.521                Sumatra          1235.031
       349   04 Jun 2027 00:01:15.855   04 Jun 2027 00:03:28.418           132.563                Anadyr1          4142.594
       350   04 Jun 2027 00:05:22.558   04 Jun 2027 00:05:40.826            18.268                Norilsk           570.875
       351   04 Jun 2027 00:05:59.828   04 Jun 2027 00:07:11.551            71.723               Magadan2          2241.344
       352   04 Jun 2027 00:07:12.207   04 Jun 2027 00:08:05.083            52.876               Magadan1          1652.375
       353   04 Jun 2027 00:08:50.947   04 Jun 2027 00:11:21.735           150.788              Murmansk1          4712.125
       354   04 Jun 2027 00:17:32.808   04 Jun 2027 00:17:43.920            11.112                  Delhi           347.250
       355   04 Jun 2027 00:20:02.285   04 Jun 2027 00:20:18.092            15.807                  Delhi           493.969
       356   04 Jun 2027 00:23:30.018   04 Jun 2027 00:24:18.003            47.985                  Delhi          1499.531
       357   04 Jun 2027 00:28:55.026   04 Jun 2027 00:29:02.223             7.197                  Delhi           224.906
       358   04 Jun 2027 00:58:05.623   04 Jun 2027 00:58:19.617            13.994            RioGallegos           437.312
       359   04 Jun 2027 00:59:30.578   04 Jun 2027 00:59:31.394             0.816            RioGallegos            25.500
       360   04 Jun 2027 00:59:37.518   04 Jun 2027 01:00:37.504            59.986            RioGallegos          1874.563
       361   04 Jun 2027 01:34:36.426   04 Jun 2027 01:35:02.532            26.106                Anadyr1           815.812
       362   04 Jun 2027 01:35:08.293   04 Jun 2027 01:36:05.520            57.227                Anadyr2          1788.344
       363   04 Jun 2027 01:36:45.708   04 Jun 2027 01:36:51.999             6.291                Anadyr2           196.594
       364   04 Jun 2027 01:36:51.999   04 Jun 2027 01:37:13.771            21.772                Anadyr1           680.375
       365   04 Jun 2027 01:37:59.370   04 Jun 2027 01:38:01.593             2.223                Anadyr1            69.469
       366   04 Jun 2027 01:40:21.289   04 Jun 2027 01:40:43.862            22.573                Anadyr1           705.406
       367   04 Jun 2027 01:40:47.403   04 Jun 2027 01:42:28.976           101.573               Magadan2          3174.156
       368   04 Jun 2027 01:42:43.854   04 Jun 2027 01:43:07.571            23.717               Magadan2           741.156
       369   04 Jun 2027 01:43:35.474   04 Jun 2027 01:45:58.773           143.299              Murmansk1          4478.094
       370   04 Jun 2027 01:50:28.128   04 Jun 2027 01:50:53.315            25.187                 Moscow           787.094
       371   04 Jun 2027 01:54:00.149   04 Jun 2027 01:54:38.645            38.496                  Delhi          1203.000
       372   04 Jun 2027 01:59:07.189   04 Jun 2027 01:59:42.100            34.911                  Delhi          1090.969
       373   04 Jun 2027 02:17:43.935   04 Jun 2027 02:19:04.226            80.291               CapeTown          2509.094
       374   04 Jun 2027 03:12:40.722   04 Jun 2027 03:12:55.798            15.076                Anadyr1           471.125
       375   04 Jun 2027 03:17:39.689   04 Jun 2027 03:17:41.430             1.741                Anadyr2            54.406
       376   04 Jun 2027 03:18:21.776   04 Jun 2027 03:18:50.400            28.624                Anadyr1           894.500
       377   04 Jun 2027 03:27:09.042   04 Jun 2027 03:27:27.299            18.257                Novosib           570.531
       378   04 Jun 2027 03:29:03.469   04 Jun 2027 03:29:32.414            28.945                Novosib           904.531
       379   04 Jun 2027 03:30:22.066   04 Jun 2027 03:33:27.802           185.736                 Moscow          5804.250
       380   04 Jun 2027 03:34:21.729   04 Jun 2027 03:35:26.903            65.174                 Moscow          2036.687
       381   04 Jun 2027 03:46:39.078   04 Jun 2027 03:50:26.348           227.270               CapeTown          7102.187
       382   04 Jun 2027 03:55:30.209   04 Jun 2027 03:56:11.404            41.195               CapeTown          1287.344
       383   04 Jun 2027 04:43:19.134   04 Jun 2027 04:46:39.957           200.823                Anadyr2          6275.719
       384   04 Jun 2027 04:46:39.957   04 Jun 2027 04:47:05.295            25.338                Anadyr1           791.813
       385   04 Jun 2027 04:48:11.375   04 Jun 2027 04:48:38.119            26.744               Magadan2           835.750
       386   04 Jun 2027 04:50:02.844   04 Jun 2027 04:53:56.468           233.624               Magadan1          7300.750
       387   04 Jun 2027 04:53:56.468   04 Jun 2027 04:55:48.558           112.090               Magadan2          3502.813
       388   04 Jun 2027 04:55:53.971   04 Jun 2027 04:56:15.581            21.610                Anadyr2           675.313
       389   04 Jun 2027 06:23:55.260   04 Jun 2027 06:24:41.141            45.881                Anadyr1          1433.781
       390   04 Jun 2027 06:24:47.017   04 Jun 2027 06:25:07.225            20.208                Anadyr2           631.500
       391   04 Jun 2027 06:25:34.592   04 Jun 2027 06:25:41.750             7.158                Anadyr1           223.687
       392   04 Jun 2027 06:25:51.046   04 Jun 2027 06:26:12.467            21.421                Anadyr2           669.406
       393   04 Jun 2027 06:26:17.952   04 Jun 2027 06:26:47.303            29.351               Magadan1           917.219
       394   04 Jun 2027 06:27:10.604   04 Jun 2027 06:27:19.147             8.543                Anadyr1           266.969
       395   04 Jun 2027 06:27:40.278   04 Jun 2027 06:27:55.208            14.930               Magadan2           466.563
       396   04 Jun 2027 06:27:59.217   04 Jun 2027 06:28:05.949             6.732               Magadan2           210.375
       397   04 Jun 2027 06:28:07.330   04 Jun 2027 06:28:30.612            23.282               Magadan2           727.563
       398   04 Jun 2027 06:28:31.910   04 Jun 2027 06:28:34.528             2.618               Magadan2            81.812
       399   04 Jun 2027 06:28:42.215   04 Jun 2027 06:29:14.647            32.432                Anadyr2          1013.500
       400   04 Jun 2027 06:29:14.647   04 Jun 2027 06:29:50.998            36.351                Anadyr1          1135.969
       401   04 Jun 2027 07:58:33.441   04 Jun 2027 07:59:05.596            32.155               Magadan2          1004.844
       402   04 Jun 2027 07:59:07.635   04 Jun 2027 08:00:16.262            68.627               Magadan1          2144.594
       403   04 Jun 2027 08:00:44.961   04 Jun 2027 08:01:36.199            51.238                Anadyr1          1601.187
       404   04 Jun 2027 08:01:39.336   04 Jun 2027 08:01:41.440             2.104               Magadan2            65.750
       405   04 Jun 2027 08:02:23.589   04 Jun 2027 08:02:50.731            27.142               Magadan2           848.187
       406   04 Jun 2027 08:03:59.377   04 Jun 2027 08:04:15.592            16.215               Magadan2           506.719
       407   04 Jun 2027 08:04:38.617   04 Jun 2027 08:05:15.572            36.955                Anadyr1          1154.844
       408   04 Jun 2027 08:05:19.617   04 Jun 2027 08:05:56.761            37.144                Anadyr2          1160.750
       409   04 Jun 2027 08:06:09.953   04 Jun 2027 08:06:46.489            36.536               Magadan1          1141.750
       410   04 Jun 2027 08:08:39.731   04 Jun 2027 08:09:01.464            21.733              Murmansk1           679.156
       411   04 Jun 2027 08:42:46.063   04 Jun 2027 08:43:35.467            49.404            RioGallegos          1543.875
       412   04 Jun 2027 08:48:26.175   04 Jun 2027 08:48:49.991            23.816            RioGallegos           744.250
       413   04 Jun 2027 09:20:29.040   04 Jun 2027 09:21:47.076            78.036                Sumatra          2438.625
       414   04 Jun 2027 09:36:32.730   04 Jun 2027 09:37:02.493            29.763               Magadan1           930.094
       415   04 Jun 2027 09:37:29.254   04 Jun 2027 09:37:29.366             0.112                Irkutsk             3.500
       416   04 Jun 2027 09:38:10.544   04 Jun 2027 09:38:19.376             8.832                Irkutsk           276.000
       417   04 Jun 2027 09:39:44.763   04 Jun 2027 09:40:09.357            24.594                Irkutsk           768.563
       418   04 Jun 2027 09:40:20.439   04 Jun 2027 09:41:22.706            62.267                Irkutsk          1945.844
       419   04 Jun 2027 09:41:33.661   04 Jun 2027 09:41:34.084             0.423                Irkutsk            13.219
       420   04 Jun 2027 09:42:15.805   04 Jun 2027 09:42:49.024            33.219                Irkutsk          1038.094
       421   04 Jun 2027 09:42:58.372   04 Jun 2027 09:43:01.762             3.390                Irkutsk           105.937
       422   04 Jun 2027 09:43:06.880   04 Jun 2027 09:43:14.752             7.872                Novosib           246.000
       423   04 Jun 2027 09:43:18.151   04 Jun 2027 09:43:48.104            29.953                Novosib           936.031
       424   04 Jun 2027 10:18:33.718   04 Jun 2027 10:18:51.909            18.191            RioGallegos           568.469
       425   04 Jun 2027 10:19:44.143   04 Jun 2027 10:19:47.274             3.131            RioGallegos            97.844
       426   04 Jun 2027 10:21:21.804   04 Jun 2027 10:21:25.606             3.802            RioGallegos           118.812
       427   04 Jun 2027 10:22:42.288   04 Jun 2027 10:22:50.267             7.979            RioGallegos           249.344
       428   04 Jun 2027 10:54:38.069   04 Jun 2027 10:55:41.765            63.696                Sumatra          1990.500
       429   04 Jun 2027 11:02:49.705   04 Jun 2027 11:03:21.279            31.574                  Delhi           986.687
       430   04 Jun 2027 11:13:01.104   04 Jun 2027 11:13:03.178             2.074                  Delhi            64.812
       431   04 Jun 2027 11:16:06.114   04 Jun 2027 11:16:56.779            50.665                Irkutsk          1583.281
       432   04 Jun 2027 11:17:30.342   04 Jun 2027 11:17:39.065             8.723                Irkutsk           272.594
       433   04 Jun 2027 11:17:44.895   04 Jun 2027 11:18:12.878            27.983                Norilsk           874.469
       434   04 Jun 2027 11:18:43.241   04 Jun 2027 11:19:03.926            20.685                Norilsk           646.406
       435   04 Jun 2027 11:19:15.146   04 Jun 2027 11:20:09.844            54.698                Novosib          1709.312
       436   04 Jun 2027 11:59:38.467   04 Jun 2027 12:00:14.094            35.627            RioGallegos          1113.344
       437   04 Jun 2027 12:37:32.966   04 Jun 2027 12:37:39.472             6.506                  Delhi           203.313
       438   04 Jun 2027 12:39:29.488   04 Jun 2027 12:40:19.030            49.542                  Delhi          1548.187
       439   04 Jun 2027 12:40:48.121   04 Jun 2027 12:42:13.400            85.279                  Delhi          2664.969
       440   04 Jun 2027 12:45:31.403   04 Jun 2027 12:46:11.717            40.314                Novosib          1259.813
       441   04 Jun 2027 12:49:21.811   04 Jun 2027 12:50:24.576            62.765                Novosib          1961.406
       442   04 Jun 2027 12:53:33.977   04 Jun 2027 12:54:40.682            66.705                Norilsk          2084.531
       443   04 Jun 2027 14:21:41.406   04 Jun 2027 14:24:07.476           146.070                 Moscow          4564.687
       444   04 Jun 2027 14:24:51.284   04 Jun 2027 14:25:08.849            17.565                 Moscow           548.906
       445   04 Jun 2027 14:25:10.264   04 Jun 2027 14:26:33.253            82.989              Murmansk1          2593.406
       446   04 Jun 2027 14:26:33.253   04 Jun 2027 14:26:51.140            17.887              Murmansk2           558.969
       447   04 Jun 2027 14:27:30.560   04 Jun 2027 14:28:05.051            34.491              Murmansk2          1077.844
       448   04 Jun 2027 14:29:43.241   04 Jun 2027 14:31:01.817            78.576                Norilsk          2455.500
       449   04 Jun 2027 14:33:18.663   04 Jun 2027 14:34:26.691            68.028                Norilsk          2125.875
       450   04 Jun 2027 15:36:00.420   04 Jun 2027 15:37:05.525            65.105               CapeTown          2034.531
       451   04 Jun 2027 15:40:17.858   04 Jun 2027 15:40:53.546            35.688               CapeTown          1115.250
       452   04 Jun 2027 15:59:25.259   04 Jun 2027 16:00:09.502            44.243                 Moscow          1382.594
       453   04 Jun 2027 16:02:25.597   04 Jun 2027 16:02:51.357            25.760              Murmansk1           805.000
       454   04 Jun 2027 16:03:30.349   04 Jun 2027 16:03:37.726             7.377              Murmansk2           230.531
       455   04 Jun 2027 16:04:27.911   04 Jun 2027 16:06:15.164           107.253              Murmansk1          3351.656
       456   04 Jun 2027 16:16:07.770   04 Jun 2027 16:18:13.031           125.261                Anadyr1          3914.406
       457   04 Jun 2027 17:11:16.215   04 Jun 2027 17:12:09.361            53.146               CapeTown          1660.813
       458   04 Jun 2027 17:20:50.173   04 Jun 2027 17:20:58.320             8.147               CapeTown           254.594
       459   04 Jun 2027 17:42:02.282   04 Jun 2027 17:44:35.284           153.002              Murmansk1          4781.313
       460   04 Jun 2027 17:45:12.679   04 Jun 2027 17:46:06.569            53.890              Murmansk1          1684.063
       461   04 Jun 2027 17:51:44.991   04 Jun 2027 17:52:40.996            56.005                Anadyr2          1750.156
       462   04 Jun 2027 17:53:18.734   04 Jun 2027 17:53:41.116            22.382                Anadyr2           699.437
       463   04 Jun 2027 17:54:56.880   04 Jun 2027 17:56:17.285            80.405               Magadan2          2512.656
       464   04 Jun 2027 17:56:17.285   04 Jun 2027 17:57:12.660            55.375               Magadan1          1730.469
       465   04 Jun 2027 17:57:48.990   04 Jun 2027 17:58:33.032            44.042               Magadan1          1376.313
       466   04 Jun 2027 19:27:40.457   04 Jun 2027 19:30:50.725           190.268                Anadyr1          5945.875
       467   04 Jun 2027 19:31:16.488   04 Jun 2027 19:31:27.455            10.967                Anadyr1           342.719
       468   04 Jun 2027 19:31:51.147   04 Jun 2027 19:32:19.104            27.957               Magadan1           873.656
       469   04 Jun 2027 19:32:43.744   04 Jun 2027 19:33:46.269            62.525               Magadan2          1953.906
       470   04 Jun 2027 19:33:54.447   04 Jun 2027 19:34:59.186            64.739               Magadan2          2023.094
       471   04 Jun 2027 19:38:05.434   04 Jun 2027 19:38:18.898            13.464               Magadan2           420.750
       472   04 Jun 2027 20:24:14.368   04 Jun 2027 20:26:30.529           136.161            RioGallegos          4255.031
       473   04 Jun 2027 21:03:30.295   04 Jun 2027 21:05:41.169           130.874                Anadyr1          4089.812
       474   04 Jun 2027 21:05:53.710   04 Jun 2027 21:07:24.120            90.410               Magadan2          2825.312
       475   04 Jun 2027 21:07:25.702   04 Jun 2027 21:08:34.076            68.374                Norilsk          2136.687
       476   04 Jun 2027 21:08:47.626   04 Jun 2027 21:09:17.204            29.578                Norilsk           924.313
       477   04 Jun 2027 21:10:42.749   04 Jun 2027 21:11:25.551            42.802                Irkutsk          1337.563
       478   04 Jun 2027 21:12:43.381   04 Jun 2027 21:13:48.464            65.083                Irkutsk          2033.844
       479   04 Jun 2027 21:25:53.860   04 Jun 2027 21:27:56.938           123.078                Sumatra          3846.187
       480   04 Jun 2027 21:31:54.916   04 Jun 2027 21:32:47.099            52.183                Sumatra          1630.719
       481   04 Jun 2027 22:39:58.524   04 Jun 2027 22:40:38.417            39.893                Anadyr1          1246.656
       482   04 Jun 2027 22:41:24.426   04 Jun 2027 22:41:55.259            30.833                Norilsk           963.531
