uniorb/output/strategy_4/Drop/Drop_KinoSat_111809.txt

KinoSat_111809
-------------------------
    Access    *     Start Time (UTCG)     *     Stop Time (UTCG)  *   Duration (s)        *       Station  *  Data (Mbytes)
         1   01 Jun 2027 04:06:50.988   01 Jun 2027 04:07:16.458            25.470              Murmansk2           795.937
         2   01 Jun 2027 04:07:19.259   01 Jun 2027 04:07:52.285            33.026                Norilsk          1032.062
         3   01 Jun 2027 04:07:54.607   01 Jun 2027 04:10:10.353           135.746                Novosib          4242.063
         4   01 Jun 2027 04:10:11.828   01 Jun 2027 04:10:50.835            39.007                Norilsk          1218.969
         5   01 Jun 2027 04:10:57.540   01 Jun 2027 04:11:13.908            16.368              Murmansk1           511.500
         6   01 Jun 2027 05:44:28.535   01 Jun 2027 05:45:41.945            73.410                Novosib          2294.063
         7   01 Jun 2027 05:46:02.863   01 Jun 2027 05:46:36.279            33.416              Murmansk2          1044.250
         8   01 Jun 2027 05:46:36.279   01 Jun 2027 05:48:41.870           125.591              Murmansk1          3924.719
         9   01 Jun 2027 05:49:53.605   01 Jun 2027 05:50:12.439            18.834                 Moscow           588.563
        10   01 Jun 2027 06:13:52.767   01 Jun 2027 06:15:29.639            96.872               CapeTown          3027.250
        11   01 Jun 2027 07:07:45.395   01 Jun 2027 07:07:52.272             6.877               Magadan1           214.906
        12   01 Jun 2027 07:08:11.282   01 Jun 2027 07:10:26.195           134.913               Magadan1          4216.031
        13   01 Jun 2027 07:10:26.195   01 Jun 2027 07:10:47.050            20.855               Magadan2           651.719
        14   01 Jun 2027 07:11:10.920   01 Jun 2027 07:11:45.918            34.998                Anadyr2          1093.687
        15   01 Jun 2027 07:11:45.918   01 Jun 2027 07:12:26.336            40.418                Anadyr1          1263.063
        16   01 Jun 2027 07:12:33.588   01 Jun 2027 07:13:13.970            40.382                Anadyr1          1261.937
        17   01 Jun 2027 08:44:27.937   01 Jun 2027 08:46:46.867           138.930               Magadan1          4341.562
        18   01 Jun 2027 08:46:46.867   01 Jun 2027 08:47:41.067            54.200               Magadan2          1693.750
        19   01 Jun 2027 10:17:37.753   01 Jun 2027 10:20:49.776           192.023               Magadan1          6000.719
        20   01 Jun 2027 10:21:47.017   01 Jun 2027 10:23:33.821           106.804                Anadyr2          3337.625
        21   01 Jun 2027 10:23:50.913   01 Jun 2027 10:24:11.245            20.332                Novosib           635.375
        22   01 Jun 2027 10:24:24.652   01 Jun 2027 10:24:52.848            28.196              Murmansk1           881.125
        23   01 Jun 2027 10:25:05.445   01 Jun 2027 10:25:59.849            54.404              Murmansk1          1700.125
        24   01 Jun 2027 10:59:30.521   01 Jun 2027 11:01:13.101           102.580            RioGallegos          3205.625
        25   01 Jun 2027 11:38:12.052   01 Jun 2027 11:39:53.408           101.356                Sumatra          3167.375
        26   01 Jun 2027 11:55:23.936   01 Jun 2027 11:57:32.669           128.733               Magadan1          4022.906
        27   01 Jun 2027 11:57:39.896   01 Jun 2027 12:00:11.415           151.519                Norilsk          4734.969
        28   01 Jun 2027 12:00:14.335   01 Jun 2027 12:00:33.740            19.405                Irkutsk           606.406
        29   01 Jun 2027 12:00:53.714   01 Jun 2027 12:03:25.065           151.351              Murmansk1          4729.719
        30   01 Jun 2027 12:03:29.957   01 Jun 2027 12:05:12.837           102.880                Norilsk          3215.000
        31   01 Jun 2027 12:05:24.139   01 Jun 2027 12:05:30.538             6.399                Norilsk           199.969
        32   01 Jun 2027 12:07:03.129   01 Jun 2027 12:07:16.710            13.581              Murmansk1           424.406
        33   01 Jun 2027 12:07:19.094   01 Jun 2027 12:08:03.765            44.671              Murmansk1          1395.969
        34   01 Jun 2027 12:08:16.181   01 Jun 2027 12:08:21.913             5.732              Murmansk1           179.125
        35   01 Jun 2027 12:40:34.468   01 Jun 2027 12:41:09.467            34.999            RioGallegos          1093.719
        36   01 Jun 2027 12:41:36.668   01 Jun 2027 12:44:06.781           150.113            RioGallegos          4691.031
        37   01 Jun 2027 12:47:24.324   01 Jun 2027 12:47:45.442            21.118            RioGallegos           659.937
        38   01 Jun 2027 13:12:10.083   01 Jun 2027 13:13:02.475            52.392                Sumatra          1637.250
        39   01 Jun 2027 13:15:48.156   01 Jun 2027 13:18:57.610           189.454                Sumatra          5920.438
        40   01 Jun 2027 13:19:59.115   01 Jun 2027 13:20:29.490            30.375                Sumatra           949.219
        41   01 Jun 2027 13:21:36.171   01 Jun 2027 13:22:27.026            50.855                Sumatra          1589.219
        42   01 Jun 2027 13:29:11.237   01 Jun 2027 13:30:20.967            69.730                  Delhi          2179.062
        43   01 Jun 2027 13:32:24.600   01 Jun 2027 13:35:55.083           210.483                Irkutsk          6577.594
        44   01 Jun 2027 14:59:16.757   01 Jun 2027 15:01:58.220           161.463                  Delhi          5045.719
        45   01 Jun 2027 15:03:06.191   01 Jun 2027 15:04:45.970            99.779                  Delhi          3118.094
        46   01 Jun 2027 15:07:59.960   01 Jun 2027 15:09:45.333           105.373                Novosib          3292.906
        47   01 Jun 2027 15:09:49.227   01 Jun 2027 15:13:05.361           196.134                Novosib          6129.188
        48   01 Jun 2027 16:43:44.582   01 Jun 2027 16:44:24.233            39.651                 Moscow          1239.094
        49   01 Jun 2027 16:46:34.941   01 Jun 2027 16:46:41.106             6.165              Murmansk2           192.656
        50   01 Jun 2027 16:46:59.320   01 Jun 2027 16:47:42.792            43.472                 Moscow          1358.500
        51   01 Jun 2027 16:48:46.127   01 Jun 2027 16:52:53.465           247.338                Norilsk          7729.312
        52   01 Jun 2027 17:56:55.687   01 Jun 2027 17:57:44.109            48.422               CapeTown          1513.188
        53   01 Jun 2027 18:02:57.211   01 Jun 2027 18:03:31.732            34.521               CapeTown          1078.781
        54   01 Jun 2027 18:17:00.630   01 Jun 2027 18:18:58.917           118.287                 Moscow          3696.469
        55   01 Jun 2027 18:19:44.949   01 Jun 2027 18:21:01.688            76.739              Murmansk2          2398.094
        56   01 Jun 2027 18:23:15.044   01 Jun 2027 18:24:27.039            71.995              Murmansk2          2249.844
        57   01 Jun 2027 18:38:05.396   01 Jun 2027 18:38:14.636             9.240                Anadyr2           288.750
        58   01 Jun 2027 18:40:22.830   01 Jun 2027 18:40:45.168            22.338                Anadyr1           698.062
        59   01 Jun 2027 18:41:06.848   01 Jun 2027 18:41:15.302             8.454                Anadyr1           264.188
        60   01 Jun 2027 18:41:22.456   01 Jun 2027 18:41:27.664             5.208                Anadyr1           162.750
        61   01 Jun 2027 19:28:25.084   01 Jun 2027 19:29:55.359            90.275               CapeTown          2821.094
        62   01 Jun 2027 19:31:42.804   01 Jun 2027 19:32:51.518            68.714               CapeTown          2147.313
        63   01 Jun 2027 19:36:52.716   01 Jun 2027 19:37:57.761            65.045               CapeTown          2032.656
        64   01 Jun 2027 19:59:46.956   01 Jun 2027 20:05:45.426           358.470              Murmansk2         11202.188
        65   01 Jun 2027 21:44:39.071   01 Jun 2027 21:48:04.906           205.835                Anadyr2          6432.344
        66   01 Jun 2027 21:48:12.122   01 Jun 2027 21:49:48.035            95.913               Magadan2          2997.281
        67   01 Jun 2027 21:50:00.879   01 Jun 2027 21:50:28.606            27.727               Magadan2           866.469
        68   01 Jun 2027 21:50:46.017   01 Jun 2027 21:51:08.710            22.693               Magadan1           709.156
        69   01 Jun 2027 21:52:00.856   01 Jun 2027 21:52:44.763            43.907               Magadan1          1372.094
        70   01 Jun 2027 21:56:47.674   01 Jun 2027 21:56:48.327             0.653               Magadan2            20.406
        71   01 Jun 2027 21:58:18.956   01 Jun 2027 21:58:19.899             0.943               Magadan2            29.469
        72   01 Jun 2027 21:59:02.777   01 Jun 2027 21:59:42.327            39.550               Magadan1          1235.937
        73   01 Jun 2027 22:40:14.817   01 Jun 2027 22:42:24.664           129.847            RioGallegos          4057.719
        74   01 Jun 2027 22:42:58.115   01 Jun 2027 22:43:05.662             7.547            RioGallegos           235.844
        75   01 Jun 2027 22:45:22.750   01 Jun 2027 22:45:46.463            23.713            RioGallegos           741.031
        76   01 Jun 2027 23:20:27.017   01 Jun 2027 23:22:22.582           115.565                Anadyr1          3611.406
        77   01 Jun 2027 23:22:32.250   01 Jun 2027 23:24:08.453            96.203                Norilsk          3006.344
        78   01 Jun 2027 23:24:22.132   01 Jun 2027 23:25:09.137            47.005               Magadan1          1468.906
        79   01 Jun 2027 23:25:29.946   01 Jun 2027 23:25:36.582             6.636                Norilsk           207.375
        80   01 Jun 2027 23:25:37.573   01 Jun 2027 23:26:33.089            55.516               Magadan1          1734.875
        81   01 Jun 2027 23:27:16.193   01 Jun 2027 23:28:07.294            51.101                Irkutsk          1596.906
        82   01 Jun 2027 23:29:14.431   01 Jun 2027 23:29:49.045            34.614                Irkutsk          1081.688
        83   01 Jun 2027 23:36:37.653   01 Jun 2027 23:36:39.586             1.933                Irkutsk            60.406
        84   01 Jun 2027 23:41:51.900   01 Jun 2027 23:43:39.887           107.987                Sumatra          3374.594
        85   01 Jun 2027 23:46:38.870   01 Jun 2027 23:46:59.020            20.150                Sumatra           629.688
        86   01 Jun 2027 23:48:17.459   01 Jun 2027 23:49:15.313            57.854                Sumatra          1807.937
        87   02 Jun 2027 00:17:41.953   02 Jun 2027 00:17:45.624             3.671            RioGallegos           114.719
        88   02 Jun 2027 00:17:56.137   02 Jun 2027 00:18:08.857            12.720            RioGallegos           397.500
        89   02 Jun 2027 00:19:05.519   02 Jun 2027 00:20:00.785            55.266            RioGallegos          1727.063
        90   02 Jun 2027 00:55:38.768   02 Jun 2027 00:56:44.780            66.012                Anadyr2          2062.875
        91   02 Jun 2027 00:57:10.852   02 Jun 2027 00:57:34.286            23.434                Anadyr1           732.313
        92   02 Jun 2027 00:58:08.240   02 Jun 2027 00:58:20.371            12.131                Anadyr2           379.094
        93   02 Jun 2027 00:58:22.307   02 Jun 2027 01:00:09.946           107.639                Norilsk          3363.719
        94   02 Jun 2027 01:00:43.766   02 Jun 2027 01:01:43.576            59.810               Magadan2          1869.063
        95   02 Jun 2027 01:02:16.393   02 Jun 2027 01:03:21.035            64.642                Irkutsk          2020.063
        96   02 Jun 2027 01:03:26.846   02 Jun 2027 01:04:02.825            35.979                Novosib          1124.344
        97   02 Jun 2027 01:04:20.193   02 Jun 2027 01:05:31.290            71.097                Irkutsk          2221.781
        98   02 Jun 2027 01:12:01.639   02 Jun 2027 01:12:08.552             6.913                  Delhi           216.031
        99   02 Jun 2027 01:13:38.522   02 Jun 2027 01:14:20.330            41.808                  Delhi          1306.500
       100   02 Jun 2027 01:16:20.034   02 Jun 2027 01:16:32.433            12.399                Sumatra           387.469
       101   02 Jun 2027 01:18:04.499   02 Jun 2027 01:20:54.197           169.698                Sumatra          5303.063
       102   02 Jun 2027 02:01:41.430   02 Jun 2027 02:02:18.777            37.347            RioGallegos          1167.094
       103   02 Jun 2027 02:31:55.531   02 Jun 2027 02:32:06.290            10.759                Anadyr2           336.219
       104   02 Jun 2027 02:32:20.768   02 Jun 2027 02:32:39.097            18.329                Anadyr2           572.781
       105   02 Jun 2027 02:34:23.410   02 Jun 2027 02:35:39.329            75.919                Norilsk          2372.469
       106   02 Jun 2027 02:36:09.185   02 Jun 2027 02:36:44.041            34.856                Norilsk          1089.250
       107   02 Jun 2027 02:37:05.833   02 Jun 2027 02:37:58.321            52.488              Murmansk2          1640.250
       108   02 Jun 2027 02:38:10.313   02 Jun 2027 02:38:15.896             5.583                Novosib           174.469
       109   02 Jun 2027 02:38:29.205   02 Jun 2027 02:39:51.357            82.152                Irkutsk          2567.250
       110   02 Jun 2027 02:40:18.916   02 Jun 2027 02:41:14.839            55.923                Irkutsk          1747.594
       111   02 Jun 2027 02:43:08.603   02 Jun 2027 02:43:24.863            16.260                Irkutsk           508.125
       112   02 Jun 2027 02:48:22.164   02 Jun 2027 02:48:33.750            11.586                  Delhi           362.063
       113   02 Jun 2027 02:53:46.544   02 Jun 2027 02:54:21.856            35.312                  Delhi          1103.500
       114   02 Jun 2027 02:57:52.926   02 Jun 2027 02:58:15.752            22.826                  Delhi           713.313
       115   02 Jun 2027 03:27:57.084   02 Jun 2027 03:28:34.166            37.082            RioGallegos          1158.813
       116   02 Jun 2027 03:29:20.781   02 Jun 2027 03:30:40.302            79.521            RioGallegos          2485.031
       117   02 Jun 2027 03:31:13.200   02 Jun 2027 03:32:57.903           104.703            RioGallegos          3271.969
       118   02 Jun 2027 04:18:35.069   02 Jun 2027 04:25:30.403           415.334                Novosib         12979.187
       119   02 Jun 2027 04:26:24.901   02 Jun 2027 04:27:05.208            40.307                 Moscow          1259.594
       120   02 Jun 2027 04:28:19.748   02 Jun 2027 04:28:30.785            11.037                  Delhi           344.906
       121   02 Jun 2027 05:55:21.500   02 Jun 2027 05:55:59.286            37.786                Novosib          1180.813
       122   02 Jun 2027 05:58:58.193   02 Jun 2027 05:59:18.586            20.393              Murmansk1           637.281
       123   02 Jun 2027 06:00:10.502   02 Jun 2027 06:01:18.298            67.796              Murmansk2          2118.625
       124   02 Jun 2027 06:01:26.303   02 Jun 2027 06:03:03.288            96.985                 Moscow          3030.781
       125   02 Jun 2027 07:19:25.558   02 Jun 2027 07:19:45.848            20.290               Magadan1           634.063
       126   02 Jun 2027 07:20:02.190   02 Jun 2027 07:24:29.104           266.914                Anadyr1          8341.062
       127   02 Jun 2027 07:24:32.694   02 Jun 2027 07:24:50.868            18.174               Magadan2           567.937
       128   02 Jun 2027 08:57:15.532   02 Jun 2027 09:00:59.958           224.426                Anadyr2          7013.312
       129   02 Jun 2027 10:30:26.785   02 Jun 2027 10:31:58.445            91.660               Magadan2          2864.375
       130   02 Jun 2027 10:32:08.719   02 Jun 2027 10:32:31.513            22.794                Irkutsk           712.313
       131   02 Jun 2027 10:32:48.370   02 Jun 2027 10:35:25.097           156.727               Magadan1          4897.719
       132   02 Jun 2027 10:35:47.625   02 Jun 2027 10:36:02.049            14.424               Magadan1           450.750
       133   02 Jun 2027 10:36:07.746   02 Jun 2027 10:36:18.704            10.958                Norilsk           342.437
       134   02 Jun 2027 10:38:00.539   02 Jun 2027 10:38:40.955            40.416              Murmansk1          1263.000
       135   02 Jun 2027 11:11:23.272   02 Jun 2027 11:12:30.006            66.734            RioGallegos          2085.437
       136   02 Jun 2027 11:47:32.851   02 Jun 2027 11:47:56.479            23.628                Sumatra           738.375
       137   02 Jun 2027 11:52:03.363   02 Jun 2027 11:52:13.517            10.154                Sumatra           317.312
       138   02 Jun 2027 12:04:21.748   02 Jun 2027 12:04:41.047            19.299                Irkutsk           603.094
       139   02 Jun 2027 12:05:09.677   02 Jun 2027 12:05:25.752            16.075                Novosib           502.344
       140   02 Jun 2027 12:06:00.299   02 Jun 2027 12:06:15.769            15.470                Novosib           483.438
       141   02 Jun 2027 12:07:40.984   02 Jun 2027 12:07:53.592            12.608                Irkutsk           394.000
       142   02 Jun 2027 12:08:42.812   02 Jun 2027 12:09:17.983            35.171                Irkutsk          1099.094
       143   02 Jun 2027 12:15:32.090   02 Jun 2027 12:16:18.111            46.021                Norilsk          1438.156
       144   02 Jun 2027 12:52:16.782   02 Jun 2027 12:53:09.795            53.013            RioGallegos          1656.656
       145   02 Jun 2027 12:56:04.519   02 Jun 2027 12:56:31.171            26.652            RioGallegos           832.875
       146   02 Jun 2027 13:22:28.675   02 Jun 2027 13:23:13.984            45.309                Sumatra          1415.906
       147   02 Jun 2027 13:24:49.535   02 Jun 2027 13:26:59.528           129.993                Sumatra          4062.281
       148   02 Jun 2027 13:33:31.248   02 Jun 2027 13:34:08.677            37.429                Sumatra          1169.656
       149   02 Jun 2027 13:41:26.353   02 Jun 2027 13:42:30.124            63.771                Irkutsk          1992.844
       150   02 Jun 2027 13:47:35.154   02 Jun 2027 13:47:43.814             8.660                Irkutsk           270.625
       151   02 Jun 2027 13:50:46.091   02 Jun 2027 13:50:47.754             1.663                Norilsk            51.969
       152   02 Jun 2027 13:51:32.817   02 Jun 2027 13:51:33.022             0.205                Norilsk             6.406
       153   02 Jun 2027 13:53:00.776   02 Jun 2027 13:53:06.722             5.946                Norilsk           185.813
       154   02 Jun 2027 15:07:18.070   02 Jun 2027 15:10:19.633           181.563                  Delhi          5673.844
       155   02 Jun 2027 15:11:39.063   02 Jun 2027 15:12:54.140            75.077                  Delhi          2346.156
       156   02 Jun 2027 15:15:38.389   02 Jun 2027 15:17:57.550           139.161                Novosib          4348.781
       157   02 Jun 2027 15:23:28.892   02 Jun 2027 15:23:40.230            11.338                Norilsk           354.313
       158   02 Jun 2027 15:24:01.868   02 Jun 2027 15:24:25.470            23.602                Norilsk           737.562
       159   02 Jun 2027 15:27:18.974   02 Jun 2027 15:28:11.621            52.647                Norilsk          1645.219
       160   02 Jun 2027 15:28:28.933   02 Jun 2027 15:29:28.570            59.637                Norilsk          1863.656
       161   02 Jun 2027 16:50:48.679   02 Jun 2027 16:51:53.361            64.682                 Moscow          2021.312
       162   02 Jun 2027 16:52:36.223   02 Jun 2027 16:53:58.844            82.621                 Moscow          2581.906
       163   02 Jun 2027 17:00:32.417   02 Jun 2027 17:04:06.034           213.617                Norilsk          6675.531
       164   02 Jun 2027 18:05:22.472   02 Jun 2027 18:06:07.386            44.914               CapeTown          1403.563
       165   02 Jun 2027 18:14:33.013   02 Jun 2027 18:14:53.159            20.146               CapeTown           629.563
       166   02 Jun 2027 18:29:42.670   02 Jun 2027 18:34:23.048           280.378                 Moscow          8761.812
       167   02 Jun 2027 18:48:48.129   02 Jun 2027 18:49:07.529            19.400                Anadyr1           606.250
       168   02 Jun 2027 18:49:35.263   02 Jun 2027 18:49:47.841            12.578                Anadyr1           393.063
       169   02 Jun 2027 19:40:39.577   02 Jun 2027 19:41:56.848            77.271               CapeTown          2414.719
       170   02 Jun 2027 19:42:15.858   02 Jun 2027 19:42:22.122             6.264               CapeTown           195.750
       171   02 Jun 2027 19:44:48.362   02 Jun 2027 19:45:19.374            31.012               CapeTown           969.125
       172   02 Jun 2027 19:49:02.965   02 Jun 2027 19:50:28.421            85.456               CapeTown          2670.500
       173   02 Jun 2027 20:12:36.746   02 Jun 2027 20:18:23.687           346.941              Murmansk2         10841.906
       174   02 Jun 2027 21:56:40.643   02 Jun 2027 22:01:05.118           264.475                Anadyr2          8264.844
       175   02 Jun 2027 22:01:23.619   02 Jun 2027 22:03:08.138           104.519               Magadan1          3266.219
       176   02 Jun 2027 22:03:08.138   02 Jun 2027 22:03:13.633             5.495               Magadan2           171.719
       177   02 Jun 2027 22:03:32.581   02 Jun 2027 22:04:02.798            30.217               Magadan2           944.281
       178   02 Jun 2027 22:51:46.997   02 Jun 2027 22:53:53.568           126.571            RioGallegos          3955.344
       179   02 Jun 2027 22:56:38.793   02 Jun 2027 22:57:51.583            72.790            RioGallegos          2274.687
       180   02 Jun 2027 23:32:25.893   02 Jun 2027 23:34:20.107           114.214                Anadyr2          3569.188
       181   02 Jun 2027 23:34:31.330   02 Jun 2027 23:36:08.583            97.253                Norilsk          3039.156
       182   02 Jun 2027 23:36:24.885   02 Jun 2027 23:36:28.954             4.069               Magadan1           127.156
       183   02 Jun 2027 23:37:03.404   02 Jun 2027 23:37:14.720            11.316               Magadan2           353.625
       184   02 Jun 2027 23:37:33.283   02 Jun 2027 23:38:19.033            45.750               Magadan2          1429.688
       185   02 Jun 2027 23:39:02.880   02 Jun 2027 23:40:06.451            63.571                Irkutsk          1986.594
       186   02 Jun 2027 23:45:55.969   02 Jun 2027 23:47:07.191            71.222                Irkutsk          2225.688
       187   02 Jun 2027 23:53:16.697   02 Jun 2027 23:54:01.343            44.646                Sumatra          1395.187
       188   02 Jun 2027 23:54:16.416   02 Jun 2027 23:56:13.206           116.790                Sumatra          3649.688
       189   03 Jun 2027 00:35:58.571   03 Jun 2027 00:36:09.697            11.126            RioGallegos           347.687
       190   03 Jun 2027 00:38:01.907   03 Jun 2027 00:38:04.343             2.436            RioGallegos            76.125
       191   03 Jun 2027 01:07:30.218   03 Jun 2027 01:08:12.071            41.853                Anadyr2          1307.906
       192   03 Jun 2027 01:08:55.582   03 Jun 2027 01:09:52.525            56.943                Anadyr2          1779.469
       193   03 Jun 2027 01:09:52.525   03 Jun 2027 01:10:01.483             8.958                Anadyr1           279.937
       194   03 Jun 2027 01:10:24.542   03 Jun 2027 01:12:11.840           107.298                Norilsk          3353.063
       195   03 Jun 2027 01:13:19.312   03 Jun 2027 01:13:25.525             6.213               Magadan2           194.156
       196   03 Jun 2027 01:14:17.377   03 Jun 2027 01:16:16.225           118.848                Irkutsk          3714.000
       197   03 Jun 2027 01:17:03.438   03 Jun 2027 01:17:47.233            43.795                Novosib          1368.594
       198   03 Jun 2027 01:21:17.218   03 Jun 2027 01:21:45.227            28.009                Novosib           875.281
       199   03 Jun 2027 01:23:16.669   03 Jun 2027 01:23:53.840            37.171                  Delhi          1161.594
       200   03 Jun 2027 01:27:08.722   03 Jun 2027 01:27:42.650            33.928                  Delhi          1060.250
       201   03 Jun 2027 01:33:10.820   03 Jun 2027 01:33:42.654            31.834                Sumatra           994.812
       202   03 Jun 2027 01:36:51.194   03 Jun 2027 01:38:34.543           103.349                Sumatra          3229.656
       203   03 Jun 2027 02:13:10.424   03 Jun 2027 02:13:30.577            20.153            RioGallegos           629.781
       204   03 Jun 2027 02:41:28.123   03 Jun 2027 02:41:50.402            22.279                Anadyr1           696.219
       205   03 Jun 2027 02:43:20.212   03 Jun 2027 02:43:57.142            36.930                Anadyr2          1154.063
       206   03 Jun 2027 02:46:25.562   03 Jun 2027 02:47:36.547            70.985                Norilsk          2218.281
       207   03 Jun 2027 02:48:58.410   03 Jun 2027 02:49:48.078            49.668              Murmansk2          1552.125
       208   03 Jun 2027 02:49:48.078   03 Jun 2027 02:50:14.508            26.430              Murmansk1           825.938
       209   03 Jun 2027 02:50:36.816   03 Jun 2027 02:51:55.200            78.384                Irkutsk          2449.500
       210   03 Jun 2027 02:53:38.485   03 Jun 2027 02:54:20.003            41.518                Irkutsk          1297.438
       211   03 Jun 2027 02:58:19.278   03 Jun 2027 02:58:45.276            25.998                Irkutsk           812.438
       212   03 Jun 2027 03:40:13.149   03 Jun 2027 03:42:18.277           125.128            RioGallegos          3910.250
       213   03 Jun 2027 03:43:10.493   03 Jun 2027 03:44:47.267            96.774            RioGallegos          3024.187
       214   03 Jun 2027 04:29:50.989   03 Jun 2027 04:30:20.761            29.772                Irkutsk           930.375
       215   03 Jun 2027 04:31:18.344   03 Jun 2027 04:31:20.048             1.704                Novosib            53.250
       216   03 Jun 2027 04:31:21.197   03 Jun 2027 04:31:42.980            21.783                 Moscow           680.719
       217   03 Jun 2027 04:31:51.183   03 Jun 2027 04:33:19.886            88.703              Murmansk2          2771.969
       218   03 Jun 2027 04:33:25.321   03 Jun 2027 04:34:41.080            75.759                Norilsk          2367.469
       219   03 Jun 2027 04:35:18.653   03 Jun 2027 04:36:58.539            99.886                Novosib          3121.437
       220   03 Jun 2027 06:11:27.046   03 Jun 2027 06:12:21.218            54.172                 Moscow          1692.875
       221   03 Jun 2027 06:27:46.539   03 Jun 2027 06:29:39.424           112.885               CapeTown          3527.656
       222   03 Jun 2027 07:30:40.256   03 Jun 2027 07:31:04.519            24.263               Magadan2           758.219
       223   03 Jun 2027 07:31:07.657   03 Jun 2027 07:31:08.570             0.913               Magadan1            28.531
       224   03 Jun 2027 07:31:08.570   03 Jun 2027 07:31:41.715            33.145               Magadan2          1035.781
       225   03 Jun 2027 07:31:50.450   03 Jun 2027 07:32:50.171            59.721               Magadan1          1866.281
       226   03 Jun 2027 07:32:53.125   03 Jun 2027 07:33:26.011            32.886                Anadyr1          1027.687
       227   03 Jun 2027 07:35:11.589   03 Jun 2027 07:35:45.117            33.528                Anadyr1          1047.750
       228   03 Jun 2027 09:05:24.308   03 Jun 2027 09:05:47.004            22.696                Anadyr2           709.250
       229   03 Jun 2027 09:07:00.067   03 Jun 2027 09:07:42.074            42.007                Anadyr1          1312.719
       230   03 Jun 2027 09:07:48.148   03 Jun 2027 09:09:10.017            81.869                Anadyr1          2558.406
       231   03 Jun 2027 09:09:40.305   03 Jun 2027 09:10:45.262            64.957               Magadan1          2029.906
       232   03 Jun 2027 09:53:57.282   03 Jun 2027 09:54:06.987             9.705            RioGallegos           303.281
       233   03 Jun 2027 10:40:59.267   03 Jun 2027 10:42:17.276            78.009               Magadan2          2437.781
       234   03 Jun 2027 10:42:17.276   03 Jun 2027 10:42:58.022            40.746               Magadan1          1273.313
       235   03 Jun 2027 10:43:11.380   03 Jun 2027 10:44:46.025            94.645               Magadan2          2957.656
       236   03 Jun 2027 10:44:46.025   03 Jun 2027 10:45:19.500            33.475               Magadan1          1046.094
       237   03 Jun 2027 10:45:40.889   03 Jun 2027 10:46:23.925            43.036                Irkutsk          1344.875
       238   03 Jun 2027 10:46:37.693   03 Jun 2027 10:47:06.045            28.352                Irkutsk           886.000
       239   03 Jun 2027 10:47:25.489   03 Jun 2027 10:47:29.011             3.522                Norilsk           110.062
       240   03 Jun 2027 10:47:53.359   03 Jun 2027 10:47:54.778             1.419                Norilsk            44.344
       241   03 Jun 2027 10:47:57.685   03 Jun 2027 10:48:21.614            23.929               Magadan2           747.781
       242   03 Jun 2027 10:48:23.434   03 Jun 2027 10:48:30.515             7.081                Norilsk           221.281
       243   03 Jun 2027 10:48:38.560   03 Jun 2027 10:49:30.145            51.585                Norilsk          1612.031
       244   03 Jun 2027 11:23:19.261   03 Jun 2027 11:24:29.205            69.944            RioGallegos          2185.750
       245   03 Jun 2027 11:59:03.002   03 Jun 2027 12:00:01.654            58.652                Sumatra          1832.875
       246   03 Jun 2027 12:11:44.637   03 Jun 2027 12:12:47.642            63.005                Irkutsk          1968.906
       247   03 Jun 2027 12:17:43.264   03 Jun 2027 12:17:58.230            14.966                Norilsk           467.688
       248   03 Jun 2027 12:18:45.957   03 Jun 2027 12:19:40.868            54.911                Norilsk          1715.969
       249   03 Jun 2027 13:00:38.016   03 Jun 2027 13:01:30.899            52.883            RioGallegos          1652.594
       250   03 Jun 2027 13:04:16.507   03 Jun 2027 13:05:42.846            86.339            RioGallegos          2698.094
       251   03 Jun 2027 13:34:51.828   03 Jun 2027 13:35:56.741            64.913                Sumatra          2028.531
       252   03 Jun 2027 13:36:29.648   03 Jun 2027 13:38:46.341           136.693                Sumatra          4271.656
       253   03 Jun 2027 13:50:12.861   03 Jun 2027 13:52:35.802           142.941                Irkutsk          4466.906
       254   03 Jun 2027 15:19:54.782   03 Jun 2027 15:22:39.984           165.202                  Delhi          5162.563
       255   03 Jun 2027 15:23:17.521   03 Jun 2027 15:24:45.892            88.371                  Delhi          2761.594
       256   03 Jun 2027 15:28:22.103   03 Jun 2027 15:31:46.968           204.865                Novosib          6402.031
       257   03 Jun 2027 17:02:58.725   03 Jun 2027 17:03:38.910            40.185                 Moscow          1255.781
       258   03 Jun 2027 17:04:33.512   03 Jun 2027 17:05:58.639            85.127                 Moscow          2660.219
       259   03 Jun 2027 17:09:06.172   03 Jun 2027 17:09:32.815            26.643              Murmansk2           832.594
       260   03 Jun 2027 17:13:21.922   03 Jun 2027 17:14:59.299            97.377              Murmansk2          3043.031
       261   03 Jun 2027 17:16:07.046   03 Jun 2027 17:16:09.008             1.962                Norilsk            61.312
       262   03 Jun 2027 17:22:06.787   03 Jun 2027 17:22:28.436            21.649                Anadyr2           676.531
       263   03 Jun 2027 17:24:02.442   03 Jun 2027 17:25:06.992            64.550                Anadyr2          2017.187
       264   03 Jun 2027 18:17:41.928   03 Jun 2027 18:18:19.194            37.266               CapeTown          1164.562
       265   03 Jun 2027 18:24:32.433   03 Jun 2027 18:24:53.058            20.625               CapeTown           644.531
       266   03 Jun 2027 18:26:44.061   03 Jun 2027 18:27:57.483            73.422               CapeTown          2294.437
       267   03 Jun 2027 18:42:33.638   03 Jun 2027 18:43:11.884            38.246                 Moscow          1195.187
       268   03 Jun 2027 18:44:33.611   03 Jun 2027 18:45:29.281            55.670              Murmansk2          1739.688
       269   03 Jun 2027 18:46:25.203   03 Jun 2027 18:47:00.365            35.162                 Moscow          1098.812
       270   03 Jun 2027 18:49:13.543   03 Jun 2027 18:49:29.620            16.077              Murmansk2           502.406
       271   03 Jun 2027 18:49:35.488   03 Jun 2027 18:50:03.564            28.076                 Moscow           877.375
       272   03 Jun 2027 18:52:51.056   03 Jun 2027 18:53:56.357            65.301              Murmansk1          2040.656
       273   03 Jun 2027 19:06:00.889   03 Jun 2027 19:06:18.133            17.244                Anadyr2           538.875
       274   03 Jun 2027 19:52:58.536   03 Jun 2027 19:54:01.121            62.585               CapeTown          1955.781
       275   03 Jun 2027 19:55:51.775   03 Jun 2027 19:57:05.982            74.207               CapeTown          2318.969
       276   03 Jun 2027 20:02:12.912   03 Jun 2027 20:02:51.931            39.019               CapeTown          1219.344
       277   03 Jun 2027 20:25:34.324   03 Jun 2027 20:29:49.105           254.781              Murmansk1          7961.906
       278   03 Jun 2027 20:41:06.147   03 Jun 2027 20:41:22.388            16.241               Magadan1           507.531
       279   03 Jun 2027 20:41:33.025   03 Jun 2027 20:41:56.446            23.421               Magadan1           731.906
       280   03 Jun 2027 20:43:48.788   03 Jun 2027 20:44:52.483            63.695               Magadan2          1990.469
       281   03 Jun 2027 22:08:42.053   03 Jun 2027 22:12:28.435           226.382                Anadyr2          7074.437
       282   03 Jun 2027 22:12:28.952   03 Jun 2027 22:13:52.212            83.260                Anadyr1          2601.875
       283   03 Jun 2027 22:13:57.613   03 Jun 2027 22:14:02.705             5.092                Norilsk           159.125
       284   03 Jun 2027 22:14:07.354   03 Jun 2027 22:14:34.426            27.072               Magadan1           846.000
       285   03 Jun 2027 22:14:42.931   03 Jun 2027 22:15:00.641            17.710               Magadan2           553.437
       286   03 Jun 2027 22:15:07.103   03 Jun 2027 22:15:19.420            12.317               Magadan1           384.906
       287   03 Jun 2027 22:16:04.204   03 Jun 2027 22:16:12.402             8.198               Magadan2           256.187
       288   03 Jun 2027 22:16:44.792   03 Jun 2027 22:16:47.268             2.476               Magadan2            77.375
       289   03 Jun 2027 22:17:42.043   03 Jun 2027 22:18:04.008            21.965               Magadan2           686.406
       290   03 Jun 2027 22:22:24.089   03 Jun 2027 22:23:16.567            52.478               Magadan1          1639.938
       291   03 Jun 2027 23:03:27.450   03 Jun 2027 23:05:21.414           113.964            RioGallegos          3561.375
       292   03 Jun 2027 23:05:57.463   03 Jun 2027 23:06:43.406            45.943            RioGallegos          1435.719
       293   03 Jun 2027 23:44:24.151   03 Jun 2027 23:45:24.977            60.826                Anadyr1          1900.813
       294   03 Jun 2027 23:45:29.376   03 Jun 2027 23:46:07.861            38.485                Anadyr2          1202.656
       295   03 Jun 2027 23:46:31.239   03 Jun 2027 23:48:10.082            98.843                Norilsk          3088.844
       296   03 Jun 2027 23:48:50.152   03 Jun 2027 23:49:47.275            57.123               Magadan2          1785.094
       297   03 Jun 2027 23:50:15.944   03 Jun 2027 23:50:27.749            11.805               Magadan2           368.906
       298   03 Jun 2027 23:50:53.002   03 Jun 2027 23:52:05.419            72.417                Irkutsk          2263.031
       299   03 Jun 2027 23:52:52.533   03 Jun 2027 23:53:05.213            12.680                Irkutsk           396.250
       300   04 Jun 2027 00:04:51.468   04 Jun 2027 00:06:37.377           105.909                Sumatra          3309.656
       301   04 Jun 2027 00:12:58.968   04 Jun 2027 00:14:11.363            72.395                Sumatra          2262.344
       302   04 Jun 2027 00:42:52.573   04 Jun 2027 00:43:23.053            30.480            RioGallegos           952.500
       303   04 Jun 2027 00:48:54.372   04 Jun 2027 00:49:21.718            27.346            RioGallegos           854.562
       304   04 Jun 2027 01:19:20.366   04 Jun 2027 01:19:41.188            20.822                Anadyr1           650.687
       305   04 Jun 2027 01:19:41.188   04 Jun 2027 01:20:13.321            32.133                Anadyr2          1004.156
       306   04 Jun 2027 01:20:44.510   04 Jun 2027 01:21:34.700            50.190                Anadyr2          1568.438
       307   04 Jun 2027 01:22:26.873   04 Jun 2027 01:24:14.169           107.296                Norilsk          3353.000
       308   04 Jun 2027 01:24:48.992   04 Jun 2027 01:24:52.242             3.250               Magadan2           101.562
       309   04 Jun 2027 01:25:04.090   04 Jun 2027 01:25:46.517            42.427               Magadan2          1325.844
       310   04 Jun 2027 01:26:19.232   04 Jun 2027 01:28:13.729           114.497                Irkutsk          3578.031
       311   04 Jun 2027 01:33:25.101   04 Jun 2027 01:33:50.602            25.501                Novosib           796.906
       312   04 Jun 2027 01:34:45.679   04 Jun 2027 01:35:07.420            21.741                  Delhi           679.406
       313   04 Jun 2027 01:38:32.678   04 Jun 2027 01:38:57.200            24.522                  Delhi           766.312
       314   04 Jun 2027 01:41:06.859   04 Jun 2027 01:41:57.021            50.162                Sumatra          1567.563
       315   04 Jun 2027 01:45:06.600   04 Jun 2027 01:46:12.567            65.967                Sumatra          2061.469
       316   04 Jun 2027 02:16:22.067   04 Jun 2027 02:17:40.438            78.371            RioGallegos          2449.094
       317   04 Jun 2027 02:24:21.124   04 Jun 2027 02:24:35.638            14.514            RioGallegos           453.562
       318   04 Jun 2027 02:25:04.257   04 Jun 2027 02:25:38.898            34.641            RioGallegos          1082.531
       319   04 Jun 2027 02:58:27.588   04 Jun 2027 02:59:34.283            66.695                Norilsk          2084.219
       320   04 Jun 2027 03:02:25.262   04 Jun 2027 03:02:34.616             9.354               Magadan2           292.313
       321   04 Jun 2027 03:02:48.618   04 Jun 2027 03:03:00.490            11.872               Magadan2           371.000
       322   04 Jun 2027 03:03:10.915   04 Jun 2027 03:03:21.586            10.671                Norilsk           333.469
       323   04 Jun 2027 03:03:29.389   04 Jun 2027 03:03:58.277            28.888                Irkutsk           902.750
       324   04 Jun 2027 03:03:58.911   04 Jun 2027 03:04:32.727            33.816              Murmansk2          1056.750
       325   04 Jun 2027 03:04:42.775   04 Jun 2027 03:05:12.984            30.209                Norilsk           944.031
       326   04 Jun 2027 03:05:29.983   04 Jun 2027 03:05:55.364            25.381                Novosib           793.156
       327   04 Jun 2027 03:05:58.120   04 Jun 2027 03:06:49.701            51.581              Murmansk1          1611.906
       328   04 Jun 2027 03:06:49.701   04 Jun 2027 03:07:51.113            61.412              Murmansk2          1919.125
       329   04 Jun 2027 03:07:56.752   04 Jun 2027 03:08:52.359            55.607              Murmansk2          1737.719
       330   04 Jun 2027 03:09:07.292   04 Jun 2027 03:11:54.052           166.760                Irkutsk          5211.250
       331   04 Jun 2027 03:12:32.715   04 Jun 2027 03:13:57.649            84.934                  Delhi          2654.188
       332   04 Jun 2027 04:45:19.120   04 Jun 2027 04:45:57.372            38.252                 Moscow          1195.375
       333   04 Jun 2027 04:46:09.293   04 Jun 2027 04:48:43.966           154.673                Novosib          4833.531
       334   04 Jun 2027 04:49:09.267   04 Jun 2027 04:50:40.781            91.514                 Moscow          2859.813
       335   04 Jun 2027 05:04:47.368   04 Jun 2027 05:05:29.836            42.468               CapeTown          1327.125
       336   04 Jun 2027 06:00:38.487   04 Jun 2027 06:02:16.714            98.227                Anadyr1          3069.594
       337   04 Jun 2027 06:03:09.722   04 Jun 2027 06:04:15.924            66.202                Anadyr1          2068.812
       338   04 Jun 2027 06:20:28.070   04 Jun 2027 06:20:46.584            18.514                 Moscow           578.563
       339   04 Jun 2027 06:21:42.959   04 Jun 2027 06:21:54.032            11.073                 Moscow           346.031
       340   04 Jun 2027 06:22:17.108   04 Jun 2027 06:22:23.714             6.606                 Moscow           206.437
       341   04 Jun 2027 06:40:01.347   04 Jun 2027 06:41:31.947            90.600               CapeTown          2831.250
       342   04 Jun 2027 06:44:39.473   04 Jun 2027 06:44:48.917             9.444               CapeTown           295.125
       343   04 Jun 2027 07:43:29.355   04 Jun 2027 07:44:49.210            79.855                Anadyr2          2495.469
       344   04 Jun 2027 07:45:06.982   04 Jun 2027 07:45:26.699            19.717                Anadyr2           616.156
       345   04 Jun 2027 07:46:58.624   04 Jun 2027 07:47:06.629             8.005               Magadan2           250.156
       346   04 Jun 2027 07:47:11.218   04 Jun 2027 07:47:47.600            36.382                Anadyr1          1136.938
       347   04 Jun 2027 09:17:24.677   04 Jun 2027 09:17:37.065            12.388                Anadyr2           387.125
       348   04 Jun 2027 09:18:53.314   04 Jun 2027 09:20:08.212            74.898                Anadyr1          2340.563
       349   04 Jun 2027 09:20:27.013   04 Jun 2027 09:20:42.844            15.831               Magadan1           494.719
       350   04 Jun 2027 09:21:05.069   04 Jun 2027 09:21:48.727            43.658               Magadan2          1364.312
       351   04 Jun 2027 09:22:05.455   04 Jun 2027 09:24:53.569           168.114                Anadyr1          5253.562
       352   04 Jun 2027 10:54:04.291   04 Jun 2027 10:55:24.201            79.910               Magadan2          2497.188
       353   04 Jun 2027 10:56:00.424   04 Jun 2027 10:56:46.899            46.475               Magadan1          1452.344
       354   04 Jun 2027 10:56:46.899   04 Jun 2027 10:56:58.063            11.164               Magadan2           348.875
       355   04 Jun 2027 10:57:27.936   04 Jun 2027 10:57:44.354            16.418                Irkutsk           513.062
       356   04 Jun 2027 10:57:47.086   04 Jun 2027 10:58:08.846            21.760                Norilsk           680.000
       357   04 Jun 2027 10:58:45.710   04 Jun 2027 10:59:16.699            30.989                Norilsk           968.406
       358   04 Jun 2027 10:59:31.061   04 Jun 2027 10:59:53.899            22.838                Norilsk           713.687
       359   04 Jun 2027 11:00:07.248   04 Jun 2027 11:00:18.253            11.005                Irkutsk           343.906
       360   04 Jun 2027 11:00:20.959   04 Jun 2027 11:00:43.473            22.514                Norilsk           703.562
       361   04 Jun 2027 11:35:18.537   04 Jun 2027 11:36:27.175            68.638            RioGallegos          2144.938
       362   04 Jun 2027 12:10:41.877   04 Jun 2027 12:11:18.282            36.405                Sumatra          1137.656
       363   04 Jun 2027 12:12:56.857   04 Jun 2027 12:13:27.008            30.151                Sumatra           942.219
       364   04 Jun 2027 12:23:51.061   04 Jun 2027 12:25:42.562           111.501                Irkutsk          3484.406
       365   04 Jun 2027 12:28:38.581   04 Jun 2027 12:29:44.060            65.479                Norilsk          2046.219
       366   04 Jun 2027 13:13:10.759   04 Jun 2027 13:14:59.759           109.000            RioGallegos          3406.250
       367   04 Jun 2027 13:16:58.122   04 Jun 2027 13:18:06.306            68.184            RioGallegos          2130.750
       368   04 Jun 2027 13:47:24.754   04 Jun 2027 13:49:39.882           135.128                Sumatra          4222.750
       369   04 Jun 2027 14:03:00.454   04 Jun 2027 14:04:31.687            91.233                Irkutsk          2851.031
       370   04 Jun 2027 14:05:07.903   04 Jun 2027 14:06:38.303            90.400                Irkutsk          2825.000
       371   04 Jun 2027 15:32:44.848   04 Jun 2027 15:35:12.629           147.781                  Delhi          4618.156
       372   04 Jun 2027 15:39:32.871   04 Jun 2027 15:39:50.655            17.784                 Moscow           555.750
       373   04 Jun 2027 15:41:15.411   04 Jun 2027 15:45:08.969           233.558                Novosib          7298.688
       374   04 Jun 2027 15:47:59.277   04 Jun 2027 15:48:27.399            28.122                Novosib           878.813
       375   04 Jun 2027 15:49:19.112   04 Jun 2027 15:49:37.961            18.849                Norilsk           589.031
       376   04 Jun 2027 16:57:02.005   04 Jun 2027 16:57:30.306            28.301               CapeTown           884.406
       377   04 Jun 2027 17:15:12.153   04 Jun 2027 17:16:33.673            81.520                 Moscow          2547.500
       378   04 Jun 2027 17:18:40.086   04 Jun 2027 17:19:34.192            54.106              Murmansk2          1690.812
       379   04 Jun 2027 17:24:09.963   04 Jun 2027 17:24:40.913            30.950              Murmansk1           967.187
       380   04 Jun 2027 17:30:37.767   04 Jun 2027 17:31:10.939            33.172              Murmansk1          1036.625
       381   04 Jun 2027 17:33:49.380   04 Jun 2027 17:34:47.447            58.067                Anadyr1          1814.594
       382   04 Jun 2027 17:36:03.219   04 Jun 2027 17:36:07.670             4.451                Anadyr2           139.094
       383   04 Jun 2027 17:36:12.446   04 Jun 2027 17:37:07.553            55.107                Anadyr2          1722.094
       384   04 Jun 2027 18:28:17.619   04 Jun 2027 18:29:07.226            49.607               CapeTown          1550.219
       385   04 Jun 2027 18:32:03.631   04 Jun 2027 18:32:05.046             1.415               CapeTown            44.219
       386   04 Jun 2027 18:34:12.352   04 Jun 2027 18:34:23.719            11.367               CapeTown           355.219
       387   04 Jun 2027 18:35:13.056   04 Jun 2027 18:35:34.206            21.150               CapeTown           660.938
       388   04 Jun 2027 18:55:38.088   04 Jun 2027 18:59:28.124           230.036                 Moscow          7188.625
       389   04 Jun 2027 19:01:36.813   04 Jun 2027 19:01:50.875            14.062              Murmansk1           439.438
       390   04 Jun 2027 19:06:26.670   04 Jun 2027 19:07:04.199            37.529              Murmansk2          1172.781
       391   04 Jun 2027 19:14:41.487   04 Jun 2027 19:15:58.217            76.730               Magadan1          2397.812
       392   04 Jun 2027 20:05:23.463   04 Jun 2027 20:06:08.258            44.795               CapeTown          1399.844
       393   04 Jun 2027 20:08:57.254   04 Jun 2027 20:10:32.444            95.190               CapeTown          2974.687
       394   04 Jun 2027 20:38:47.204   04 Jun 2027 20:41:40.571           173.367              Murmansk2          5417.719
       395   04 Jun 2027 20:47:19.896   04 Jun 2027 20:48:45.023            85.127               Magadan2          2660.219
       396   04 Jun 2027 20:53:25.454   04 Jun 2027 20:53:34.893             9.439               Magadan2           294.969
       397   04 Jun 2027 20:53:52.537   04 Jun 2027 20:54:23.706            31.169               Magadan2           974.031
       398   04 Jun 2027 22:20:43.250   04 Jun 2027 22:25:49.046           305.796                Anadyr1          9556.125
       399   04 Jun 2027 22:25:57.511   04 Jun 2027 22:26:55.145            57.634                Norilsk          1801.062
       400   04 Jun 2027 22:26:56.037   04 Jun 2027 22:27:19.329            23.292               Magadan1           727.875
       401   04 Jun 2027 22:27:42.197   04 Jun 2027 22:28:07.418            25.221               Magadan1           788.156
       402   04 Jun 2027 22:28:15.156   04 Jun 2027 22:28:34.696            19.540               Magadan1           610.625
       403   04 Jun 2027 22:32:13.674   04 Jun 2027 22:32:15.632             1.958               Magadan2            61.187
       404   04 Jun 2027 22:32:55.153   04 Jun 2027 22:33:00.354             5.201               Magadan2           162.531
       405   04 Jun 2027 22:33:02.940   04 Jun 2027 22:33:23.045            20.105               Magadan2           628.281
       406   04 Jun 2027 22:34:11.365   04 Jun 2027 22:34:25.623            14.258               Magadan1           445.562
       407   04 Jun 2027 23:15:13.140   04 Jun 2027 23:18:02.223           169.083            RioGallegos          5283.844
       408   04 Jun 2027 23:56:21.693   04 Jun 2027 23:59:35.970           194.277                Anadyr1          6071.156
       409   04 Jun 2027 23:59:37.722   05 Jun 2027 00:00:15.548            37.826                Norilsk          1182.062
       410   05 Jun 2027 00:00:23.987   05 Jun 2027 00:00:46.368            22.381               Magadan2           699.406
       411   05 Jun 2027 00:01:56.974   05 Jun 2027 00:02:58.969            61.995               Magadan1          1937.344
       412   05 Jun 2027 00:03:32.920   05 Jun 2027 00:04:07.742            34.822                Irkutsk          1088.187
       413   05 Jun 2027 00:04:56.501   05 Jun 2027 00:05:35.851            39.350                Novosib          1229.687
       414   05 Jun 2027 00:07:01.817   05 Jun 2027 00:09:05.464           123.647                Novosib          3863.969
       415   05 Jun 2027 00:24:14.128   05 Jun 2027 00:25:59.265           105.137                Sumatra          3285.531
       416   05 Jun 2027 01:31:09.182   05 Jun 2027 01:32:14.638            65.456                Anadyr2          2045.500
       417   05 Jun 2027 01:32:14.638   05 Jun 2027 01:33:12.795            58.157                Anadyr1          1817.406
       418   05 Jun 2027 01:34:29.255   05 Jun 2027 01:36:15.525           106.270                Norilsk          3320.937
       419   05 Jun 2027 01:36:17.684   05 Jun 2027 01:36:44.024            26.340               Magadan2           823.125
       420   05 Jun 2027 01:38:21.912   05 Jun 2027 01:40:12.501           110.589                Irkutsk          3455.906
       421   05 Jun 2027 01:43:41.397   05 Jun 2027 01:44:50.803            69.406                Novosib          2168.937
       422   05 Jun 2027 01:49:05.955   05 Jun 2027 01:49:37.985            32.030                  Delhi          1000.938
       423   05 Jun 2027 01:53:46.159   05 Jun 2027 01:54:01.888            15.729                Sumatra           491.531
       424   05 Jun 2027 01:54:50.545   05 Jun 2027 01:57:04.157           133.612                Sumatra          4175.375
       425   05 Jun 2027 02:33:59.948   05 Jun 2027 02:35:21.396            81.448            RioGallegos          2545.250
       426   05 Jun 2027 03:16:39.541   05 Jun 2027 03:17:39.242            59.701                Norilsk          1865.656
       427   05 Jun 2027 03:17:44.570   05 Jun 2027 03:18:43.930            59.360                Novosib          1855.000
       428   05 Jun 2027 03:18:59.972   05 Jun 2027 03:19:34.477            34.505                Norilsk          1078.281
       429   05 Jun 2027 03:19:47.387   05 Jun 2027 03:20:40.350            52.963                 Moscow          1655.094
       430   05 Jun 2027 03:20:50.765   05 Jun 2027 03:21:28.082            37.317                Novosib          1166.156
       431   05 Jun 2027 03:21:38.600   05 Jun 2027 03:22:18.115            39.515                Irkutsk          1234.844
       432   05 Jun 2027 04:55:50.917   05 Jun 2027 04:56:58.329            67.412                Novosib          2106.625
       433   05 Jun 2027 04:57:31.868   05 Jun 2027 05:00:16.560           164.692                Novosib          5146.625
       434   05 Jun 2027 05:01:13.606   05 Jun 2027 05:01:32.408            18.802                 Moscow           587.563
       435   05 Jun 2027 05:16:25.244   05 Jun 2027 05:17:40.701            75.457               CapeTown          2358.031
       436   05 Jun 2027 05:18:37.118   05 Jun 2027 05:19:35.064            57.946               CapeTown          1810.812
       437   05 Jun 2027 06:20:06.666   05 Jun 2027 06:20:14.455             7.789                Anadyr1           243.406
       438   05 Jun 2027 06:20:52.006   05 Jun 2027 06:20:55.569             3.563               Magadan1           111.344
       439   05 Jun 2027 06:21:14.775   05 Jun 2027 06:21:32.739            17.964                Anadyr1           561.375
       440   05 Jun 2027 06:21:32.739   05 Jun 2027 06:22:06.817            34.078                Anadyr2          1064.937
       441   05 Jun 2027 06:22:42.784   05 Jun 2027 06:22:44.742             1.958                Anadyr1            61.187
       442   05 Jun 2027 06:30:47.213   05 Jun 2027 06:30:52.195             4.982                 Moscow           155.687
       443   05 Jun 2027 06:30:54.727   05 Jun 2027 06:31:43.536            48.809                 Moscow          1525.281
       444   05 Jun 2027 06:35:26.443   05 Jun 2027 06:35:37.383            10.940                 Moscow           341.875
       445   05 Jun 2027 06:52:22.524   05 Jun 2027 06:53:19.575            57.051               CapeTown          1782.844
       446   05 Jun 2027 06:54:28.673   05 Jun 2027 06:56:43.062           134.389               CapeTown          4199.656
       447   05 Jun 2027 07:54:21.926   05 Jun 2027 07:55:29.699            67.773                Anadyr2          2117.906
       448   05 Jun 2027 07:55:40.572   05 Jun 2027 07:56:50.855            70.283               Magadan2          2196.344
       449   05 Jun 2027 07:57:05.318   05 Jun 2027 07:58:00.042            54.724               Magadan2          1710.125
       450   05 Jun 2027 08:11:40.681   05 Jun 2027 08:11:42.287             1.606                 Moscow            50.187
       451   05 Jun 2027 08:42:31.561   05 Jun 2027 08:42:43.272            11.711            RioGallegos           365.969
       452   05 Jun 2027 09:28:40.939   05 Jun 2027 09:29:24.551            43.612                Anadyr1          1362.875
       453   05 Jun 2027 09:31:03.836   05 Jun 2027 09:31:59.504            55.668               Magadan1          1739.625
       454   05 Jun 2027 09:33:06.504   05 Jun 2027 09:33:59.965            53.461               Magadan2          1670.656
       455   05 Jun 2027 09:34:40.195   05 Jun 2027 09:34:56.747            16.552               Magadan2           517.250
       456   05 Jun 2027 09:35:27.171   05 Jun 2027 09:36:55.104            87.933               Magadan2          2747.906
       457   05 Jun 2027 11:04:56.613   05 Jun 2027 11:05:46.071            49.458               Magadan2          1545.563
       458   05 Jun 2027 11:07:34.721   05 Jun 2027 11:07:54.633            19.912               Magadan1           622.250
       459   05 Jun 2027 11:08:37.611   05 Jun 2027 11:12:03.088           205.477               Magadan1          6421.156
       460   05 Jun 2027 11:12:16.815   05 Jun 2027 11:12:19.744             2.929                Norilsk            91.531
       461   05 Jun 2027 11:12:40.087   05 Jun 2027 11:12:58.261            18.174                Norilsk           567.938
       462   05 Jun 2027 11:47:21.173   05 Jun 2027 11:48:23.713            62.540            RioGallegos          1954.375
       463   05 Jun 2027 11:54:20.815   05 Jun 2027 11:54:58.855            38.040            RioGallegos          1188.750
       464   05 Jun 2027 12:22:27.889   05 Jun 2027 12:23:11.262            43.373                Sumatra          1355.406
       465   05 Jun 2027 12:34:16.936   05 Jun 2027 12:34:46.306            29.370                  Delhi           917.813
       466   05 Jun 2027 12:36:01.024   05 Jun 2027 12:37:38.449            97.425                Irkutsk          3044.531
       467   05 Jun 2027 12:40:41.834   05 Jun 2027 12:41:44.412            62.578                Norilsk          1955.562
       468   05 Jun 2027 12:51:18.746   05 Jun 2027 12:51:38.884            20.138                Norilsk           629.312
       469   05 Jun 2027 13:25:50.586   05 Jun 2027 13:28:12.183           141.597            RioGallegos          4424.906
       470   05 Jun 2027 14:03:00.767   05 Jun 2027 14:04:48.523           107.756                Sumatra          3367.375
       471   05 Jun 2027 14:16:00.552   05 Jun 2027 14:19:49.402           228.850                Irkutsk          7151.562
       472   05 Jun 2027 15:45:57.861   05 Jun 2027 15:49:56.447           238.586                  Delhi          7455.813
       473   05 Jun 2027 15:54:17.397   05 Jun 2027 15:55:05.791            48.394              Murmansk2          1512.312
       474   05 Jun 2027 15:56:59.638   05 Jun 2027 15:57:45.613            45.975                Norilsk          1436.719
       475   05 Jun 2027 15:58:08.577   05 Jun 2027 15:58:25.164            16.587                Novosib           518.344
       476   05 Jun 2027 15:59:15.466   05 Jun 2027 15:59:35.332            19.866                Norilsk           620.813
       477   05 Jun 2027 16:00:13.437   05 Jun 2027 16:01:43.532            90.095                Norilsk          2815.469
       478   05 Jun 2027 16:05:24.612   05 Jun 2027 16:05:29.744             5.132                Norilsk           160.375
       479   05 Jun 2027 17:09:09.512   05 Jun 2027 17:09:48.500            38.988               CapeTown          1218.375
       480   05 Jun 2027 17:27:29.193   05 Jun 2027 17:28:36.776            67.583                 Moscow          2111.969
       481   05 Jun 2027 17:30:28.449   05 Jun 2027 17:31:54.178            85.729                 Moscow          2679.031
       482   05 Jun 2027 17:34:13.854   05 Jun 2027 17:34:29.625            15.771              Murmansk1           492.844
