uniorb/output/strategy_4/Drop/Drop_KinoSat_111803.txt

KinoSat_111803
-------------------------
    Access    *     Start Time (UTCG)     *     Stop Time (UTCG)  *   Duration (s)        *       Station  *  Data (Mbytes)
         1   01 Jun 2027 03:26:57.135   01 Jun 2027 03:30:25.765           208.630                Norilsk          6519.688
         2   01 Jun 2027 03:30:28.821   01 Jun 2027 03:30:32.299             3.478                Norilsk           108.688
         3   01 Jun 2027 03:30:34.774   01 Jun 2027 03:30:36.608             1.834                Novosib            57.312
         4   01 Jun 2027 03:30:45.359   01 Jun 2027 03:33:16.715           151.356                Irkutsk          4729.875
         5   01 Jun 2027 03:33:50.972   01 Jun 2027 03:35:28.146            97.174                Novosib          3036.688
         6   01 Jun 2027 03:35:55.241   01 Jun 2027 03:36:15.261            20.020                Novosib           625.625
         7   01 Jun 2027 03:37:32.954   01 Jun 2027 03:39:44.460           131.506                  Delhi          4109.563
         8   01 Jun 2027 05:04:26.894   01 Jun 2027 05:04:43.594            16.700                Novosib           521.875
         9   01 Jun 2027 05:04:58.899   01 Jun 2027 05:05:19.188            20.289              Murmansk2           634.031
        10   01 Jun 2027 05:05:19.188   01 Jun 2027 05:06:53.263            94.075              Murmansk1          2939.844
        11   01 Jun 2027 05:06:56.192   01 Jun 2027 05:07:20.972            24.780              Murmansk1           774.375
        12   01 Jun 2027 05:07:37.112   01 Jun 2027 05:08:31.653            54.541                Novosib          1704.406
        13   01 Jun 2027 05:08:51.497   01 Jun 2027 05:10:15.030            83.533              Murmansk2          2610.406
        14   01 Jun 2027 05:10:43.715   01 Jun 2027 05:13:56.376           192.661                 Moscow          6020.656
        15   01 Jun 2027 05:25:37.985   01 Jun 2027 05:31:58.136           380.151               CapeTown         11879.719
        16   01 Jun 2027 06:29:23.636   01 Jun 2027 06:29:37.673            14.037                Anadyr2           438.656
        17   01 Jun 2027 06:30:08.554   01 Jun 2027 06:33:23.210           194.656               Magadan2          6083.000
        18   01 Jun 2027 06:40:50.456   01 Jun 2027 06:44:45.557           235.101              Murmansk2          7346.906
        19   01 Jun 2027 06:45:10.952   01 Jun 2027 06:45:55.331            44.379              Murmansk2          1386.844
        20   01 Jun 2027 06:45:55.331   01 Jun 2027 06:46:54.789            59.458              Murmansk1          1858.062
        21   01 Jun 2027 07:02:08.773   01 Jun 2027 07:02:56.277            47.504               CapeTown          1484.500
        22   01 Jun 2027 07:04:13.878   01 Jun 2027 07:06:09.182           115.304               CapeTown          3603.250
        23   01 Jun 2027 08:06:04.357   01 Jun 2027 08:10:45.291           280.934                Anadyr2          8779.188
        24   01 Jun 2027 08:10:57.601   01 Jun 2027 08:11:45.184            47.583              Murmansk1          1486.969
        25   01 Jun 2027 08:51:01.900   01 Jun 2027 08:51:17.537            15.637            RioGallegos           488.656
        26   01 Jun 2027 09:38:37.476   01 Jun 2027 09:39:59.763            82.287                Anadyr1          2571.469
        27   01 Jun 2027 09:39:59.763   01 Jun 2027 09:46:08.220           368.457                Anadyr2         11514.281
        28   01 Jun 2027 11:14:52.412   01 Jun 2027 11:17:45.204           172.792               Magadan2          5399.750
        29   01 Jun 2027 11:22:14.525   01 Jun 2027 11:26:41.253           266.728              Murmansk1          8335.250
        30   01 Jun 2027 11:56:50.959   01 Jun 2027 11:57:24.401            33.442            RioGallegos          1045.063
        31   01 Jun 2027 11:58:47.888   01 Jun 2027 12:00:03.784            75.896            RioGallegos          2371.750
        32   01 Jun 2027 12:31:47.052   01 Jun 2027 12:34:44.122           177.070                Sumatra          5533.437
        33   01 Jun 2027 12:45:36.476   01 Jun 2027 12:46:12.427            35.951                Irkutsk          1123.469
        34   01 Jun 2027 12:46:56.350   01 Jun 2027 12:47:54.057            57.707                Novosib          1803.344
        35   01 Jun 2027 12:49:03.389   01 Jun 2027 12:50:07.943            64.554                Irkutsk          2017.313
        36   01 Jun 2027 13:35:51.911   01 Jun 2027 13:42:42.948           411.037            RioGallegos         12844.906
        37   01 Jun 2027 14:10:30.116   01 Jun 2027 14:14:40.292           250.176                Sumatra          7818.000
        38   01 Jun 2027 14:26:25.254   01 Jun 2027 14:31:27.861           302.607                Irkutsk          9456.469
        39   01 Jun 2027 15:56:58.643   01 Jun 2027 16:00:04.784           186.141                  Delhi          5816.906
        40   01 Jun 2027 16:05:02.229   01 Jun 2027 16:08:32.291           210.062                Novosib          6564.437
        41   01 Jun 2027 16:12:15.948   01 Jun 2027 16:12:22.125             6.177                Norilsk           193.031
        42   01 Jun 2027 18:49:44.078   01 Jun 2027 18:51:53.788           129.710               CapeTown          4053.438
        43   01 Jun 2027 19:19:22.943   01 Jun 2027 19:27:53.414           510.471              Murmansk1         15952.219
        44   01 Jun 2027 20:27:58.663   01 Jun 2027 20:33:59.994           361.331               CapeTown         11291.594
        45   01 Jun 2027 21:11:25.597   01 Jun 2027 21:11:38.560            12.963               Magadan2           405.094
        46   01 Jun 2027 21:13:35.134   01 Jun 2027 21:14:19.085            43.951               Magadan2          1373.469
        47   01 Jun 2027 22:42:10.250   01 Jun 2027 22:45:54.447           224.197                Anadyr1          7006.156
        48   01 Jun 2027 22:45:54.952   01 Jun 2027 22:50:03.248           248.296               Magadan1          7759.250
        49   01 Jun 2027 22:50:31.378   01 Jun 2027 22:51:22.695            51.317                Irkutsk          1603.656
        50   01 Jun 2027 22:52:20.291   01 Jun 2027 22:52:57.107            36.816                Irkutsk          1150.500
        51   01 Jun 2027 23:36:21.952   01 Jun 2027 23:38:23.604           121.652            RioGallegos          3801.625
        52   01 Jun 2027 23:39:30.522   01 Jun 2027 23:39:39.529             9.007            RioGallegos           281.469
        53   01 Jun 2027 23:39:54.555   01 Jun 2027 23:39:56.257             1.702            RioGallegos            53.187
        54   01 Jun 2027 23:40:12.586   01 Jun 2027 23:40:59.334            46.748            RioGallegos          1460.875
        55   01 Jun 2027 23:47:54.540   01 Jun 2027 23:47:55.900             1.360            RioGallegos            42.500
        56   02 Jun 2027 00:17:40.970   02 Jun 2027 00:18:51.905            70.935                Anadyr1          2216.719
        57   02 Jun 2027 00:18:51.905   02 Jun 2027 00:19:08.289            16.384                Anadyr2           512.000
        58   02 Jun 2027 00:19:18.987   02 Jun 2027 00:19:48.280            29.293                Anadyr2           915.406
        59   02 Jun 2027 00:19:59.336   02 Jun 2027 00:21:27.061            87.725                Norilsk          2741.406
        60   02 Jun 2027 00:21:32.575   02 Jun 2027 00:21:53.142            20.567               Magadan2           642.719
        61   02 Jun 2027 00:22:42.321   02 Jun 2027 00:23:03.403            21.082               Magadan2           658.813
        62   02 Jun 2027 00:23:30.650   02 Jun 2027 00:23:56.061            25.411               Magadan2           794.094
        63   02 Jun 2027 00:24:03.184   02 Jun 2027 00:25:09.723            66.539                Irkutsk          2079.344
        64   02 Jun 2027 00:25:17.809   02 Jun 2027 00:26:44.633            86.824                Novosib          2713.250
        65   02 Jun 2027 00:33:44.251   02 Jun 2027 00:34:45.562            61.311                Irkutsk          1915.969
        66   02 Jun 2027 00:37:44.652   02 Jun 2027 00:38:19.488            34.836                Sumatra          1088.625
        67   02 Jun 2027 00:46:02.800   02 Jun 2027 00:46:19.826            17.026                Sumatra           532.062
        68   02 Jun 2027 00:49:52.295   02 Jun 2027 00:50:03.788            11.493                Sumatra           359.156
        69   02 Jun 2027 01:11:55.055   02 Jun 2027 01:12:41.987            46.932            RioGallegos          1466.625
        70   02 Jun 2027 01:15:07.563   02 Jun 2027 01:15:13.379             5.816            RioGallegos           181.750
        71   02 Jun 2027 01:16:33.924   02 Jun 2027 01:16:48.840            14.916            RioGallegos           466.125
        72   02 Jun 2027 01:18:33.587   02 Jun 2027 01:18:47.614            14.027            RioGallegos           438.344
        73   02 Jun 2027 01:21:20.402   02 Jun 2027 01:21:24.980             4.578            RioGallegos           143.063
        74   02 Jun 2027 01:21:32.055   02 Jun 2027 01:21:39.874             7.819            RioGallegos           244.344
        75   02 Jun 2027 01:22:12.733   02 Jun 2027 01:22:32.305            19.572            RioGallegos           611.625
        76   02 Jun 2027 01:52:11.980   02 Jun 2027 01:52:49.456            37.476                Anadyr2          1171.125
        77   02 Jun 2027 01:52:49.456   02 Jun 2027 01:53:44.235            54.779                Anadyr1          1711.844
        78   02 Jun 2027 01:54:30.047   02 Jun 2027 01:54:49.595            19.548                Anadyr1           610.875
        79   02 Jun 2027 01:55:59.013   02 Jun 2027 01:57:33.936            94.923                Norilsk          2966.344
        80   02 Jun 2027 01:59:52.912   02 Jun 2027 02:01:49.363           116.451                Novosib          3639.094
        81   02 Jun 2027 02:02:18.113   02 Jun 2027 02:02:44.102            25.989                Novosib           812.156
        82   02 Jun 2027 02:06:51.882   02 Jun 2027 02:07:31.799            39.917                Novosib          1247.406
        83   02 Jun 2027 02:07:57.161   02 Jun 2027 02:08:16.400            19.239                  Delhi           601.219
        84   02 Jun 2027 02:09:01.478   02 Jun 2027 02:09:56.705            55.227                  Delhi          1725.844
        85   02 Jun 2027 02:17:22.506   02 Jun 2027 02:20:53.010           210.504                Sumatra          6578.250
        86   02 Jun 2027 02:52:37.906   02 Jun 2027 02:52:53.254            15.348            RioGallegos           479.625
        87   02 Jun 2027 02:56:46.535   02 Jun 2027 02:57:18.015            31.480            RioGallegos           983.750
        88   02 Jun 2027 03:39:07.362   02 Jun 2027 03:39:45.422            38.060              Murmansk1          1189.375
        89   02 Jun 2027 03:40:06.097   02 Jun 2027 03:41:02.756            56.659                Norilsk          1770.594
        90   02 Jun 2027 03:41:07.135   02 Jun 2027 03:44:38.747           211.612                Irkutsk          6612.875
        91   02 Jun 2027 03:48:03.552   02 Jun 2027 03:48:04.696             1.144                Novosib            35.750
        92   02 Jun 2027 05:18:14.690   02 Jun 2027 05:20:47.025           152.335                Novosib          4760.469
        93   02 Jun 2027 05:22:23.075   02 Jun 2027 05:22:29.100             6.025              Murmansk1           188.281
        94   02 Jun 2027 05:25:37.955   02 Jun 2027 05:26:06.606            28.651                 Moscow           895.344
        95   02 Jun 2027 05:44:40.168   02 Jun 2027 05:50:00.029           319.861               CapeTown          9995.656
        96   02 Jun 2027 06:40:23.772   02 Jun 2027 06:40:59.572            35.800               Magadan1          1118.750
        97   02 Jun 2027 06:40:59.572   02 Jun 2027 06:42:52.595           113.023               Magadan2          3531.969
        98   02 Jun 2027 06:43:01.267   02 Jun 2027 06:43:32.227            30.960                Anadyr2           967.500
        99   02 Jun 2027 06:44:01.715   02 Jun 2027 06:44:51.434            49.719                Anadyr2          1553.719
       100   02 Jun 2027 06:45:38.087   02 Jun 2027 06:46:53.089            75.002                Anadyr2          2343.813
       101   02 Jun 2027 08:17:54.487   02 Jun 2027 08:22:45.624           291.137                Anadyr1          9098.031
       102   02 Jun 2027 09:49:51.318   02 Jun 2027 09:50:30.323            39.005               Magadan1          1218.906
       103   02 Jun 2027 09:50:35.921   02 Jun 2027 09:50:39.717             3.796               Magadan2           118.625
       104   02 Jun 2027 09:50:39.717   02 Jun 2027 09:51:29.899            50.182               Magadan1          1568.187
       105   02 Jun 2027 09:51:41.154   02 Jun 2027 09:52:40.966            59.812                Anadyr2          1869.125
       106   02 Jun 2027 09:52:56.420   02 Jun 2027 09:53:02.738             6.318               Magadan2           197.437
       107   02 Jun 2027 09:53:59.769   02 Jun 2027 09:55:03.639            63.870                Anadyr1          1995.937
       108   02 Jun 2027 09:55:25.209   02 Jun 2027 09:55:52.420            27.211               Magadan2           850.344
       109   02 Jun 2027 09:55:57.404   02 Jun 2027 09:56:58.593            61.189               Magadan1          1912.156
       110   02 Jun 2027 09:58:47.105   02 Jun 2027 09:58:57.888            10.783              Murmansk2           336.969
       111   02 Jun 2027 10:33:40.322   02 Jun 2027 10:34:08.441            28.119            RioGallegos           878.719
       112   02 Jun 2027 10:35:35.228   02 Jun 2027 10:35:39.571             4.343            RioGallegos           135.719
       113   02 Jun 2027 10:35:58.026   02 Jun 2027 10:36:55.665            57.639            RioGallegos          1801.219
       114   02 Jun 2027 11:13:13.568   02 Jun 2027 11:13:15.315             1.747                Sumatra            54.594
       115   02 Jun 2027 11:15:23.447   02 Jun 2027 11:15:59.176            35.729                Sumatra          1116.531
       116   02 Jun 2027 11:26:01.494   02 Jun 2027 11:26:11.165             9.671               Magadan2           302.219
       117   02 Jun 2027 11:26:16.246   02 Jun 2027 11:28:34.467           138.221               Magadan1          4319.406
       118   02 Jun 2027 11:29:31.657   02 Jun 2027 11:32:58.956           207.299               Magadan1          6478.094
       119   02 Jun 2027 11:33:14.575   02 Jun 2027 11:33:37.659            23.084                Novosib           721.375
       120   02 Jun 2027 11:33:46.709   02 Jun 2027 11:34:55.200            68.491                Norilsk          2140.344
       121   02 Jun 2027 12:12:53.872   02 Jun 2027 12:13:10.982            17.110            RioGallegos           534.688
       122   02 Jun 2027 12:43:43.684   02 Jun 2027 12:44:26.010            42.326                Sumatra          1322.688
       123   02 Jun 2027 12:46:32.841   02 Jun 2027 12:46:37.782             4.941                Sumatra           154.406
       124   02 Jun 2027 12:47:33.053   02 Jun 2027 12:47:38.071             5.018                Sumatra           156.812
       125   02 Jun 2027 12:50:27.164   02 Jun 2027 12:52:18.122           110.958                Sumatra          3467.437
       126   02 Jun 2027 12:57:53.160   02 Jun 2027 12:59:04.179            71.019                Irkutsk          2219.344
       127   02 Jun 2027 13:01:47.167   02 Jun 2027 13:02:22.127            34.960                Irkutsk          1092.500
       128   02 Jun 2027 13:13:32.896   02 Jun 2027 13:14:14.366            41.470                Norilsk          1295.937
       129   02 Jun 2027 13:48:50.619   02 Jun 2027 13:49:31.920            41.301            RioGallegos          1290.656
       130   02 Jun 2027 13:52:52.217   02 Jun 2027 13:53:06.299            14.082            RioGallegos           440.062
       131   02 Jun 2027 14:30:07.332   02 Jun 2027 14:32:23.489           136.157                  Delhi          4254.906
       132   02 Jun 2027 14:35:44.281   02 Jun 2027 14:36:37.348            53.067                Novosib          1658.344
       133   02 Jun 2027 14:37:58.304   02 Jun 2027 14:40:36.816           158.512                Novosib          4953.500
       134   02 Jun 2027 14:49:04.751   02 Jun 2027 14:49:35.558            30.807                Norilsk           962.719
       135   02 Jun 2027 16:12:20.384   02 Jun 2027 16:14:46.820           146.436                 Moscow          4576.125
       136   02 Jun 2027 16:15:37.694   02 Jun 2027 16:16:10.235            32.541                 Moscow          1016.906
       137   02 Jun 2027 16:16:44.426   02 Jun 2027 16:17:07.491            23.065              Murmansk2           720.781
       138   02 Jun 2027 16:17:54.432   02 Jun 2027 16:18:05.572            11.140              Murmansk2           348.125
       139   02 Jun 2027 16:19:34.025   02 Jun 2027 16:21:06.007            91.982                Norilsk          2874.438
       140   02 Jun 2027 16:23:09.088   02 Jun 2027 16:25:14.199           125.111                Norilsk          3909.719
       141   02 Jun 2027 17:27:01.687   02 Jun 2027 17:27:32.808            31.121               CapeTown           972.531
       142   02 Jun 2027 17:28:03.501   02 Jun 2027 17:30:02.854           119.353               CapeTown          3729.781
       143   02 Jun 2027 17:49:34.195   02 Jun 2027 17:49:56.747            22.552                 Moscow           704.750
       144   02 Jun 2027 17:51:14.088   02 Jun 2027 17:53:20.418           126.330                 Moscow          3947.812
       145   02 Jun 2027 17:56:44.612   02 Jun 2027 17:57:12.147            27.535              Murmansk1           860.469
       146   02 Jun 2027 17:58:54.193   02 Jun 2027 18:00:21.449            87.256              Murmansk2          2726.750
       147   02 Jun 2027 18:13:10.979   02 Jun 2027 18:13:29.108            18.129                Anadyr2           566.531
       148   02 Jun 2027 19:01:48.445   02 Jun 2027 19:03:45.350           116.905               CapeTown          3653.281
       149   02 Jun 2027 19:31:58.982   02 Jun 2027 19:32:56.889            57.907              Murmansk1          1809.594
       150   02 Jun 2027 19:34:28.976   02 Jun 2027 19:39:48.053           319.077              Murmansk2          9971.156
       151   02 Jun 2027 19:49:02.751   02 Jun 2027 19:49:05.752             3.001               Magadan2            93.781
       152   02 Jun 2027 19:49:18.199   02 Jun 2027 19:49:54.007            35.808               Magadan2          1119.000
       153   02 Jun 2027 20:41:24.930   02 Jun 2027 20:44:08.574           163.644               CapeTown          5113.875
       154   02 Jun 2027 21:18:18.253   02 Jun 2027 21:19:22.924            64.671                Anadyr2          2020.969
       155   02 Jun 2027 21:20:06.409   02 Jun 2027 21:20:10.618             4.209                Anadyr1           131.531
       156   02 Jun 2027 21:20:39.445   02 Jun 2027 21:23:03.859           144.414               Magadan2          4512.937
       157   02 Jun 2027 21:23:04.575   02 Jun 2027 21:23:07.239             2.664               Magadan1            83.250
       158   02 Jun 2027 21:23:14.852   02 Jun 2027 21:23:27.779            12.927               Magadan1           403.969
       159   02 Jun 2027 21:25:02.640   02 Jun 2027 21:25:35.787            33.147               Magadan1          1035.844
       160   02 Jun 2027 22:54:10.623   02 Jun 2027 22:57:53.711           223.088                Anadyr1          6971.500
       161   02 Jun 2027 22:58:05.913   02 Jun 2027 23:00:57.263           171.350                Norilsk          5354.687
       162   02 Jun 2027 23:01:25.537   02 Jun 2027 23:01:34.623             9.086               Magadan2           283.938
       163   02 Jun 2027 23:01:42.735   02 Jun 2027 23:02:02.876            20.141               Magadan2           629.406
       164   02 Jun 2027 23:02:22.522   02 Jun 2027 23:02:58.066            35.544               Magadan1          1110.750
       165   02 Jun 2027 23:02:59.362   02 Jun 2027 23:03:24.545            25.183                Irkutsk           786.969
       166   02 Jun 2027 23:04:05.697   02 Jun 2027 23:04:26.408            20.711                Irkutsk           647.219
       167   02 Jun 2027 23:06:40.333   02 Jun 2027 23:07:09.890            29.557                Irkutsk           923.656
       168   02 Jun 2027 23:17:57.751   02 Jun 2027 23:19:10.022            72.271                Sumatra          2258.469
       169   02 Jun 2027 23:20:46.784   02 Jun 2027 23:21:49.812            63.028                Sumatra          1969.625
       170   02 Jun 2027 23:22:22.898   02 Jun 2027 23:23:14.229            51.331                Sumatra          1604.094
       171   02 Jun 2027 23:59:39.456   03 Jun 2027 00:00:06.063            26.607            RioGallegos           831.469
       172   03 Jun 2027 00:29:36.087   03 Jun 2027 00:30:10.604            34.517                Anadyr1          1078.656
       173   03 Jun 2027 00:31:01.584   03 Jun 2027 00:31:11.033             9.449                Anadyr2           295.281
       174   03 Jun 2027 00:31:11.033   03 Jun 2027 00:31:17.604             6.571                Anadyr1           205.344
       175   03 Jun 2027 00:32:00.977   03 Jun 2027 00:33:47.729           106.752                Norilsk          3336.000
       176   03 Jun 2027 00:34:03.955   03 Jun 2027 00:34:41.385            37.430               Magadan1          1169.688
       177   03 Jun 2027 00:34:53.109   03 Jun 2027 00:35:24.930            31.821               Magadan1           994.406
       178   03 Jun 2027 00:36:00.690   03 Jun 2027 00:37:41.150           100.460                Irkutsk          3139.375
       179   03 Jun 2027 00:39:57.351   03 Jun 2027 00:40:24.079            26.728                Novosib           835.250
       180   03 Jun 2027 00:40:57.242   03 Jun 2027 00:42:33.311            96.069                Novosib          3002.156
       181   03 Jun 2027 00:49:44.130   03 Jun 2027 00:52:06.501           142.371                Sumatra          4449.094
       182   03 Jun 2027 01:30:20.498   03 Jun 2027 01:30:25.414             4.916            RioGallegos           153.625
       183   03 Jun 2027 01:31:08.808   03 Jun 2027 01:31:53.589            44.781            RioGallegos          1399.406
       184   03 Jun 2027 02:03:57.256   03 Jun 2027 02:04:10.450            13.194                Anadyr2           412.313
       185   03 Jun 2027 02:04:10.450   03 Jun 2027 02:04:49.817            39.367                Anadyr1          1230.219
       186   03 Jun 2027 02:05:59.534   03 Jun 2027 02:06:20.345            20.811                Anadyr2           650.344
       187   03 Jun 2027 02:08:01.400   03 Jun 2027 02:09:46.818           105.418                Norilsk          3294.313
       188   03 Jun 2027 02:11:25.224   03 Jun 2027 02:11:50.997            25.773              Murmansk1           805.406
       189   03 Jun 2027 02:11:52.152   03 Jun 2027 02:13:05.196            73.044                Novosib          2282.625
       190   03 Jun 2027 02:13:22.218   03 Jun 2027 02:13:39.717            17.499                Irkutsk           546.844
       191   03 Jun 2027 02:16:57.886   03 Jun 2027 02:17:13.063            15.177                Irkutsk           474.281
       192   03 Jun 2027 02:17:32.295   03 Jun 2027 02:17:38.334             6.039                Irkutsk           188.719
       193   03 Jun 2027 02:19:17.164   03 Jun 2027 02:20:09.722            52.558                  Delhi          1642.437
       194   03 Jun 2027 02:27:29.313   03 Jun 2027 02:28:48.132            78.819                  Delhi          2463.094
       195   03 Jun 2027 03:01:04.876   03 Jun 2027 03:01:58.146            53.270            RioGallegos          1664.688
       196   03 Jun 2027 03:02:49.482   03 Jun 2027 03:03:14.081            24.599            RioGallegos           768.719
       197   03 Jun 2027 03:03:21.472   03 Jun 2027 03:05:15.759           114.287            RioGallegos          3571.469
       198   03 Jun 2027 03:52:43.111   03 Jun 2027 03:55:55.587           192.476                Irkutsk          6014.875
       199   03 Jun 2027 03:56:00.375   03 Jun 2027 03:56:32.481            32.106                 Moscow          1003.312
       200   03 Jun 2027 03:56:47.320   03 Jun 2027 03:56:55.948             8.628                 Moscow           269.625
       201   03 Jun 2027 03:57:09.921   03 Jun 2027 03:58:09.196            59.275                 Moscow          1852.344
       202   03 Jun 2027 03:59:58.723   03 Jun 2027 04:03:10.744           192.021                  Delhi          6000.656
       203   03 Jun 2027 05:29:31.452   03 Jun 2027 05:30:19.166            47.714                Novosib          1491.063
       204   03 Jun 2027 05:31:00.183   03 Jun 2027 05:31:10.330            10.147                 Moscow           317.094
       205   03 Jun 2027 05:31:44.329   03 Jun 2027 05:32:11.250            26.921                Novosib           841.281
       206   03 Jun 2027 05:32:22.371   03 Jun 2027 05:32:57.486            35.115                 Moscow          1097.344
       207   03 Jun 2027 05:33:08.578   03 Jun 2027 05:33:45.708            37.130                 Moscow          1160.313
       208   03 Jun 2027 05:34:03.283   03 Jun 2027 05:34:17.915            14.632                 Moscow           457.250
       209   03 Jun 2027 05:34:30.569   03 Jun 2027 05:34:41.250            10.681              Murmansk1           333.781
       210   03 Jun 2027 05:49:18.538   03 Jun 2027 05:52:09.930           171.392               CapeTown          5356.000
       211   03 Jun 2027 06:52:23.466   03 Jun 2027 06:52:49.765            26.299                Anadyr2           821.844
       212   03 Jun 2027 06:53:07.461   03 Jun 2027 06:53:57.260            49.799                Anadyr1          1556.219
       213   03 Jun 2027 06:56:10.323   03 Jun 2027 06:56:28.802            18.479               Magadan2           577.469
       214   03 Jun 2027 06:58:02.601   03 Jun 2027 06:58:12.826            10.225                Anadyr1           319.531
       215   03 Jun 2027 07:09:08.781   03 Jun 2027 07:09:21.405            12.624                 Moscow           394.500
       216   03 Jun 2027 07:27:31.320   03 Jun 2027 07:28:42.135            70.815               CapeTown          2212.969
       217   03 Jun 2027 07:30:03.457   03 Jun 2027 07:32:06.202           122.745               CapeTown          3835.781
       218   03 Jun 2027 08:26:26.296   03 Jun 2027 08:27:04.009            37.713                Anadyr2          1178.531
       219   03 Jun 2027 08:27:36.434   03 Jun 2027 08:27:45.307             8.873               Magadan2           277.281
       220   03 Jun 2027 08:27:45.752   03 Jun 2027 08:27:49.452             3.700                Anadyr1           115.625
       221   03 Jun 2027 08:28:06.130   03 Jun 2027 08:28:44.850            38.720               Magadan2          1210.000
       222   03 Jun 2027 08:28:53.589   03 Jun 2027 08:29:40.340            46.751                Anadyr2          1460.969
       223   03 Jun 2027 08:29:58.271   03 Jun 2027 08:30:57.915            59.644                Anadyr2          1863.875
       224   03 Jun 2027 08:31:13.922   03 Jun 2027 08:32:29.378            75.456               Magadan2          2358.000
       225   03 Jun 2027 09:13:43.965   03 Jun 2027 09:13:49.030             5.065            RioGallegos           158.281
       226   03 Jun 2027 10:01:39.335   03 Jun 2027 10:02:41.124            61.789               Magadan1          1930.906
       227   03 Jun 2027 10:03:01.643   03 Jun 2027 10:03:16.857            15.214               Magadan2           475.437
       228   03 Jun 2027 10:03:16.857   03 Jun 2027 10:03:41.989            25.132               Magadan1           785.375
       229   03 Jun 2027 10:04:22.546   03 Jun 2027 10:04:28.306             5.760               Magadan1           180.000
       230   03 Jun 2027 10:06:33.507   03 Jun 2027 10:07:49.921            76.414               Magadan1          2387.937
       231   03 Jun 2027 10:08:00.116   03 Jun 2027 10:08:05.820             5.704                Irkutsk           178.250
       232   03 Jun 2027 10:08:12.275   03 Jun 2027 10:09:05.736            53.461               Magadan1          1670.656
       233   03 Jun 2027 10:09:20.011   03 Jun 2027 10:09:42.336            22.325                Irkutsk           697.656
       234   03 Jun 2027 10:09:58.938   03 Jun 2027 10:10:21.605            22.667                Norilsk           708.344
       235   03 Jun 2027 10:45:26.052   03 Jun 2027 10:45:33.230             7.178            RioGallegos           224.312
       236   03 Jun 2027 10:46:02.717   03 Jun 2027 10:46:10.826             8.109            RioGallegos           253.406
       237   03 Jun 2027 10:47:29.865   03 Jun 2027 10:48:04.037            34.172            RioGallegos          1067.875
       238   03 Jun 2027 10:50:51.262   03 Jun 2027 10:50:53.644             2.382            RioGallegos            74.437
       239   03 Jun 2027 10:53:40.365   03 Jun 2027 10:53:49.734             9.369            RioGallegos           292.781
       240   03 Jun 2027 11:23:10.507   03 Jun 2027 11:24:39.867            89.360                Sumatra          2792.500
       241   03 Jun 2027 11:39:06.794   03 Jun 2027 11:43:11.834           245.040               Magadan1          7657.500
       242   03 Jun 2027 11:43:27.001   03 Jun 2027 11:44:29.785            62.784               Magadan2          1962.000
       243   03 Jun 2027 11:45:02.881   03 Jun 2027 11:45:20.128            17.247                Irkutsk           538.969
       244   03 Jun 2027 11:45:24.069   03 Jun 2027 11:45:33.054             8.985                Norilsk           280.781
       245   03 Jun 2027 11:45:36.858   03 Jun 2027 11:46:13.928            37.070                Irkutsk          1158.438
       246   03 Jun 2027 12:21:12.375   03 Jun 2027 12:21:56.889            44.514            RioGallegos          1391.062
       247   03 Jun 2027 12:24:35.586   03 Jun 2027 12:25:43.886            68.300            RioGallegos          2134.375
       248   03 Jun 2027 12:55:46.002   03 Jun 2027 12:57:34.383           108.381                Sumatra          3386.906
       249   03 Jun 2027 13:10:14.132   03 Jun 2027 13:10:24.108             9.976                Irkutsk           311.750
       250   03 Jun 2027 13:10:49.664   03 Jun 2027 13:12:02.697            73.033                Novosib          2282.281
       251   03 Jun 2027 13:14:23.055   03 Jun 2027 13:15:09.293            46.238                Irkutsk          1444.938
       252   03 Jun 2027 13:18:46.971   03 Jun 2027 13:20:08.353            81.382                Irkutsk          2543.187
       253   03 Jun 2027 14:02:11.625   03 Jun 2027 14:04:34.357           142.732            RioGallegos          4460.375
       254   03 Jun 2027 14:48:09.358   03 Jun 2027 14:48:37.803            28.445                Novosib           888.906
       255   03 Jun 2027 14:48:46.547   03 Jun 2027 14:49:16.296            29.749                Novosib           929.656
       256   03 Jun 2027 14:51:49.870   03 Jun 2027 14:53:14.837            84.967                Novosib          2655.219
       257   03 Jun 2027 14:55:09.347   03 Jun 2027 14:56:57.981           108.634                Norilsk          3394.813
       258   03 Jun 2027 14:57:36.519   03 Jun 2027 14:58:30.373            53.854                Novosib          1682.937
       259   03 Jun 2027 16:24:20.709   03 Jun 2027 16:25:32.424            71.715                 Moscow          2241.094
       260   03 Jun 2027 16:27:49.399   03 Jun 2027 16:28:43.198            53.799              Murmansk1          1681.219
       261   03 Jun 2027 16:32:18.574   03 Jun 2027 16:37:46.278           327.704                Norilsk         10240.750
       262   03 Jun 2027 18:02:03.024   03 Jun 2027 18:02:57.599            54.575                 Moscow          1705.469
       263   03 Jun 2027 18:05:03.805   03 Jun 2027 18:05:55.984            52.179              Murmansk2          1630.594
       264   03 Jun 2027 18:06:26.447   03 Jun 2027 18:07:04.425            37.978                 Moscow          1186.813
       265   03 Jun 2027 18:08:43.669   03 Jun 2027 18:09:40.853            57.184              Murmansk1          1787.000
       266   03 Jun 2027 18:14:38.418   03 Jun 2027 18:14:38.885             0.467              Murmansk2            14.594
       267   03 Jun 2027 18:15:39.442   03 Jun 2027 18:16:20.381            40.939              Murmansk1          1279.344
       268   03 Jun 2027 18:23:42.238   03 Jun 2027 18:23:55.647            13.409                Anadyr1           419.031
       269   03 Jun 2027 18:25:20.862   03 Jun 2027 18:25:43.257            22.395                Anadyr2           699.844
       270   03 Jun 2027 19:13:55.676   03 Jun 2027 19:15:40.399           104.723               CapeTown          3272.594
       271   03 Jun 2027 19:18:08.490   03 Jun 2027 19:18:10.347             1.857               CapeTown            58.031
       272   03 Jun 2027 19:22:42.890   03 Jun 2027 19:22:49.765             6.875               CapeTown           214.844
       273   03 Jun 2027 19:23:21.401   03 Jun 2027 19:23:37.831            16.430               CapeTown           513.437
       274   03 Jun 2027 19:25:12.906   03 Jun 2027 19:26:06.693            53.787               CapeTown          1680.844
       275   03 Jun 2027 19:44:38.534   03 Jun 2027 19:46:05.584            87.050              Murmansk1          2720.312
       276   03 Jun 2027 19:46:21.636   03 Jun 2027 19:50:16.600           234.964              Murmansk2          7342.625
       277   03 Jun 2027 20:01:51.220   03 Jun 2027 20:02:09.726            18.506               Magadan2           578.313
       278   03 Jun 2027 21:30:20.050   03 Jun 2027 21:31:59.914            99.864                Anadyr2          3120.750
       279   03 Jun 2027 21:32:08.256   03 Jun 2027 21:34:59.080           170.824                Anadyr1          5338.250
       280   03 Jun 2027 21:35:17.901   03 Jun 2027 21:38:05.399           167.498               Magadan2          5234.313
       281   03 Jun 2027 21:39:38.313   03 Jun 2027 21:40:02.347            24.034               Magadan2           751.063
       282   03 Jun 2027 21:42:27.125   03 Jun 2027 21:42:29.753             2.628               Magadan2            82.125
       283   03 Jun 2027 21:42:52.230   03 Jun 2027 21:43:29.079            36.849               Magadan2          1151.531
       284   03 Jun 2027 22:26:51.990   03 Jun 2027 22:29:09.383           137.393            RioGallegos          4293.531
       285   03 Jun 2027 22:31:33.334   03 Jun 2027 22:31:36.713             3.379            RioGallegos           105.594
       286   03 Jun 2027 23:06:10.599   03 Jun 2027 23:08:11.750           121.151                Anadyr2          3785.969
       287   03 Jun 2027 23:08:17.760   03 Jun 2027 23:09:59.354           101.594                Norilsk          3174.812
       288   03 Jun 2027 23:10:00.835   03 Jun 2027 23:10:20.143            19.308               Magadan1           603.375
       289   03 Jun 2027 23:11:00.869   03 Jun 2027 23:11:36.041            35.172               Magadan1          1099.125
       290   03 Jun 2027 23:13:11.320   03 Jun 2027 23:13:39.417            28.097               Magadan1           878.031
       291   03 Jun 2027 23:14:12.097   03 Jun 2027 23:14:56.350            44.253                Irkutsk          1382.906
       292   03 Jun 2027 23:17:06.276   03 Jun 2027 23:17:29.956            23.680                Irkutsk           740.000
       293   03 Jun 2027 23:28:34.733   03 Jun 2027 23:30:29.338           114.605                Sumatra          3581.406
       294   03 Jun 2027 23:31:11.115   03 Jun 2027 23:31:26.348            15.233                Sumatra           476.031
       295   03 Jun 2027 23:36:23.470   03 Jun 2027 23:36:31.646             8.176                Sumatra           255.500
       296   04 Jun 2027 00:07:01.311   04 Jun 2027 00:07:26.352            25.041            RioGallegos           782.531
       297   04 Jun 2027 00:08:31.950   04 Jun 2027 00:09:00.489            28.539            RioGallegos           891.844
       298   04 Jun 2027 00:11:21.097   04 Jun 2027 00:11:23.155             2.058            RioGallegos            64.313
       299   04 Jun 2027 00:12:05.025   04 Jun 2027 00:12:33.356            28.331            RioGallegos           885.344
       300   04 Jun 2027 00:41:30.139   04 Jun 2027 00:41:56.033            25.894                Anadyr1           809.187
       301   04 Jun 2027 00:42:16.634   04 Jun 2027 00:43:16.744            60.110                Anadyr2          1878.438
       302   04 Jun 2027 00:44:02.857   04 Jun 2027 00:45:49.981           107.124                Norilsk          3347.625
       303   04 Jun 2027 00:46:26.498   04 Jun 2027 00:46:29.154             2.656               Magadan2            83.000
       304   04 Jun 2027 00:46:44.284   04 Jun 2027 00:48:03.712            79.428               Magadan1          2482.125
       305   04 Jun 2027 00:48:22.251   04 Jun 2027 00:49:09.698            47.447                Irkutsk          1482.719
       306   04 Jun 2027 00:51:41.075   04 Jun 2027 00:52:20.436            39.361                Novosib          1230.031
       307   04 Jun 2027 00:55:17.433   04 Jun 2027 00:55:38.751            21.318                Novosib           666.188
       308   04 Jun 2027 00:57:51.683   04 Jun 2027 00:58:08.446            16.763                Novosib           523.844
       309   04 Jun 2027 00:59:19.113   04 Jun 2027 01:00:35.957            76.844                  Delhi          2401.375
       310   04 Jun 2027 01:06:18.565   04 Jun 2027 01:07:30.955            72.390                Sumatra          2262.188
       311   04 Jun 2027 01:37:46.332   04 Jun 2027 01:38:17.035            30.703            RioGallegos           959.469
       312   04 Jun 2027 01:41:43.245   04 Jun 2027 01:42:04.148            20.903            RioGallegos           653.219
       313   04 Jun 2027 01:45:06.232   04 Jun 2027 01:45:41.421            35.189            RioGallegos          1099.656
       314   04 Jun 2027 02:15:41.407   04 Jun 2027 02:15:55.039            13.632                Anadyr1           426.000
       315   04 Jun 2027 02:17:42.954   04 Jun 2027 02:18:36.907            53.953                Anadyr2          1686.031
       316   04 Jun 2027 02:20:03.744   04 Jun 2027 02:20:54.283            50.539                Norilsk          1579.344
       317   04 Jun 2027 02:21:03.571   04 Jun 2027 02:21:16.321            12.750                Norilsk           398.437
       318   04 Jun 2027 02:23:03.080   04 Jun 2027 02:23:52.765            49.685              Murmansk1          1552.656
       319   04 Jun 2027 02:23:56.052   04 Jun 2027 02:24:04.253             8.201              Murmansk2           256.281
       320   04 Jun 2027 02:24:04.505   04 Jun 2027 02:25:27.773            83.268                Irkutsk          2602.125
       321   04 Jun 2027 02:28:32.276   04 Jun 2027 02:28:47.211            14.935                Irkutsk           466.719
       322   04 Jun 2027 02:29:21.060   04 Jun 2027 02:29:56.081            35.021                Irkutsk          1094.406
       323   04 Jun 2027 02:33:54.730   04 Jun 2027 02:34:21.933            27.203                  Delhi           850.094
       324   04 Jun 2027 02:38:44.443   04 Jun 2027 02:39:08.333            23.890                  Delhi           746.563
       325   04 Jun 2027 02:41:18.032   04 Jun 2027 02:43:38.723           140.691                  Delhi          4396.594
       326   04 Jun 2027 03:13:02.121   04 Jun 2027 03:13:29.837            27.716            RioGallegos           866.125
       327   04 Jun 2027 03:15:59.824   04 Jun 2027 03:17:48.223           108.399            RioGallegos          3387.469
       328   04 Jun 2027 04:05:14.177   04 Jun 2027 04:06:17.658            63.481                Novosib          1983.781
       329   04 Jun 2027 04:06:35.362   04 Jun 2027 04:07:05.637            30.275                Irkutsk           946.094
       330   04 Jun 2027 04:07:11.179   04 Jun 2027 04:07:25.826            14.647                Norilsk           457.719
       331   04 Jun 2027 04:07:58.029   04 Jun 2027 04:10:26.022           147.993                Novosib          4624.781
       332   04 Jun 2027 04:13:52.730   04 Jun 2027 04:16:46.268           173.538                  Delhi          5423.063
       333   04 Jun 2027 05:41:15.283   04 Jun 2027 05:42:09.996            54.713                Novosib          1709.781
       334   04 Jun 2027 05:43:09.721   04 Jun 2027 05:43:30.151            20.430                 Moscow           638.438
       335   04 Jun 2027 05:44:34.215   04 Jun 2027 05:44:38.424             4.209                 Moscow           131.531
       336   04 Jun 2027 05:44:50.845   04 Jun 2027 05:45:00.830             9.985                 Moscow           312.031
       337   04 Jun 2027 05:45:31.850   04 Jun 2027 05:46:15.109            43.259                 Moscow          1351.844
       338   04 Jun 2027 05:46:25.343   04 Jun 2027 05:46:51.533            26.190              Murmansk2           818.438
       339   04 Jun 2027 06:01:16.433   04 Jun 2027 06:03:56.911           160.478               CapeTown          5014.938
       340   04 Jun 2027 07:04:18.238   04 Jun 2027 07:05:08.960            50.722                Anadyr1          1585.062
       341   04 Jun 2027 07:05:13.154   04 Jun 2027 07:06:10.522            57.368                Anadyr1          1792.750
       342   04 Jun 2027 07:06:40.333   04 Jun 2027 07:07:05.066            24.733                Anadyr2           772.906
       343   04 Jun 2027 07:08:53.534   04 Jun 2027 07:09:29.471            35.937                Anadyr1          1123.031
       344   04 Jun 2027 07:40:37.148   04 Jun 2027 07:41:55.661            78.513               CapeTown          2453.531
       345   04 Jun 2027 08:40:28.904   04 Jun 2027 08:40:33.772             4.868               Magadan1           152.125
       346   04 Jun 2027 08:40:46.219   04 Jun 2027 08:41:31.965            45.746               Magadan2          1429.563
       347   04 Jun 2027 08:42:11.064   04 Jun 2027 08:42:37.417            26.353               Magadan1           823.531
       348   04 Jun 2027 08:42:41.457   04 Jun 2027 08:43:14.140            32.683               Magadan1          1021.344
       349   04 Jun 2027 08:44:23.556   04 Jun 2027 08:45:04.088            40.532                Anadyr2          1266.625
       350   04 Jun 2027 08:45:04.088   04 Jun 2027 08:45:19.863            15.775                Anadyr1           492.969
       351   04 Jun 2027 09:27:42.030   04 Jun 2027 09:28:24.328            42.298            RioGallegos          1321.812
       352   04 Jun 2027 10:15:31.568   04 Jun 2027 10:15:36.685             5.117               Magadan1           159.906
       353   04 Jun 2027 10:15:57.097   04 Jun 2027 10:16:12.994            15.897               Magadan2           496.781
       354   04 Jun 2027 10:16:17.660   04 Jun 2027 10:18:32.994           135.334               Magadan1          4229.187
       355   04 Jun 2027 10:18:44.697   04 Jun 2027 10:19:41.163            56.466                Irkutsk          1764.563
       356   04 Jun 2027 10:20:35.710   04 Jun 2027 10:20:44.413             8.703               Magadan2           271.969
       357   04 Jun 2027 10:20:53.259   04 Jun 2027 10:21:52.000            58.741                Irkutsk          1835.656
       358   04 Jun 2027 10:21:59.905   04 Jun 2027 10:22:15.581            15.676                Norilsk           489.875
       359   04 Jun 2027 10:57:15.024   04 Jun 2027 10:58:00.124            45.100            RioGallegos          1409.375
       360   04 Jun 2027 11:00:20.610   04 Jun 2027 11:00:45.834            25.224            RioGallegos           788.250
       361   04 Jun 2027 11:34:05.912   04 Jun 2027 11:36:04.650           118.738                Sumatra          3710.563
       362   04 Jun 2027 11:52:30.496   04 Jun 2027 11:53:17.331            46.835                Irkutsk          1463.594
       363   04 Jun 2027 11:53:22.017   04 Jun 2027 11:55:33.729           131.712               Magadan1          4116.000
       364   04 Jun 2027 11:56:08.764   04 Jun 2027 11:56:47.111            38.347                Irkutsk          1198.344
       365   04 Jun 2027 11:57:00.930   04 Jun 2027 11:57:05.212             4.282                Novosib           133.813
       366   04 Jun 2027 11:57:07.378   04 Jun 2027 11:57:24.468            17.090                Norilsk           534.062
       367   04 Jun 2027 11:57:25.774   04 Jun 2027 11:57:53.318            27.544                Norilsk           860.750
       368   04 Jun 2027 11:58:13.729   04 Jun 2027 11:59:22.599            68.870                Novosib          2152.188
       369   04 Jun 2027 12:33:29.025   04 Jun 2027 12:34:41.036            72.011            RioGallegos          2250.344
       370   04 Jun 2027 12:37:58.923   04 Jun 2027 12:38:11.987            13.064            RioGallegos           408.250
       371   04 Jun 2027 12:42:39.605   04 Jun 2027 12:43:19.586            39.981            RioGallegos          1249.406
       372   04 Jun 2027 12:44:18.477   04 Jun 2027 12:45:15.120            56.643            RioGallegos          1770.094
       373   04 Jun 2027 13:13:51.051   04 Jun 2027 13:16:01.508           130.457                Sumatra          4076.781
       374   04 Jun 2027 13:22:39.878   04 Jun 2027 13:23:17.250            37.372                Irkutsk          1167.875
       375   04 Jun 2027 13:27:30.290   04 Jun 2027 13:27:46.540            16.250                Irkutsk           507.812
       376   04 Jun 2027 13:30:08.346   04 Jun 2027 13:32:38.343           149.997                Irkutsk          4687.406
       377   04 Jun 2027 14:52:30.153   04 Jun 2027 14:53:13.282            43.129                  Delhi          1347.781
       378   04 Jun 2027 14:56:59.273   04 Jun 2027 14:57:31.769            32.496                  Delhi          1015.500
       379   04 Jun 2027 14:59:53.299   04 Jun 2027 15:02:24.119           150.820                  Delhi          4713.125
       380   04 Jun 2027 15:03:49.123   04 Jun 2027 15:04:52.612            63.489                Novosib          1984.031
       381   04 Jun 2027 15:09:15.052   04 Jun 2027 15:09:26.734            11.682                Norilsk           365.062
       382   04 Jun 2027 15:10:32.874   04 Jun 2027 15:11:20.553            47.679                Norilsk          1489.969
       383   04 Jun 2027 16:36:23.975   04 Jun 2027 16:38:04.838           100.863                 Moscow          3151.969
       384   04 Jun 2027 16:39:54.734   04 Jun 2027 16:41:11.115            76.381              Murmansk2          2386.906
       385   04 Jun 2027 16:44:34.248   04 Jun 2027 16:44:49.628            15.380                 Moscow           480.625
       386   04 Jun 2027 16:45:08.112   04 Jun 2027 16:49:34.776           266.664                Norilsk          8333.250
       387   04 Jun 2027 17:57:47.205   04 Jun 2027 17:59:48.585           121.380               CapeTown          3793.125
       388   04 Jun 2027 18:14:37.283   04 Jun 2027 18:16:21.920           104.637                 Moscow          3269.906
       389   04 Jun 2027 18:17:49.968   04 Jun 2027 18:18:03.491            13.523              Murmansk1           422.594
       390   04 Jun 2027 18:20:41.786   04 Jun 2027 18:20:57.842            16.056              Murmansk2           501.750
       391   04 Jun 2027 18:27:24.175   04 Jun 2027 18:27:25.810             1.635              Murmansk1            51.094
       392   04 Jun 2027 18:30:42.717   04 Jun 2027 18:31:18.487            35.770                Anadyr1          1117.813
       393   04 Jun 2027 18:31:37.313   04 Jun 2027 18:32:13.290            35.977                Anadyr1          1124.281
       394   04 Jun 2027 18:40:54.528   04 Jun 2027 18:41:00.534             6.006                Anadyr2           187.687
       395   04 Jun 2027 19:26:05.997   04 Jun 2027 19:28:28.995           142.998               CapeTown          4468.687
       396   04 Jun 2027 19:33:15.376   04 Jun 2027 19:34:37.215            81.839               CapeTown          2557.469
       397   04 Jun 2027 19:57:22.189   04 Jun 2027 20:03:55.861           393.672              Murmansk2         12302.250
       398   04 Jun 2027 21:42:21.767   04 Jun 2027 21:43:59.998            98.231                Anadyr2          3069.719
       399   04 Jun 2027 21:44:10.168   04 Jun 2027 21:45:19.210            69.042                Anadyr1          2157.563
       400   04 Jun 2027 21:45:47.311   04 Jun 2027 21:46:20.169            32.858                Anadyr1          1026.812
       401   04 Jun 2027 21:46:25.046   04 Jun 2027 21:48:25.229           120.183               Magadan2          3755.719
       402   04 Jun 2027 21:49:11.325   04 Jun 2027 21:49:29.914            18.589               Magadan1           580.906
       403   04 Jun 2027 21:49:51.953   04 Jun 2027 21:50:26.222            34.269               Magadan2          1070.906
       404   04 Jun 2027 22:38:03.682   04 Jun 2027 22:40:23.291           139.609            RioGallegos          4362.781
       405   04 Jun 2027 22:40:33.443   04 Jun 2027 22:40:51.124            17.681            RioGallegos           552.531
       406   04 Jun 2027 22:43:27.779   04 Jun 2027 22:44:07.043            39.264            RioGallegos          1227.000
       407   04 Jun 2027 23:18:10.115   04 Jun 2027 23:18:29.442            19.327                Anadyr1           603.969
       408   04 Jun 2027 23:18:29.442   04 Jun 2027 23:19:12.746            43.304                Anadyr2          1353.250
       409   04 Jun 2027 23:19:33.855   04 Jun 2027 23:19:53.075            19.220                Anadyr1           600.625
       410   04 Jun 2027 23:20:15.502   04 Jun 2027 23:21:51.872            96.370                Norilsk          3011.563
       411   04 Jun 2027 23:22:21.952   04 Jun 2027 23:22:42.793            20.841               Magadan1           651.281
       412   04 Jun 2027 23:22:52.491   04 Jun 2027 23:23:24.052            31.561               Magadan2           986.281
       413   04 Jun 2027 23:25:01.836   04 Jun 2027 23:26:57.038           115.202                Irkutsk          3600.062
       414   04 Jun 2027 23:30:29.744   04 Jun 2027 23:31:47.396            77.652                Irkutsk          2426.625
       415   04 Jun 2027 23:42:42.995   04 Jun 2027 23:43:41.541            58.546                Sumatra          1829.562
       416   04 Jun 2027 23:46:02.990   04 Jun 2027 23:47:12.431            69.441                Sumatra          2170.031
       417   05 Jun 2027 00:22:51.589   05 Jun 2027 00:23:27.499            35.910            RioGallegos          1122.187
       418   05 Jun 2027 00:53:23.034   05 Jun 2027 00:53:40.866            17.832                Anadyr2           557.250
       419   05 Jun 2027 00:53:52.618   05 Jun 2027 00:54:53.160            60.542                Anadyr1          1891.938
       420   05 Jun 2027 00:55:42.156   05 Jun 2027 00:56:05.336            23.180                Anadyr1           724.375
       421   05 Jun 2027 00:56:05.336   05 Jun 2027 00:56:06.599             1.263                Anadyr2            39.469
       422   05 Jun 2027 00:56:15.033   05 Jun 2027 00:57:52.200            97.167                Norilsk          3036.469
       423   05 Jun 2027 00:59:59.299   05 Jun 2027 01:01:50.172           110.873                Irkutsk          3464.781
       424   05 Jun 2027 01:01:53.321   05 Jun 2027 01:02:50.559            57.238                Novosib          1788.687
       425   05 Jun 2027 01:08:15.791   05 Jun 2027 01:08:43.298            27.507                Novosib           859.594
       426   05 Jun 2027 01:12:06.070   05 Jun 2027 01:12:31.897            25.827                  Delhi           807.094
       427   05 Jun 2027 01:12:45.026   05 Jun 2027 01:12:54.030             9.004                  Delhi           281.375
       428   05 Jun 2027 01:14:00.502   05 Jun 2027 01:15:49.310           108.808                Sumatra          3400.250
       429   05 Jun 2027 01:48:08.343   05 Jun 2027 01:48:55.833            47.490            RioGallegos          1484.063
       430   05 Jun 2027 01:57:47.455   05 Jun 2027 01:58:35.394            47.939            RioGallegos          1498.094
       431   05 Jun 2027 02:29:01.935   05 Jun 2027 02:29:27.408            25.473                Anadyr1           796.031
       432   05 Jun 2027 02:30:04.755   05 Jun 2027 02:30:08.057             3.302                Anadyr2           103.188
       433   05 Jun 2027 02:32:06.017   05 Jun 2027 02:33:51.948           105.931                Norilsk          3310.344
       434   05 Jun 2027 02:34:50.440   05 Jun 2027 02:35:42.208            51.768              Murmansk1          1617.750
       435   05 Jun 2027 02:35:42.208   05 Jun 2027 02:35:50.775             8.567              Murmansk2           267.719
       436   05 Jun 2027 02:35:53.083   05 Jun 2027 02:36:15.794            22.711                Novosib           709.719
       437   05 Jun 2027 02:36:32.468   05 Jun 2027 02:37:26.880            54.412                Irkutsk          1700.375
       438   05 Jun 2027 02:41:02.165   05 Jun 2027 02:41:47.833            45.668                Irkutsk          1427.125
       439   05 Jun 2027 02:46:10.664   05 Jun 2027 02:46:25.833            15.169                  Delhi           474.031
       440   05 Jun 2027 02:49:02.630   05 Jun 2027 02:49:57.215            54.585                  Delhi          1705.781
       441   05 Jun 2027 03:25:22.412   05 Jun 2027 03:26:36.826            74.414            RioGallegos          2325.437
       442   05 Jun 2027 03:28:26.852   05 Jun 2027 03:30:38.355           131.503            RioGallegos          4109.469
       443   05 Jun 2027 04:14:12.786   05 Jun 2027 04:15:01.203            48.417                Irkutsk          1513.031
       444   05 Jun 2027 04:17:35.695   05 Jun 2027 04:18:21.872            46.177                Norilsk          1443.031
       445   05 Jun 2027 04:18:54.887   05 Jun 2027 04:19:29.970            35.083              Murmansk2          1096.344
       446   05 Jun 2027 04:19:49.708   05 Jun 2027 04:21:17.294            87.586              Murmansk2          2737.063
       447   05 Jun 2027 04:21:28.187   05 Jun 2027 04:23:16.775           108.588                Novosib          3393.375
       448   05 Jun 2027 04:24:05.669   05 Jun 2027 04:24:58.519            52.850                 Moscow          1651.563
       449   05 Jun 2027 04:26:09.437   05 Jun 2027 04:27:36.258            86.821                  Delhi          2713.156
       450   05 Jun 2027 04:48:02.731   05 Jun 2027 04:49:10.068            67.337               CapeTown          2104.281
       451   05 Jun 2027 05:52:41.000   05 Jun 2027 05:54:20.289            99.289                Novosib          3102.781
       452   05 Jun 2027 05:54:27.124   05 Jun 2027 05:55:08.403            41.279                Norilsk          1289.969
       453   05 Jun 2027 05:56:40.862   05 Jun 2027 05:56:48.839             7.977              Murmansk1           249.281
       454   05 Jun 2027 05:57:04.663   05 Jun 2027 05:57:44.312            39.649                 Moscow          1239.031
       455   05 Jun 2027 05:57:54.019   05 Jun 2027 05:59:00.027            66.008              Murmansk2          2062.750
       456   05 Jun 2027 05:59:00.549   05 Jun 2027 05:59:08.234             7.685                 Moscow           240.156
       457   05 Jun 2027 06:13:19.392   05 Jun 2027 06:13:52.526            33.134               CapeTown          1035.437
       458   05 Jun 2027 06:19:04.445   05 Jun 2027 06:20:03.491            59.046               CapeTown          1845.187
       459   05 Jun 2027 07:16:10.999   05 Jun 2027 07:17:10.271            59.272                Anadyr2          1852.250
       460   05 Jun 2027 07:17:10.271   05 Jun 2027 07:17:39.627            29.356                Anadyr1           917.375
       461   05 Jun 2027 07:17:49.143   05 Jun 2027 07:18:31.433            42.290               Magadan1          1321.563
       462   05 Jun 2027 07:18:38.709   05 Jun 2027 07:19:06.956            28.247                Anadyr1           882.719
       463   05 Jun 2027 07:54:29.983   05 Jun 2027 07:57:37.175           187.192               CapeTown          5849.750
       464   05 Jun 2027 08:52:39.298   05 Jun 2027 08:52:58.552            19.254                Anadyr1           601.687
       465   05 Jun 2027 08:53:23.015   05 Jun 2027 08:53:45.416            22.401               Magadan2           700.031
       466   05 Jun 2027 08:54:00.945   05 Jun 2027 08:54:07.050             6.105               Magadan2           190.781
       467   05 Jun 2027 08:54:07.050   05 Jun 2027 08:54:43.868            36.818               Magadan1          1150.562
       468   05 Jun 2027 08:54:58.625   05 Jun 2027 08:56:16.312            77.687                Anadyr1          2427.719
       469   05 Jun 2027 08:56:16.312   05 Jun 2027 08:57:46.938            90.626                Anadyr2          2832.062
       470   05 Jun 2027 10:26:42.597   05 Jun 2027 10:28:06.296            83.699               Magadan2          2615.594
       471   05 Jun 2027 10:28:15.407   05 Jun 2027 10:29:25.382            69.975               Magadan2          2186.719
       472   05 Jun 2027 10:30:31.732   05 Jun 2027 10:31:25.985            54.253               Magadan1          1695.406
       473   05 Jun 2027 10:32:15.953   05 Jun 2027 10:32:29.946            13.993                Irkutsk           437.281
       474   05 Jun 2027 10:32:48.839   05 Jun 2027 10:33:55.470            66.631                Irkutsk          2082.219
       475   05 Jun 2027 10:34:00.518   05 Jun 2027 10:34:10.602            10.084                Norilsk           315.125
       476   05 Jun 2027 10:35:10.752   05 Jun 2027 10:35:21.051            10.299                Norilsk           321.844
       477   05 Jun 2027 11:09:07.235   05 Jun 2027 11:10:12.774            65.539            RioGallegos          2048.094
       478   05 Jun 2027 11:45:21.860   05 Jun 2027 11:45:37.795            15.935                Sumatra           497.969
       479   05 Jun 2027 11:46:57.687   05 Jun 2027 11:48:05.195            67.508                Sumatra          2109.625
       480   05 Jun 2027 12:05:05.650   05 Jun 2027 12:05:25.717            20.067                Irkutsk           627.094
       481   05 Jun 2027 12:08:06.085   05 Jun 2027 12:08:25.445            19.360                Irkutsk           605.000
       482   05 Jun 2027 12:10:14.974   05 Jun 2027 12:10:20.090             5.116                Novosib           159.875
