uniorb/output/strategy_4/Drop/Drop_KinoSat_110807.txt

KinoSat_110807
-------------------------
    Access    *     Start Time (UTCG)     *     Stop Time (UTCG)  *   Duration (s)        *       Station  *  Data (Mbytes)
         1   01 Jun 2027 03:17:09.075   01 Jun 2027 03:21:13.713           244.638                Anadyr2          7644.937
         2   01 Jun 2027 03:21:24.768   01 Jun 2027 03:21:28.767             3.999               Magadan2           124.969
         3   01 Jun 2027 03:21:38.156   01 Jun 2027 03:22:01.289            23.133               Magadan1           722.906
         4   01 Jun 2027 03:22:38.003   01 Jun 2027 03:22:57.553            19.550                Anadyr1           610.938
         5   01 Jun 2027 04:54:30.482   01 Jun 2027 04:55:29.141            58.659               Magadan2          1833.094
         6   01 Jun 2027 04:55:29.141   01 Jun 2027 04:55:38.655             9.514               Magadan1           297.312
         7   01 Jun 2027 04:55:58.760   01 Jun 2027 04:56:43.168            44.408                Irkutsk          1387.750
         8   01 Jun 2027 04:56:44.653   01 Jun 2027 04:58:38.923           114.270                Anadyr2          3570.938
         9   01 Jun 2027 05:35:11.067   01 Jun 2027 05:36:24.942            73.875            RioGallegos          2308.594
        10   01 Jun 2027 05:41:01.523   01 Jun 2027 05:41:14.629            13.106            RioGallegos           409.562
        11   01 Jun 2027 06:29:15.673   01 Jun 2027 06:29:35.995            20.322                Novosib           635.062
        12   01 Jun 2027 06:29:45.024   01 Jun 2027 06:29:49.743             4.719                Norilsk           147.469
        13   01 Jun 2027 06:29:55.202   01 Jun 2027 06:31:48.512           113.310                Norilsk          3540.938
        14   01 Jun 2027 06:31:51.133   01 Jun 2027 06:33:20.536            89.403                Irkutsk          2793.844
        15   01 Jun 2027 06:33:23.210   01 Jun 2027 06:33:30.428             7.218               Magadan2           225.562
        16   01 Jun 2027 06:33:31.191   01 Jun 2027 06:33:54.215            23.024              Murmansk1           719.500
        17   01 Jun 2027 06:33:54.507   01 Jun 2027 06:34:01.864             7.357                Norilsk           229.906
        18   01 Jun 2027 06:34:13.749   01 Jun 2027 06:35:21.512            67.763                Novosib          2117.594
        19   01 Jun 2027 06:35:24.553   01 Jun 2027 06:35:30.831             6.278                Norilsk           196.187
        20   01 Jun 2027 06:35:58.493   01 Jun 2027 06:36:34.229            35.736                Norilsk          1116.750
        21   01 Jun 2027 06:36:58.104   01 Jun 2027 06:38:17.602            79.498                Norilsk          2484.312
        22   01 Jun 2027 07:09:03.892   01 Jun 2027 07:10:38.980            95.088            RioGallegos          2971.500
        23   01 Jun 2027 07:44:39.225   01 Jun 2027 07:46:29.436           110.211                Sumatra          3444.094
        24   01 Jun 2027 08:06:18.198   01 Jun 2027 08:07:40.538            82.340                Irkutsk          2573.125
        25   01 Jun 2027 08:08:14.499   01 Jun 2027 08:08:20.255             5.756                Norilsk           179.875
        26   01 Jun 2027 08:08:23.542   01 Jun 2027 08:12:14.243           230.701              Murmansk2          7209.406
        27   01 Jun 2027 08:12:14.243   01 Jun 2027 08:12:25.578            11.335              Murmansk1           354.219
        28   01 Jun 2027 08:46:37.100   01 Jun 2027 08:46:40.581             3.481            RioGallegos           108.781
        29   01 Jun 2027 08:47:43.009   01 Jun 2027 08:48:25.751            42.742            RioGallegos          1335.687
        30   01 Jun 2027 08:49:27.807   01 Jun 2027 08:49:44.513            16.706            RioGallegos           522.063
        31   01 Jun 2027 08:50:46.645   01 Jun 2027 08:51:01.900            15.255            RioGallegos           476.719
        32   01 Jun 2027 09:20:48.714   01 Jun 2027 09:21:25.390            36.676                Sumatra          1146.125
        33   01 Jun 2027 09:23:50.166   01 Jun 2027 09:24:23.798            33.632                Sumatra          1051.000
        34   01 Jun 2027 09:28:20.483   01 Jun 2027 09:29:54.189            93.706                  Delhi          2928.313
        35   01 Jun 2027 09:31:28.590   01 Jun 2027 09:31:52.424            23.834                  Delhi           744.812
        36   01 Jun 2027 09:43:46.150   01 Jun 2027 09:44:26.934            40.784                 Moscow          1274.500
        37   01 Jun 2027 09:44:30.802   01 Jun 2027 09:47:45.778           194.976                 Moscow          6093.000
        38   01 Jun 2027 11:19:55.437   01 Jun 2027 11:21:06.700            71.263                 Moscow          2226.969
        39   01 Jun 2027 11:21:13.005   01 Jun 2027 11:22:24.456            71.451                 Moscow          2232.844
        40   01 Jun 2027 11:22:27.343   01 Jun 2027 11:22:37.847            10.504                Norilsk           328.250
        41   01 Jun 2027 11:23:51.290   01 Jun 2027 11:24:04.680            13.390              Murmansk2           418.437
        42   01 Jun 2027 11:24:27.771   01 Jun 2027 11:24:38.231            10.460              Murmansk2           326.875
        43   01 Jun 2027 11:27:11.755   01 Jun 2027 11:27:34.432            22.677              Murmansk1           708.656
        44   01 Jun 2027 12:31:04.464   01 Jun 2027 12:31:40.890            36.426               CapeTown          1138.312
        45   01 Jun 2027 12:48:49.523   01 Jun 2027 12:50:01.938            72.415                 Moscow          2262.969
        46   01 Jun 2027 12:52:19.256   01 Jun 2027 12:55:49.225           209.969              Murmansk1          6561.531
        47   01 Jun 2027 12:56:48.216   01 Jun 2027 12:57:05.537            17.321              Murmansk1           541.281
        48   01 Jun 2027 12:57:06.040   01 Jun 2027 12:58:09.515            63.475              Murmansk2          1983.594
        49   01 Jun 2027 13:07:49.392   01 Jun 2027 13:11:21.800           212.408                Anadyr2          6637.750
        50   01 Jun 2027 13:12:02.060   01 Jun 2027 13:13:58.943           116.883                Anadyr1          3652.594
        51   01 Jun 2027 14:30:31.771   01 Jun 2027 14:32:25.987           114.216              Murmansk2          3569.250
        52   01 Jun 2027 14:42:42.974   01 Jun 2027 14:44:34.906           111.932                Anadyr2          3497.875
        53   01 Jun 2027 14:44:35.934   01 Jun 2027 14:45:19.966            44.032                Anadyr1          1376.000
        54   01 Jun 2027 14:45:54.012   01 Jun 2027 14:46:41.680            47.668                Anadyr1          1489.625
        55   01 Jun 2027 15:41:08.961   01 Jun 2027 15:41:29.679            20.718               CapeTown           647.438
        56   01 Jun 2027 16:11:55.414   01 Jun 2027 16:14:21.664           146.250              Murmansk2          4570.313
        57   01 Jun 2027 16:18:32.018   01 Jun 2027 16:20:04.994            92.976                Anadyr2          2905.500
        58   01 Jun 2027 16:20:29.678   01 Jun 2027 16:21:05.241            35.563                Anadyr1          1111.344
        59   01 Jun 2027 16:21:09.414   01 Jun 2027 16:24:05.765           176.351               Magadan2          5510.969
        60   01 Jun 2027 16:24:05.765   01 Jun 2027 16:25:06.940            61.175               Magadan1          1911.719
        61   01 Jun 2027 16:28:34.322   01 Jun 2027 16:29:18.275            43.953               Magadan2          1373.531
        62   01 Jun 2027 17:54:26.909   01 Jun 2027 17:55:59.304            92.395                Anadyr1          2887.344
        63   01 Jun 2027 17:56:12.119   01 Jun 2027 17:57:49.347            97.228                Anadyr2          3038.375
        64   01 Jun 2027 17:58:33.736   01 Jun 2027 18:00:54.178           140.442               Magadan1          4388.813
        65   01 Jun 2027 18:49:08.686   01 Jun 2027 18:52:37.180           208.494            RioGallegos          6515.437
        66   01 Jun 2027 18:52:40.599   01 Jun 2027 18:55:25.032           164.433            RioGallegos          5138.531
        67   01 Jun 2027 19:32:19.296   01 Jun 2027 19:37:33.148           313.852                Norilsk          9807.875
        68   01 Jun 2027 19:38:02.042   01 Jun 2027 19:39:24.905            82.863                Irkutsk          2589.469
        69   01 Jun 2027 19:39:44.222   01 Jun 2027 19:41:34.371           110.149                Novosib          3442.156
        70   01 Jun 2027 19:50:29.159   01 Jun 2027 19:52:40.642           131.483                Sumatra          4108.844
        71   01 Jun 2027 19:54:49.544   01 Jun 2027 19:55:50.999            61.455                Sumatra          1920.469
        72   01 Jun 2027 21:12:19.864   01 Jun 2027 21:12:50.974            31.110                Novosib           972.187
        73   01 Jun 2027 21:18:32.975   01 Jun 2027 21:18:58.592            25.617                Novosib           800.531
        74   01 Jun 2027 21:20:22.397   01 Jun 2027 21:23:46.204           203.807                  Delhi          6368.969
        75   01 Jun 2027 21:26:32.597   01 Jun 2027 21:27:02.748            30.151                  Delhi           942.219
        76   01 Jun 2027 22:45:23.784   01 Jun 2027 22:45:43.098            19.314                Norilsk           603.563
        77   01 Jun 2027 22:46:41.040   01 Jun 2027 22:49:19.769           158.729              Murmansk1          4960.281
        78   01 Jun 2027 22:49:19.936   01 Jun 2027 22:50:41.844            81.908              Murmansk2          2559.625
        79   01 Jun 2027 22:52:08.071   01 Jun 2027 22:57:00.235           292.164                 Moscow          9130.125
        80   02 Jun 2027 00:20:55.607   02 Jun 2027 00:21:32.575            36.968               Magadan2          1155.250
        81   02 Jun 2027 00:22:21.772   02 Jun 2027 00:23:56.869            95.097              Murmansk2          2971.781
        82   02 Jun 2027 00:25:01.175   02 Jun 2027 00:25:41.757            40.582              Murmansk1          1268.188
        83   02 Jun 2027 00:25:47.437   02 Jun 2027 00:26:22.855            35.418                 Moscow          1106.813
        84   02 Jun 2027 00:27:21.004   02 Jun 2027 00:28:49.125            88.121                 Moscow          2753.781
        85   02 Jun 2027 00:29:12.714   02 Jun 2027 00:29:17.352             4.638              Murmansk2           144.937
        86   02 Jun 2027 00:29:47.971   02 Jun 2027 00:31:26.818            98.847                 Moscow          3088.969
        87   02 Jun 2027 00:50:22.471   02 Jun 2027 00:51:09.567            47.096               CapeTown          1471.750
        88   02 Jun 2027 00:51:34.481   02 Jun 2027 00:52:14.882            40.401               CapeTown          1262.531
        89   02 Jun 2027 01:49:04.957   02 Jun 2027 01:50:27.776            82.819               Magadan1          2588.094
        90   02 Jun 2027 01:50:27.776   02 Jun 2027 01:51:45.327            77.551               Magadan2          2423.469
        91   02 Jun 2027 01:58:19.623   02 Jun 2027 01:58:39.980            20.357              Murmansk1           636.156
        92   02 Jun 2027 01:58:39.980   02 Jun 2027 01:59:49.258            69.278              Murmansk2          2164.938
        93   02 Jun 2027 02:01:32.773   02 Jun 2027 02:02:11.663            38.890                 Moscow          1215.312
        94   02 Jun 2027 02:05:19.585   02 Jun 2027 02:05:21.573             1.988                 Moscow            62.125
        95   02 Jun 2027 02:06:14.463   02 Jun 2027 02:06:59.964            45.501                 Moscow          1421.906
        96   02 Jun 2027 02:25:54.444   02 Jun 2027 02:27:00.330            65.886               CapeTown          2058.938
        97   02 Jun 2027 02:36:26.977   02 Jun 2027 02:36:53.963            26.986               CapeTown           843.312
        98   02 Jun 2027 03:27:12.815   02 Jun 2027 03:27:23.435            10.620                Anadyr2           331.875
        99   02 Jun 2027 03:28:30.062   02 Jun 2027 03:29:23.227            53.165                Anadyr1          1661.406
       100   02 Jun 2027 03:29:35.751   02 Jun 2027 03:30:54.771            79.020                Anadyr1          2469.375
       101   02 Jun 2027 03:30:59.483   02 Jun 2027 03:31:37.288            37.805                Anadyr1          1181.406
       102   02 Jun 2027 03:31:47.956   02 Jun 2027 03:31:55.235             7.279                Anadyr2           227.469
       103   02 Jun 2027 03:31:55.235   02 Jun 2027 03:32:41.332            46.097                Anadyr1          1440.531
       104   02 Jun 2027 03:32:48.932   02 Jun 2027 03:33:39.289            50.357               Magadan2          1573.656
       105   02 Jun 2027 03:33:45.337   02 Jun 2027 03:34:39.091            53.754                Anadyr2          1679.812
       106   02 Jun 2027 03:34:55.519   02 Jun 2027 03:35:02.947             7.428                Anadyr1           232.125
       107   02 Jun 2027 05:07:18.836   02 Jun 2027 05:08:32.356            73.520                Anadyr1          2297.500
       108   02 Jun 2027 05:10:09.644   02 Jun 2027 05:10:18.397             8.753               Magadan2           273.531
       109   02 Jun 2027 06:42:52.595   02 Jun 2027 06:44:28.341            95.746               Magadan2          2992.062
       110   02 Jun 2027 06:45:08.066   02 Jun 2027 06:45:49.470            41.404                Norilsk          1293.875
       111   02 Jun 2027 06:46:15.266   02 Jun 2027 06:47:29.495            74.229                Novosib          2319.656
       112   02 Jun 2027 08:00:28.323   02 Jun 2027 08:01:15.833            47.510                Sumatra          1484.687
       113   02 Jun 2027 08:19:23.037   02 Jun 2027 08:19:55.299            32.262                Irkutsk          1008.187
       114   02 Jun 2027 08:20:15.756   02 Jun 2027 08:20:25.566             9.810                Irkutsk           306.563
       115   02 Jun 2027 08:20:31.826   02 Jun 2027 08:22:19.246           107.420                Irkutsk          3356.875
       116   02 Jun 2027 08:22:48.936   02 Jun 2027 08:23:37.721            48.785                Novosib          1524.531
       117   02 Jun 2027 08:59:12.236   02 Jun 2027 08:59:31.591            19.355            RioGallegos           604.844
       118   02 Jun 2027 08:59:48.501   02 Jun 2027 09:00:01.037            12.536            RioGallegos           391.750
       119   02 Jun 2027 09:01:48.913   02 Jun 2027 09:02:04.193            15.280            RioGallegos           477.500
       120   02 Jun 2027 09:03:01.060   02 Jun 2027 09:03:39.890            38.830            RioGallegos          1213.438
       121   02 Jun 2027 09:33:25.872   02 Jun 2027 09:33:45.970            20.098                Sumatra           628.063
       122   02 Jun 2027 09:35:21.803   02 Jun 2027 09:36:34.273            72.470                Sumatra          2264.688
       123   02 Jun 2027 09:37:55.554   02 Jun 2027 09:39:11.733            76.179                Sumatra          2380.594
       124   02 Jun 2027 09:54:36.676   02 Jun 2027 09:55:36.737            60.061                Irkutsk          1876.906
       125   02 Jun 2027 09:55:46.894   02 Jun 2027 09:56:06.525            19.631                Novosib           613.469
       126   02 Jun 2027 09:57:02.435   02 Jun 2027 09:57:07.902             5.467                Novosib           170.844
       127   02 Jun 2027 09:57:10.651   02 Jun 2027 09:57:28.323            17.672                Novosib           552.250
       128   02 Jun 2027 09:57:54.332   02 Jun 2027 09:58:05.533            11.201                Novosib           350.031
       129   02 Jun 2027 11:18:56.310   02 Jun 2027 11:21:25.431           149.121                  Delhi          4660.031
       130   02 Jun 2027 11:29:58.570   02 Jun 2027 11:30:07.440             8.870              Murmansk2           277.188
       131   02 Jun 2027 11:30:54.146   02 Jun 2027 11:30:59.668             5.522                Novosib           172.562
       132   02 Jun 2027 11:34:55.911   02 Jun 2027 11:35:16.171            20.260              Murmansk1           633.125
       133   02 Jun 2027 12:41:02.912   02 Jun 2027 12:41:23.155            20.243               CapeTown           632.594
       134   02 Jun 2027 13:01:04.063   02 Jun 2027 13:02:01.780            57.717                 Moscow          1803.656
       135   02 Jun 2027 13:03:40.853   02 Jun 2027 13:04:18.194            37.341                 Moscow          1166.906
       136   02 Jun 2027 13:04:30.582   02 Jun 2027 13:06:12.902           102.320              Murmansk2          3197.500
       137   02 Jun 2027 13:06:27.679   02 Jun 2027 13:06:54.158            26.479              Murmansk1           827.469
       138   02 Jun 2027 13:07:07.697   02 Jun 2027 13:07:20.003            12.306              Murmansk2           384.563
       139   02 Jun 2027 13:08:49.821   02 Jun 2027 13:09:23.915            34.094              Murmansk2          1065.438
       140   02 Jun 2027 13:14:30.609   02 Jun 2027 13:14:46.633            16.024              Murmansk2           500.750
       141   02 Jun 2027 13:19:33.414   02 Jun 2027 13:23:15.874           222.460                Anadyr1          6951.875
       142   02 Jun 2027 13:24:21.321   02 Jun 2027 13:26:19.219           117.898                Anadyr2          3684.313
       143   02 Jun 2027 14:43:53.332   02 Jun 2027 14:44:45.046            51.714              Murmansk2          1616.063
       144   02 Jun 2027 14:47:14.466   02 Jun 2027 14:48:38.931            84.465              Murmansk2          2639.531
       145   02 Jun 2027 14:54:42.257   02 Jun 2027 14:56:03.078            80.821                Anadyr1          2525.656
       146   02 Jun 2027 14:57:28.945   02 Jun 2027 14:57:55.334            26.389                Anadyr2           824.656
       147   02 Jun 2027 14:59:48.145   02 Jun 2027 15:02:26.671           158.526               Magadan2          4953.938
       148   02 Jun 2027 15:02:26.671   02 Jun 2027 15:02:39.268            12.597               Magadan1           393.656
       149   02 Jun 2027 16:25:39.554   02 Jun 2027 16:26:17.976            38.422              Murmansk1          1200.687
       150   02 Jun 2027 16:30:33.356   02 Jun 2027 16:32:20.640           107.284                Anadyr2          3352.625
       151   02 Jun 2027 16:33:05.047   02 Jun 2027 16:37:05.531           240.484               Magadan1          7515.125
       152   02 Jun 2027 18:06:27.533   02 Jun 2027 18:08:55.797           148.264                Anadyr2          4633.250
       153   02 Jun 2027 18:09:00.597   02 Jun 2027 18:11:52.581           171.984               Magadan1          5374.500
       154   02 Jun 2027 18:12:10.307   02 Jun 2027 18:13:09.346            59.039               Magadan2          1844.969
       155   02 Jun 2027 19:00:55.382   02 Jun 2027 19:03:28.046           152.664            RioGallegos          4770.750
       156   02 Jun 2027 19:04:39.752   02 Jun 2027 19:04:46.490             6.738            RioGallegos           210.562
       157   02 Jun 2027 19:09:37.806   02 Jun 2027 19:10:21.689            43.883            RioGallegos          1371.344
       158   02 Jun 2027 19:10:53.256   02 Jun 2027 19:11:38.145            44.889            RioGallegos          1402.781
       159   02 Jun 2027 19:44:47.667   02 Jun 2027 19:45:36.768            49.101               Magadan2          1534.406
       160   02 Jun 2027 19:45:36.768   02 Jun 2027 19:46:26.681            49.913               Magadan1          1559.781
       161   02 Jun 2027 19:48:29.636   02 Jun 2027 19:49:22.869            53.233                Irkutsk          1663.531
       162   02 Jun 2027 19:50:21.362   02 Jun 2027 19:51:07.411            46.049                Irkutsk          1439.031
       163   02 Jun 2027 19:51:19.806   02 Jun 2027 19:54:12.015           172.209                Novosib          5381.531
       164   02 Jun 2027 20:02:14.201   02 Jun 2027 20:04:57.389           163.188                Sumatra          5099.625
       165   02 Jun 2027 20:06:03.125   02 Jun 2027 20:06:23.255            20.130                Sumatra           629.062
       166   02 Jun 2027 20:14:07.515   02 Jun 2027 20:14:40.541            33.026                Sumatra          1032.063
       167   02 Jun 2027 21:24:07.723   02 Jun 2027 21:24:37.996            30.273                Irkutsk           946.031
       168   02 Jun 2027 21:24:49.063   02 Jun 2027 21:25:59.524            70.461                Novosib          2201.906
       169   02 Jun 2027 21:26:17.124   02 Jun 2027 21:26:27.990            10.866                Novosib           339.562
       170   02 Jun 2027 21:28:23.125   02 Jun 2027 21:29:58.675            95.550                Novosib          2985.937
       171   02 Jun 2027 21:32:02.538   02 Jun 2027 21:35:40.379           217.841                  Delhi          6807.531
       172   02 Jun 2027 22:57:33.932   02 Jun 2027 22:57:48.878            14.946               Magadan1           467.062
       173   02 Jun 2027 22:58:37.797   02 Jun 2027 23:00:52.410           134.613              Murmansk1          4206.656
       174   02 Jun 2027 23:01:21.217   02 Jun 2027 23:02:41.329            80.112              Murmansk2          2503.500
       175   02 Jun 2027 23:03:27.261   02 Jun 2027 23:09:27.530           360.269                 Moscow         11258.406
       176   03 Jun 2027 00:34:23.081   03 Jun 2027 00:35:57.018            93.937              Murmansk2          2935.531
       177   03 Jun 2027 00:37:43.217   03 Jun 2027 00:37:58.963            15.746              Murmansk2           492.063
       178   03 Jun 2027 00:38:07.245   03 Jun 2027 00:39:48.007           100.762                 Moscow          3148.812
       179   03 Jun 2027 01:02:02.684   03 Jun 2027 01:03:31.821            89.137               CapeTown          2785.531
       180   03 Jun 2027 01:04:27.820   03 Jun 2027 01:05:42.095            74.275               CapeTown          2321.094
       181   03 Jun 2027 02:00:40.158   03 Jun 2027 02:01:33.263            53.105               Magadan1          1659.531
       182   03 Jun 2027 02:02:30.784   03 Jun 2027 02:02:57.042            26.258               Magadan2           820.562
       183   03 Jun 2027 02:03:43.713   03 Jun 2027 02:04:07.098            23.385               Magadan2           730.781
       184   03 Jun 2027 02:06:27.731   03 Jun 2027 02:06:32.035             4.304               Magadan2           134.500
       185   03 Jun 2027 02:07:03.954   03 Jun 2027 02:07:05.391             1.437               Magadan1            44.906
       186   03 Jun 2027 02:07:34.083   03 Jun 2027 02:07:38.775             4.692                Norilsk           146.625
       187   03 Jun 2027 02:09:05.560   03 Jun 2027 02:09:40.827            35.267               Magadan1          1102.094
       188   03 Jun 2027 02:10:21.182   03 Jun 2027 02:11:22.095            60.913              Murmansk1          1903.531
       189   03 Jun 2027 02:13:33.660   03 Jun 2027 02:14:32.185            58.525              Murmansk2          1828.906
       190   03 Jun 2027 02:14:44.628   03 Jun 2027 02:16:34.335           109.707                 Moscow          3428.344
       191   03 Jun 2027 02:44:33.397   03 Jun 2027 02:44:49.523            16.126               CapeTown           503.938
       192   03 Jun 2027 03:36:04.940   03 Jun 2027 03:36:29.378            24.438               Magadan2           763.687
       193   03 Jun 2027 03:36:54.048   03 Jun 2027 03:36:57.939             3.891               Magadan2           121.594
       194   03 Jun 2027 03:37:02.347   03 Jun 2027 03:37:09.885             7.538               Magadan2           235.562
       195   03 Jun 2027 03:37:46.398   03 Jun 2027 03:38:49.125            62.727                Anadyr1          1960.219
       196   03 Jun 2027 03:39:12.979   03 Jun 2027 03:40:15.005            62.026                Anadyr2          1938.313
       197   03 Jun 2027 03:40:15.005   03 Jun 2027 03:41:22.449            67.444                Anadyr1          2107.625
       198   03 Jun 2027 03:41:25.557   03 Jun 2027 03:42:55.607            90.050                Anadyr2          2814.063
       199   03 Jun 2027 03:43:00.544   03 Jun 2027 03:43:21.517            20.973                Anadyr2           655.406
       200   03 Jun 2027 03:43:32.563   03 Jun 2027 03:45:40.054           127.491               Magadan2          3984.094
       201   03 Jun 2027 03:45:42.415   03 Jun 2027 03:46:36.962            54.547                Anadyr1          1704.594
       202   03 Jun 2027 03:46:36.962   03 Jun 2027 03:47:03.282            26.320                Anadyr2           822.500
       203   03 Jun 2027 04:27:39.044   03 Jun 2027 04:29:14.037            94.993            RioGallegos          2968.531
       204   03 Jun 2027 05:17:30.281   03 Jun 2027 05:18:20.783            50.502                Irkutsk          1578.187
       205   03 Jun 2027 05:19:25.795   03 Jun 2027 05:20:35.417            69.622                Anadyr1          2175.687
       206   03 Jun 2027 05:20:35.417   03 Jun 2027 05:21:21.581            46.164                Anadyr2          1442.625
       207   03 Jun 2027 06:52:24.360   03 Jun 2027 06:52:42.031            17.671               Magadan1           552.219
       208   03 Jun 2027 06:53:32.463   03 Jun 2027 06:53:45.401            12.938               Magadan2           404.313
       209   03 Jun 2027 06:53:53.927   03 Jun 2027 06:54:28.189            34.262               Magadan2          1070.687
       210   03 Jun 2027 06:54:31.308   03 Jun 2027 06:54:55.687            24.379               Magadan2           761.844
       211   03 Jun 2027 06:56:10.323   03 Jun 2027 06:56:28.802            18.479               Magadan1           577.469
       212   03 Jun 2027 06:56:31.229   03 Jun 2027 06:57:08.754            37.525               Magadan1          1172.656
       213   03 Jun 2027 06:58:16.179   03 Jun 2027 06:58:49.925            33.746                Novosib          1054.563
       214   03 Jun 2027 08:12:15.183   03 Jun 2027 08:14:13.056           117.873                Sumatra          3683.531
       215   03 Jun 2027 08:28:59.853   03 Jun 2027 08:29:19.592            19.739                Irkutsk           616.844
       216   03 Jun 2027 08:30:19.945   03 Jun 2027 08:30:52.057            32.112                Irkutsk          1003.500
       217   03 Jun 2027 08:31:37.155   03 Jun 2027 08:31:59.399            22.244                Irkutsk           695.125
       218   03 Jun 2027 08:32:02.980   03 Jun 2027 08:32:17.132            14.152                Irkutsk           442.250
       219   03 Jun 2027 08:33:18.321   03 Jun 2027 08:33:22.800             4.479                Norilsk           139.969
       220   03 Jun 2027 08:33:34.153   03 Jun 2027 08:34:41.861            67.708                Novosib          2115.875
       221   03 Jun 2027 09:13:16.166   03 Jun 2027 09:13:39.154            22.988            RioGallegos           718.375
       222   03 Jun 2027 09:46:20.714   03 Jun 2027 09:47:39.684            78.970                Sumatra          2467.813
       223   03 Jun 2027 10:00:50.099   03 Jun 2027 10:01:19.602            29.503                  Delhi           921.969
       224   03 Jun 2027 10:06:36.789   03 Jun 2027 10:07:18.422            41.633              Murmansk1          1301.031
       225   03 Jun 2027 10:07:25.643   03 Jun 2027 10:07:26.949             1.306                Novosib            40.813
       226   03 Jun 2027 10:08:55.180   03 Jun 2027 10:09:11.798            16.618                Novosib           519.312
       227   03 Jun 2027 10:09:25.704   03 Jun 2027 10:09:26.141             0.437                Novosib            13.656
       228   03 Jun 2027 10:09:30.822   03 Jun 2027 10:09:38.649             7.827                Novosib           244.594
       229   03 Jun 2027 10:09:42.938   03 Jun 2027 10:09:58.938            16.000                Norilsk           500.000
       230   03 Jun 2027 11:32:26.139   03 Jun 2027 11:34:41.070           134.931                  Delhi          4216.594
       231   03 Jun 2027 11:35:20.028   03 Jun 2027 11:35:26.202             6.174                  Delhi           192.937
       232   03 Jun 2027 11:47:25.541   03 Jun 2027 11:47:55.205            29.664                Norilsk           927.000
       233   03 Jun 2027 13:13:22.282   03 Jun 2027 13:14:04.517            42.235                 Moscow          1319.844
       234   03 Jun 2027 13:16:18.185   03 Jun 2027 13:16:56.866            38.681                 Moscow          1208.781
       235   03 Jun 2027 13:17:15.490   03 Jun 2027 13:17:25.255             9.765              Murmansk1           305.156
       236   03 Jun 2027 13:18:13.411   03 Jun 2027 13:18:54.920            41.509              Murmansk1          1297.156
       237   03 Jun 2027 13:32:02.850   03 Jun 2027 13:33:07.129            64.279                Anadyr1          2008.719
       238   03 Jun 2027 13:36:37.961   03 Jun 2027 13:36:56.103            18.142                Anadyr2           566.937
       239   03 Jun 2027 13:38:20.520   03 Jun 2027 13:39:18.448            57.928                Anadyr2          1810.250
       240   03 Jun 2027 14:26:02.303   03 Jun 2027 14:27:29.468            87.165               CapeTown          2723.906
       241   03 Jun 2027 14:28:49.257   03 Jun 2027 14:29:15.938            26.681               CapeTown           833.781
       242   03 Jun 2027 14:33:01.120   03 Jun 2027 14:34:24.821            83.701               CapeTown          2615.656
       243   03 Jun 2027 14:55:32.197   03 Jun 2027 14:56:49.097            76.900              Murmansk1          2403.125
       244   03 Jun 2027 14:56:55.652   03 Jun 2027 14:57:11.890            16.238              Murmansk1           507.437
       245   03 Jun 2027 14:58:39.567   03 Jun 2027 14:59:01.177            21.610              Murmansk1           675.313
       246   03 Jun 2027 15:04:27.154   03 Jun 2027 15:04:44.987            17.833              Murmansk1           557.281
       247   03 Jun 2027 15:06:42.040   03 Jun 2027 15:08:25.865           103.825                Anadyr1          3244.531
       248   03 Jun 2027 15:08:49.769   03 Jun 2027 15:09:56.670            66.901                Anadyr2          2090.656
       249   03 Jun 2027 15:10:51.615   03 Jun 2027 15:16:13.610           321.995               Magadan1         10062.344
       250   03 Jun 2027 16:42:34.729   03 Jun 2027 16:44:10.336            95.607                Anadyr1          2987.719
       251   03 Jun 2027 16:45:01.886   03 Jun 2027 16:46:01.772            59.886               Magadan2          1871.437
       252   03 Jun 2027 16:46:01.772   03 Jun 2027 16:47:00.565            58.793               Magadan1          1837.281
       253   03 Jun 2027 16:47:59.207   03 Jun 2027 16:48:08.684             9.477               Magadan1           296.156
       254   03 Jun 2027 16:49:50.312   03 Jun 2027 16:50:33.243            42.931               Magadan2          1341.594
       255   03 Jun 2027 18:18:27.886   03 Jun 2027 18:21:52.638           204.752                Anadyr2          6398.500
       256   03 Jun 2027 18:22:11.707   03 Jun 2027 18:23:54.550           102.843               Magadan2          3213.844
       257   03 Jun 2027 18:23:54.550   03 Jun 2027 18:23:57.183             2.633               Magadan1            82.281
       258   03 Jun 2027 18:24:37.442   03 Jun 2027 18:24:45.486             8.044                Norilsk           251.375
       259   03 Jun 2027 18:25:13.043   03 Jun 2027 18:25:21.511             8.468               Magadan1           264.625
       260   03 Jun 2027 18:26:00.089   03 Jun 2027 18:27:57.401           117.312               Magadan2          3666.000
       261   03 Jun 2027 18:28:26.532   03 Jun 2027 18:29:37.298            70.766                Irkutsk          2211.437
       262   03 Jun 2027 19:12:45.375   03 Jun 2027 19:13:16.171            30.796            RioGallegos           962.375
       263   03 Jun 2027 19:14:09.608   03 Jun 2027 19:14:24.161            14.553            RioGallegos           454.781
       264   03 Jun 2027 19:15:35.397   03 Jun 2027 19:15:52.566            17.169            RioGallegos           536.531
       265   03 Jun 2027 19:22:39.320   03 Jun 2027 19:24:02.591            83.271            RioGallegos          2602.219
       266   03 Jun 2027 19:56:20.021   03 Jun 2027 19:57:59.758            99.737                Norilsk          3116.781
       267   03 Jun 2027 20:00:24.553   03 Jun 2027 20:01:58.356            93.803                Irkutsk          2931.344
       268   03 Jun 2027 20:03:04.287   03 Jun 2027 20:07:57.671           293.384                Novosib          9168.250
       269   03 Jun 2027 20:14:05.447   03 Jun 2027 20:15:10.230            64.783                Sumatra          2024.469
       270   03 Jun 2027 20:16:44.741   03 Jun 2027 20:16:54.577             9.836                Sumatra           307.375
       271   03 Jun 2027 20:17:07.595   03 Jun 2027 20:17:28.399            20.804                Sumatra           650.125
       272   03 Jun 2027 21:36:10.939   03 Jun 2027 21:36:24.454            13.515                Irkutsk           422.344
       273   03 Jun 2027 21:36:32.913   03 Jun 2027 21:38:16.962           104.049                Novosib          3251.531
       274   03 Jun 2027 21:43:48.364   03 Jun 2027 21:46:08.355           139.991                  Delhi          4374.719
       275   03 Jun 2027 21:47:29.630   03 Jun 2027 21:47:44.515            14.885                  Delhi           465.156
       276   03 Jun 2027 21:52:05.873   03 Jun 2027 21:53:14.898            69.025                  Delhi          2157.031
       277   03 Jun 2027 23:08:06.787   03 Jun 2027 23:08:44.436            37.649               Magadan2          1176.531
       278   03 Jun 2027 23:09:03.621   03 Jun 2027 23:09:45.166            41.545               Magadan2          1298.281
       279   03 Jun 2027 23:10:20.143   03 Jun 2027 23:10:40.273            20.130               Magadan1           629.063
       280   03 Jun 2027 23:11:09.434   03 Jun 2027 23:12:37.413            87.979              Murmansk1          2749.344
       281   03 Jun 2027 23:13:21.568   03 Jun 2027 23:15:36.227           134.659              Murmansk2          4208.094
       282   03 Jun 2027 23:16:37.264   03 Jun 2027 23:18:27.180           109.916                 Moscow          3434.875
       283   03 Jun 2027 23:18:28.577   03 Jun 2027 23:18:54.301            25.724              Murmansk2           803.875
       284   03 Jun 2027 23:21:31.686   03 Jun 2027 23:21:42.213            10.527                 Moscow           328.969
       285   03 Jun 2027 23:44:26.559   03 Jun 2027 23:46:13.089           106.530               CapeTown          3329.062
       286   04 Jun 2027 00:40:15.260   04 Jun 2027 00:40:29.357            14.097               Magadan1           440.531
       287   04 Jun 2027 00:40:29.357   04 Jun 2027 00:40:36.480             7.123               Magadan2           222.594
       288   04 Jun 2027 00:41:16.788   04 Jun 2027 00:41:28.386            11.598               Magadan1           362.438
       289   04 Jun 2027 00:42:50.486   04 Jun 2027 00:43:59.448            68.962               Magadan2          2155.063
       290   04 Jun 2027 00:46:24.550   04 Jun 2027 00:49:44.563           200.013              Murmansk2          6250.406
       291   04 Jun 2027 00:55:23.440   04 Jun 2027 00:55:38.973            15.533                 Moscow           485.406
       292   04 Jun 2027 00:57:40.679   04 Jun 2027 00:57:41.851             1.172                 Moscow            36.625
       293   04 Jun 2027 00:59:07.081   04 Jun 2027 00:59:16.437             9.356                 Moscow           292.375
       294   04 Jun 2027 01:13:48.352   04 Jun 2027 01:15:26.102            97.750               CapeTown          3054.687
       295   04 Jun 2027 02:10:16.258   04 Jun 2027 02:11:14.742            58.484                Anadyr1          1827.625
       296   04 Jun 2027 02:11:33.194   04 Jun 2027 02:12:09.292            36.098                Anadyr1          1128.062
       297   04 Jun 2027 02:12:17.020   04 Jun 2027 02:13:03.087            46.067               Magadan1          1439.594
       298   04 Jun 2027 02:13:06.503   04 Jun 2027 02:13:23.825            17.322               Magadan1           541.312
       299   04 Jun 2027 02:14:46.010   04 Jun 2027 02:15:05.011            19.001               Magadan2           593.781
       300   04 Jun 2027 02:17:47.813   04 Jun 2027 02:18:34.496            46.683               Magadan1          1458.844
       301   04 Jun 2027 02:22:22.638   04 Jun 2027 02:23:03.080            40.442              Murmansk1          1263.812
       302   04 Jun 2027 02:23:51.632   04 Jun 2027 02:23:56.052             4.420              Murmansk2           138.125
       303   04 Jun 2027 02:24:44.627   04 Jun 2027 02:24:54.377             9.750              Murmansk1           304.687
       304   04 Jun 2027 02:25:33.007   04 Jun 2027 02:26:29.101            56.094              Murmansk2          1752.937
       305   04 Jun 2027 02:27:12.346   04 Jun 2027 02:28:18.763            66.417                 Moscow          2075.531
       306   04 Jun 2027 02:37:15.113   04 Jun 2027 02:37:24.839             9.726                 Moscow           303.938
       307   04 Jun 2027 02:50:49.579   04 Jun 2027 02:51:24.300            34.721               CapeTown          1085.031
       308   04 Jun 2027 02:53:21.701   04 Jun 2027 02:54:11.297            49.596               CapeTown          1549.875
       309   04 Jun 2027 03:51:01.135   04 Jun 2027 03:52:09.410            68.275               Magadan2          2133.594
       310   04 Jun 2027 03:52:11.613   04 Jun 2027 03:55:09.074           177.461                Anadyr1          5545.656
       311   04 Jun 2027 03:55:09.074   04 Jun 2027 03:56:44.296            95.222                Anadyr2          2975.688
       312   04 Jun 2027 05:29:00.908   04 Jun 2027 05:31:12.290           131.382                Irkutsk          4105.688
       313   04 Jun 2027 05:31:34.931   04 Jun 2027 05:32:11.949            37.018                Anadyr1          1156.812
       314   04 Jun 2027 05:32:35.192   04 Jun 2027 05:34:17.272           102.080                Anadyr1          3190.000
       315   04 Jun 2027 07:04:24.456   04 Jun 2027 07:04:45.124            20.668               Magadan1           645.875
       316   04 Jun 2027 07:05:31.914   04 Jun 2027 07:05:36.361             4.447               Magadan1           138.969
       317   04 Jun 2027 07:05:39.904   04 Jun 2027 07:05:45.817             5.913                Novosib           184.781
       318   04 Jun 2027 07:05:49.842   04 Jun 2027 07:05:59.194             9.352               Magadan1           292.250
       319   04 Jun 2027 07:06:29.968   04 Jun 2027 07:06:34.664             4.696               Magadan2           146.750
       320   04 Jun 2027 07:07:01.350   04 Jun 2027 07:08:08.751            67.401               Magadan2          2106.281
       321   04 Jun 2027 07:08:32.722   04 Jun 2027 07:09:04.940            32.218               Magadan1          1006.813
       322   04 Jun 2027 07:09:32.382   04 Jun 2027 07:10:16.430            44.048                Novosib          1376.500
       323   04 Jun 2027 07:10:42.746   04 Jun 2027 07:10:53.443            10.697                Novosib           334.281
       324   04 Jun 2027 07:11:25.647   04 Jun 2027 07:11:28.986             3.339              Murmansk2           104.344
       325   04 Jun 2027 07:11:43.628   04 Jun 2027 07:11:52.738             9.110              Murmansk1           284.688
       326   04 Jun 2027 07:50:37.673   04 Jun 2027 07:51:28.008            50.335            RioGallegos          1572.969
       327   04 Jun 2027 08:26:46.958   04 Jun 2027 08:27:05.612            18.654                Sumatra           582.938
       328   04 Jun 2027 08:40:53.077   04 Jun 2027 08:41:47.854            54.777                Irkutsk          1711.781
       329   04 Jun 2027 08:42:19.425   04 Jun 2027 08:43:12.189            52.764                Irkutsk          1648.875
       330   04 Jun 2027 08:43:24.569   04 Jun 2027 08:43:43.621            19.052                Irkutsk           595.375
       331   04 Jun 2027 08:43:51.368   04 Jun 2027 08:43:58.297             6.929                Novosib           216.531
       332   04 Jun 2027 08:44:02.738   04 Jun 2027 08:44:40.728            37.990                Irkutsk          1187.188
       333   04 Jun 2027 08:45:11.184   04 Jun 2027 08:45:47.511            36.327                Irkutsk          1135.219
       334   04 Jun 2027 08:45:51.730   04 Jun 2027 08:46:12.674            20.944                Irkutsk           654.500
       335   04 Jun 2027 08:46:46.992   04 Jun 2027 08:46:51.937             4.945                Novosib           154.531
       336   04 Jun 2027 09:24:48.807   04 Jun 2027 09:25:34.196            45.389            RioGallegos          1418.406
       337   04 Jun 2027 09:25:50.411   04 Jun 2027 09:26:39.921            49.510            RioGallegos          1547.187
       338   04 Jun 2027 09:59:59.209   04 Jun 2027 10:02:07.191           127.982                Sumatra          3999.437
       339   04 Jun 2027 10:20:42.377   04 Jun 2027 10:21:15.871            33.494                Novosib          1046.688
       340   04 Jun 2027 10:21:29.808   04 Jun 2027 10:21:36.226             6.418                Norilsk           200.562
       341   04 Jun 2027 10:21:48.396   04 Jun 2027 10:22:14.033            25.637                Novosib           801.156
       342   04 Jun 2027 11:54:19.704   04 Jun 2027 11:55:12.498            52.794              Murmansk2          1649.812
       343   04 Jun 2027 11:59:22.972   04 Jun 2027 11:59:38.621            15.649                Norilsk           489.031
       344   04 Jun 2027 12:01:12.344   04 Jun 2027 12:01:49.623            37.279                Norilsk          1164.969
       345   04 Jun 2027 12:04:06.358   04 Jun 2027 12:04:45.750            39.392              Murmansk1          1231.000
       346   04 Jun 2027 13:25:44.515   04 Jun 2027 13:26:10.249            25.734                 Moscow           804.188
       347   04 Jun 2027 13:27:21.121   04 Jun 2027 13:27:33.252            12.131                 Moscow           379.094
       348   04 Jun 2027 13:27:54.989   04 Jun 2027 13:28:02.746             7.757                 Moscow           242.406
       349   04 Jun 2027 13:29:08.754   04 Jun 2027 13:29:24.351            15.597              Murmansk1           487.406
       350   04 Jun 2027 13:29:36.755   04 Jun 2027 13:30:37.142            60.387                 Moscow          1887.094
       351   04 Jun 2027 13:31:51.418   04 Jun 2027 13:32:30.244            38.826              Murmansk1          1213.313
       352   04 Jun 2027 13:34:42.978   04 Jun 2027 13:35:14.900            31.922              Murmansk2           997.562
       353   04 Jun 2027 13:37:30.753   04 Jun 2027 13:38:33.846            63.093              Murmansk1          1971.656
       354   04 Jun 2027 13:43:14.304   04 Jun 2027 13:45:36.232           141.928                Anadyr2          4435.250
       355   04 Jun 2027 13:45:36.232   04 Jun 2027 13:46:03.675            27.443                Anadyr1           857.594
       356   04 Jun 2027 13:46:08.293   04 Jun 2027 13:47:59.045           110.752                Anadyr2          3461.000
       357   04 Jun 2027 15:08:06.839   04 Jun 2027 15:10:41.337           154.498              Murmansk2          4828.062
       358   04 Jun 2027 15:18:42.219   04 Jun 2027 15:19:51.033            68.814                Anadyr1          2150.438
       359   04 Jun 2027 15:19:51.033   04 Jun 2027 15:20:47.829            56.796                Anadyr2          1774.875
       360   04 Jun 2027 15:22:21.940   04 Jun 2027 15:23:48.453            86.513               Magadan1          2703.531
       361   04 Jun 2027 15:23:48.453   04 Jun 2027 15:25:58.757           130.304               Magadan2          4072.000
       362   04 Jun 2027 15:26:57.333   04 Jun 2027 15:28:36.167            98.834               Magadan2          3088.563
       363   04 Jun 2027 16:54:36.101   04 Jun 2027 16:55:04.711            28.610                Anadyr2           894.062
       364   04 Jun 2027 16:55:55.394   04 Jun 2027 16:56:10.743            15.349                Anadyr1           479.656
       365   04 Jun 2027 16:56:59.709   04 Jun 2027 16:57:51.948            52.239               Magadan1          1632.469
       366   04 Jun 2027 16:57:51.948   04 Jun 2027 16:58:58.060            66.112               Magadan2          2066.000
       367   04 Jun 2027 16:59:26.637   04 Jun 2027 16:59:52.045            25.408               Magadan1           794.000
       368   04 Jun 2027 17:04:17.659   04 Jun 2027 17:04:42.366            24.707               Magadan2           772.094
       369   04 Jun 2027 17:09:02.572   04 Jun 2027 17:09:14.151            11.579               Magadan2           361.844
       370   04 Jun 2027 18:30:27.919   04 Jun 2027 18:32:03.217            95.298                Anadyr2          2978.063
       371   04 Jun 2027 18:32:13.290   04 Jun 2027 18:33:54.169           100.879                Anadyr1          3152.469
       372   04 Jun 2027 18:33:57.571   04 Jun 2027 18:35:56.146           118.575               Magadan2          3705.469
       373   04 Jun 2027 18:37:01.825   04 Jun 2027 18:38:14.335            72.510                Norilsk          2265.938
       374   04 Jun 2027 18:38:25.011   04 Jun 2027 18:41:20.611           175.600                Irkutsk          5487.500
       375   04 Jun 2027 18:44:06.629   04 Jun 2027 18:44:43.334            36.705                Irkutsk          1147.031
       376   04 Jun 2027 18:55:06.756   04 Jun 2027 18:58:38.383           211.627                Sumatra          6613.344
       377   04 Jun 2027 20:12:21.017   04 Jun 2027 20:14:21.359           120.342                Irkutsk          3760.687
       378   04 Jun 2027 20:14:22.768   04 Jun 2027 20:16:54.624           151.856                Novosib          4745.500
       379   04 Jun 2027 20:26:02.421   04 Jun 2027 20:27:15.862            73.441                Sumatra          2295.031
       380   04 Jun 2027 20:35:41.717   04 Jun 2027 20:35:52.424            10.707                Sumatra           334.594
       381   04 Jun 2027 21:44:55.396   04 Jun 2027 21:45:54.869            59.473               Magadan1          1858.531
       382   04 Jun 2027 21:48:11.693   04 Jun 2027 21:49:50.692            98.999                Novosib          3093.719
       383   04 Jun 2027 21:49:55.547   04 Jun 2027 21:50:31.672            36.125              Murmansk2          1128.906
       384   04 Jun 2027 21:54:05.538   04 Jun 2027 21:55:37.512            91.974                Novosib          2874.188
       385   04 Jun 2027 21:55:38.777   04 Jun 2027 21:57:09.995            91.218                  Delhi          2850.562
       386   04 Jun 2027 22:06:30.890   04 Jun 2027 22:06:32.610             1.720                  Delhi            53.750
       387   04 Jun 2027 22:07:40.787   04 Jun 2027 22:07:59.000            18.213                  Delhi           569.156
       388   04 Jun 2027 23:19:49.621   04 Jun 2027 23:20:28.191            38.570               Magadan2          1205.312
       389   04 Jun 2027 23:20:58.557   04 Jun 2027 23:21:33.132            34.575               Magadan2          1080.469
       390   04 Jun 2027 23:21:43.212   04 Jun 2027 23:22:10.112            26.900               Magadan2           840.625
       391   04 Jun 2027 23:22:34.589   04 Jun 2027 23:26:41.823           247.234              Murmansk2          7726.063
       392   04 Jun 2027 23:26:43.204   04 Jun 2027 23:28:40.487           117.283                 Moscow          3665.094
       393   04 Jun 2027 23:29:02.802   04 Jun 2027 23:29:04.826             2.024                 Moscow            63.250
       394   04 Jun 2027 23:29:08.570   04 Jun 2027 23:30:19.455            70.885                 Moscow          2215.156
       395   04 Jun 2027 23:54:18.953   04 Jun 2027 23:55:43.590            84.637               CapeTown          2644.906
       396   04 Jun 2027 23:57:10.868   04 Jun 2027 23:58:36.465            85.597               CapeTown          2674.906
       397   05 Jun 2027 00:58:26.124   05 Jun 2027 01:00:40.777           134.653              Murmansk1          4207.906
       398   05 Jun 2027 01:01:20.927   05 Jun 2027 01:01:45.764            24.837              Murmansk1           776.156
       399   05 Jun 2027 01:04:04.000   05 Jun 2027 01:04:13.634             9.634                 Moscow           301.062
       400   05 Jun 2027 01:04:24.198   05 Jun 2027 01:04:49.334            25.136                 Moscow           785.500
       401   05 Jun 2027 01:09:51.023   05 Jun 2027 01:09:54.692             3.669                 Moscow           114.656
       402   05 Jun 2027 01:09:58.221   05 Jun 2027 01:10:11.293            13.072                 Moscow           408.500
       403   05 Jun 2027 01:25:39.153   05 Jun 2027 01:26:59.290            80.137               CapeTown          2504.281
       404   05 Jun 2027 01:34:00.997   05 Jun 2027 01:34:56.156            55.159               CapeTown          1723.719
       405   05 Jun 2027 02:22:16.354   05 Jun 2027 02:23:15.338            58.984                Anadyr2          1843.250
       406   05 Jun 2027 02:23:15.338   05 Jun 2027 02:23:19.764             4.426                Anadyr1           138.313
       407   05 Jun 2027 02:23:37.944   05 Jun 2027 02:24:03.306            25.362                Anadyr1           792.562
       408   05 Jun 2027 02:24:09.208   05 Jun 2027 02:24:35.257            26.049               Magadan1           814.031
       409   05 Jun 2027 02:24:43.185   05 Jun 2027 02:25:09.216            26.031               Magadan2           813.469
       410   05 Jun 2027 02:26:34.648   05 Jun 2027 02:26:38.719             4.071               Magadan1           127.219
       411   05 Jun 2027 02:28:42.460   05 Jun 2027 02:29:08.970            26.510               Magadan1           828.437
       412   05 Jun 2027 02:31:38.785   05 Jun 2027 02:31:51.510            12.725                Norilsk           397.656
       413   05 Jun 2027 02:34:23.964   05 Jun 2027 02:35:42.208            78.244              Murmansk2          2445.125
       414   05 Jun 2027 02:35:50.775   05 Jun 2027 02:36:04.018            13.243              Murmansk1           413.844
       415   05 Jun 2027 02:37:31.946   05 Jun 2027 02:37:43.654            11.708              Murmansk2           365.875
       416   05 Jun 2027 02:37:44.678   05 Jun 2027 02:38:16.309            31.631              Murmansk1           988.469
       417   05 Jun 2027 02:39:35.489   05 Jun 2027 02:39:42.806             7.317                 Moscow           228.656
       418   05 Jun 2027 02:40:12.240   05 Jun 2027 02:41:01.868            49.628                 Moscow          1550.875
       419   05 Jun 2027 02:49:25.356   05 Jun 2027 02:49:28.718             3.362                 Moscow           105.062
       420   05 Jun 2027 03:03:31.502   05 Jun 2027 03:04:59.548            88.046               CapeTown          2751.438
       421   05 Jun 2027 04:03:04.271   05 Jun 2027 04:09:06.425           362.154                Anadyr1         11317.313
       422   05 Jun 2027 04:09:11.866   05 Jun 2027 04:09:40.256            28.390               Magadan2           887.188
       423   05 Jun 2027 04:49:48.554   05 Jun 2027 04:52:02.826           134.272            RioGallegos          4196.000
       424   05 Jun 2027 04:53:06.801   05 Jun 2027 04:54:56.720           109.919            RioGallegos          3434.969
       425   05 Jun 2027 05:40:31.401   05 Jun 2027 05:41:00.714            29.313               Magadan2           916.031
       426   05 Jun 2027 05:41:00.714   05 Jun 2027 05:43:07.958           127.244               Magadan1          3976.375
       427   05 Jun 2027 05:43:11.178   05 Jun 2027 05:46:03.717           172.539                Anadyr2          5391.844
       428   05 Jun 2027 05:46:17.979   05 Jun 2027 05:46:35.887            17.908               Magadan1           559.625
       429   05 Jun 2027 05:49:47.461   05 Jun 2027 05:50:05.940            18.479                Norilsk           577.469
       430   05 Jun 2027 07:16:48.117   05 Jun 2027 07:17:29.546            41.429               Magadan2          1294.656
       431   05 Jun 2027 07:17:29.546   05 Jun 2027 07:17:49.143            19.597               Magadan1           612.406
       432   05 Jun 2027 07:18:10.589   05 Jun 2027 07:18:38.036            27.447               Magadan2           857.719
       433   05 Jun 2027 07:18:46.636   05 Jun 2027 07:19:09.687            23.051               Magadan1           720.344
       434   05 Jun 2027 07:19:45.675   05 Jun 2027 07:20:45.051            59.376                Irkutsk          1855.500
       435   05 Jun 2027 07:22:15.933   05 Jun 2027 07:22:20.395             4.462                Novosib           139.437
       436   05 Jun 2027 07:22:51.646   05 Jun 2027 07:23:16.935            25.289              Murmansk1           790.281
       437   05 Jun 2027 08:01:57.026   05 Jun 2027 08:02:29.655            32.629            RioGallegos          1019.656
       438   05 Jun 2027 08:06:07.270   05 Jun 2027 08:06:19.576            12.306            RioGallegos           384.562
       439   05 Jun 2027 08:32:02.999   05 Jun 2027 08:32:37.052            34.053                Sumatra          1064.156
       440   05 Jun 2027 08:40:12.325   05 Jun 2027 08:41:16.354            64.029                Sumatra          2000.906
       441   05 Jun 2027 08:52:47.267   05 Jun 2027 08:52:51.200             3.933                Novosib           122.906
       442   05 Jun 2027 08:54:35.802   05 Jun 2027 08:55:05.423            29.621              Murmansk2           925.656
       443   05 Jun 2027 08:55:27.993   05 Jun 2027 08:55:29.070             1.077                Irkutsk            33.656
       444   05 Jun 2027 08:55:38.076   05 Jun 2027 08:55:38.476             0.400                Novosib            12.500
       445   05 Jun 2027 08:56:05.309   05 Jun 2027 08:56:17.891            12.582                Irkutsk           393.187
       446   05 Jun 2027 08:56:32.553   05 Jun 2027 08:56:45.243            12.690                Irkutsk           396.563
       447   05 Jun 2027 08:57:24.056   05 Jun 2027 08:58:44.610            80.554                Novosib          2517.313
       448   05 Jun 2027 09:38:00.044   05 Jun 2027 09:38:32.640            32.596            RioGallegos          1018.625
       449   05 Jun 2027 10:16:25.236   05 Jun 2027 10:18:06.392           101.156                  Delhi          3161.125
       450   05 Jun 2027 10:30:15.528   05 Jun 2027 10:30:32.423            16.895                Novosib           527.969
       451   05 Jun 2027 10:31:37.197   05 Jun 2027 10:31:43.104             5.907                Novosib           184.594
       452   05 Jun 2027 10:32:44.989   05 Jun 2027 10:32:49.020             4.031                Novosib           125.969
       453   05 Jun 2027 10:33:27.417   05 Jun 2027 10:33:34.178             6.761                Novosib           211.281
       454   05 Jun 2027 10:33:36.015   05 Jun 2027 10:33:43.953             7.938                Norilsk           248.062
       455   05 Jun 2027 10:33:59.608   05 Jun 2027 10:34:00.518             0.910                Norilsk            28.437
       456   05 Jun 2027 10:34:15.108   05 Jun 2027 10:34:22.907             7.799                Novosib           243.719
       457   05 Jun 2027 12:01:20.288   05 Jun 2027 12:02:31.318            71.030                 Moscow          2219.688
       458   05 Jun 2027 12:08:24.189   05 Jun 2027 12:09:58.891            94.702                Norilsk          2959.438
       459   05 Jun 2027 12:11:10.225   05 Jun 2027 12:12:03.139            52.914                Norilsk          1653.562
       460   05 Jun 2027 12:14:56.894   05 Jun 2027 12:15:01.760             4.866                Norilsk           152.063
       461   05 Jun 2027 13:38:11.202   05 Jun 2027 13:38:55.678            44.476                 Moscow          1389.875
       462   05 Jun 2027 13:40:57.360   05 Jun 2027 13:41:30.408            33.048                 Moscow          1032.750
       463   05 Jun 2027 13:42:04.598   05 Jun 2027 13:42:57.142            52.544              Murmansk1          1642.000
       464   05 Jun 2027 13:44:55.021   05 Jun 2027 13:45:05.135            10.114              Murmansk1           316.063
       465   05 Jun 2027 13:45:34.027   05 Jun 2027 13:45:46.156            12.129              Murmansk2           379.031
       466   05 Jun 2027 13:46:26.028   05 Jun 2027 13:46:44.539            18.511              Murmansk2           578.469
       467   05 Jun 2027 13:47:16.963   05 Jun 2027 13:47:34.286            17.323              Murmansk1           541.344
       468   05 Jun 2027 13:47:34.286   05 Jun 2027 13:47:36.227             1.941              Murmansk2            60.656
       469   05 Jun 2027 13:48:08.674   05 Jun 2027 13:48:47.831            39.157              Murmansk1          1223.656
       470   05 Jun 2027 13:50:35.591   05 Jun 2027 13:50:54.462            18.871              Murmansk2           589.719
       471   05 Jun 2027 13:50:58.086   05 Jun 2027 13:51:05.912             7.826              Murmansk2           244.562
       472   05 Jun 2027 13:52:59.778   05 Jun 2027 13:53:00.000             0.222              Murmansk1             6.938
       473   05 Jun 2027 13:55:08.471   05 Jun 2027 13:57:36.690           148.219                Anadyr2          4631.844
       474   05 Jun 2027 13:57:36.690   05 Jun 2027 13:57:42.562             5.872                Anadyr1           183.500
       475   05 Jun 2027 13:58:59.106   05 Jun 2027 13:59:55.790            56.684                Anadyr2          1771.375
       476   05 Jun 2027 14:02:22.824   05 Jun 2027 14:02:35.024            12.200                Anadyr2           381.250
       477   05 Jun 2027 14:02:54.064   05 Jun 2027 14:04:39.489           105.425                Anadyr2          3294.531
       478   05 Jun 2027 15:22:02.265   05 Jun 2027 15:22:43.015            40.750              Murmansk1          1273.438
       479   05 Jun 2027 15:23:28.497   05 Jun 2027 15:24:44.681            76.184              Murmansk1          2380.750
       480   05 Jun 2027 15:30:42.728   05 Jun 2027 15:31:42.631            59.903                Anadyr2          1871.969
       481   05 Jun 2027 15:33:59.260   05 Jun 2027 15:34:32.616            33.356                Anadyr2          1042.375
       482   05 Jun 2027 15:35:00.608   05 Jun 2027 15:37:37.443           156.835               Magadan2          4901.094
