uniorb/output/strategy_4/Drop/Drop_KinoSat_111506.txt

KinoSat_111506
-------------------------
    Access    *     Start Time (UTCG)     *     Stop Time (UTCG)  *   Duration (s)        *       Station  *  Data (Mbytes)
         1   01 Jun 2027 03:10:14.907   01 Jun 2027 03:10:31.949            17.042              Murmansk1           532.562
         2   01 Jun 2027 03:10:36.989   01 Jun 2027 03:11:38.048            61.059                Irkutsk          1908.094
         3   01 Jun 2027 03:11:48.417   01 Jun 2027 03:12:53.762            65.345                 Moscow          2042.031
         4   01 Jun 2027 03:13:15.174   01 Jun 2027 03:15:27.008           131.834                 Moscow          4119.813
         5   01 Jun 2027 03:15:36.266   01 Jun 2027 03:15:56.727            20.461              Murmansk1           639.406
         6   01 Jun 2027 03:16:09.046   01 Jun 2027 03:16:30.126            21.080                Novosib           658.750
         7   01 Jun 2027 03:16:54.183   01 Jun 2027 03:20:03.806           189.623                  Delhi          5925.719
         8   01 Jun 2027 04:48:54.442   01 Jun 2027 04:49:13.247            18.805                Norilsk           587.656
         9   01 Jun 2027 04:49:15.883   01 Jun 2027 04:50:40.111            84.228              Murmansk1          2632.125
        10   01 Jun 2027 04:50:41.264   01 Jun 2027 04:51:27.631            46.367                 Moscow          1448.969
        11   01 Jun 2027 04:51:29.991   01 Jun 2027 04:51:43.678            13.687              Murmansk2           427.719
        12   01 Jun 2027 04:52:16.499   01 Jun 2027 04:52:49.608            33.109              Murmansk2          1034.656
        13   01 Jun 2027 04:54:24.632   01 Jun 2027 04:55:04.582            39.950                 Moscow          1248.438
        14   01 Jun 2027 06:11:26.676   01 Jun 2027 06:12:41.550            74.874               Magadan1          2339.813
        15   01 Jun 2027 06:12:41.550   01 Jun 2027 06:13:58.128            76.578               Magadan2          2393.063
        16   01 Jun 2027 06:14:32.247   01 Jun 2027 06:15:03.252            31.005               Magadan2           968.906
        17   01 Jun 2027 06:16:53.063   01 Jun 2027 06:17:00.072             7.009               Magadan1           219.031
        18   01 Jun 2027 07:48:44.326   01 Jun 2027 07:52:32.162           227.836                Anadyr2          7119.875
        19   01 Jun 2027 09:23:22.257   01 Jun 2027 09:24:07.433            45.176               Magadan1          1411.750
        20   01 Jun 2027 09:25:00.055   01 Jun 2027 09:25:34.290            34.235               Magadan2          1069.844
        21   01 Jun 2027 09:25:34.290   01 Jun 2027 09:28:31.183           176.893               Magadan1          5527.906
        22   01 Jun 2027 11:01:27.762   01 Jun 2027 11:02:50.122            82.360                Irkutsk          2573.750
        23   01 Jun 2027 11:03:03.916   01 Jun 2027 11:03:49.747            45.831                Norilsk          1432.219
        24   01 Jun 2027 11:03:52.635   01 Jun 2027 11:05:02.799            70.164              Murmansk2          2192.625
        25   01 Jun 2027 11:05:56.512   01 Jun 2027 11:06:09.026            12.514                Novosib           391.062
        26   01 Jun 2027 11:07:36.332   01 Jun 2027 11:07:53.941            17.609                Norilsk           550.281
        27   01 Jun 2027 11:40:31.772   01 Jun 2027 11:40:58.107            26.335            RioGallegos           822.969
        28   01 Jun 2027 11:41:33.509   01 Jun 2027 11:42:13.397            39.888            RioGallegos          1246.500
        29   01 Jun 2027 11:43:24.962   01 Jun 2027 11:44:39.092            74.130            RioGallegos          2316.563
        30   01 Jun 2027 11:45:29.853   01 Jun 2027 11:45:49.783            19.930            RioGallegos           622.813
        31   01 Jun 2027 11:50:29.117   01 Jun 2027 11:50:29.183             0.066            RioGallegos             2.062
        32   01 Jun 2027 12:14:46.592   01 Jun 2027 12:16:09.652            83.060                Sumatra          2595.625
        33   01 Jun 2027 12:19:17.198   01 Jun 2027 12:19:50.241            33.043                Sumatra          1032.594
        34   01 Jun 2027 12:22:52.959   01 Jun 2027 12:24:43.810           110.851                  Delhi          3464.094
        35   01 Jun 2027 12:30:00.694   01 Jun 2027 12:33:18.739           198.045                Irkutsk          6188.906
        36   01 Jun 2027 12:35:01.546   01 Jun 2027 12:35:02.214             0.668                Irkutsk            20.875
        37   01 Jun 2027 12:35:51.976   01 Jun 2027 12:36:04.350            12.374                Norilsk           386.687
        38   01 Jun 2027 13:59:42.878   01 Jun 2027 14:04:51.323           308.445                  Delhi          9638.906
        39   01 Jun 2027 14:08:07.691   01 Jun 2027 14:13:02.331           294.640                Novosib          9207.500
        40   01 Jun 2027 15:43:00.735   01 Jun 2027 15:46:52.053           231.318                 Moscow          7228.688
        41   01 Jun 2027 15:47:30.215   01 Jun 2027 15:47:53.809            23.594              Murmansk2           737.312
        42   01 Jun 2027 15:48:20.810   01 Jun 2027 15:49:26.169            65.359              Murmansk2          2042.469
        43   01 Jun 2027 15:53:18.500   01 Jun 2027 15:55:44.864           146.364                Norilsk          4573.875
        44   01 Jun 2027 15:55:47.541   01 Jun 2027 15:56:30.283            42.742                Norilsk          1335.687
        45   01 Jun 2027 16:57:24.321   01 Jun 2027 16:57:48.744            24.423               CapeTown           763.219
        46   01 Jun 2027 17:22:15.519   01 Jun 2027 17:22:57.215            41.696                 Moscow          1303.000
        47   01 Jun 2027 17:23:41.515   01 Jun 2027 17:26:02.949           141.434                 Moscow          4419.812
        48   01 Jun 2027 17:29:16.703   01 Jun 2027 17:29:38.787            22.084              Murmansk1           690.125
        49   01 Jun 2027 17:38:12.233   01 Jun 2027 17:38:38.865            26.632                Anadyr1           832.250
        50   01 Jun 2027 17:39:23.456   01 Jun 2027 17:39:27.328             3.872                Anadyr1           121.000
        51   01 Jun 2027 18:32:55.402   01 Jun 2027 18:34:23.016            87.614               CapeTown          2737.937
        52   01 Jun 2027 18:36:28.110   01 Jun 2027 18:37:29.300            61.190               CapeTown          1912.187
        53   01 Jun 2027 19:05:14.311   01 Jun 2027 19:09:47.919           273.608              Murmansk2          8550.250
        54   01 Jun 2027 19:15:34.846   01 Jun 2027 19:16:12.592            37.746               Magadan1          1179.563
        55   01 Jun 2027 19:16:31.384   01 Jun 2027 19:16:52.530            21.146               Magadan1           660.812
        56   01 Jun 2027 19:18:30.939   01 Jun 2027 19:18:49.273            18.334               Magadan2           572.937
        57   01 Jun 2027 19:19:37.431   01 Jun 2027 19:19:55.200            17.769               Magadan2           555.281
        58   01 Jun 2027 19:21:39.773   01 Jun 2027 19:21:58.187            18.414               Magadan1           575.437
        59   01 Jun 2027 19:23:59.567   01 Jun 2027 19:24:25.420            25.853               Magadan2           807.906
        60   01 Jun 2027 20:48:48.308   01 Jun 2027 20:53:06.550           258.242                Anadyr2          8070.063
        61   01 Jun 2027 20:53:20.479   01 Jun 2027 20:54:20.256            59.777               Magadan1          1868.031
        62   01 Jun 2027 20:54:20.256   01 Jun 2027 20:55:06.443            46.187               Magadan2          1443.344
        63   01 Jun 2027 20:55:41.532   01 Jun 2027 20:55:47.218             5.686               Magadan2           177.688
        64   01 Jun 2027 20:56:04.814   01 Jun 2027 20:56:38.642            33.828               Magadan2          1057.125
        65   01 Jun 2027 20:57:23.687   01 Jun 2027 20:58:06.854            43.167               Magadan2          1348.969
        66   01 Jun 2027 21:43:44.289   01 Jun 2027 21:46:52.787           188.498            RioGallegos          5890.563
        67   01 Jun 2027 22:24:31.608   01 Jun 2027 22:26:46.070           134.462                Anadyr2          4201.938
        68   01 Jun 2027 22:26:47.460   01 Jun 2027 22:28:19.067            91.607                Norilsk          2862.719
        69   01 Jun 2027 22:28:36.598   01 Jun 2027 22:30:57.404           140.806               Magadan2          4400.187
        70   01 Jun 2027 22:31:05.250   01 Jun 2027 22:32:12.660            67.410                Irkutsk          2106.563
        71   01 Jun 2027 22:45:10.010   01 Jun 2027 22:48:12.641           182.631                Sumatra          5707.219
        72   02 Jun 2027 00:00:13.152   02 Jun 2027 00:00:40.811            27.659                Anadyr1           864.344
        73   02 Jun 2027 00:01:50.787   02 Jun 2027 00:02:12.454            21.667                Anadyr1           677.094
        74   02 Jun 2027 00:02:33.288   02 Jun 2027 00:02:46.682            13.394                Norilsk           418.562
        75   02 Jun 2027 00:03:12.431   02 Jun 2027 00:04:51.648            99.217               Magadan2          3100.531
        76   02 Jun 2027 00:06:25.394   02 Jun 2027 00:08:36.774           131.380                Irkutsk          4105.625
        77   02 Jun 2027 00:13:50.006   02 Jun 2027 00:14:39.159            49.153                Novosib          1536.031
        78   02 Jun 2027 00:15:07.194   02 Jun 2027 00:17:58.326           171.132                  Delhi          5347.875
        79   02 Jun 2027 01:33:17.904   02 Jun 2027 01:33:24.221             6.317                Anadyr2           197.406
        80   02 Jun 2027 01:33:39.232   02 Jun 2027 01:33:56.197            16.965                Anadyr1           530.156
        81   02 Jun 2027 01:33:56.197   02 Jun 2027 01:34:33.010            36.813                Anadyr2          1150.406
        82   02 Jun 2027 01:35:31.663   02 Jun 2027 01:35:59.981            28.318                Anadyr1           884.937
        83   02 Jun 2027 01:39:00.727   02 Jun 2027 01:39:51.349            50.622               Magadan1          1581.938
        84   02 Jun 2027 01:40:11.772   02 Jun 2027 01:42:17.615           125.843               Magadan1          3932.594
        85   02 Jun 2027 01:42:20.115   02 Jun 2027 01:43:11.655            51.540                Novosib          1610.625
        86   02 Jun 2027 01:43:50.495   02 Jun 2027 01:45:35.887           105.392                Irkutsk          3293.500
        87   02 Jun 2027 01:50:08.650   02 Jun 2027 01:51:12.508            63.858                  Delhi          1995.563
        88   02 Jun 2027 02:32:39.469   02 Jun 2027 02:33:18.716            39.247            RioGallegos          1226.469
        89   02 Jun 2027 02:34:22.238   02 Jun 2027 02:34:40.450            18.212            RioGallegos           569.125
        90   02 Jun 2027 02:34:55.161   02 Jun 2027 02:35:27.329            32.168            RioGallegos          1005.250
        91   02 Jun 2027 02:35:51.965   02 Jun 2027 02:36:16.871            24.906            RioGallegos           778.312
        92   02 Jun 2027 03:23:16.097   02 Jun 2027 03:23:23.391             7.294                Norilsk           227.937
        93   02 Jun 2027 03:23:45.844   02 Jun 2027 03:28:01.094           255.250              Murmansk1          7976.562
        94   02 Jun 2027 03:30:40.868   02 Jun 2027 03:31:13.597            32.729                 Moscow          1022.781
        95   02 Jun 2027 03:45:07.430   02 Jun 2027 03:45:32.571            25.141               CapeTown           785.656
        96   02 Jun 2027 03:50:23.453   02 Jun 2027 03:51:04.935            41.482               CapeTown          1296.313
        97   02 Jun 2027 04:43:27.490   02 Jun 2027 04:43:33.416             5.926                Anadyr2           185.188
        98   02 Jun 2027 05:20:00.568   02 Jun 2027 05:20:56.310            55.742               CapeTown          1741.937
        99   02 Jun 2027 06:16:43.862   02 Jun 2027 06:18:05.918            82.056                Anadyr1          2564.250
       100   02 Jun 2027 06:22:29.377   02 Jun 2027 06:23:09.475            40.098               Magadan2          1253.063
       101   02 Jun 2027 06:23:32.376   02 Jun 2027 06:25:17.836           105.460                Anadyr1          3295.625
       102   02 Jun 2027 06:25:40.537   02 Jun 2027 06:28:09.797           149.260                Anadyr1          4664.375
       103   02 Jun 2027 06:28:09.797   02 Jun 2027 06:28:35.032            25.235                Anadyr2           788.594
       104   02 Jun 2027 08:01:51.499   02 Jun 2027 08:03:42.213           110.714               Magadan2          3459.812
       105   02 Jun 2027 08:05:00.129   02 Jun 2027 08:05:01.521             1.392               Magadan2            43.500
       106   02 Jun 2027 09:35:23.629   02 Jun 2027 09:36:19.152            55.523               Magadan2          1735.094
       107   02 Jun 2027 09:36:56.802   02 Jun 2027 09:37:08.898            12.096               Magadan1           378.000
       108   02 Jun 2027 09:37:44.255   02 Jun 2027 09:39:12.111            87.856               Magadan1          2745.500
       109   02 Jun 2027 09:39:12.111   02 Jun 2027 09:40:24.061            71.950               Magadan2          2248.438
       110   02 Jun 2027 09:41:32.982   02 Jun 2027 09:41:42.126             9.144                Novosib           285.750
       111   02 Jun 2027 10:15:25.575   02 Jun 2027 10:15:31.304             5.729            RioGallegos           179.031
       112   02 Jun 2027 10:16:31.584   02 Jun 2027 10:17:17.365            45.781            RioGallegos          1430.656
       113   02 Jun 2027 10:17:43.964   02 Jun 2027 10:18:03.844            19.880            RioGallegos           621.250
       114   02 Jun 2027 10:26:18.313   02 Jun 2027 10:26:32.032            13.719            RioGallegos           428.719
       115   02 Jun 2027 10:50:58.487   02 Jun 2027 10:52:21.529            83.042                Sumatra          2595.063
       116   02 Jun 2027 11:11:24.435   02 Jun 2027 11:12:09.631            45.196                Irkutsk          1412.375
       117   02 Jun 2027 11:12:13.640   02 Jun 2027 11:12:24.889            11.249                Novosib           351.531
       118   02 Jun 2027 11:12:28.448   02 Jun 2027 11:13:00.403            31.955                Irkutsk           998.594
       119   02 Jun 2027 11:13:16.822   02 Jun 2027 11:14:09.402            52.580                Novosib          1643.125
       120   02 Jun 2027 11:14:18.703   02 Jun 2027 11:14:55.407            36.704                Irkutsk          1147.000
       121   02 Jun 2027 11:15:19.054   02 Jun 2027 11:15:51.686            32.632                Norilsk          1019.750
       122   02 Jun 2027 11:16:01.996   02 Jun 2027 11:16:13.013            11.017                Norilsk           344.281
       123   02 Jun 2027 11:16:14.138   02 Jun 2027 11:16:31.904            17.766                Norilsk           555.188
       124   02 Jun 2027 11:53:01.438   02 Jun 2027 11:53:45.338            43.900            RioGallegos          1371.875
       125   02 Jun 2027 11:54:04.954   02 Jun 2027 11:54:08.932             3.978            RioGallegos           124.313
       126   02 Jun 2027 11:56:37.610   02 Jun 2027 11:57:12.935            35.325            RioGallegos          1103.906
       127   02 Jun 2027 12:27:14.134   02 Jun 2027 12:28:20.736            66.602                Sumatra          2081.312
       128   02 Jun 2027 12:40:54.710   02 Jun 2027 12:41:28.033            33.323                  Delhi          1041.344
       129   02 Jun 2027 12:41:32.295   02 Jun 2027 12:41:56.963            24.668                Novosib           770.875
       130   02 Jun 2027 12:42:13.062   02 Jun 2027 12:42:51.696            38.634                Novosib          1207.313
       131   02 Jun 2027 12:44:27.839   02 Jun 2027 12:44:35.138             7.299                Novosib           228.094
       132   02 Jun 2027 12:45:31.055   02 Jun 2027 12:46:58.356            87.301                Norilsk          2728.156
       133   02 Jun 2027 14:12:25.603   02 Jun 2027 14:15:35.790           190.187                  Delhi          5943.344
       134   02 Jun 2027 14:19:50.563   02 Jun 2027 14:20:01.136            10.573                 Moscow           330.406
       135   02 Jun 2027 14:20:55.869   02 Jun 2027 14:24:32.378           216.509                Novosib          6765.906
       136   02 Jun 2027 14:25:27.387   02 Jun 2027 14:26:09.652            42.265                Norilsk          1320.781
       137   02 Jun 2027 15:36:56.718   02 Jun 2027 15:37:53.144            56.426               CapeTown          1763.313
       138   02 Jun 2027 15:38:57.092   02 Jun 2027 15:39:46.112            49.020               CapeTown          1531.875
       139   02 Jun 2027 15:55:12.385   02 Jun 2027 15:56:24.875            72.490                 Moscow          2265.312
       140   02 Jun 2027 15:58:41.798   02 Jun 2027 16:01:24.903           163.105              Murmansk2          5097.031
       141   02 Jun 2027 16:14:05.778   02 Jun 2027 16:14:54.907            49.129                Anadyr2          1535.281
       142   02 Jun 2027 16:15:17.302   02 Jun 2027 16:15:51.034            33.732                Anadyr1          1054.125
       143   02 Jun 2027 17:08:26.182   02 Jun 2027 17:10:32.164           125.982               CapeTown          3936.937
       144   02 Jun 2027 17:35:12.581   02 Jun 2027 17:35:44.634            32.053                 Moscow          1001.656
       145   02 Jun 2027 17:36:55.285   02 Jun 2027 17:37:35.880            40.595              Murmansk2          1268.594
       146   02 Jun 2027 17:38:02.374   02 Jun 2027 17:39:40.476            98.102                 Moscow          3065.687
       147   02 Jun 2027 17:49:03.681   02 Jun 2027 17:50:18.459            74.778                Anadyr1          2336.812
       148   02 Jun 2027 17:56:01.651   02 Jun 2027 17:56:09.191             7.540                Anadyr1           235.625
       149   02 Jun 2027 17:57:03.224   02 Jun 2027 17:57:20.943            17.719                Anadyr2           553.719
       150   02 Jun 2027 18:45:16.856   02 Jun 2027 18:46:29.627            72.771               CapeTown          2274.094
       151   02 Jun 2027 18:47:39.102   02 Jun 2027 18:48:23.056            43.954               CapeTown          1373.562
       152   02 Jun 2027 19:18:18.687   02 Jun 2027 19:21:55.926           217.239              Murmansk1          6788.719
       153   02 Jun 2027 19:27:29.528   02 Jun 2027 19:30:13.431           163.903               Magadan2          5121.969
       154   02 Jun 2027 19:33:56.322   02 Jun 2027 19:34:11.206            14.884               Magadan2           465.125
       155   02 Jun 2027 19:36:34.799   02 Jun 2027 19:37:15.855            41.056               Magadan1          1283.000
       156   02 Jun 2027 21:00:49.448   02 Jun 2027 21:04:31.892           222.444                Anadyr1          6951.375
       157   02 Jun 2027 21:04:40.477   02 Jun 2027 21:06:50.678           130.201               Magadan2          4068.781
       158   02 Jun 2027 21:07:09.120   02 Jun 2027 21:07:24.944            15.824               Magadan1           494.500
       159   02 Jun 2027 21:10:05.591   02 Jun 2027 21:10:37.855            32.264               Magadan1          1008.250
       160   02 Jun 2027 21:14:08.028   02 Jun 2027 21:15:23.495            75.467               Magadan1          2358.344
       161   02 Jun 2027 21:55:27.443   02 Jun 2027 21:57:39.045           131.602            RioGallegos          4112.563
       162   02 Jun 2027 22:36:29.355   02 Jun 2027 22:36:52.031            22.676                Anadyr2           708.625
       163   02 Jun 2027 22:38:39.388   02 Jun 2027 22:40:20.937           101.549                Norilsk          3173.406
       164   02 Jun 2027 22:40:37.153   02 Jun 2027 22:40:58.246            21.093               Magadan2           659.156
       165   02 Jun 2027 22:41:20.841   02 Jun 2027 22:41:49.599            28.758               Magadan2           898.688
       166   02 Jun 2027 22:42:26.733   02 Jun 2027 22:42:36.399             9.666               Magadan2           302.063
       167   02 Jun 2027 22:42:54.938   02 Jun 2027 22:42:57.711             2.773               Magadan1            86.656
       168   02 Jun 2027 22:43:05.570   02 Jun 2027 22:43:16.944            11.374                Norilsk           355.438
       169   02 Jun 2027 22:43:30.236   02 Jun 2027 22:44:54.037            83.801                Irkutsk          2618.781
       170   02 Jun 2027 22:45:44.446   02 Jun 2027 22:47:39.939           115.493                Novosib          3609.156
       171   02 Jun 2027 22:57:21.792   02 Jun 2027 22:58:17.688            55.896                Sumatra          1746.750
       172   02 Jun 2027 23:00:39.172   02 Jun 2027 23:01:22.988            43.816                Sumatra          1369.250
       173   03 Jun 2027 00:11:20.903   03 Jun 2027 00:12:03.977            43.074                Anadyr1          1346.063
       174   03 Jun 2027 00:12:11.092   03 Jun 2027 00:13:36.680            85.588                Anadyr2          2674.625
       175   03 Jun 2027 00:14:35.483   03 Jun 2027 00:15:39.807            64.324                Norilsk          2010.125
       176   03 Jun 2027 00:15:43.566   03 Jun 2027 00:15:45.967             2.401                Norilsk            75.031
       177   03 Jun 2027 00:15:48.614   03 Jun 2027 00:16:21.243            32.629                Norilsk          1019.656
       178   03 Jun 2027 00:18:27.493   03 Jun 2027 00:19:29.861            62.368                Irkutsk          1949.000
       179   03 Jun 2027 00:19:31.480   03 Jun 2027 00:20:44.920            73.440                Novosib          2295.000
       180   03 Jun 2027 00:25:09.775   03 Jun 2027 00:25:57.968            48.193                Irkutsk          1506.031
       181   03 Jun 2027 00:26:40.972   03 Jun 2027 00:27:28.942            47.970                  Delhi          1499.063
       182   03 Jun 2027 00:31:37.260   03 Jun 2027 00:31:58.068            20.808                  Delhi           650.250
       183   03 Jun 2027 00:32:20.232   03 Jun 2027 00:32:23.717             3.485                  Delhi           108.906
       184   03 Jun 2027 00:36:38.121   03 Jun 2027 00:37:07.903            29.782                  Delhi           930.687
       185   03 Jun 2027 00:39:00.715   03 Jun 2027 00:39:54.186            53.471                Sumatra          1670.969
       186   03 Jun 2027 01:13:46.042   03 Jun 2027 01:14:21.470            35.428            RioGallegos          1107.125
       187   03 Jun 2027 01:44:59.296   03 Jun 2027 01:45:40.019            40.723                Anadyr1          1272.594
       188   03 Jun 2027 01:46:34.366   03 Jun 2027 01:47:19.040            44.674                Anadyr2          1396.063
       189   03 Jun 2027 01:47:36.591   03 Jun 2027 01:47:43.258             6.667                Anadyr1           208.344
       190   03 Jun 2027 01:50:35.624   03 Jun 2027 01:52:13.960            98.336                Norilsk          3073.000
       191   03 Jun 2027 01:52:34.682   03 Jun 2027 01:52:38.949             4.267                Norilsk           133.344
       192   03 Jun 2027 01:52:55.255   03 Jun 2027 01:54:05.144            69.889               Magadan1          2184.031
       193   03 Jun 2027 01:54:16.945   03 Jun 2027 01:55:42.679            85.734              Murmansk1          2679.187
       194   03 Jun 2027 01:57:35.631   03 Jun 2027 01:57:51.702            16.071                Novosib           502.219
       195   03 Jun 2027 01:58:20.369   03 Jun 2027 01:58:29.062             8.693                 Moscow           271.656
       196   03 Jun 2027 02:01:06.542   03 Jun 2027 02:01:18.482            11.940                 Moscow           373.125
       197   03 Jun 2027 02:01:52.834   03 Jun 2027 02:01:57.086             4.252                  Delhi           132.875
       198   03 Jun 2027 02:04:18.280   03 Jun 2027 02:04:33.664            15.384                  Delhi           480.750
       199   03 Jun 2027 02:06:56.159   03 Jun 2027 02:07:26.671            30.512                  Delhi           953.500
       200   03 Jun 2027 02:13:22.671   03 Jun 2027 02:13:55.432            32.761                  Delhi          1023.781
       201   03 Jun 2027 03:18:20.297   03 Jun 2027 03:19:50.541            90.244                Anadyr1          2820.125
       202   03 Jun 2027 03:37:16.361   03 Jun 2027 03:38:41.944            85.583                Norilsk          2674.469
       203   03 Jun 2027 03:38:47.124   03 Jun 2027 03:39:58.652            71.528                Novosib          2235.250
       204   03 Jun 2027 03:40:02.923   03 Jun 2027 03:40:35.988            33.065              Murmansk1          1033.281
       205   03 Jun 2027 03:41:33.190   03 Jun 2027 03:44:20.279           167.089                 Moscow          5221.531
       206   03 Jun 2027 03:56:42.256   03 Jun 2027 04:02:12.647           330.391               CapeTown         10324.719
       207   03 Jun 2027 04:02:43.617   03 Jun 2027 04:03:16.823            33.206               CapeTown          1037.688
       208   03 Jun 2027 04:04:02.428   03 Jun 2027 04:04:57.458            55.030               CapeTown          1719.688
       209   03 Jun 2027 04:06:00.940   03 Jun 2027 04:08:22.560           141.620               CapeTown          4425.625
       210   03 Jun 2027 04:52:43.166   03 Jun 2027 04:53:44.436            61.270                Anadyr2          1914.687
       211   03 Jun 2027 04:56:11.351   03 Jun 2027 04:56:19.426             8.075                Anadyr1           252.344
       212   03 Jun 2027 04:57:36.888   03 Jun 2027 04:58:44.713            67.825                Anadyr1          2119.531
       213   03 Jun 2027 04:59:09.938   03 Jun 2027 05:00:23.513            73.575               Magadan2          2299.219
       214   03 Jun 2027 05:00:58.762   03 Jun 2027 05:01:26.017            27.255                Anadyr1           851.719
       215   03 Jun 2027 05:03:25.269   03 Jun 2027 05:03:28.027             2.758                Anadyr1            86.188
       216   03 Jun 2027 05:03:46.393   03 Jun 2027 05:04:08.119            21.726                Anadyr1           678.937
       217   03 Jun 2027 05:04:49.160   03 Jun 2027 05:05:16.988            27.828                Anadyr1           869.625
       218   03 Jun 2027 05:12:59.508   03 Jun 2027 05:13:15.044            15.536                 Moscow           485.500
       219   03 Jun 2027 05:13:44.609   03 Jun 2027 05:13:47.812             3.203                 Moscow           100.094
       220   03 Jun 2027 05:13:58.897   03 Jun 2027 05:14:22.536            23.639                 Moscow           738.719
       221   03 Jun 2027 05:14:28.862   03 Jun 2027 05:15:36.979            68.117                 Moscow          2128.656
       222   03 Jun 2027 05:32:18.396   03 Jun 2027 05:33:07.272            48.876               CapeTown          1527.375
       223   03 Jun 2027 06:35:06.031   03 Jun 2027 06:35:16.079            10.048               Magadan1           314.000
       224   03 Jun 2027 06:35:17.640   03 Jun 2027 06:35:21.920             4.280               Magadan2           133.750
       225   03 Jun 2027 06:35:21.920   03 Jun 2027 06:35:23.892             1.972               Magadan1            61.625
       226   03 Jun 2027 06:35:32.764   03 Jun 2027 06:36:23.113            50.349                Anadyr1          1573.406
       227   03 Jun 2027 06:36:56.696   03 Jun 2027 06:37:42.015            45.319                Anadyr2          1416.219
       228   03 Jun 2027 06:38:33.444   03 Jun 2027 06:38:39.140             5.696                Anadyr1           178.000
       229   03 Jun 2027 06:38:39.140   03 Jun 2027 06:39:13.548            34.408                Anadyr2          1075.250
       230   03 Jun 2027 08:10:51.949   03 Jun 2027 08:11:47.839            55.890                Anadyr2          1746.562
       231   03 Jun 2027 08:12:09.971   03 Jun 2027 08:12:14.420             4.449               Magadan1           139.031
       232   03 Jun 2027 08:12:41.143   03 Jun 2027 08:13:15.379            34.236                Anadyr2          1069.875
       233   03 Jun 2027 08:13:19.358   03 Jun 2027 08:14:01.240            41.882               Magadan2          1308.813
       234   03 Jun 2027 08:14:16.792   03 Jun 2027 08:15:36.969            80.177                Anadyr2          2505.531
       235   03 Jun 2027 08:54:22.860   03 Jun 2027 08:54:34.897            12.037            RioGallegos           376.156
       236   03 Jun 2027 09:45:59.496   03 Jun 2027 09:47:24.580            85.084               Magadan1          2658.875
       237   03 Jun 2027 09:47:57.565   03 Jun 2027 09:48:25.653            28.088               Magadan1           877.750
       238   03 Jun 2027 09:48:29.413   03 Jun 2027 09:48:33.866             4.453               Magadan1           139.156
       239   03 Jun 2027 09:48:52.216   03 Jun 2027 09:49:47.254            55.038               Magadan1          1719.937
       240   03 Jun 2027 09:50:44.983   03 Jun 2027 09:51:01.452            16.469                Irkutsk           514.656
       241   03 Jun 2027 09:51:11.631   03 Jun 2027 09:52:14.796            63.165               Magadan2          1973.906
       242   03 Jun 2027 09:52:23.091   03 Jun 2027 09:52:42.328            19.237                Irkutsk           601.156
       243   03 Jun 2027 09:53:19.656   03 Jun 2027 09:53:50.554            30.898                Novosib           965.563
       244   03 Jun 2027 10:27:26.473   03 Jun 2027 10:28:28.782            62.309            RioGallegos          1947.156
       245   03 Jun 2027 11:02:41.054   03 Jun 2027 11:03:19.151            38.097                Sumatra          1190.531
       246   03 Jun 2027 11:05:13.368   03 Jun 2027 11:06:05.785            52.417                Sumatra          1638.031
       247   03 Jun 2027 11:22:56.879   03 Jun 2027 11:23:10.358            13.479                Norilsk           421.219
       248   03 Jun 2027 11:24:05.274   03 Jun 2027 11:24:27.590            22.316                Novosib           697.375
       249   03 Jun 2027 11:24:39.444   03 Jun 2027 11:25:17.383            37.939                Norilsk          1185.594
       250   03 Jun 2027 11:25:25.929   03 Jun 2027 11:25:53.334            27.405                Norilsk           856.406
       251   03 Jun 2027 11:26:06.963   03 Jun 2027 11:26:11.328             4.365                Irkutsk           136.406
       252   03 Jun 2027 11:26:26.486   03 Jun 2027 11:27:04.592            38.106                Novosib          1190.812
       253   03 Jun 2027 11:27:15.005   03 Jun 2027 11:27:21.935             6.930                Novosib           216.563
       254   03 Jun 2027 11:27:29.322   03 Jun 2027 11:27:36.104             6.782                Norilsk           211.938
       255   03 Jun 2027 11:27:53.718   03 Jun 2027 11:28:02.889             9.171                Norilsk           286.594
       256   03 Jun 2027 11:28:12.100   03 Jun 2027 11:28:13.605             1.505                Novosib            47.031
       257   03 Jun 2027 11:28:19.686   03 Jun 2027 11:28:56.621            36.935                Novosib          1154.219
       258   03 Jun 2027 12:05:37.504   03 Jun 2027 12:06:01.163            23.659            RioGallegos           739.344
       259   03 Jun 2027 12:10:10.054   03 Jun 2027 12:10:38.264            28.210            RioGallegos           881.562
       260   03 Jun 2027 12:39:53.292   03 Jun 2027 12:40:07.279            13.987                Sumatra           437.094
       261   03 Jun 2027 12:41:01.835   03 Jun 2027 12:42:38.256            96.421                Sumatra          3013.156
       262   03 Jun 2027 12:53:44.661   03 Jun 2027 12:54:06.854            22.193                Novosib           693.531
       263   03 Jun 2027 12:54:27.383   03 Jun 2027 12:54:54.985            27.602                Novosib           862.563
       264   03 Jun 2027 12:55:53.941   03 Jun 2027 12:55:59.587             5.646                Irkutsk           176.438
       265   03 Jun 2027 12:56:33.377   03 Jun 2027 12:57:25.562            52.185                Novosib          1630.781
       266   03 Jun 2027 12:59:47.265   03 Jun 2027 13:00:08.763            21.498                Norilsk           671.812
       267   03 Jun 2027 13:02:11.404   03 Jun 2027 13:02:11.659             0.255                Norilsk             7.969
       268   03 Jun 2027 13:05:58.836   03 Jun 2027 13:06:23.805            24.969                Norilsk           780.281
       269   03 Jun 2027 14:25:25.275   03 Jun 2027 14:26:32.400            67.125                  Delhi          2097.656
       270   03 Jun 2027 14:27:27.291   03 Jun 2027 14:29:41.719           134.428                  Delhi          4200.875
       271   03 Jun 2027 14:34:24.398   03 Jun 2027 14:35:39.429            75.031              Murmansk2          2344.719
       272   03 Jun 2027 14:36:31.605   03 Jun 2027 14:38:14.880           103.275                Novosib          3227.344
       273   03 Jun 2027 14:40:06.345   03 Jun 2027 14:40:52.232            45.887                Norilsk          1433.969
       274   03 Jun 2027 15:47:15.330   03 Jun 2027 15:48:45.534            90.204               CapeTown          2818.875
       275   03 Jun 2027 16:07:27.514   03 Jun 2027 16:08:58.705            91.191                 Moscow          2849.719
       276   03 Jun 2027 16:10:53.532   03 Jun 2027 16:11:37.533            44.001              Murmansk2          1375.031
       277   03 Jun 2027 16:11:57.324   03 Jun 2027 16:12:29.189            31.865              Murmansk2           995.781
       278   03 Jun 2027 16:25:51.254   03 Jun 2027 16:26:53.346            62.092                Anadyr1          1940.375
       279   03 Jun 2027 16:26:59.696   03 Jun 2027 16:27:23.973            24.277                Anadyr2           758.656
       280   03 Jun 2027 16:27:34.651   03 Jun 2027 16:27:46.239            11.588                Anadyr2           362.125
       281   03 Jun 2027 16:28:25.726   03 Jun 2027 16:29:08.194            42.468                Anadyr2          1327.125
       282   03 Jun 2027 17:20:24.042   03 Jun 2027 17:22:43.258           139.216               CapeTown          4350.500
       283   03 Jun 2027 17:48:28.494   03 Jun 2027 17:52:05.534           217.040                 Moscow          6782.500
       284   03 Jun 2027 18:01:53.471   03 Jun 2027 18:02:41.430            47.959                Anadyr1          1498.719
       285   03 Jun 2027 18:06:11.432   03 Jun 2027 18:06:54.705            43.273               Magadan1          1352.281
       286   03 Jun 2027 18:57:45.432   03 Jun 2027 18:58:39.261            53.829               CapeTown          1682.156
       287   03 Jun 2027 19:00:21.097   03 Jun 2027 19:01:07.745            46.648               CapeTown          1457.750
       288   03 Jun 2027 19:32:00.200   03 Jun 2027 19:33:04.775            64.575              Murmansk2          2017.969
       289   03 Jun 2027 19:36:55.537   03 Jun 2027 19:38:41.762           106.225                Anadyr2          3319.531
       290   03 Jun 2027 19:39:00.645   03 Jun 2027 19:40:34.585            93.940                Anadyr2          2935.625
       291   03 Jun 2027 19:41:04.621   03 Jun 2027 19:41:52.090            47.469               Magadan1          1483.406
       292   03 Jun 2027 19:42:00.904   03 Jun 2027 19:42:12.779            11.875               Magadan1           371.094
       293   03 Jun 2027 19:42:47.608   03 Jun 2027 19:44:10.549            82.941               Magadan1          2591.906
       294   03 Jun 2027 21:12:50.367   03 Jun 2027 21:14:56.958           126.591                Anadyr1          3955.969
       295   03 Jun 2027 21:15:03.431   03 Jun 2027 21:16:32.027            88.596                Anadyr2          2768.625
       296   03 Jun 2027 21:17:18.641   03 Jun 2027 21:19:58.431           159.790                Norilsk          4993.438
       297   03 Jun 2027 21:20:15.555   03 Jun 2027 21:21:07.137            51.582               Magadan2          1611.937
       298   03 Jun 2027 21:27:28.068   03 Jun 2027 21:28:01.278            33.210               Magadan1          1037.812
       299   03 Jun 2027 22:07:14.953   03 Jun 2027 22:09:23.153           128.200            RioGallegos          4006.250
       300   03 Jun 2027 22:09:32.575   03 Jun 2027 22:09:59.601            27.026            RioGallegos           844.562
       301   03 Jun 2027 22:17:54.969   03 Jun 2027 22:18:04.076             9.107            RioGallegos           284.594
       302   03 Jun 2027 22:48:26.355   03 Jun 2027 22:48:53.702            27.347                Anadyr2           854.594
       303   03 Jun 2027 22:49:00.722   03 Jun 2027 22:49:04.674             3.952                Anadyr2           123.500
       304   03 Jun 2027 22:49:15.769   03 Jun 2027 22:49:32.175            16.406                Anadyr2           512.688
       305   03 Jun 2027 22:49:49.827   03 Jun 2027 22:50:10.431            20.604                Anadyr2           643.875
       306   03 Jun 2027 22:50:23.247   03 Jun 2027 22:51:39.191            75.944                Anadyr2          2373.250
       307   03 Jun 2027 22:51:47.106   03 Jun 2027 22:51:48.964             1.858                Anadyr2            58.063
       308   03 Jun 2027 22:51:50.240   03 Jun 2027 22:51:55.002             4.762                Anadyr2           148.812
       309   03 Jun 2027 22:52:09.686   03 Jun 2027 22:53:00.817            51.131               Magadan2          1597.844
       310   03 Jun 2027 22:54:22.202   03 Jun 2027 22:54:52.115            29.913               Magadan2           934.781
       311   03 Jun 2027 22:55:02.032   03 Jun 2027 22:55:31.680            29.648               Magadan2           926.500
       312   03 Jun 2027 22:55:39.661   03 Jun 2027 22:56:14.491            34.830                Irkutsk          1088.437
       313   03 Jun 2027 22:56:40.186   03 Jun 2027 22:56:52.662            12.476                Novosib           389.875
       314   03 Jun 2027 22:57:18.423   03 Jun 2027 22:58:01.778            43.355                Novosib          1354.844
       315   03 Jun 2027 22:59:28.030   03 Jun 2027 23:01:15.693           107.663                Novosib          3364.469
       316   03 Jun 2027 23:09:15.052   03 Jun 2027 23:11:20.708           125.656                Sumatra          3926.750
       317   04 Jun 2027 00:23:08.956   04 Jun 2027 00:23:56.326            47.370                Anadyr2          1480.313
       318   04 Jun 2027 00:24:09.363   04 Jun 2027 00:24:39.370            30.007                Anadyr2           937.719
       319   04 Jun 2027 00:26:37.722   04 Jun 2027 00:26:43.842             6.120                Norilsk           191.250
       320   04 Jun 2027 00:27:17.479   04 Jun 2027 00:29:35.661           138.182               Magadan1          4318.188
       321   04 Jun 2027 00:30:30.396   04 Jun 2027 00:31:16.373            45.977                Irkutsk          1436.781
       322   04 Jun 2027 00:31:31.083   04 Jun 2027 00:32:24.984            53.901                Novosib          1684.406
       323   04 Jun 2027 00:33:32.306   04 Jun 2027 00:33:42.283             9.977                Novosib           311.781
       324   04 Jun 2027 00:36:07.004   04 Jun 2027 00:36:35.627            28.623                Novosib           894.469
       325   04 Jun 2027 00:38:13.500   04 Jun 2027 00:38:25.950            12.450                Novosib           389.062
       326   04 Jun 2027 00:38:29.966   04 Jun 2027 00:38:55.971            26.005                  Delhi           812.656
       327   04 Jun 2027 00:40:08.764   04 Jun 2027 00:40:15.536             6.772                  Delhi           211.625
       328   04 Jun 2027 00:41:39.012   04 Jun 2027 00:42:30.067            51.055                  Delhi          1595.469
       329   04 Jun 2027 00:48:53.577   04 Jun 2027 00:49:16.730            23.153                  Delhi           723.531
       330   04 Jun 2027 01:18:59.919   04 Jun 2027 01:19:54.317            54.398            RioGallegos          1699.938
       331   04 Jun 2027 01:25:48.209   04 Jun 2027 01:26:01.079            12.870            RioGallegos           402.187
       332   04 Jun 2027 01:26:23.037   04 Jun 2027 01:27:07.412            44.375            RioGallegos          1386.719
       333   04 Jun 2027 01:56:40.405   04 Jun 2027 01:56:57.474            17.069                Anadyr1           533.406
       334   04 Jun 2027 01:56:59.632   04 Jun 2027 01:57:40.560            40.928                Anadyr2          1279.000
       335   04 Jun 2027 01:59:01.171   04 Jun 2027 01:59:17.303            16.132                Anadyr2           504.125
       336   04 Jun 2027 02:02:37.258   04 Jun 2027 02:04:05.856            88.598                Norilsk          2768.688
       337   04 Jun 2027 02:04:57.520   04 Jun 2027 02:06:30.897            93.377              Murmansk1          2918.031
       338   04 Jun 2027 02:06:31.237   04 Jun 2027 02:06:57.175            25.938              Murmansk2           810.562
       339   04 Jun 2027 02:07:01.007   04 Jun 2027 02:07:13.135            12.128                Novosib           379.000
       340   04 Jun 2027 02:08:10.114   04 Jun 2027 02:08:35.203            25.089                Novosib           784.031
       341   04 Jun 2027 02:10:21.097   04 Jun 2027 02:10:27.685             6.588                Irkutsk           205.875
       342   04 Jun 2027 02:13:05.131   04 Jun 2027 02:13:40.090            34.959                 Moscow          1092.469
       343   04 Jun 2027 02:14:55.508   04 Jun 2027 02:15:32.028            36.520                  Delhi          1141.250
       344   04 Jun 2027 02:22:33.350   04 Jun 2027 02:23:52.732            79.382                  Delhi          2480.688
       345   04 Jun 2027 03:31:51.967   04 Jun 2027 03:32:04.159            12.192                Anadyr2           381.000
       346   04 Jun 2027 03:48:30.145   04 Jun 2027 03:48:59.753            29.608              Murmansk1           925.250
       347   04 Jun 2027 03:49:36.162   04 Jun 2027 03:51:28.984           112.822                 Moscow          3525.688
       348   04 Jun 2027 03:51:29.085   04 Jun 2027 03:52:25.212            56.127              Murmansk1          1753.969
       349   04 Jun 2027 03:52:28.777   04 Jun 2027 03:52:39.634            10.857                 Moscow           339.281
       350   04 Jun 2027 03:53:37.772   04 Jun 2027 03:55:18.305           100.533                 Moscow          3141.656
       351   04 Jun 2027 04:08:23.118   04 Jun 2027 04:11:40.195           197.077               CapeTown          6158.656
       352   04 Jun 2027 05:04:39.981   04 Jun 2027 05:05:44.131            64.150                Anadyr2          2004.687
       353   04 Jun 2027 05:05:44.131   04 Jun 2027 05:07:42.395           118.264                Anadyr1          3695.750
       354   04 Jun 2027 05:12:00.750   04 Jun 2027 05:17:32.218           331.468                Anadyr2         10358.375
       355   04 Jun 2027 05:25:04.975   04 Jun 2027 05:25:16.854            11.879                 Moscow           371.219
       356   04 Jun 2027 05:26:07.174   04 Jun 2027 05:26:09.040             1.866                 Moscow            58.312
       357   04 Jun 2027 05:26:46.339   04 Jun 2027 05:27:34.095            47.756                 Moscow          1492.375
       358   04 Jun 2027 05:44:43.036   04 Jun 2027 05:45:31.471            48.435               CapeTown          1513.594
       359   04 Jun 2027 05:49:06.245   04 Jun 2027 05:49:19.694            13.449               CapeTown           420.281
       360   04 Jun 2027 05:49:57.564   04 Jun 2027 05:50:01.534             3.970               CapeTown           124.063
       361   04 Jun 2027 06:45:57.955   04 Jun 2027 06:46:13.732            15.777                Anadyr1           493.031
       362   04 Jun 2027 06:46:14.727   04 Jun 2027 06:46:43.091            28.364               Magadan1           886.375
       363   04 Jun 2027 06:47:01.294   04 Jun 2027 06:47:18.271            16.977               Magadan1           530.531
       364   04 Jun 2027 06:47:20.910   04 Jun 2027 06:48:27.966            67.056               Magadan2          2095.500
       365   04 Jun 2027 06:48:49.660   04 Jun 2027 06:50:06.134            76.474                Anadyr1          2389.812
       366   04 Jun 2027 08:21:04.419   04 Jun 2027 08:21:43.306            38.887                Anadyr1          1215.219
       367   04 Jun 2027 08:21:45.824   04 Jun 2027 08:22:40.560            54.736                Anadyr2          1710.500
       368   04 Jun 2027 08:23:06.324   04 Jun 2027 08:23:28.743            22.419               Magadan1           700.594
       369   04 Jun 2027 08:23:48.945   04 Jun 2027 08:25:12.889            83.944                Anadyr2          2623.250
       370   04 Jun 2027 08:25:20.366   04 Jun 2027 08:25:21.908             1.542               Magadan1            48.188
       371   04 Jun 2027 08:25:22.402   04 Jun 2027 08:25:24.018             1.616                Anadyr2            50.500
       372   04 Jun 2027 08:25:24.018   04 Jun 2027 08:25:34.798            10.780                Anadyr1           336.875
       373   04 Jun 2027 08:25:47.905   04 Jun 2027 08:26:25.910            38.005                Anadyr1          1187.656
       374   04 Jun 2027 08:26:33.292   04 Jun 2027 08:26:41.038             7.746               Magadan2           242.063
       375   04 Jun 2027 08:26:43.402   04 Jun 2027 08:27:22.232            38.830               Magadan1          1213.438
       376   04 Jun 2027 09:04:43.791   04 Jun 2027 09:05:13.972            30.181            RioGallegos           943.156
       377   04 Jun 2027 09:10:13.072   04 Jun 2027 09:10:26.781            13.709            RioGallegos           428.406
       378   04 Jun 2027 09:57:37.636   04 Jun 2027 09:59:25.035           107.399               Magadan2          3356.219
       379   04 Jun 2027 10:00:31.041   04 Jun 2027 10:00:45.948            14.907               Magadan1           465.844
       380   04 Jun 2027 10:00:51.765   04 Jun 2027 10:01:36.356            44.591               Magadan1          1393.469
       381   04 Jun 2027 10:01:52.836   04 Jun 2027 10:03:10.411            77.575               Magadan1          2424.219
       382   04 Jun 2027 10:03:16.958   04 Jun 2027 10:03:58.796            41.838                Norilsk          1307.438
       383   04 Jun 2027 10:04:07.199   04 Jun 2027 10:04:22.705            15.506                Norilsk           484.563
       384   04 Jun 2027 10:04:34.438   04 Jun 2027 10:05:08.999            34.561                Novosib          1080.031
       385   04 Jun 2027 10:39:30.770   04 Jun 2027 10:40:12.476            41.706            RioGallegos          1303.312
       386   04 Jun 2027 11:14:30.196   04 Jun 2027 11:15:09.453            39.257                Sumatra          1226.781
       387   04 Jun 2027 11:21:56.504   04 Jun 2027 11:22:19.615            23.111                Sumatra           722.219
       388   04 Jun 2027 11:27:29.876   04 Jun 2027 11:27:56.724            26.848                  Delhi           839.000
       389   04 Jun 2027 11:35:46.264   04 Jun 2027 11:35:51.066             4.802                Novosib           150.063
       390   04 Jun 2027 11:35:53.715   04 Jun 2027 11:37:01.862            68.147                Irkutsk          2129.594
       391   04 Jun 2027 11:38:00.876   04 Jun 2027 11:38:01.424             0.548                Irkutsk            17.125
       392   04 Jun 2027 11:38:27.584   04 Jun 2027 11:38:27.771             0.187                Norilsk             5.844
       393   04 Jun 2027 11:38:30.735   04 Jun 2027 11:38:31.118             0.383                Novosib            11.969
       394   04 Jun 2027 11:38:38.415   04 Jun 2027 11:39:03.610            25.195                Irkutsk           787.344
       395   04 Jun 2027 11:39:08.949   04 Jun 2027 11:40:14.274            65.325                Novosib          2041.406
       396   04 Jun 2027 11:40:18.628   04 Jun 2027 11:40:49.825            31.197                Novosib           974.906
       397   04 Jun 2027 12:18:21.582   04 Jun 2027 12:18:47.026            25.444            RioGallegos           795.125
       398   04 Jun 2027 12:20:15.075   04 Jun 2027 12:22:42.352           147.277            RioGallegos          4602.406
       399   04 Jun 2027 13:06:00.549   04 Jun 2027 13:06:57.748            57.199                Novosib          1787.469
       400   04 Jun 2027 13:08:46.759   04 Jun 2027 13:11:04.343           137.584                Irkutsk          4299.500
       401   04 Jun 2027 14:39:01.484   04 Jun 2027 14:41:44.353           162.869                  Delhi          5089.656
       402   04 Jun 2027 14:47:18.414   04 Jun 2027 14:49:11.947           113.533                Novosib          3547.906
       403   04 Jun 2027 14:49:26.385   04 Jun 2027 14:50:14.896            48.511                Norilsk          1515.969
       404   04 Jun 2027 14:52:08.667   04 Jun 2027 14:53:30.638            81.971                Norilsk          2561.594
       405   04 Jun 2027 15:59:11.918   04 Jun 2027 16:01:00.838           108.920               CapeTown          3403.750
       406   04 Jun 2027 16:20:30.087   04 Jun 2027 16:21:04.408            34.321                 Moscow          1072.531
       407   04 Jun 2027 16:23:07.177   04 Jun 2027 16:23:38.723            31.546              Murmansk1           985.812
       408   04 Jun 2027 16:24:35.857   04 Jun 2027 16:25:19.182            43.325              Murmansk1          1353.906
       409   04 Jun 2027 16:29:43.186   04 Jun 2027 16:31:08.377            85.191              Murmansk2          2662.219
       410   04 Jun 2027 16:37:41.171   04 Jun 2027 16:38:39.890            58.719                Anadyr1          1834.969
       411   04 Jun 2027 16:39:57.861   04 Jun 2027 16:40:30.459            32.598                Anadyr1          1018.688
       412   04 Jun 2027 16:42:21.559   04 Jun 2027 16:42:39.414            17.855                Anadyr1           557.969
       413   04 Jun 2027 17:32:24.756   04 Jun 2027 17:34:49.798           145.042               CapeTown          4532.562
       414   04 Jun 2027 18:01:56.708   04 Jun 2027 18:02:23.132            26.424              Murmansk1           825.750
       415   04 Jun 2027 18:02:23.679   04 Jun 2027 18:05:11.359           167.680              Murmansk2          5240.000
       416   04 Jun 2027 18:07:29.761   04 Jun 2027 18:07:33.632             3.871              Murmansk1           120.969
       417   04 Jun 2027 18:15:48.493   04 Jun 2027 18:15:53.879             5.386                Anadyr1           168.312
       418   04 Jun 2027 18:16:01.087   04 Jun 2027 18:16:17.783            16.696                Anadyr1           521.750
       419   04 Jun 2027 18:16:36.292   04 Jun 2027 18:17:07.685            31.393                Anadyr2           981.031
       420   04 Jun 2027 18:18:05.666   04 Jun 2027 18:18:40.523            34.857               Magadan1          1089.281
       421   04 Jun 2027 18:20:52.837   04 Jun 2027 18:21:29.033            36.196               Magadan1          1131.125
       422   04 Jun 2027 18:21:53.337   04 Jun 2027 18:22:10.029            16.692               Magadan2           521.625
       423   04 Jun 2027 19:10:25.749   04 Jun 2027 19:10:52.307            26.558               CapeTown           829.938
       424   04 Jun 2027 19:48:57.233   04 Jun 2027 19:50:37.867           100.634                Anadyr1          3144.813
       425   04 Jun 2027 19:50:38.365   04 Jun 2027 19:54:15.253           216.888                Anadyr2          6777.750
       426   04 Jun 2027 19:54:37.230   04 Jun 2027 19:56:01.477            84.247               Magadan2          2632.719
       427   04 Jun 2027 19:56:14.282   04 Jun 2027 19:56:28.503            14.221               Magadan2           444.406
       428   04 Jun 2027 21:24:50.998   04 Jun 2027 21:26:58.534           127.536                Anadyr1          3985.500
       429   04 Jun 2027 21:27:03.686   04 Jun 2027 21:28:31.760            88.074                Anadyr2          2752.313
       430   04 Jun 2027 21:28:32.843   04 Jun 2027 21:31:14.086           161.243               Magadan2          5038.844
       431   04 Jun 2027 21:31:19.762   04 Jun 2027 21:31:30.075            10.313               Magadan2           322.281
       432   04 Jun 2027 21:32:06.218   04 Jun 2027 21:32:25.319            19.101               Magadan2           596.906
       433   04 Jun 2027 21:33:11.798   04 Jun 2027 21:33:29.900            18.102               Magadan2           565.688
       434   04 Jun 2027 21:33:30.636   04 Jun 2027 21:34:19.886            49.250                Irkutsk          1539.063
       435   04 Jun 2027 21:35:40.419   04 Jun 2027 21:36:18.561            38.142                Irkutsk          1191.937
       436   04 Jun 2027 22:19:05.654   04 Jun 2027 22:20:37.524            91.870            RioGallegos          2870.937
       437   04 Jun 2027 22:24:12.758   04 Jun 2027 22:24:36.798            24.040            RioGallegos           751.250
       438   04 Jun 2027 22:27:28.059   04 Jun 2027 22:27:59.375            31.316            RioGallegos           978.625
       439   04 Jun 2027 23:00:22.517   04 Jun 2027 23:02:11.775           109.258                Anadyr1          3414.313
       440   04 Jun 2027 23:02:41.014   04 Jun 2027 23:02:54.320            13.306                Norilsk           415.812
       441   04 Jun 2027 23:03:10.283   04 Jun 2027 23:03:45.513            35.230                Anadyr1          1100.938
       442   04 Jun 2027 23:03:48.763   04 Jun 2027 23:04:31.063            42.300               Magadan2          1321.875
       443   04 Jun 2027 23:04:47.422   04 Jun 2027 23:06:06.715            79.293               Magadan2          2477.906
       444   04 Jun 2027 23:07:32.079   04 Jun 2027 23:08:03.618            31.539                Irkutsk           985.594
       445   04 Jun 2027 23:08:06.661   04 Jun 2027 23:09:39.081            92.420                Novosib          2888.125
       446   04 Jun 2027 23:20:27.017   04 Jun 2027 23:21:02.260            35.243                Sumatra          1101.344
       447   04 Jun 2027 23:24:59.590   04 Jun 2027 23:26:34.769            95.179                Sumatra          2974.344
       448   05 Jun 2027 00:04:01.722   05 Jun 2027 00:04:12.316            10.594            RioGallegos           331.063
       449   05 Jun 2027 00:34:55.712   05 Jun 2027 00:37:12.269           136.557                Anadyr1          4267.406
       450   05 Jun 2027 00:38:39.980   05 Jun 2027 00:38:43.822             3.842                Norilsk           120.062
       451   05 Jun 2027 00:39:19.497   05 Jun 2027 00:41:10.568           111.071               Magadan1          3470.969
       452   05 Jun 2027 00:42:34.070   05 Jun 2027 00:43:06.391            32.321                Irkutsk          1010.031
       453   05 Jun 2027 00:43:41.899   05 Jun 2027 00:44:42.116            60.217                Novosib          1881.781
       454   05 Jun 2027 00:44:59.539   05 Jun 2027 00:45:21.739            22.200                Novosib           693.750
       455   05 Jun 2027 00:47:22.798   05 Jun 2027 00:47:45.192            22.394                Novosib           699.813
       456   05 Jun 2027 00:50:08.822   05 Jun 2027 00:51:27.604            78.782                  Delhi          2461.938
       457   05 Jun 2027 00:52:08.267   05 Jun 2027 00:52:33.105            24.838                  Delhi           776.188
       458   05 Jun 2027 00:59:01.220   05 Jun 2027 00:59:35.876            34.656                  Delhi          1083.000
       459   05 Jun 2027 01:31:10.416   05 Jun 2027 01:31:50.550            40.134            RioGallegos          1254.188
       460   05 Jun 2027 01:33:47.222   05 Jun 2027 01:34:32.924            45.702            RioGallegos          1428.188
       461   05 Jun 2027 01:38:29.805   05 Jun 2027 01:39:15.616            45.811            RioGallegos          1431.594
       462   05 Jun 2027 02:08:21.427   05 Jun 2027 02:08:32.984            11.557                Anadyr1           361.156
       463   05 Jun 2027 02:09:53.069   05 Jun 2027 02:10:37.022            43.953                Anadyr1          1373.531
       464   05 Jun 2027 02:14:33.243   05 Jun 2027 02:15:44.889            71.646               Magadan2          2238.937
       465   05 Jun 2027 02:16:13.301   05 Jun 2027 02:16:20.141             6.840                Norilsk           213.750
       466   05 Jun 2027 02:16:56.041   05 Jun 2027 02:18:24.365            88.324              Murmansk2          2760.125
       467   05 Jun 2027 02:18:24.365   05 Jun 2027 02:18:34.143             9.778              Murmansk1           305.563
       468   05 Jun 2027 02:18:48.366   05 Jun 2027 02:19:12.711            24.345                Novosib           760.781
       469   05 Jun 2027 02:19:51.845   05 Jun 2027 02:20:02.038            10.193                Novosib           318.531
       470   05 Jun 2027 02:20:31.851   05 Jun 2027 02:20:52.296            20.445                Irkutsk           638.906
       471   05 Jun 2027 02:21:29.675   05 Jun 2027 02:21:56.099            26.424                 Moscow           825.750
       472   05 Jun 2027 02:26:22.305   05 Jun 2027 02:26:50.195            27.890                  Delhi           871.562
       473   05 Jun 2027 02:30:12.490   05 Jun 2027 02:31:00.541            48.051                  Delhi          1501.594
       474   05 Jun 2027 02:34:19.979   05 Jun 2027 02:36:14.153           114.174                  Delhi          3567.938
       475   05 Jun 2027 04:01:28.483   05 Jun 2027 04:02:22.228            53.745              Murmansk1          1679.531
       476   05 Jun 2027 04:02:24.096   05 Jun 2027 04:03:37.420            73.324                Novosib          2291.375
       477   05 Jun 2027 04:04:10.874   05 Jun 2027 04:04:37.184            26.310                 Moscow           822.187
       478   05 Jun 2027 04:04:40.860   05 Jun 2027 04:05:06.888            26.028              Murmansk1           813.375
       479   05 Jun 2027 04:05:38.364   05 Jun 2027 04:08:45.595           187.231                 Moscow          5850.969
       480   05 Jun 2027 04:20:09.467   05 Jun 2027 04:23:36.304           206.837               CapeTown          6463.656
       481   05 Jun 2027 04:29:09.647   05 Jun 2027 04:29:36.670            27.023               CapeTown           844.469
       482   05 Jun 2027 04:30:29.332   05 Jun 2027 04:32:09.192            99.860               CapeTown          3120.625
