uniorb/output/strategy_4/Drop/Drop_KinoSat_110206.txt

KinoSat_110206
-------------------------
    Access    *     Start Time (UTCG)     *     Stop Time (UTCG)  *   Duration (s)        *       Station  *  Data (Mbytes)
         1   01 Jun 2027 03:53:35.042   01 Jun 2027 03:54:12.440            37.398               Magadan2          4674.750
         2   01 Jun 2027 03:54:12.440   01 Jun 2027 03:54:36.146            23.706               Magadan1          2963.250
         3   01 Jun 2027 03:55:05.690   01 Jun 2027 03:56:36.886            91.196               Magadan1         11399.500
         4   01 Jun 2027 03:57:25.103   01 Jun 2027 03:57:42.865            17.762              Murmansk2          2220.250
         5   01 Jun 2027 03:57:42.865   01 Jun 2027 03:59:00.151            77.286              Murmansk1          9660.750
         6   01 Jun 2027 03:59:56.175   01 Jun 2027 04:00:07.273            11.098                Norilsk          1387.250
         7   01 Jun 2027 04:34:06.624   01 Jun 2027 04:34:47.763            41.139            RioGallegos          5142.375
         8   01 Jun 2027 04:40:59.626   01 Jun 2027 04:41:42.864            43.238            RioGallegos          5404.750
         9   01 Jun 2027 05:08:34.188   01 Jun 2027 05:10:11.126            96.938                Sumatra         12117.250
        10   01 Jun 2027 05:16:23.895   01 Jun 2027 05:18:07.514           103.619                Sumatra         12952.375
        11   01 Jun 2027 05:19:17.899   01 Jun 2027 05:21:40.806           142.907                  Delhi         17863.375
        12   01 Jun 2027 05:32:25.045   01 Jun 2027 05:33:11.846            46.801              Murmansk2          5850.125
        13   01 Jun 2027 05:33:12.766   01 Jun 2027 05:34:19.890            67.124                Irkutsk          8390.500
        14   01 Jun 2027 06:17:17.195   01 Jun 2027 06:18:00.012            42.817            RioGallegos          5352.125
        15   01 Jun 2027 06:53:06.379   01 Jun 2027 06:55:37.092           150.713                  Delhi         18839.125
        16   01 Jun 2027 07:08:01.626   01 Jun 2027 07:08:49.891            48.265                Novosib          6033.125
        17   01 Jun 2027 07:09:17.391   01 Jun 2027 07:11:02.571           105.180                 Moscow         13147.500
        18   01 Jun 2027 08:44:35.548   01 Jun 2027 08:45:01.191            25.643              Murmansk2          3205.375
        19   01 Jun 2027 08:45:07.918   01 Jun 2027 08:49:59.408           291.490                 Moscow         36436.250
        20   01 Jun 2027 09:51:14.397   01 Jun 2027 09:57:27.323           372.926               CapeTown         46615.750
        21   01 Jun 2027 12:11:10.160   01 Jun 2027 12:12:55.351           105.191               Magadan2         13148.875
        22   01 Jun 2027 12:13:57.350   01 Jun 2027 12:16:09.348           131.998               Magadan1         16499.750
        23   01 Jun 2027 13:45:23.512   01 Jun 2027 13:46:13.816            50.304               Magadan2          6288.000
        24   01 Jun 2027 13:48:21.313   01 Jun 2027 13:49:21.218            59.905               Magadan2          7488.125
        25   01 Jun 2027 13:53:31.575   01 Jun 2027 13:55:35.035           123.460               Magadan2         15432.500
        26   01 Jun 2027 15:25:55.338   01 Jun 2027 15:26:40.130            44.792                Irkutsk          5599.000
        27   01 Jun 2027 15:30:13.610   01 Jun 2027 15:31:52.806            99.196                Irkutsk         12399.500
        28   01 Jun 2027 15:40:44.872   01 Jun 2027 15:43:42.023           177.151                Sumatra         22143.875
        29   01 Jun 2027 17:01:22.591   01 Jun 2027 17:03:50.962           148.371                Novosib         18546.375
        30   01 Jun 2027 17:05:42.994   01 Jun 2027 17:06:12.463            29.469                Novosib          3683.625
        31   01 Jun 2027 17:06:24.608   01 Jun 2027 17:08:05.974           101.366                Novosib         12670.750
        32   01 Jun 2027 17:11:07.537   01 Jun 2027 17:13:30.748           143.211                  Delhi         17901.375
        33   01 Jun 2027 18:43:56.829   01 Jun 2027 18:44:36.186            39.357                  Delhi           841.000
        34   02 Jun 2027 04:09:37.812   02 Jun 2027 04:10:46.777            68.965                Irkutsk          8620.625
        35   02 Jun 2027 05:31:35.563   02 Jun 2027 05:33:38.808           123.245                  Delhi         15405.625
        36   02 Jun 2027 05:45:45.530   02 Jun 2027 05:48:28.679           163.149                Novosib         20393.625
        37   02 Jun 2027 05:48:28.882   02 Jun 2027 05:52:18.354           229.472              Murmansk2         28684.000
        38   02 Jun 2027 07:05:28.620   02 Jun 2027 07:11:15.245           346.625                  Delhi         43328.125
        39   02 Jun 2027 07:22:31.687   02 Jun 2027 07:25:58.423           206.736                 Moscow         25842.000
        40   02 Jun 2027 07:26:15.224   02 Jun 2027 07:27:09.379            54.155              Murmansk2          6769.375
        41   02 Jun 2027 07:27:09.379   02 Jun 2027 07:27:31.874            22.495              Murmansk1          2811.875
        42   02 Jun 2027 07:27:32.228   02 Jun 2027 07:27:53.849            21.621                Norilsk          2702.625
        43   02 Jun 2027 07:29:20.776   02 Jun 2027 07:29:35.426            14.650              Murmansk2          1831.250
        44   02 Jun 2027 08:52:32.269   02 Jun 2027 08:53:59.849            87.580                 Moscow         10947.500
        45   02 Jun 2027 08:57:16.188   02 Jun 2027 08:58:51.871            95.683                 Moscow         11960.375
        46   02 Jun 2027 08:58:55.104   02 Jun 2027 09:03:07.168           252.064                Norilsk         31508.000
        47   02 Jun 2027 09:09:44.971   02 Jun 2027 09:12:04.870           139.899                Anadyr2         17487.375
        48   02 Jun 2027 10:08:23.324   02 Jun 2027 10:08:51.893            28.569               CapeTown          3571.125
        49   02 Jun 2027 10:36:43.392   02 Jun 2027 10:38:40.955           117.563              Murmansk2         14695.375
        50   02 Jun 2027 10:38:40.955   02 Jun 2027 10:38:42.830             1.875              Murmansk1           234.375
        51   02 Jun 2027 10:43:27.057   02 Jun 2027 10:44:48.979            81.922                Anadyr2         10240.250
        52   02 Jun 2027 10:47:31.753   02 Jun 2027 10:48:34.441            62.688                Anadyr1          7836.000
        53   02 Jun 2027 10:50:10.809   02 Jun 2027 10:52:59.843           169.034                Anadyr2         21129.250
        54   02 Jun 2027 12:19:10.324   02 Jun 2027 12:19:30.330            20.006                Anadyr1          2500.750
        55   02 Jun 2027 12:22:03.727   02 Jun 2027 12:23:06.326            62.599               Magadan1          7824.875
        56   02 Jun 2027 12:24:16.040   02 Jun 2027 12:27:41.559           205.519               Magadan2         25689.875
        57   02 Jun 2027 13:57:23.405   02 Jun 2027 13:57:59.249            35.844               Magadan2          4480.500
        58   02 Jun 2027 13:58:47.503   02 Jun 2027 14:00:31.377           103.874               Magadan1         12984.250
        59   02 Jun 2027 14:54:41.511   02 Jun 2027 14:58:14.937           213.426            RioGallegos         26678.250
        60   02 Jun 2027 15:39:25.104   02 Jun 2027 15:41:51.669           146.565                Irkutsk         18320.625
        61   02 Jun 2027 15:52:02.350   02 Jun 2027 15:55:32.773           210.423                Sumatra         26302.875
        62   02 Jun 2027 17:14:06.873   02 Jun 2027 17:16:55.257           168.384                Novosib         21048.000
        63   02 Jun 2027 17:22:08.699   02 Jun 2027 17:25:16.158           187.459                  Delhi         23432.375
        64   02 Jun 2027 20:26:37.943   02 Jun 2027 20:29:35.455           177.512                 Moscow         20808.375
        65   03 Jun 2027 05:33:03.520   03 Jun 2027 05:33:16.997            13.477                Sumatra          1684.625
        66   03 Jun 2027 05:35:07.862   03 Jun 2027 05:37:13.960           126.098                Sumatra         15762.250
        67   03 Jun 2027 05:41:13.286   03 Jun 2027 05:43:48.552           155.266                  Delhi         19408.250
        68   03 Jun 2027 05:58:30.912   03 Jun 2027 05:58:45.135            14.223              Murmansk1          1777.875
        69   03 Jun 2027 05:58:52.375   03 Jun 2027 06:01:31.268           158.893                 Moscow         19861.625
        70   03 Jun 2027 06:01:38.806   03 Jun 2027 06:03:58.766           139.960                Norilsk         17495.000
        71   03 Jun 2027 06:04:20.328   03 Jun 2027 06:05:28.019            67.691              Murmansk1          8461.375
        72   03 Jun 2027 07:25:51.478   03 Jun 2027 07:30:06.726           255.248                 Moscow         31906.000
        73   03 Jun 2027 07:34:20.158   03 Jun 2027 07:36:51.710           151.552              Murmansk1         18944.000
        74   03 Jun 2027 07:36:51.710   03 Jun 2027 07:37:58.671            66.961              Murmansk2          8370.125
        75   03 Jun 2027 07:37:58.671   03 Jun 2027 07:39:34.414            95.743              Murmansk1         11967.875
        76   03 Jun 2027 07:39:35.581   03 Jun 2027 07:39:54.121            18.540                Norilsk          2317.500
        77   03 Jun 2027 07:41:10.306   03 Jun 2027 07:41:36.270            25.964              Murmansk1          3245.500
        78   03 Jun 2027 09:04:50.529   03 Jun 2027 09:06:08.270            77.741              Murmansk2          9717.625
        79   03 Jun 2027 09:11:38.374   03 Jun 2027 09:14:44.318           185.944                Norilsk         23243.000
        80   03 Jun 2027 09:20:54.667   03 Jun 2027 09:25:36.584           281.917                Anadyr1         35239.625
        81   03 Jun 2027 11:00:10.084   03 Jun 2027 11:00:28.638            18.554                Anadyr1          2319.250
        82   03 Jun 2027 11:03:08.925   03 Jun 2027 11:04:40.166            91.241                Anadyr2         11405.125
        83   03 Jun 2027 11:04:40.166   03 Jun 2027 11:04:58.377            18.211                Anadyr1          2276.375
        84   03 Jun 2027 12:23:32.459   03 Jun 2027 12:23:44.729            12.270              Murmansk2          1533.750
        85   03 Jun 2027 12:31:11.467   03 Jun 2027 12:31:29.241            17.774                Anadyr2          2221.750
        86   03 Jun 2027 12:33:55.908   03 Jun 2027 12:39:22.092           326.184               Magadan1         40773.000
        87   03 Jun 2027 14:09:23.790   03 Jun 2027 14:11:16.503           112.713               Magadan1         14089.125
        88   03 Jun 2027 15:02:07.003   03 Jun 2027 15:02:35.266            28.263            RioGallegos          3532.875
        89   03 Jun 2027 15:05:28.493   03 Jun 2027 15:06:05.194            36.701            RioGallegos          4587.625
        90   03 Jun 2027 15:49:26.491   03 Jun 2027 15:52:45.174           198.683                Irkutsk         24835.375
        91   03 Jun 2027 16:03:31.636   03 Jun 2027 16:04:57.037            85.401                Sumatra         10675.125
        92   03 Jun 2027 16:07:05.213   03 Jun 2027 16:10:37.548           212.335                Sumatra         26541.875
        93   03 Jun 2027 17:25:05.854   03 Jun 2027 17:26:36.420            90.566                Novosib         11320.750
        94   03 Jun 2027 17:33:30.171   03 Jun 2027 17:37:06.234           216.063                  Delhi         27007.875
        95   03 Jun 2027 20:38:32.239   03 Jun 2027 20:43:08.648           276.409                 Moscow         34051.875
        96   04 Jun 2027 05:53:01.072   04 Jun 2027 05:55:57.630           176.558                  Delhi         22069.750
        97   04 Jun 2027 06:11:20.244   04 Jun 2027 06:12:27.301            67.057                Novosib          8382.125
        98   04 Jun 2027 06:12:34.700   04 Jun 2027 06:15:39.061           184.361                Norilsk         23045.125
        99   04 Jun 2027 06:15:47.753   04 Jun 2027 06:17:09.773            82.020              Murmansk1         10252.500
       100   04 Jun 2027 07:30:40.356   04 Jun 2027 07:31:32.614            52.258                  Delhi          6532.250
       101   04 Jun 2027 07:32:10.404   04 Jun 2027 07:34:01.516           111.112                  Delhi         13889.000
       102   04 Jun 2027 07:39:11.596   04 Jun 2027 07:40:53.790           102.194                Novosib         12774.250
       103   04 Jun 2027 07:41:31.788   04 Jun 2027 07:42:05.529            33.741                 Moscow          4217.625
       104   04 Jun 2027 07:47:04.735   04 Jun 2027 07:51:34.650           269.915                Norilsk         33739.375
       105   04 Jun 2027 07:51:58.936   04 Jun 2027 07:53:37.328            98.392              Murmansk1         12299.000
       106   04 Jun 2027 09:14:17.922   04 Jun 2027 09:17:01.170           163.248                 Moscow         20406.000
       107   04 Jun 2027 09:17:09.127   04 Jun 2027 09:18:00.199            51.072              Murmansk2          6384.000
       108   04 Jun 2027 09:20:09.403   04 Jun 2027 09:20:53.129            43.726              Murmansk1          5465.750
       109   04 Jun 2027 09:25:14.277   04 Jun 2027 09:26:23.475            69.198              Murmansk1          8649.750
       110   04 Jun 2027 09:32:29.851   04 Jun 2027 09:36:35.563           245.712                Anadyr2         30714.000
       111   04 Jun 2027 09:37:45.060   04 Jun 2027 09:38:40.259            55.199                Anadyr1          6899.875
       112   04 Jun 2027 11:07:39.759   04 Jun 2027 11:08:14.937            35.178                Anadyr1          4397.250
       113   04 Jun 2027 11:09:09.394   04 Jun 2027 11:11:17.591           128.197                Anadyr2         16024.625
       114   04 Jun 2027 11:15:57.816   04 Jun 2027 11:18:32.667           154.851                Anadyr2         19356.375
       115   04 Jun 2027 12:36:36.853   04 Jun 2027 12:37:00.333            23.480              Murmansk2          2935.000
       116   04 Jun 2027 12:45:50.038   04 Jun 2027 12:51:08.156           318.118               Magadan2         39764.750
       117   04 Jun 2027 14:26:16.996   04 Jun 2027 14:27:10.988            53.992               Magadan1          6749.000
       118   04 Jun 2027 15:13:49.203   04 Jun 2027 15:17:59.602           250.399            RioGallegos         31299.875
       119   04 Jun 2027 16:01:17.197   04 Jun 2027 16:02:43.036            85.839                Irkutsk         10729.875
       120   04 Jun 2027 16:05:43.317   04 Jun 2027 16:05:45.744             2.427                Irkutsk           303.375
       121   04 Jun 2027 16:15:09.644   04 Jun 2027 16:19:31.391           261.747                Sumatra         32718.375
       122   04 Jun 2027 17:37:00.496   04 Jun 2027 17:38:55.683           115.187                Novosib         14398.375
       123   04 Jun 2027 17:45:02.833   04 Jun 2027 17:45:50.687            47.854                  Delhi          5981.750
       124   04 Jun 2027 17:47:04.163   04 Jun 2027 17:49:00.276           116.113                  Delhi         14514.125
       125   04 Jun 2027 19:20:10.293   04 Jun 2027 19:20:42.391            32.098                  Delhi          4012.250
       126   04 Jun 2027 20:49:03.428   04 Jun 2027 20:49:10.208             6.780              Murmansk1           847.500
       127   04 Jun 2027 20:50:28.080   04 Jun 2027 20:52:01.673            93.593                 Moscow         11699.125
       128   04 Jun 2027 20:59:26.042   04 Jun 2027 21:00:00.203            34.161                 Moscow          4270.125
       129   04 Jun 2027 21:15:02.916   04 Jun 2027 21:15:06.903             3.987               CapeTown           498.375
       130   04 Jun 2027 21:22:02.819   04 Jun 2027 21:22:14.218            11.399               CapeTown          1424.875
       131   04 Jun 2027 22:25:23.295   04 Jun 2027 22:25:34.256            10.961              Murmansk2          1370.125
       132   04 Jun 2027 22:51:24.835   04 Jun 2027 22:52:59.805            94.970               CapeTown         11871.250
       133   05 Jun 2027 03:11:22.641   05 Jun 2027 03:15:04.876           222.235                Norilsk         27779.375
       134   05 Jun 2027 04:21:01.383   05 Jun 2027 04:23:30.756           149.373                Sumatra         18671.625
       135   05 Jun 2027 04:46:48.595   05 Jun 2027 04:48:35.382           106.787                Novosib         13348.375
       136   05 Jun 2027 04:48:36.259   05 Jun 2027 04:51:50.914           194.655              Murmansk1         24331.875
       137   05 Jun 2027 05:25:42.976   05 Jun 2027 05:26:16.663            33.687            RioGallegos          4210.875
       138   05 Jun 2027 05:26:58.240   05 Jun 2027 05:28:59.783           121.543            RioGallegos         15192.875
       139   05 Jun 2027 05:31:22.525   05 Jun 2027 05:31:38.447            15.922            RioGallegos          1990.250
       140   05 Jun 2027 05:58:07.038   05 Jun 2027 05:59:53.597           106.559                Sumatra         13319.875
       141   05 Jun 2027 06:00:39.443   05 Jun 2027 06:01:40.420            60.977                Sumatra          7622.125
       142   05 Jun 2027 06:04:54.279   05 Jun 2027 06:07:56.234           181.955                  Delhi         22744.375
       143   05 Jun 2027 06:12:02.315   05 Jun 2027 06:14:52.452           170.137                Novosib         21267.125
       144   05 Jun 2027 06:15:03.375   05 Jun 2027 06:15:25.255            21.880                Irkutsk          2735.000
       145   05 Jun 2027 06:15:31.554   05 Jun 2027 06:16:30.960            59.406                Novosib          7425.750
       146   05 Jun 2027 06:17:20.609   05 Jun 2027 06:18:33.757            73.148                 Moscow          9143.500
       147   05 Jun 2027 06:22:33.929   05 Jun 2027 06:23:19.955            46.026              Murmansk2          5753.250
       148   05 Jun 2027 06:23:29.276   05 Jun 2027 06:24:25.255            55.979                Novosib          6997.375
       149   05 Jun 2027 06:24:32.312   05 Jun 2027 06:27:35.654           183.342                Norilsk         22917.750
       150   05 Jun 2027 06:27:46.121   05 Jun 2027 06:28:09.478            23.357              Murmansk2          2919.625
       151   05 Jun 2027 07:43:37.723   05 Jun 2027 07:44:11.248            33.525                  Delhi          4190.625
       152   05 Jun 2027 07:50:32.736   05 Jun 2027 07:53:46.770           194.034                 Moscow         24254.250
       153   05 Jun 2027 07:53:55.500   05 Jun 2027 07:55:06.124            70.624                Novosib          8828.000
       154   05 Jun 2027 07:58:07.583   05 Jun 2027 07:58:35.900            28.317                Novosib          3539.625
       155   05 Jun 2027 07:59:37.455   05 Jun 2027 08:02:34.178           176.723                Norilsk         22090.375
       156   05 Jun 2027 08:02:50.887   05 Jun 2027 08:05:27.224           156.337              Murmansk1         19542.125
       157   05 Jun 2027 09:05:42.830   05 Jun 2027 09:08:16.587           153.757               CapeTown         19219.625
       158   05 Jun 2027 09:28:21.516   05 Jun 2027 09:29:55.606            94.090                 Moscow         11761.250
       159   05 Jun 2027 09:30:03.059   05 Jun 2027 09:31:02.492            59.433              Murmansk1          7429.125
       160   05 Jun 2027 09:32:10.690   05 Jun 2027 09:34:45.716           155.026              Murmansk2         19378.250
       161   05 Jun 2027 09:37:15.082   05 Jun 2027 09:37:58.317            43.235              Murmansk2          5404.375
       162   05 Jun 2027 09:44:13.936   05 Jun 2027 09:50:36.563           382.627                Anadyr1         47828.375
       163   05 Jun 2027 11:08:08.709   05 Jun 2027 11:08:45.316            36.607              Murmansk1          4575.875
       164   05 Jun 2027 11:09:03.201   05 Jun 2027 11:09:53.440            50.239              Murmansk1          6279.875
       165   05 Jun 2027 11:22:44.483   05 Jun 2027 11:24:10.243            85.760                Anadyr2         10720.000
       166   05 Jun 2027 11:24:27.786   05 Jun 2027 11:26:07.773            99.987               Magadan2         12498.375
       167   05 Jun 2027 12:57:45.681   05 Jun 2027 12:59:23.940            98.259               Magadan1         12282.375
       168   05 Jun 2027 12:59:25.610   05 Jun 2027 13:02:48.017           202.407               Magadan2         25300.875
       169   05 Jun 2027 15:25:35.933   05 Jun 2027 15:28:47.070           191.137            RioGallegos         23892.125
       170   05 Jun 2027 15:29:55.700   05 Jun 2027 15:31:24.956            89.256            RioGallegos         11157.000
       171   05 Jun 2027 16:15:08.973   05 Jun 2027 16:15:39.428            30.455                Irkutsk          3806.875
       172   05 Jun 2027 16:26:54.759   05 Jun 2027 16:29:38.217           163.458                Sumatra         20432.250
       173   05 Jun 2027 17:48:56.621   05 Jun 2027 17:51:21.659           145.038                Novosib         18129.750
       174   05 Jun 2027 17:56:43.042   05 Jun 2027 18:00:57.009           253.967                  Delhi         31745.875
       175   05 Jun 2027 21:02:25.194   05 Jun 2027 21:03:39.549            74.355                 Moscow          9294.375
       176   05 Jun 2027 21:26:43.189   05 Jun 2027 21:28:07.735            84.546               CapeTown         10568.250
       177   06 Jun 2027 03:23:14.033   06 Jun 2027 03:24:17.324            63.291                Novosib          7911.375
       178   06 Jun 2027 03:24:18.970   06 Jun 2027 03:28:09.861           230.891                Norilsk         28861.375
       179   06 Jun 2027 03:28:26.317   06 Jun 2027 03:28:52.148            25.831              Murmansk1          3228.875
       180   06 Jun 2027 03:30:10.173   06 Jun 2027 03:30:37.466            27.293              Murmansk1          3411.625
       181   06 Jun 2027 03:30:39.264   06 Jun 2027 03:31:20.996            41.732              Murmansk1          5216.500
       182   06 Jun 2027 03:31:35.546   06 Jun 2027 03:31:37.868             2.322              Murmansk2           290.250
       183   06 Jun 2027 03:57:48.774   06 Jun 2027 03:58:43.909            55.135            RioGallegos          6891.875
       184   06 Jun 2027 04:32:49.677   06 Jun 2027 04:35:44.047           174.370                Sumatra         21796.250
       185   06 Jun 2027 04:59:09.834   06 Jun 2027 04:59:18.219             8.385                Norilsk          1048.125
       186   06 Jun 2027 04:59:18.330   06 Jun 2027 05:04:27.260           308.930              Murmansk2         38616.250
       187   06 Jun 2027 05:37:47.340   06 Jun 2027 05:38:26.993            39.653            RioGallegos          4956.625
       188   06 Jun 2027 05:42:09.472   06 Jun 2027 05:42:56.789            47.317            RioGallegos          5914.625
       189   06 Jun 2027 06:11:02.137   06 Jun 2027 06:13:58.714           176.577                Sumatra         22072.125
       190   06 Jun 2027 06:16:52.779   06 Jun 2027 06:18:58.063           125.284                  Delhi         15660.500
       191   06 Jun 2027 06:24:17.623   06 Jun 2027 06:27:36.844           199.221                Novosib         24902.625
       192   06 Jun 2027 06:28:13.535   06 Jun 2027 06:30:40.017           146.482                 Moscow         18310.250
       193   06 Jun 2027 06:34:55.558   06 Jun 2027 06:37:53.182           177.624                 Moscow         22203.000
       194   06 Jun 2027 06:38:12.664   06 Jun 2027 06:39:58.971           106.307              Murmansk1         13288.375
       195   06 Jun 2027 08:10:08.141   06 Jun 2027 08:10:50.634            42.493                 Moscow          5311.625
       196   06 Jun 2027 08:11:39.285   06 Jun 2027 08:15:50.838           251.553                Norilsk         31444.125
       197   06 Jun 2027 08:15:55.368   06 Jun 2027 08:17:39.928           104.560              Murmansk2         13070.000
       198   06 Jun 2027 09:16:48.656   06 Jun 2027 09:25:05.809           497.153               CapeTown         62144.125
       199   06 Jun 2027 09:38:03.175   06 Jun 2027 09:45:03.581           420.406                 Moscow         52550.750
       200   06 Jun 2027 09:45:18.942   06 Jun 2027 09:45:44.288            25.346                 Moscow          3168.250
       201   06 Jun 2027 09:45:54.186   06 Jun 2027 09:51:17.832           323.646              Murmansk1         40455.750
       202   06 Jun 2027 09:51:47.240   06 Jun 2027 09:52:04.258            17.018              Murmansk1          2127.250
       203   06 Jun 2027 09:52:18.097   06 Jun 2027 09:52:44.833            26.736              Murmansk1          3342.000
       204   06 Jun 2027 09:56:02.861   06 Jun 2027 10:00:28.157           265.296                Anadyr2         33162.000
       205   06 Jun 2027 10:00:29.461   06 Jun 2027 10:04:09.102           219.641                Anadyr1         27455.125
       206   06 Jun 2027 11:31:22.715   06 Jun 2027 11:33:48.388           145.673                Anadyr2         18209.125
       207   06 Jun 2027 11:34:17.418   06 Jun 2027 11:36:11.238           113.820                Anadyr2         14227.500
       208   06 Jun 2027 11:36:37.600   06 Jun 2027 11:39:05.307           147.707               Magadan1         18463.375
       209   06 Jun 2027 11:39:23.332   06 Jun 2027 11:40:46.716            83.384               Magadan2         10423.000
       210   06 Jun 2027 13:09:42.531   06 Jun 2027 13:10:59.342            76.811               Magadan1          9601.375
       211   06 Jun 2027 13:11:48.317   06 Jun 2027 13:15:23.711           215.394               Magadan2         26924.250
       212   06 Jun 2027 15:37:25.954   06 Jun 2027 15:41:47.896           261.942            RioGallegos         32742.750
       213   06 Jun 2027 16:25:05.182   06 Jun 2027 16:26:55.808           110.626                Irkutsk         13828.250
       214   06 Jun 2027 16:38:46.067   06 Jun 2027 16:41:48.349           182.282                Sumatra         22785.250
       215   06 Jun 2027 18:03:38.292   06 Jun 2027 18:05:38.515           120.223                Novosib         15027.875
       216   06 Jun 2027 18:10:49.262   06 Jun 2027 18:12:58.816           129.554                  Delhi         16194.250
       217   06 Jun 2027 19:47:26.855   06 Jun 2027 19:47:51.110            24.255                 Moscow          3031.875
       218   06 Jun 2027 21:11:12.157   06 Jun 2027 21:11:20.925             8.768              Murmansk1          1096.000
       219   06 Jun 2027 21:14:51.303   06 Jun 2027 21:15:23.578            32.275                 Moscow          4034.375
       220   06 Jun 2027 21:21:22.395   06 Jun 2027 21:22:28.935            66.540                 Moscow          8317.500
       221   06 Jun 2027 21:38:28.911   06 Jun 2027 21:41:18.113           169.202               CapeTown         21150.250
       222   07 Jun 2027 03:35:15.286   07 Jun 2027 03:40:10.811           295.525              Murmansk2         36940.625
       223   07 Jun 2027 04:44:43.883   07 Jun 2027 04:47:51.193           187.310                Sumatra         23413.750
       224   07 Jun 2027 05:11:10.608   07 Jun 2027 05:12:55.078           104.470                 Moscow         13058.750
       225   07 Jun 2027 05:13:10.708   07 Jun 2027 05:16:29.392           198.684              Murmansk1         24835.500
       226   07 Jun 2027 05:17:57.698   07 Jun 2027 05:18:15.954            18.256              Murmansk2          2282.000
       227   07 Jun 2027 05:49:30.111   07 Jun 2027 05:50:35.817            65.706            RioGallegos          8213.250
       228   07 Jun 2027 05:54:16.536   07 Jun 2027 05:55:02.341            45.805            RioGallegos          5725.625
       229   07 Jun 2027 05:55:40.914   07 Jun 2027 05:55:49.806             8.892            RioGallegos          1111.500
       230   07 Jun 2027 06:24:41.579   07 Jun 2027 06:26:05.070            83.491                Sumatra         10436.375
       231   07 Jun 2027 06:28:56.617   07 Jun 2027 06:31:26.116           149.499                  Delhi         18687.375
       232   07 Jun 2027 06:32:04.443   07 Jun 2027 06:34:49.610           165.167                  Delhi         20645.875
       233   07 Jun 2027 06:36:36.681   07 Jun 2027 06:40:21.273           224.592                Novosib         28074.000
       234   07 Jun 2027 06:40:22.138   07 Jun 2027 06:41:56.996            94.858                 Moscow         11857.250
       235   07 Jun 2027 06:46:55.109   07 Jun 2027 06:48:17.617            82.508                Novosib         10313.500
       236   07 Jun 2027 06:48:21.866   07 Jun 2027 06:51:26.940           185.074                Norilsk         23134.250
       237   07 Jun 2027 08:14:39.313   07 Jun 2027 08:14:45.687             6.374                 Moscow           796.750
       238   07 Jun 2027 08:22:32.121   07 Jun 2027 08:23:13.807            41.686                Norilsk          5210.750
       239   07 Jun 2027 08:23:38.671   07 Jun 2027 08:29:41.425           362.754              Murmansk2         45344.250
       240   07 Jun 2027 09:28:12.940   07 Jun 2027 09:37:26.507           553.567               CapeTown         69195.875
       241   07 Jun 2027 09:50:25.448   07 Jun 2027 09:54:47.556           262.108                 Moscow         32763.500
       242   07 Jun 2027 09:55:07.919   07 Jun 2027 10:03:14.040           486.121              Murmansk2         60765.125
       243   07 Jun 2027 10:07:54.885   07 Jun 2027 10:16:56.907           542.022                Anadyr1         67752.750
       244   07 Jun 2027 11:43:22.895   07 Jun 2027 11:43:53.085            30.190                Anadyr2          3773.750
       245   07 Jun 2027 11:46:03.963   07 Jun 2027 11:48:12.399           128.436                Anadyr1         16054.500
       246   07 Jun 2027 11:50:04.608   07 Jun 2027 11:53:40.739           216.131               Magadan2         27016.375
       247   07 Jun 2027 13:21:40.361   07 Jun 2027 13:22:42.356            61.995               Magadan2          7749.375
       248   07 Jun 2027 13:22:56.262   07 Jun 2027 13:26:24.775           208.513               Magadan1         26064.125
       249   07 Jun 2027 15:19:45.667   07 Jun 2027 15:21:55.752           130.085                Sumatra         16260.625
       250   07 Jun 2027 15:49:18.500   07 Jun 2027 15:51:16.870           118.370            RioGallegos         14796.250
       251   07 Jun 2027 15:58:48.522   07 Jun 2027 16:00:53.431           124.909            RioGallegos         15613.625
       252   07 Jun 2027 16:38:06.824   07 Jun 2027 16:38:41.320            34.496                Novosib          4312.000
       253   07 Jun 2027 16:41:45.272   07 Jun 2027 16:42:11.275            26.003                Irkutsk          3250.375
       254   07 Jun 2027 16:45:03.528   07 Jun 2027 16:45:37.754            34.226                Irkutsk          4278.250
       255   07 Jun 2027 16:50:43.099   07 Jun 2027 16:53:36.979           173.880                Sumatra         21735.000
       256   07 Jun 2027 18:16:05.108   07 Jun 2027 18:17:39.850            94.742                Novosib         11842.750
       257   07 Jun 2027 18:20:19.376   07 Jun 2027 18:23:06.837           167.461                  Delhi         20932.625
       258   07 Jun 2027 19:51:32.989   07 Jun 2027 19:53:09.697            96.708                 Moscow         12088.500
       259   07 Jun 2027 21:31:22.313   07 Jun 2027 21:33:43.555           141.242                 Moscow         17655.250
       260   07 Jun 2027 21:53:24.601   07 Jun 2027 21:53:30.657             6.056               CapeTown           757.000
       261   07 Jun 2027 21:59:50.547   07 Jun 2027 22:01:49.494           118.947               CapeTown         14645.750
       262   08 Jun 2027 03:47:27.301   08 Jun 2027 03:50:28.679           181.378              Murmansk2         22672.250
       263   08 Jun 2027 04:56:43.707   08 Jun 2027 04:59:08.762           145.055                Sumatra         18131.875
       264   08 Jun 2027 05:06:55.544   08 Jun 2027 05:07:09.488            13.944                  Delhi          1743.000
       265   08 Jun 2027 05:23:21.026   08 Jun 2027 05:28:07.869           286.843                Norilsk         35855.375
       266   08 Jun 2027 05:28:19.964   08 Jun 2027 05:29:24.061            64.097              Murmansk1          8012.125
       267   08 Jun 2027 05:29:54.918   08 Jun 2027 05:30:03.865             8.947              Murmansk1          1118.375
       268   08 Jun 2027 05:30:11.704   08 Jun 2027 05:30:14.988             3.284              Murmansk1           410.500
       269   08 Jun 2027 06:02:41.584   08 Jun 2027 06:03:07.349            25.765            RioGallegos          3220.625
       270   08 Jun 2027 06:06:16.127   08 Jun 2027 06:07:06.996            50.869            RioGallegos          6358.625
       271   08 Jun 2027 06:08:00.214   08 Jun 2027 06:08:06.319             6.105            RioGallegos           763.125
       272   08 Jun 2027 06:41:06.045   08 Jun 2027 06:47:37.728           391.683                  Delhi         48960.375
       273   08 Jun 2027 06:48:59.827   08 Jun 2027 06:49:17.717            17.890                Novosib          2236.250
       274   08 Jun 2027 06:50:42.015   08 Jun 2027 06:52:57.176           135.161                Novosib         16895.125
       275   08 Jun 2027 06:53:01.828   08 Jun 2027 06:54:24.510            82.682                 Moscow         10335.250
       276   08 Jun 2027 06:58:54.680   08 Jun 2027 07:04:28.044           333.364              Murmansk1         41670.500
       277   08 Jun 2027 08:25:19.400   08 Jun 2027 08:30:24.515           305.115                 Moscow         38139.375
       278   08 Jun 2027 08:34:43.563   08 Jun 2027 08:41:43.014           419.451              Murmansk2         52431.375
       279   08 Jun 2027 09:41:48.604   08 Jun 2027 09:46:34.612           286.008               CapeTown         35751.000
       280   08 Jun 2027 10:05:19.705   08 Jun 2027 10:06:07.107            47.402                 Moscow          5925.250
       281   08 Jun 2027 10:06:34.168   08 Jun 2027 10:06:39.895             5.727                 Moscow           715.875
       282   08 Jun 2027 10:07:02.199   08 Jun 2027 10:07:52.756            50.557                 Moscow          6319.625
       283   08 Jun 2027 10:08:15.236   08 Jun 2027 10:09:30.131            74.895              Murmansk1          9361.875
       284   08 Jun 2027 10:09:57.111   08 Jun 2027 10:10:06.212             9.101              Murmansk1          1137.625
       285   08 Jun 2027 10:11:53.494   08 Jun 2027 10:12:27.054            33.560              Murmansk1          4195.000
       286   08 Jun 2027 10:12:43.324   08 Jun 2027 10:12:54.644            11.320              Murmansk1          1415.000
       287   08 Jun 2027 10:13:05.647   08 Jun 2027 10:13:17.705            12.058              Murmansk1          1507.250
       288   08 Jun 2027 10:13:18.620   08 Jun 2027 10:15:43.220           144.600              Murmansk2         18075.000
       289   08 Jun 2027 10:19:49.069   08 Jun 2027 10:25:07.924           318.855                Anadyr1         39856.875
       290   08 Jun 2027 10:26:08.799   08 Jun 2027 10:29:20.102           191.303                Anadyr2         23912.875
       291   08 Jun 2027 11:51:27.852   08 Jun 2027 11:52:11.032            43.180              Murmansk2          5397.500
       292   08 Jun 2027 11:57:34.289   08 Jun 2027 11:58:17.105            42.816                Anadyr2          5352.000
       293   08 Jun 2027 11:58:42.753   08 Jun 2027 12:02:46.157           243.404               Magadan1         30425.500
       294   08 Jun 2027 12:03:57.949   08 Jun 2027 12:06:51.043           173.094               Magadan1         21636.750
       295   08 Jun 2027 15:19:28.433   08 Jun 2027 15:22:26.548           178.115                Irkutsk         22264.375
       296   08 Jun 2027 15:29:59.714   08 Jun 2027 15:32:12.117           132.403                Sumatra         16550.375
       297   08 Jun 2027 15:34:20.996   08 Jun 2027 15:37:08.588           167.592                Sumatra         20949.000
       298   08 Jun 2027 16:49:49.827   08 Jun 2027 16:51:58.097           128.270                Novosib         16033.750
       299   08 Jun 2027 17:01:39.126   08 Jun 2027 17:03:00.901            81.775                  Delhi         10221.875
       300   08 Jun 2027 17:12:26.427   08 Jun 2027 17:13:46.581            80.154                Sumatra         10019.250
       301   08 Jun 2027 18:32:13.746   08 Jun 2027 18:34:59.056           165.310                  Delhi         20663.750
       302   08 Jun 2027 20:03:10.304   08 Jun 2027 20:07:12.359           242.055                 Moscow         30256.875
       303   08 Jun 2027 22:02:15.588   08 Jun 2027 22:04:21.281           125.693               CapeTown         15711.625
       304   09 Jun 2027 03:35:26.202   09 Jun 2027 03:38:03.602           157.400                Sumatra           385.499
       305   09 Jun 2027 03:59:11.688   09 Jun 2027 04:01:44.324           152.636                Norilsk         19079.500
       306   09 Jun 2027 05:08:49.151   09 Jun 2027 05:10:25.308            96.157                Sumatra         12019.625
       307   09 Jun 2027 05:16:38.744   09 Jun 2027 05:18:20.688           101.944                Sumatra         12743.000
       308   09 Jun 2027 05:35:00.471   09 Jun 2027 05:36:43.077           102.606                Novosib         12825.750
       309   09 Jun 2027 05:36:44.510   09 Jun 2027 05:39:46.382           181.872              Murmansk2         22734.000
       310   09 Jun 2027 05:39:46.382   09 Jun 2027 05:40:33.626            47.244              Murmansk1          5905.500
       311   09 Jun 2027 06:53:21.522   09 Jun 2027 06:59:12.426           350.904                  Delhi         43863.000
       312   09 Jun 2027 07:02:37.538   09 Jun 2027 07:05:57.075           199.537                 Moscow         24942.125
       313   09 Jun 2027 07:10:44.516   09 Jun 2027 07:16:28.951           344.435              Murmansk2         43054.375
       314   09 Jun 2027 08:37:21.329   09 Jun 2027 08:42:44.727           323.398                 Moscow         40424.750
       315   09 Jun 2027 08:45:53.118   09 Jun 2027 08:51:34.487           341.369                Norilsk         42671.125
       316   09 Jun 2027 08:52:05.951   09 Jun 2027 08:53:41.171            95.220              Murmansk1         11902.500
       317   09 Jun 2027 09:55:35.110   09 Jun 2027 09:57:41.423           126.313               CapeTown         15789.125
       318   09 Jun 2027 10:18:43.091   09 Jun 2027 10:19:08.291            25.200              Murmansk2          3150.000
       319   09 Jun 2027 10:20:55.503   09 Jun 2027 10:21:37.198            41.695              Murmansk1          5211.875
       320   09 Jun 2027 10:21:37.198   09 Jun 2027 10:21:59.614            22.416              Murmansk2          2802.000
       321   09 Jun 2027 10:22:07.068   09 Jun 2027 10:22:32.627            25.559              Murmansk2          3194.875
       322   09 Jun 2027 10:23:04.823   09 Jun 2027 10:23:50.887            46.064              Murmansk2          5758.000
       323   09 Jun 2027 10:24:56.635   09 Jun 2027 10:26:47.683           111.048              Murmansk1         13881.000
       324   09 Jun 2027 10:27:10.417   09 Jun 2027 10:27:41.931            31.514              Murmansk2          3939.250
       325   09 Jun 2027 10:31:44.841   09 Jun 2027 10:33:38.243           113.402                Anadyr2         14175.250
       326   09 Jun 2027 10:35:03.552   09 Jun 2027 10:42:02.780           419.228                Anadyr1         52403.500
       327   09 Jun 2027 12:01:27.139   09 Jun 2027 12:01:34.131             6.992              Murmansk1           874.000
       328   09 Jun 2027 12:01:47.583   09 Jun 2027 12:02:09.973            22.390              Murmansk1          2798.750
       329   09 Jun 2027 12:02:37.579   09 Jun 2027 12:03:29.009            51.430              Murmansk2          6428.750
       330   09 Jun 2027 12:07:24.184   09 Jun 2027 12:07:46.722            22.538                Anadyr1          2817.250
       331   09 Jun 2027 12:11:26.664   09 Jun 2027 12:14:46.960           200.296               Magadan2         25037.000
       332   09 Jun 2027 12:16:24.862   09 Jun 2027 12:16:24.981             0.119               Magadan2            14.875
       333   09 Jun 2027 13:45:38.326   09 Jun 2027 13:46:20.759            42.433               Magadan1          5304.125
       334   09 Jun 2027 13:48:36.332   09 Jun 2027 13:49:36.518            60.186               Magadan2          7523.250
       335   09 Jun 2027 14:43:33.954   09 Jun 2027 14:45:25.843           111.889            RioGallegos         13986.125
       336   09 Jun 2027 15:30:22.007   09 Jun 2027 15:32:08.295           106.288                Irkutsk         13286.000
       337   09 Jun 2027 15:40:58.839   09 Jun 2027 15:43:56.744           177.905                Sumatra         22238.125
       338   09 Jun 2027 15:46:38.252   09 Jun 2027 15:49:58.523           200.271                Sumatra         25033.875
       339   09 Jun 2027 17:11:03.946   09 Jun 2027 17:11:50.182            46.236                Novosib          5779.500
       340   09 Jun 2027 17:13:45.360   09 Jun 2027 17:15:23.291            97.931                  Delhi         12241.375
       341   09 Jun 2027 17:22:42.922   09 Jun 2027 17:23:30.922            48.000                Sumatra          6000.000
       342   09 Jun 2027 18:44:11.645   09 Jun 2027 18:46:10.889           119.244                  Delhi         14905.500
       343   09 Jun 2027 18:49:22.017   09 Jun 2027 18:51:40.314           138.297                  Delhi         17287.125
       344   09 Jun 2027 20:15:00.239   09 Jun 2027 20:18:29.662           209.423                 Moscow         26177.875
       345   09 Jun 2027 22:14:16.360   09 Jun 2027 22:14:39.273            22.913               CapeTown           635.875
       346   10 Jun 2027 04:11:01.642   10 Jun 2027 04:11:11.907            10.265                Irkutsk          1283.125
       347   10 Jun 2027 05:21:00.567   10 Jun 2027 05:21:53.925            53.358                Sumatra          6669.750
       348   10 Jun 2027 05:23:15.678   10 Jun 2027 05:23:38.613            22.935                Sumatra          2866.875
       349   10 Jun 2027 05:28:45.641   10 Jun 2027 05:28:53.712             8.071                Sumatra          1008.875
       350   10 Jun 2027 05:29:45.721   10 Jun 2027 05:31:50.640           124.919                  Delhi         15614.875
       351   10 Jun 2027 05:35:33.120   10 Jun 2027 05:36:14.312            41.192                  Delhi          5149.000
       352   10 Jun 2027 05:46:36.049   10 Jun 2027 05:48:21.934           105.885              Murmansk2         13235.625
       353   10 Jun 2027 05:48:23.124   10 Jun 2027 05:48:50.743            27.619                Norilsk          3452.375
       354   10 Jun 2027 05:49:13.931   10 Jun 2027 05:49:36.869            22.938                 Moscow          2867.250
       355   10 Jun 2027 05:49:41.688   10 Jun 2027 05:52:05.320           143.632              Murmansk2         17954.000
       356   10 Jun 2027 05:52:05.320   10 Jun 2027 05:52:35.676            30.356              Murmansk1          3794.500
       357   10 Jun 2027 07:05:43.889   10 Jun 2027 07:07:39.187           115.298                  Delhi         14412.250
       358   10 Jun 2027 07:09:40.501   10 Jun 2027 07:09:51.161            10.660                  Delhi          1332.500
       359   10 Jun 2027 07:12:41.642   10 Jun 2027 07:12:58.609            16.967                  Delhi          2120.875
       360   10 Jun 2027 07:13:59.908   10 Jun 2027 07:15:42.102           102.194                  Delhi         12774.250
       361   10 Jun 2027 07:15:52.994   10 Jun 2027 07:17:01.823            68.829                Novosib          8603.625
       362   10 Jun 2027 07:17:14.309   10 Jun 2027 07:18:25.579            71.270                 Moscow          8908.750
       363   10 Jun 2027 07:22:44.487   10 Jun 2027 07:26:13.311           208.824                 Moscow         26103.000
       364   10 Jun 2027 07:26:16.505   10 Jun 2027 07:29:35.563           199.058              Murmansk2         24882.250
       365   10 Jun 2027 08:52:39.758   10 Jun 2027 08:54:14.526            94.768                 Moscow         11846.000
       366   10 Jun 2027 08:57:30.924   10 Jun 2027 08:59:02.898            91.974                 Moscow         11496.750
       367   10 Jun 2027 08:59:09.785   10 Jun 2027 09:03:21.760           251.975                Norilsk         31496.875
       368   10 Jun 2027 09:09:58.238   10 Jun 2027 09:12:21.971           143.733                Anadyr1         17966.625
       369   10 Jun 2027 10:08:38.793   10 Jun 2027 10:09:06.177            27.384               CapeTown          3423.000
       370   10 Jun 2027 10:36:58.126   10 Jun 2027 10:38:57.411           119.285              Murmansk1         14910.625
       371   10 Jun 2027 10:43:41.827   10 Jun 2027 10:50:26.259           404.432                Anadyr2         50554.000
       372   10 Jun 2027 12:19:25.164   10 Jun 2027 12:19:44.951            19.787                Anadyr2          2473.375
       373   10 Jun 2027 12:21:25.084   10 Jun 2027 12:22:36.503            71.419                Anadyr1          8927.375
       374   10 Jun 2027 12:23:08.988   10 Jun 2027 12:23:53.271            44.283               Magadan2          5535.375
       375   10 Jun 2027 12:24:29.850   10 Jun 2027 12:26:17.485           107.635               Magadan2         13454.375
       376   10 Jun 2027 13:57:38.229   10 Jun 2027 13:58:13.812            35.583               Magadan2          4447.875
       377   10 Jun 2027 13:59:02.536   10 Jun 2027 14:00:46.351           103.815               Magadan1         12976.875
       378   10 Jun 2027 14:54:54.768   10 Jun 2027 14:58:30.736           215.968            RioGallegos         26996.000
       379   10 Jun 2027 15:37:53.403   10 Jun 2027 15:39:41.246           107.843                Irkutsk         13480.375
       380   10 Jun 2027 15:52:16.561   10 Jun 2027 15:55:47.623           211.062                Sumatra         26382.750
       381   10 Jun 2027 17:13:27.721   10 Jun 2027 17:17:55.189           267.468                Novosib         33433.500
       382   10 Jun 2027 17:22:22.724   10 Jun 2027 17:25:30.881           188.157                  Delhi         23519.625
       383   10 Jun 2027 20:26:52.646   10 Jun 2027 20:29:48.887           176.241                 Moscow         22030.125
       384   10 Jun 2027 22:14:47.879   10 Jun 2027 22:15:16.174            28.295                 Moscow          3536.875
       385   10 Jun 2027 22:26:22.218   10 Jun 2027 22:27:37.182            74.964               CapeTown           309.375
       386   11 Jun 2027 05:33:18.718   11 Jun 2027 05:33:31.401            12.683                Sumatra          1585.375
       387   11 Jun 2027 05:35:22.354   11 Jun 2027 05:37:27.283           124.929                Sumatra         15616.125
       388   11 Jun 2027 05:41:27.856   11 Jun 2027 05:44:03.559           155.703                  Delhi         19462.875
       389   11 Jun 2027 05:58:47.900   11 Jun 2027 05:59:47.636            59.736              Murmansk1          7467.000
       390   11 Jun 2027 05:59:50.469   11 Jun 2027 06:01:00.860            70.391                Norilsk          8798.875
       391   11 Jun 2027 06:01:12.463   11 Jun 2027 06:01:46.224            33.761                 Moscow          4220.125
       392   11 Jun 2027 06:01:58.564   11 Jun 2027 06:05:42.897           224.333              Murmansk1         28041.625
       393   11 Jun 2027 07:26:39.882   11 Jun 2027 07:29:03.676           143.794                Novosib         17974.250
       394   11 Jun 2027 07:34:36.988   11 Jun 2027 07:41:51.110           434.122              Murmansk2         54265.250
       395   11 Jun 2027 09:04:39.467   11 Jun 2027 09:06:13.689            94.222                 Moscow         11777.750
       396   11 Jun 2027 09:11:54.459   11 Jun 2027 09:14:58.648           184.189                Norilsk         23023.625
       397   11 Jun 2027 09:21:08.904   11 Jun 2027 09:24:56.334           227.430                Anadyr2         28428.750
       398   11 Jun 2027 10:55:39.757   11 Jun 2027 10:56:43.030            63.273                Anadyr1          7909.125
       399   11 Jun 2027 11:04:57.413   11 Jun 2027 11:05:13.174            15.761                Anadyr2          1970.125
       400   11 Jun 2027 12:23:48.234   11 Jun 2027 12:26:02.562           134.328              Murmansk2         16791.000
       401   11 Jun 2027 12:31:26.310   11 Jun 2027 12:31:43.869            17.559                Anadyr2          2194.875
       402   11 Jun 2027 12:34:10.606   11 Jun 2027 12:39:36.045           325.439               Magadan2         40679.875
       403   11 Jun 2027 14:09:38.624   11 Jun 2027 14:11:31.479           112.855               Magadan1         14106.875
       404   11 Jun 2027 15:02:21.460   11 Jun 2027 15:03:09.656            48.196            RioGallegos          6024.500
       405   11 Jun 2027 15:05:33.208   11 Jun 2027 15:06:20.034            46.826            RioGallegos          5853.250
       406   11 Jun 2027 15:49:41.124   11 Jun 2027 15:50:27.008            45.884                Irkutsk          5735.500
       407   11 Jun 2027 15:53:00.834   11 Jun 2027 15:54:02.954            62.120                Irkutsk          7765.000
       408   11 Jun 2027 15:56:46.977   11 Jun 2027 15:59:08.054           141.077                Irkutsk         17634.625
       409   11 Jun 2027 16:03:46.015   11 Jun 2027 16:05:12.352            86.337                Sumatra         10792.125
       410   11 Jun 2027 16:07:21.586   11 Jun 2027 16:07:44.259            22.673                Sumatra          2834.125
       411   11 Jun 2027 17:25:20.564   11 Jun 2027 17:29:53.533           272.969                Novosib         34121.125
       412   11 Jun 2027 17:33:44.441   11 Jun 2027 17:37:21.049           216.608                  Delhi         27076.000
       413   11 Jun 2027 20:38:46.973   11 Jun 2027 20:40:48.704           121.731                 Moscow         15216.375
       414   11 Jun 2027 22:11:50.416   11 Jun 2027 22:12:08.902            18.486              Murmansk1          2310.750
       415   11 Jun 2027 22:17:13.914   11 Jun 2027 22:17:41.102            27.188                 Moscow          3398.500
       416   11 Jun 2027 22:38:33.431   11 Jun 2027 22:39:14.132            40.701               CapeTown          4255.125
       417   12 Jun 2027 05:53:15.737   12 Jun 2027 05:56:12.576           176.839                  Delhi         22104.875
       418   12 Jun 2027 06:11:23.766   12 Jun 2027 06:13:54.385           150.619                 Moscow         18827.375
       419   12 Jun 2027 06:13:55.034   12 Jun 2027 06:14:32.965            37.931              Murmansk2          4741.375
       420   12 Jun 2027 06:14:40.848   12 Jun 2027 06:16:03.382            82.534              Murmansk2         10316.750
       421   12 Jun 2027 06:16:03.382   12 Jun 2027 06:16:35.151            31.769              Murmansk1          3971.125
       422   12 Jun 2027 07:30:56.000   12 Jun 2027 07:32:25.074            89.074                  Delhi         11134.250
       423   12 Jun 2027 07:39:27.300   12 Jun 2027 07:41:08.483           101.183                Novosib         12647.875
       424   12 Jun 2027 07:41:10.530   12 Jun 2027 07:42:20.518            69.988                 Moscow          8748.500
       425   12 Jun 2027 07:46:36.263   12 Jun 2027 07:51:46.054           309.791              Murmansk2         38723.875
       426   12 Jun 2027 07:51:50.073   12 Jun 2027 07:52:08.658            18.585                Norilsk          2323.125
       427   12 Jun 2027 07:53:19.088   12 Jun 2027 07:53:52.167            33.079              Murmansk1          4134.875
       428   12 Jun 2027 09:16:01.031   12 Jun 2027 09:17:15.893            74.862                 Moscow          9357.750
       429   12 Jun 2027 09:17:24.495   12 Jun 2027 09:18:14.743            50.248              Murmansk2          6281.000
       430   12 Jun 2027 09:18:24.264   12 Jun 2027 09:18:37.056            12.792              Murmansk2          1599.000
       431   12 Jun 2027 09:20:24.057   12 Jun 2027 09:21:54.333            90.276              Murmansk2         11284.500
       432   12 Jun 2027 09:25:28.903   12 Jun 2027 09:26:38.125            69.222              Murmansk2          8652.750
       433   12 Jun 2027 09:32:44.321   12 Jun 2027 09:36:50.420           246.099                Anadyr1         30762.375
       434   12 Jun 2027 09:36:50.440   12 Jun 2027 09:38:56.076           125.636                Anadyr2         15704.500
       435   12 Jun 2027 11:07:55.955   12 Jun 2027 11:09:24.604            88.649                Anadyr1         11081.125
       436   12 Jun 2027 11:11:33.114   12 Jun 2027 11:12:24.456            51.342                Anadyr1          6417.750
       437   12 Jun 2027 12:11:45.334   12 Jun 2027 12:12:38.400            53.066               CapeTown          6633.250
       438   12 Jun 2027 12:46:04.768   12 Jun 2027 12:52:28.374           383.606               Magadan1         47950.750
       439   12 Jun 2027 15:14:03.757   12 Jun 2027 15:18:14.483           250.726            RioGallegos         31340.750
       440   12 Jun 2027 16:01:31.877   12 Jun 2027 16:02:58.352            86.475                Irkutsk         10809.375
       441   12 Jun 2027 16:05:58.759   12 Jun 2027 16:06:00.687             1.928                Irkutsk           241.000
       442   12 Jun 2027 16:15:24.157   12 Jun 2027 16:19:46.480           262.323                Sumatra         32790.375
       443   12 Jun 2027 17:37:15.237   12 Jun 2027 17:39:16.379           121.142                Novosib         15142.750
       444   12 Jun 2027 17:45:17.258   12 Jun 2027 17:49:15.171           237.913                  Delhi         29739.125
       445   12 Jun 2027 20:47:17.303   12 Jun 2027 20:47:18.366             1.063              Murmansk2           132.875
       446   12 Jun 2027 20:50:42.841   12 Jun 2027 20:52:15.983            93.142                 Moscow         11642.750
       447   12 Jun 2027 21:15:17.358   12 Jun 2027 21:15:29.146            11.788               CapeTown          1473.500
       448   12 Jun 2027 22:51:40.433   12 Jun 2027 22:53:14.462            94.029               CapeTown         11753.625
       449   13 Jun 2027 03:11:37.640   13 Jun 2027 03:14:34.429           176.789                Norilsk         22098.625
       450   13 Jun 2027 04:21:15.954   13 Jun 2027 04:25:49.717           273.763                Sumatra         34220.375
       451   13 Jun 2027 04:47:02.893   13 Jun 2027 04:48:50.255           107.362                Novosib         13420.250
       452   13 Jun 2027 04:48:53.865   13 Jun 2027 04:52:35.670           221.805              Murmansk1         27725.625
       453   13 Jun 2027 05:27:12.833   13 Jun 2027 05:27:26.133            13.300            RioGallegos          1662.500
       454   13 Jun 2027 05:29:14.207   13 Jun 2027 05:29:47.285            33.078            RioGallegos          4134.750
       455   13 Jun 2027 05:30:29.033   13 Jun 2027 05:31:05.097            36.064            RioGallegos          4508.000
       456   13 Jun 2027 05:31:37.914   13 Jun 2027 05:31:53.209            15.295            RioGallegos          1911.875
       457   13 Jun 2027 05:58:22.632   13 Jun 2027 06:00:08.331           105.699                Sumatra         13212.375
       458   13 Jun 2027 06:00:53.134   13 Jun 2027 06:01:55.340            62.206                Sumatra          7775.750
       459   13 Jun 2027 06:05:09.035   13 Jun 2027 06:08:10.204           181.169                  Delhi         22646.125
       460   13 Jun 2027 06:12:17.369   13 Jun 2027 06:16:45.728           268.359                Novosib         33544.875
       461   13 Jun 2027 06:17:32.235   13 Jun 2027 06:18:21.549            49.314                Norilsk          6164.250
       462   13 Jun 2027 06:18:30.857   13 Jun 2027 06:18:49.576            18.719                 Moscow          2339.875
       463   13 Jun 2027 06:22:39.761   13 Jun 2027 06:22:50.888            11.127              Murmansk1          1390.875
       464   13 Jun 2027 06:23:24.700   13 Jun 2027 06:24:10.488            45.788              Murmansk1          5723.500
       465   13 Jun 2027 06:24:47.804   13 Jun 2027 06:27:52.996           185.192                Norilsk         23149.000
       466   13 Jun 2027 06:28:01.729   13 Jun 2027 06:28:24.051            22.322              Murmansk2          2790.250
       467   13 Jun 2027 07:43:53.725   13 Jun 2027 07:44:15.071            21.346                  Delhi          2668.250
       468   13 Jun 2027 07:44:25.876   13 Jun 2027 07:46:39.113           133.237                  Delhi         16654.625
       469   13 Jun 2027 07:52:26.356   13 Jun 2027 07:54:56.208           149.852                Novosib         18731.500
       470   13 Jun 2027 07:58:22.711   13 Jun 2027 07:58:50.157            27.446                Novosib          3430.750
       471   13 Jun 2027 07:59:52.091   13 Jun 2027 08:02:50.172           178.081                Norilsk         22260.125
       472   13 Jun 2027 08:03:05.541   13 Jun 2027 08:03:39.496            33.955              Murmansk2          4244.375
       473   13 Jun 2027 08:03:39.496   13 Jun 2027 08:04:22.981            43.485              Murmansk1          5435.625
       474   13 Jun 2027 08:05:06.242   13 Jun 2027 08:05:53.404            47.162              Murmansk1          5895.250
       475   13 Jun 2027 09:05:56.457   13 Jun 2027 09:08:31.228           154.771               CapeTown         19346.375
       476   13 Jun 2027 09:27:51.958   13 Jun 2027 09:30:20.706           148.748                 Moscow         18593.500
       477   13 Jun 2027 09:30:33.166   13 Jun 2027 09:31:19.499            46.333              Murmansk1          5791.625
       478   13 Jun 2027 09:32:25.347   13 Jun 2027 09:34:26.323           120.976              Murmansk2         15122.000
       479   13 Jun 2027 09:34:42.929   13 Jun 2027 09:35:01.763            18.834              Murmansk2          2354.250
       480   13 Jun 2027 09:37:29.710   13 Jun 2027 09:38:14.206            44.496              Murmansk2          5562.000
       481   13 Jun 2027 09:44:28.518   13 Jun 2027 09:50:50.088           381.570                Anadyr1         47696.250
       482   13 Jun 2027 11:08:23.367   13 Jun 2027 11:10:25.875           122.508              Murmansk1         15313.500
