uniorb/output/strategy_4/Drop/Drop_KinoSat_110202.txt

KinoSat_110202
-------------------------
    Access    *     Start Time (UTCG)     *     Stop Time (UTCG)  *   Duration (s)        *       Station  *  Data (Mbytes)
         1   01 Jun 2027 03:00:13.544   01 Jun 2027 03:00:58.708            45.164               Magadan2          5645.500
         2   01 Jun 2027 03:36:02.464   01 Jun 2027 03:37:35.806            93.342            RioGallegos          8966.500
         3   01 Jun 2027 04:33:23.479   01 Jun 2027 04:34:16.554            53.075                Norilsk          6634.375
         4   01 Jun 2027 04:34:17.115   01 Jun 2027 04:34:23.372             6.257                Norilsk           782.125
         5   01 Jun 2027 04:34:25.771   01 Jun 2027 04:35:26.008            60.237                Norilsk          7529.625
         6   01 Jun 2027 04:35:38.778   01 Jun 2027 04:36:04.842            26.064              Murmansk1          3258.000
         7   01 Jun 2027 04:36:34.856   01 Jun 2027 04:37:58.431            83.575              Murmansk2         10446.875
         8   01 Jun 2027 05:14:39.694   01 Jun 2027 05:14:44.410             4.716            RioGallegos           589.500
         9   01 Jun 2027 05:15:27.207   01 Jun 2027 05:15:38.411            11.204            RioGallegos          1400.500
        10   01 Jun 2027 05:15:56.964   01 Jun 2027 05:16:25.014            28.050            RioGallegos          3506.250
        11   01 Jun 2027 05:47:54.018   01 Jun 2027 05:48:56.928            62.910                Sumatra          7863.750
        12   01 Jun 2027 05:50:03.705   01 Jun 2027 05:51:48.763           105.058                Sumatra         13132.250
        13   01 Jun 2027 05:55:17.409   01 Jun 2027 05:58:17.042           179.633                  Delhi         22454.125
        14   01 Jun 2027 06:11:13.121   01 Jun 2027 06:12:28.728            75.607                Novosib          9450.875
        15   01 Jun 2027 07:47:04.819   01 Jun 2027 07:47:16.953            12.134                Novosib          1516.750
        16   01 Jun 2027 07:47:24.209   01 Jun 2027 07:47:42.532            18.323                 Moscow          2290.375
        17   01 Jun 2027 07:47:51.686   01 Jun 2027 07:48:17.206            25.520              Murmansk2          3190.000
        18   01 Jun 2027 07:48:21.129   01 Jun 2027 07:48:23.584             2.455                Novosib           306.875
        19   01 Jun 2027 07:48:28.415   01 Jun 2027 07:48:56.062            27.647                Norilsk          3455.875
        20   01 Jun 2027 07:49:16.142   01 Jun 2027 07:50:44.629            88.487                Norilsk         11060.875
        21   01 Jun 2027 07:54:35.753   01 Jun 2027 07:55:16.702            40.949              Murmansk2          5118.625
        22   01 Jun 2027 08:57:21.110   01 Jun 2027 08:58:49.548            88.438               CapeTown         11054.750
        23   01 Jun 2027 11:10:21.514   01 Jun 2027 11:10:30.941             9.427                Anadyr1          1178.375
        24   01 Jun 2027 11:13:30.390   01 Jun 2027 11:14:41.860            71.470                Anadyr2          8933.750
        25   01 Jun 2027 11:15:08.293   01 Jun 2027 11:16:27.658            79.365                Anadyr1          9920.625
        26   01 Jun 2027 12:48:07.164   01 Jun 2027 12:50:12.643           125.479               Magadan2         15684.875
        27   01 Jun 2027 12:52:33.069   01 Jun 2027 12:53:24.023            50.954               Magadan1          6369.250
        28   01 Jun 2027 12:55:29.002   01 Jun 2027 12:59:17.980           228.978               Magadan2         28622.250
        29   01 Jun 2027 15:16:04.407   01 Jun 2027 15:20:16.747           252.340            RioGallegos         31542.500
        30   01 Jun 2027 16:05:06.519   01 Jun 2027 16:07:10.077           123.558                Irkutsk         15444.750
        31   01 Jun 2027 16:17:24.321   01 Jun 2027 16:19:43.396           139.075                Sumatra         17384.375
        32   01 Jun 2027 17:39:17.715   01 Jun 2027 17:43:55.755           278.040                Novosib         34755.000
        33   01 Jun 2027 17:48:16.085   01 Jun 2027 17:49:53.041            96.956                  Delhi          2870.875
        34   02 Jun 2027 03:13:32.737   02 Jun 2027 03:16:34.520           181.783                Norilsk         22722.875
        35   02 Jun 2027 03:49:15.786   02 Jun 2027 03:49:52.929            37.143            RioGallegos          4642.875
        36   02 Jun 2027 04:23:16.706   02 Jun 2027 04:27:54.179           277.473                Sumatra         34684.125
        37   02 Jun 2027 04:45:11.657   02 Jun 2027 04:46:24.360            72.703                Irkutsk          9087.875
        38   02 Jun 2027 04:48:54.374   02 Jun 2027 04:50:54.021           119.647                Novosib         14955.875
        39   02 Jun 2027 04:51:01.710   02 Jun 2027 04:54:20.858           199.148                Norilsk         24893.500
        40   02 Jun 2027 04:54:38.289   02 Jun 2027 04:55:55.949            77.660              Murmansk1          9707.500
        41   02 Jun 2027 05:26:19.041   02 Jun 2027 05:29:43.173           204.132            RioGallegos         25516.500
        42   02 Jun 2027 06:00:34.027   02 Jun 2027 06:04:01.526           207.499                Sumatra         25937.375
        43   02 Jun 2027 06:07:11.644   02 Jun 2027 06:08:45.671            94.027                  Delhi         11753.375
        44   02 Jun 2027 06:24:51.404   02 Jun 2027 06:26:52.395           120.991              Murmansk2         15123.875
        45   02 Jun 2027 06:26:52.693   02 Jun 2027 06:27:15.305            22.612                Norilsk          2826.500
        46   02 Jun 2027 06:27:34.012   02 Jun 2027 06:30:25.500           171.488              Murmansk2         21436.000
        47   02 Jun 2027 07:46:09.677   02 Jun 2027 07:48:47.425           157.748                  Delhi         19718.500
        48   02 Jun 2027 07:52:50.644   02 Jun 2027 07:54:24.141            93.497                 Moscow         11687.125
        49   02 Jun 2027 07:54:32.962   02 Jun 2027 07:55:23.922            50.960                 Moscow          6370.000
        50   02 Jun 2027 07:55:37.664   02 Jun 2027 07:56:09.561            31.897              Murmansk1          3987.125
        51   02 Jun 2027 07:56:13.173   02 Jun 2027 07:57:06.237            53.064                Novosib          6633.000
        52   02 Jun 2027 08:00:38.826   02 Jun 2027 08:00:58.892            20.066                 Moscow          2508.250
        53   02 Jun 2027 08:01:55.970   02 Jun 2027 08:05:01.917           185.947                Norilsk         23243.375
        54   02 Jun 2027 08:05:08.021   02 Jun 2027 08:06:09.477            61.456              Murmansk1          7682.000
        55   02 Jun 2027 08:06:09.477   02 Jun 2027 08:06:23.146            13.669              Murmansk2          1708.625
        56   02 Jun 2027 09:07:48.199   02 Jun 2027 09:10:31.585           163.386               CapeTown         20423.250
        57   02 Jun 2027 09:28:06.223   02 Jun 2027 09:32:21.514           255.291                 Moscow         31911.375
        58   02 Jun 2027 09:34:36.565   02 Jun 2027 09:34:45.241             8.676              Murmansk1          1084.500
        59   02 Jun 2027 09:35:11.218   02 Jun 2027 09:36:21.103            69.885              Murmansk1          8735.625
        60   02 Jun 2027 09:37:21.003   02 Jun 2027 09:37:22.452             1.449              Murmansk1           181.125
        61   02 Jun 2027 09:46:29.567   02 Jun 2027 09:50:48.575           259.008                Anadyr2         32376.000
        62   02 Jun 2027 09:51:11.171   02 Jun 2027 09:52:40.966            89.795                Anadyr1         11224.375
        63   02 Jun 2027 11:10:27.141   02 Jun 2027 11:11:01.640            34.499              Murmansk1          4312.375
        64   02 Jun 2027 11:24:53.114   02 Jun 2027 11:26:28.432            95.318                Anadyr2         11914.750
        65   02 Jun 2027 13:00:03.058   02 Jun 2027 13:01:36.441            93.383               Magadan2         11672.875
        66   02 Jun 2027 13:01:48.354   02 Jun 2027 13:04:42.452           174.098               Magadan1         21762.250
        67   02 Jun 2027 15:27:51.853   02 Jun 2027 15:31:18.389           206.536            RioGallegos         25817.000
        68   02 Jun 2027 16:15:27.208   02 Jun 2027 16:17:31.480           124.272                Irkutsk         15534.000
        69   02 Jun 2027 16:29:10.688   02 Jun 2027 16:31:58.723           168.035                Sumatra         21004.375
        70   02 Jun 2027 17:51:14.093   02 Jun 2027 17:52:39.213            85.120                Novosib         10640.000
        71   02 Jun 2027 17:58:57.982   02 Jun 2027 18:03:15.813           257.831                  Delhi         32228.875
        72   02 Jun 2027 21:04:42.837   02 Jun 2027 21:05:54.187            71.350                 Moscow          8918.750
        73   02 Jun 2027 21:07:26.921   02 Jun 2027 21:09:27.258           120.337                 Moscow         15042.125
        74   03 Jun 2027 03:25:29.067   03 Jun 2027 03:26:36.681            67.614                Novosib          8451.750
        75   03 Jun 2027 03:26:38.527   03 Jun 2027 03:31:27.038           288.511              Murmansk1         36063.875
        76   03 Jun 2027 03:31:49.916   03 Jun 2027 03:32:35.971            46.055              Murmansk1          5756.875
        77   03 Jun 2027 04:35:06.181   03 Jun 2027 04:38:03.955           177.774                Sumatra         22221.750
        78   03 Jun 2027 05:01:26.289   03 Jun 2027 05:01:36.579            10.290                Norilsk          1286.250
        79   03 Jun 2027 05:01:48.065   03 Jun 2027 05:02:53.400            65.335                 Moscow          8166.875
        80   03 Jun 2027 05:02:55.532   03 Jun 2027 05:06:44.752           229.220              Murmansk1         28652.500
        81   03 Jun 2027 05:40:46.863   03 Jun 2027 05:41:16.390            29.527            RioGallegos          3690.875
        82   03 Jun 2027 05:43:42.795   03 Jun 2027 05:44:18.075            35.280            RioGallegos          4410.000
        83   03 Jun 2027 05:45:43.844   03 Jun 2027 05:45:57.994            14.150            RioGallegos          1768.750
        84   03 Jun 2027 06:13:34.205   03 Jun 2027 06:16:21.279           167.074                Sumatra         20884.250
        85   03 Jun 2027 06:19:11.166   03 Jun 2027 06:21:19.665           128.499                  Delhi         16062.375
        86   03 Jun 2027 06:23:47.699   03 Jun 2027 06:24:22.381            34.682                  Delhi          4335.250
        87   03 Jun 2027 06:26:39.074   03 Jun 2027 06:28:05.278            86.204                Novosib         10775.500
        88   03 Jun 2027 06:29:07.707   03 Jun 2027 06:30:56.091           108.384                Novosib         13548.000
        89   03 Jun 2027 06:31:10.810   03 Jun 2027 06:32:15.452            64.642                 Moscow          8080.250
        90   03 Jun 2027 06:37:16.663   03 Jun 2027 06:40:12.434           175.771                 Moscow         21971.375
        91   03 Jun 2027 06:40:29.642   03 Jun 2027 06:42:01.240            91.598              Murmansk2         11449.750
        92   03 Jun 2027 06:42:01.240   03 Jun 2027 06:42:15.131            13.891              Murmansk1          1736.375
        93   03 Jun 2027 07:59:52.964   03 Jun 2027 08:01:20.126            87.162                  Delhi         10895.250
        94   03 Jun 2027 08:04:56.903   03 Jun 2027 08:06:46.626           109.723                 Moscow         13715.375
        95   03 Jun 2027 08:12:33.620   03 Jun 2027 08:13:11.892            38.272              Murmansk2          4784.000
        96   03 Jun 2027 08:14:00.619   03 Jun 2027 08:19:58.281           357.662              Murmansk1         44707.750
        97   03 Jun 2027 09:18:58.769   03 Jun 2027 09:27:34.628           515.859               CapeTown         64482.375
        98   03 Jun 2027 09:40:25.228   03 Jun 2027 09:44:33.983           248.755                 Moscow         31094.375
        99   03 Jun 2027 09:44:50.056   03 Jun 2027 09:45:51.820            61.764                 Moscow          7720.500
       100   03 Jun 2027 09:46:30.549   03 Jun 2027 09:49:40.256           189.707              Murmansk2         23713.375
       101   03 Jun 2027 09:51:02.370   03 Jun 2027 09:53:35.137           152.767              Murmansk2         19095.875
       102   03 Jun 2027 09:53:35.137   03 Jun 2027 09:53:43.825             8.688              Murmansk1          1086.000
       103   03 Jun 2027 09:54:04.760   03 Jun 2027 09:54:33.132            28.372              Murmansk1          3546.500
       104   03 Jun 2027 09:58:19.190   03 Jun 2027 10:02:45.695           266.505                Anadyr2         33313.125
       105   03 Jun 2027 10:02:45.886   03 Jun 2027 10:04:00.399            74.513                Anadyr1          9314.125
       106   03 Jun 2027 10:06:24.925   03 Jun 2027 10:06:43.547            18.622                Anadyr2          2327.750
       107   03 Jun 2027 11:25:30.008   03 Jun 2027 11:25:47.801            17.793              Murmansk2          2224.125
       108   03 Jun 2027 11:26:04.932   03 Jun 2027 11:26:33.625            28.693              Murmansk2          3586.625
       109   03 Jun 2027 11:33:40.790   03 Jun 2027 11:36:09.663           148.873                Anadyr1         18609.125
       110   03 Jun 2027 11:36:46.539   03 Jun 2027 11:37:52.741            66.202                Anadyr1          8275.250
       111   03 Jun 2027 11:38:11.070   03 Jun 2027 11:41:15.697           184.627               Magadan1         23078.375
       112   03 Jun 2027 13:12:00.115   03 Jun 2027 13:16:42.435           282.320               Magadan2         35290.000
       113   03 Jun 2027 15:39:42.409   03 Jun 2027 15:44:10.907           268.498            RioGallegos         33562.250
       114   03 Jun 2027 16:35:19.522   03 Jun 2027 16:36:28.427            68.905                Irkutsk          8613.125
       115   03 Jun 2027 16:41:03.127   03 Jun 2027 16:44:07.692           184.565                Sumatra         23070.625
       116   03 Jun 2027 18:05:00.431   03 Jun 2027 18:05:59.156            58.725                Novosib          7340.625
       117   03 Jun 2027 18:10:44.812   03 Jun 2027 18:15:17.376           272.564                  Delhi         34070.500
       118   03 Jun 2027 21:13:23.609   03 Jun 2027 21:13:38.980            15.371              Murmansk1          1921.375
       119   03 Jun 2027 21:16:41.207   03 Jun 2027 21:17:17.882            36.675                 Moscow          4584.375
       120   03 Jun 2027 21:19:53.116   03 Jun 2027 21:21:28.583            95.467                 Moscow         11933.375
       121   03 Jun 2027 21:43:37.664   03 Jun 2027 21:44:36.546            58.882               CapeTown          7360.250
       122   04 Jun 2027 03:17:22.773   04 Jun 2027 03:18:30.945            68.172                Sumatra          8521.500
       123   04 Jun 2027 03:37:35.306   04 Jun 2027 03:42:28.863           293.557              Murmansk1         36694.625
       124   04 Jun 2027 04:47:01.488   04 Jun 2027 04:50:09.981           188.493                Sumatra         23561.625
       125   04 Jun 2027 05:13:07.543   04 Jun 2027 05:13:12.318             4.775                Novosib           596.875
       126   04 Jun 2027 05:13:41.821   04 Jun 2027 05:14:58.757            76.936                Novosib          9617.000
       127   04 Jun 2027 05:15:27.110   04 Jun 2027 05:18:46.884           199.774              Murmansk2         24971.750
       128   04 Jun 2027 05:52:00.255   04 Jun 2027 05:53:20.051            79.796            RioGallegos          9974.500
       129   04 Jun 2027 05:58:09.918   04 Jun 2027 05:58:27.512            17.594            RioGallegos          2199.250
       130   04 Jun 2027 06:27:37.541   04 Jun 2027 06:29:50.086           132.545                Sumatra         16568.125
       131   04 Jun 2027 06:31:16.066   04 Jun 2027 06:33:48.803           152.737                  Delhi         19092.125
       132   04 Jun 2027 06:38:23.615   04 Jun 2027 06:39:47.496            83.881                  Delhi         10485.125
       133   04 Jun 2027 06:39:47.924   04 Jun 2027 06:43:05.394           197.470                Novosib         24683.750
       134   04 Jun 2027 06:43:42.233   04 Jun 2027 06:44:38.592            56.359              Murmansk1          7044.875
       135   04 Jun 2027 06:49:10.485   04 Jun 2027 06:50:34.645            84.160                Novosib         10520.000
       136   04 Jun 2027 06:50:38.745   04 Jun 2027 06:53:43.034           184.289                Norilsk         23036.125
       137   04 Jun 2027 08:16:38.781   04 Jun 2027 08:17:38.221            59.440                 Moscow          7430.000
       138   04 Jun 2027 08:25:54.506   04 Jun 2027 08:31:59.796           365.290              Murmansk1         45661.250
       139   04 Jun 2027 09:30:25.437   04 Jun 2027 09:40:21.064           595.627               CapeTown         74453.375
       140   04 Jun 2027 09:52:48.316   04 Jun 2027 10:04:00.443           672.127                 Moscow         84015.875
       141   04 Jun 2027 10:04:19.408   04 Jun 2027 10:06:47.233           147.825              Murmansk2         18478.125
       142   04 Jun 2027 10:07:09.122   04 Jun 2027 10:07:17.308             8.186              Murmansk2          1023.250
       143   04 Jun 2027 10:10:11.690   04 Jun 2027 10:19:22.044           550.354                Anadyr2         68794.250
       144   04 Jun 2027 11:45:41.043   04 Jun 2027 11:48:17.475           156.432                Anadyr2         19554.000
       145   04 Jun 2027 11:49:16.049   04 Jun 2027 11:55:33.729           377.680               Magadan2         47210.000
       146   04 Jun 2027 13:23:58.113   04 Jun 2027 13:28:42.902           284.789               Magadan2         35598.625
       147   04 Jun 2027 15:21:35.615   04 Jun 2027 15:24:19.316           163.701                Sumatra         20462.625
       148   04 Jun 2027 15:51:35.377   04 Jun 2027 15:53:39.424           124.047            RioGallegos         15505.875
       149   04 Jun 2027 16:39:19.209   04 Jun 2027 16:40:41.779            82.570                Irkutsk         10321.250
       150   04 Jun 2027 16:47:21.703   04 Jun 2027 16:47:36.585            14.882                Irkutsk          1860.250
       151   04 Jun 2027 16:53:01.237   04 Jun 2027 16:55:43.471           162.234                Sumatra         20279.250
       152   04 Jun 2027 17:02:38.253   04 Jun 2027 17:04:09.039            90.786                Sumatra         11348.250
       153   04 Jun 2027 18:22:36.067   04 Jun 2027 18:25:27.556           171.489                  Delhi         21436.125
       154   04 Jun 2027 18:31:18.274   04 Jun 2027 18:32:06.367            48.093                  Delhi          6011.625
       155   04 Jun 2027 19:53:38.871   04 Jun 2027 19:55:40.739           121.868                 Moscow         15233.500
       156   04 Jun 2027 21:52:36.639   04 Jun 2027 21:55:38.736           182.097               CapeTown         22762.125
       157   04 Jun 2027 22:04:13.772   04 Jun 2027 22:04:36.719            22.947               CapeTown          2868.375
       158   05 Jun 2027 03:26:42.715   05 Jun 2027 03:28:36.260           113.545                Sumatra          8079.376
       159   05 Jun 2027 03:49:35.273   05 Jun 2027 03:52:57.071           201.798                Norilsk         25224.750
       160   05 Jun 2027 04:59:02.387   05 Jun 2027 05:01:17.240           134.853                Sumatra         16856.625
       161   05 Jun 2027 05:06:46.891   05 Jun 2027 05:08:41.667           114.776                Sumatra         14347.000
       162   05 Jun 2027 05:24:20.565   05 Jun 2027 05:24:44.528            23.963              Murmansk1          2995.375
       163   05 Jun 2027 05:25:31.813   05 Jun 2027 05:25:49.789            17.976              Murmansk2          2247.000
       164   05 Jun 2027 05:25:49.789   05 Jun 2027 05:26:13.318            23.529              Murmansk1          2941.125
       165   05 Jun 2027 05:26:15.237   05 Jun 2027 05:27:33.409            78.172                 Moscow          9771.500
       166   05 Jun 2027 05:27:41.442   05 Jun 2027 05:30:26.305           164.863                Norilsk         20607.875
       167   05 Jun 2027 05:30:35.663   05 Jun 2027 05:30:42.125             6.462              Murmansk1           807.750
       168   05 Jun 2027 06:05:17.003   05 Jun 2027 06:05:27.173            10.170            RioGallegos          1271.250
       169   05 Jun 2027 06:43:26.615   05 Jun 2027 06:49:58.219           391.604                  Delhi         48950.500
       170   05 Jun 2027 06:51:22.882   05 Jun 2027 06:51:33.197            10.315                Novosib          1289.375
       171   05 Jun 2027 06:52:58.974   05 Jun 2027 06:54:34.857            95.883                Novosib         11985.375
       172   05 Jun 2027 06:54:44.727   05 Jun 2027 06:56:42.304           117.577                 Moscow         14697.125
       173   05 Jun 2027 07:01:09.682   05 Jun 2027 07:02:28.184            78.502                Novosib          9812.750
       174   05 Jun 2027 07:02:28.189   05 Jun 2027 07:06:45.353           257.164              Murmansk1         32145.500
       175   05 Jun 2027 08:32:03.920   05 Jun 2027 08:32:41.183            37.263                 Moscow          4657.875
       176   05 Jun 2027 08:36:17.475   05 Jun 2027 08:41:59.211           341.736                Norilsk         42717.000
       177   05 Jun 2027 08:42:25.095   05 Jun 2027 08:44:01.399            96.304              Murmansk1         12038.000
       178   05 Jun 2027 09:42:54.377   05 Jun 2027 09:48:40.233           345.856               CapeTown         43232.000
       179   05 Jun 2027 10:06:33.780   05 Jun 2027 10:07:03.534            29.754                 Moscow          3719.250
       180   05 Jun 2027 10:07:38.551   05 Jun 2027 10:09:01.287            82.736                 Moscow         10342.000
       181   05 Jun 2027 10:09:32.891   05 Jun 2027 10:09:41.034             8.143              Murmansk1          1017.875
       182   05 Jun 2027 10:10:33.698   05 Jun 2027 10:11:12.858            39.160              Murmansk2          4895.000
       183   05 Jun 2027 10:12:04.709   05 Jun 2027 10:12:26.759            22.050              Murmansk2          2756.250
       184   05 Jun 2027 10:15:37.052   05 Jun 2027 10:17:29.360           112.308              Murmansk1         14038.500
       185   05 Jun 2027 10:17:57.129   05 Jun 2027 10:18:13.803            16.674              Murmansk1          2084.250
       186   05 Jun 2027 10:18:34.948   05 Jun 2027 10:19:00.360            25.412              Murmansk1          3176.500
       187   05 Jun 2027 10:22:06.219   05 Jun 2027 10:27:23.608           317.389                Anadyr2         39673.625
       188   05 Jun 2027 10:28:31.060   05 Jun 2027 10:31:56.141           205.081                Anadyr1         25635.125
       189   05 Jun 2027 11:52:35.843   05 Jun 2027 11:53:00.201            24.358              Murmansk2          3044.750
       190   05 Jun 2027 11:53:46.059   05 Jun 2027 11:54:29.530            43.471              Murmansk2          5433.875
       191   05 Jun 2027 11:55:16.346   05 Jun 2027 11:55:31.378            15.032              Murmansk2          1879.000
       192   05 Jun 2027 11:57:41.609   05 Jun 2027 11:58:46.566            64.957                Anadyr2          8119.625
       193   05 Jun 2027 11:59:47.857   05 Jun 2027 12:00:37.442            49.585                Anadyr1          6198.125
       194   05 Jun 2027 12:00:57.770   05 Jun 2027 12:04:58.513           240.743               Magadan1         30092.875
       195   05 Jun 2027 12:07:22.542   05 Jun 2027 12:09:18.031           115.489               Magadan1         14436.125
       196   05 Jun 2027 13:35:56.893   05 Jun 2027 13:38:44.234           167.341               Magadan2         20917.625
       197   05 Jun 2027 15:22:05.400   05 Jun 2027 15:24:54.822           169.422                Irkutsk         21177.750
       198   05 Jun 2027 15:32:03.954   05 Jun 2027 15:34:26.658           142.704                Sumatra         17838.000
       199   05 Jun 2027 16:52:05.175   05 Jun 2027 16:54:30.748           145.573                Novosib         18196.625
       200   05 Jun 2027 17:01:29.905   05 Jun 2027 17:01:39.472             9.567                Novosib          1195.875
       201   05 Jun 2027 17:03:07.732   05 Jun 2027 17:06:11.372           183.640                  Delhi         22955.000
       202   05 Jun 2027 18:31:43.910   05 Jun 2027 18:33:39.097           115.187                Novosib         14398.375
       203   05 Jun 2027 18:34:31.144   05 Jun 2027 18:37:06.106           154.962                  Delhi         19370.250
       204   05 Jun 2027 20:05:35.517   05 Jun 2027 20:07:54.706           139.189                 Moscow         17398.625
       205   05 Jun 2027 20:12:09.818   05 Jun 2027 20:14:52.906           163.088                 Moscow         20386.000
       206   05 Jun 2027 22:09:28.380   05 Jun 2027 22:09:51.799            23.419               CapeTown          2927.375
       207   06 Jun 2027 03:37:33.087   06 Jun 2027 03:40:18.792           165.705                Sumatra           582.000
       208   06 Jun 2027 04:01:24.098   06 Jun 2027 04:02:53.570            89.472                Novosib         11184.000
       209   06 Jun 2027 05:11:08.948   06 Jun 2027 05:12:36.520            87.572                Sumatra         10946.500
       210   06 Jun 2027 05:18:58.662   06 Jun 2027 05:20:17.294            78.632                Sumatra          9829.000
       211   06 Jun 2027 05:20:22.772   06 Jun 2027 05:21:54.945            92.173                  Delhi         11521.625
       212   06 Jun 2027 05:35:55.637   06 Jun 2027 05:36:28.003            32.366                 Moscow          4045.750
       213   06 Jun 2027 05:37:23.798   06 Jun 2027 05:39:01.284            97.486                Novosib         12185.750
       214   06 Jun 2027 05:39:03.019   06 Jun 2027 05:42:28.225           205.206                Norilsk         25650.750
       215   06 Jun 2027 05:42:33.699   06 Jun 2027 05:42:51.112            17.413              Murmansk2          2176.625
       216   06 Jun 2027 06:55:43.343   06 Jun 2027 06:55:57.923            14.580                  Delhi          1822.500
       217   06 Jun 2027 06:58:07.749   06 Jun 2027 07:00:05.601           117.852                  Delhi         14731.500
       218   06 Jun 2027 07:04:52.108   06 Jun 2027 07:08:08.095           195.987                 Moscow         24498.375
       219   06 Jun 2027 07:13:00.099   06 Jun 2027 07:18:46.215           346.116              Murmansk1         43264.500
       220   06 Jun 2027 08:39:40.110   06 Jun 2027 08:43:32.482           232.372                 Moscow         29046.500
       221   06 Jun 2027 08:43:36.181   06 Jun 2027 08:43:55.034            18.853              Murmansk1          2356.625
       222   06 Jun 2027 08:44:35.350   06 Jun 2027 08:45:33.706            58.356                 Moscow          7294.500
       223   06 Jun 2027 08:48:11.638   06 Jun 2027 08:49:18.751            67.113                 Moscow          8389.125
       224   06 Jun 2027 08:49:29.831   06 Jun 2027 08:53:27.714           237.883                Norilsk         29735.375
       225   06 Jun 2027 08:53:36.600   06 Jun 2027 08:54:22.631            46.031              Murmansk2          5753.875
       226   06 Jun 2027 09:58:07.596   06 Jun 2027 09:59:51.653           104.057               CapeTown         13007.125
       227   06 Jun 2027 10:20:38.409   06 Jun 2027 10:20:58.161            19.752              Murmansk1          2469.000
       228   06 Jun 2027 10:22:35.356   06 Jun 2027 10:23:13.860            38.504              Murmansk2          4813.000
       229   06 Jun 2027 10:23:52.015   06 Jun 2027 10:24:13.404            21.389              Murmansk2          2673.625
       230   06 Jun 2027 10:24:49.035   06 Jun 2027 10:25:22.076            33.041              Murmansk1          4130.125
       231   06 Jun 2027 10:26:08.370   06 Jun 2027 10:26:45.817            37.447              Murmansk2          4680.875
       232   06 Jun 2027 10:27:04.057   06 Jun 2027 10:29:07.624           123.567              Murmansk2         15445.875
       233   06 Jun 2027 10:29:21.852   06 Jun 2027 10:30:23.041            61.189              Murmansk1          7648.625
       234   06 Jun 2027 10:34:02.250   06 Jun 2027 10:35:47.489           105.239                Anadyr2         13154.875
       235   06 Jun 2027 10:36:03.943   06 Jun 2027 10:43:34.441           450.498                Anadyr1         56312.250
       236   06 Jun 2027 12:04:28.413   06 Jun 2027 12:04:29.305             0.892              Murmansk1           111.500
       237   06 Jun 2027 12:04:53.641   06 Jun 2027 12:05:47.249            53.608              Murmansk1          6701.000
       238   06 Jun 2027 12:09:42.428   06 Jun 2027 12:10:04.460            22.032                Anadyr2          2754.000
       239   06 Jun 2027 12:11:14.659   06 Jun 2027 12:11:29.723            15.064                Anadyr2          1883.000
       240   06 Jun 2027 12:13:41.053   06 Jun 2027 12:15:43.848           122.795               Magadan1         15349.375
       241   06 Jun 2027 13:47:56.337   06 Jun 2027 13:50:56.559           180.222               Magadan1         22527.750
       242   06 Jun 2027 14:45:45.625   06 Jun 2027 14:47:58.057           132.432            RioGallegos         16554.000
       243   06 Jun 2027 15:32:18.377   06 Jun 2027 15:34:30.778           132.401                Irkutsk         16550.125
       244   06 Jun 2027 15:43:07.601   06 Jun 2027 15:46:12.540           184.939                Sumatra         23117.375
       245   06 Jun 2027 15:48:58.783   06 Jun 2027 15:52:09.455           190.672                Sumatra         23834.000
       246   06 Jun 2027 17:13:25.407   06 Jun 2027 17:16:00.192           154.785                  Delhi         19348.125
       247   06 Jun 2027 18:42:26.653   06 Jun 2027 18:44:02.714            96.061                Novosib         12007.625
       248   06 Jun 2027 18:46:29.695   06 Jun 2027 18:47:22.224            52.529                  Delhi          6566.125
       249   06 Jun 2027 18:53:54.675   06 Jun 2027 18:56:05.423           130.748                  Delhi         16343.500
       250   06 Jun 2027 20:18:10.641   06 Jun 2027 20:20:58.964           168.323                 Moscow         21040.375
       251   06 Jun 2027 22:04:49.949   06 Jun 2027 22:05:35.306            45.357                 Moscow          4189.875
       252   07 Jun 2027 04:13:18.989   07 Jun 2027 04:13:43.127            24.138                Norilsk          3017.250
       253   07 Jun 2027 05:23:21.581   07 Jun 2027 05:24:07.046            45.465                Sumatra          5683.125
       254   07 Jun 2027 05:25:39.430   07 Jun 2027 05:27:55.752           136.322                Sumatra         17040.250
       255   07 Jun 2027 05:34:11.543   07 Jun 2027 05:36:12.055           120.512                  Delhi         15064.000
       256   07 Jun 2027 05:48:32.702   07 Jun 2027 05:49:33.555            60.853                Novosib          7606.625
       257   07 Jun 2027 05:49:42.825   07 Jun 2027 05:51:17.371            94.546                Norilsk         11818.250
       258   07 Jun 2027 05:51:21.792   07 Jun 2027 05:51:56.863            35.071                 Moscow          4383.875
       259   07 Jun 2027 05:51:58.946   07 Jun 2027 05:54:22.942           143.996              Murmansk2         17999.500
       260   07 Jun 2027 07:08:07.172   07 Jun 2027 07:08:41.547            34.375                  Delhi          4296.875
       261   07 Jun 2027 07:09:54.259   07 Jun 2027 07:11:45.129           110.870                  Delhi         13858.750
       262   07 Jun 2027 07:16:35.572   07 Jun 2027 07:16:53.248            17.676                 Moscow          2209.500
       263   07 Jun 2027 07:17:32.615   07 Jun 2027 07:19:54.113           141.498                Novosib         17687.250
       264   07 Jun 2027 07:25:01.269   07 Jun 2027 07:26:08.197            66.928                Novosib          8366.000
       265   07 Jun 2027 07:26:14.598   07 Jun 2027 07:29:40.715           206.117              Murmansk1         25764.625
       266   07 Jun 2027 07:29:40.715   07 Jun 2027 07:31:16.634            95.919              Murmansk2         11989.875
       267   07 Jun 2027 07:31:16.634   07 Jun 2027 07:32:08.479            51.845              Murmansk1          6480.625
       268   07 Jun 2027 08:54:57.831   07 Jun 2027 08:57:24.609           146.778                 Moscow         18347.250
       269   07 Jun 2027 08:59:37.113   07 Jun 2027 09:04:32.059           294.946                 Moscow         36868.250
       270   07 Jun 2027 09:04:42.139   07 Jun 2027 09:05:06.428            24.289              Murmansk1          3036.125
       271   07 Jun 2027 09:05:15.756   07 Jun 2027 09:05:36.470            20.714                Norilsk          2589.250
       272   07 Jun 2027 09:12:02.327   07 Jun 2027 09:15:02.217           179.890                Anadyr2         22486.250
       273   07 Jun 2027 10:11:06.920   07 Jun 2027 10:11:18.753            11.833               CapeTown          1479.125
       274   07 Jun 2027 10:39:40.091   07 Jun 2027 10:41:17.895            97.804              Murmansk1         12225.500
       275   07 Jun 2027 10:45:59.431   07 Jun 2027 10:47:16.732            77.301                Anadyr2          9662.625
       276   07 Jun 2027 10:50:12.974   07 Jun 2027 10:51:05.892            52.918                Anadyr1          6614.750
       277   07 Jun 2027 10:52:56.659   07 Jun 2027 10:55:32.363           155.704                Anadyr2         19463.000
       278   07 Jun 2027 12:15:02.482   07 Jun 2027 12:15:25.012            22.530              Murmansk2          2816.250
       279   07 Jun 2027 12:15:37.592   07 Jun 2027 12:16:08.921            31.329              Murmansk1          3916.125
       280   07 Jun 2027 12:16:23.900   07 Jun 2027 12:16:47.845            23.945              Murmansk2          2993.125
       281   07 Jun 2027 12:17:48.591   07 Jun 2027 12:18:17.507            28.916              Murmansk2          3614.500
       282   07 Jun 2027 12:19:18.947   07 Jun 2027 12:19:21.322             2.375              Murmansk1           296.875
       283   07 Jun 2027 12:21:43.449   07 Jun 2027 12:23:39.520           116.071                Anadyr1         14508.875
       284   07 Jun 2027 12:24:34.780   07 Jun 2027 12:29:01.275           266.495               Magadan1         33311.875
       285   07 Jun 2027 14:04:46.578   07 Jun 2027 14:04:52.421             5.843               Magadan2           730.375
       286   07 Jun 2027 14:57:02.977   07 Jun 2027 14:58:13.082            70.105            RioGallegos          8763.125
       287   07 Jun 2027 15:40:08.826   07 Jun 2027 15:44:23.761           254.935                Irkutsk         31866.875
       288   07 Jun 2027 15:54:27.941   07 Jun 2027 15:58:04.549           216.608                Sumatra         27076.000
       289   07 Jun 2027 16:01:08.251   07 Jun 2027 16:02:24.981            76.730                Sumatra          9591.250
       290   07 Jun 2027 17:16:46.414   07 Jun 2027 17:20:12.805           206.391                Novosib         25798.875
       291   07 Jun 2027 17:24:32.254   07 Jun 2027 17:27:46.668           194.414                  Delhi         24301.750
       292   07 Jun 2027 20:29:09.487   07 Jun 2027 20:31:50.695           161.208                 Moscow         20151.000
       293   07 Jun 2027 22:09:34.795   07 Jun 2027 22:10:32.018            57.223                 Moscow          5733.625
       294   08 Jun 2027 05:35:41.181   08 Jun 2027 05:35:46.027             4.846                Sumatra           605.750
       295   08 Jun 2027 05:37:36.476   08 Jun 2027 05:39:29.100           112.624                Sumatra         14078.000
       296   08 Jun 2027 05:43:43.150   08 Jun 2027 05:46:23.662           160.512                  Delhi         20064.000
       297   08 Jun 2027 06:01:05.441   08 Jun 2027 06:02:13.273            67.832              Murmansk2          8479.000
       298   08 Jun 2027 06:02:18.667   08 Jun 2027 06:03:17.254            58.587                Norilsk          7323.375
       299   08 Jun 2027 06:03:17.888   08 Jun 2027 06:04:05.959            48.071                 Moscow          6008.875
       300   08 Jun 2027 06:04:15.873   08 Jun 2027 06:06:21.671           125.798              Murmansk2         15724.750
       301   08 Jun 2027 07:22:40.190   08 Jun 2027 07:24:21.458           101.268                  Delhi         12658.500
       302   08 Jun 2027 07:29:31.625   08 Jun 2027 07:31:22.533           110.908                Novosib         13863.500
       303   08 Jun 2027 07:32:38.204   08 Jun 2027 07:32:39.224             1.020                 Moscow           127.500
       304   08 Jun 2027 07:36:54.937   08 Jun 2027 07:44:09.369           434.432              Murmansk1         54304.000
       305   08 Jun 2027 09:07:09.165   08 Jun 2027 09:08:31.972            82.807                 Moscow         10350.875
       306   08 Jun 2027 09:10:57.334   08 Jun 2027 09:11:14.932            17.598              Murmansk2          2199.750
       307   08 Jun 2027 09:12:00.447   08 Jun 2027 09:12:48.891            48.444              Murmansk2          6055.500
       308   08 Jun 2027 09:15:46.567   08 Jun 2027 09:17:16.811            90.244              Murmansk2         11280.500
       309   08 Jun 2027 09:23:21.185   08 Jun 2027 09:28:24.231           303.046                Anadyr2         37880.750
       310   08 Jun 2027 10:57:57.522   08 Jun 2027 10:58:58.116            60.594                Anadyr2          7574.250
       311   08 Jun 2027 11:02:07.314   08 Jun 2027 11:03:00.461            53.147                Anadyr1          6643.375
       312   08 Jun 2027 12:26:17.690   08 Jun 2027 12:28:31.767           134.077              Murmansk1         16759.625
       313   08 Jun 2027 12:33:49.281   08 Jun 2027 12:34:01.871            12.590                Anadyr2          1573.750
       314   08 Jun 2027 12:36:27.416   08 Jun 2027 12:41:51.634           324.218               Magadan2         40527.250
       315   08 Jun 2027 14:11:56.821   08 Jun 2027 14:12:25.899            29.078               Magadan2          3634.750
       316   08 Jun 2027 14:16:48.397   08 Jun 2027 14:16:51.206             2.809               Magadan1           351.125
       317   08 Jun 2027 14:20:52.042   08 Jun 2027 14:21:32.024            39.982               Magadan2          4997.750
       318   08 Jun 2027 15:04:35.675   08 Jun 2027 15:06:08.605            92.930            RioGallegos         11616.250
       319   08 Jun 2027 15:07:13.784   08 Jun 2027 15:08:36.830            83.046            RioGallegos         10380.750
       320   08 Jun 2027 15:10:38.763   08 Jun 2027 15:11:20.388            41.625            RioGallegos          5203.125
       321   08 Jun 2027 15:51:57.203   08 Jun 2027 15:52:51.605            54.402                Irkutsk          6800.250
       322   08 Jun 2027 15:56:20.431   08 Jun 2027 15:57:38.950            78.519                Irkutsk          9814.875
       323   08 Jun 2027 16:05:59.247   08 Jun 2027 16:10:00.408           241.161                Sumatra         30145.125
       324   08 Jun 2027 17:27:37.477   08 Jun 2027 17:29:14.896            97.419                Novosib         12177.375
       325   08 Jun 2027 17:35:56.547   08 Jun 2027 17:39:37.640           221.093                  Delhi         27636.625
       326   08 Jun 2027 19:12:51.680   08 Jun 2027 19:13:35.302            43.622                  Delhi          5452.750
       327   08 Jun 2027 20:38:50.284   08 Jun 2027 20:39:20.528            30.244              Murmansk2          3780.500
       328   08 Jun 2027 20:41:04.137   08 Jun 2027 20:42:59.210           115.073                 Moscow         14384.125
       329   08 Jun 2027 21:13:22.714   08 Jun 2027 21:15:10.136           107.422               CapeTown         10050.750
       330   09 Jun 2027 04:11:48.123   09 Jun 2027 04:16:03.203           255.080                Sumatra         31885.000
       331   09 Jun 2027 05:50:18.504   09 Jun 2027 05:52:03.611           105.107                Sumatra         13138.375
       332   09 Jun 2027 05:55:32.096   09 Jun 2027 05:56:04.445            32.349                  Delhi          4043.625
       333   09 Jun 2027 05:58:31.972   09 Jun 2027 05:59:16.856            44.884                  Delhi          5610.500
       334   09 Jun 2027 06:13:42.267   09 Jun 2027 06:16:13.924           151.657                 Moscow         18957.125
       335   09 Jun 2027 06:16:25.834   09 Jun 2027 06:16:50.502            24.668              Murmansk2          3083.500
       336   09 Jun 2027 06:16:57.539   09 Jun 2027 06:18:51.059           113.520              Murmansk1         14190.000
       337   09 Jun 2027 07:33:23.699   09 Jun 2027 07:36:38.427           194.728                  Delhi         24341.000
       338   09 Jun 2027 07:41:55.711   09 Jun 2027 07:43:27.933            92.222                Novosib         11527.750
       339   09 Jun 2027 07:43:29.670   09 Jun 2027 07:44:38.630            68.960                 Moscow          8620.000
       340   09 Jun 2027 07:49:45.204   09 Jun 2027 07:54:26.587           281.383                Norilsk         35172.875
       341   09 Jun 2027 09:16:37.995   09 Jun 2027 09:19:35.129           177.134                 Moscow         22141.750
       342   09 Jun 2027 09:19:35.178   09 Jun 2027 09:24:46.179           311.001              Murmansk1         38875.125
       343   09 Jun 2027 09:24:46.179   09 Jun 2027 09:25:18.254            32.075              Murmansk2          4009.375
       344   09 Jun 2027 09:27:47.197   09 Jun 2027 09:28:56.476            69.279              Murmansk2          8659.875
       345   09 Jun 2027 09:34:58.841   09 Jun 2027 09:41:24.906           386.065                Anadyr2         48258.125
       346   09 Jun 2027 11:10:37.415   09 Jun 2027 11:10:45.444             8.029                Anadyr2          1003.625
       347   09 Jun 2027 11:11:46.911   09 Jun 2027 11:13:45.686           118.775                Anadyr1         14846.875
       348   09 Jun 2027 12:46:29.242   09 Jun 2027 12:47:01.994            32.752                Anadyr2          4094.000
       349   09 Jun 2027 12:48:21.896   09 Jun 2027 12:50:26.672           124.776               Magadan1         15597.000
       350   09 Jun 2027 12:52:48.409   09 Jun 2027 12:53:38.564            50.155               Magadan2          6269.375
       351   09 Jun 2027 14:23:57.716   09 Jun 2027 14:24:22.290            24.574               Magadan2          3071.750
       352   09 Jun 2027 14:26:18.850   09 Jun 2027 14:27:16.961            58.111               Magadan1          7263.875
       353   09 Jun 2027 14:28:50.439   09 Jun 2027 14:28:50.651             0.212               Magadan1            26.500
       354   09 Jun 2027 15:16:18.976   09 Jun 2027 15:20:31.629           252.653            RioGallegos         31581.625
       355   09 Jun 2027 16:03:48.449   09 Jun 2027 16:07:22.675           214.226                Irkutsk         26778.250
       356   09 Jun 2027 16:17:38.857   09 Jun 2027 16:19:58.538           139.681                Sumatra         17460.125
       357   09 Jun 2027 17:39:32.463   09 Jun 2027 17:41:38.710           126.247                Novosib         15780.875
       358   09 Jun 2027 17:47:31.016   09 Jun 2027 17:50:09.721           158.705                  Delhi         19838.125
       359   09 Jun 2027 19:28:23.545   09 Jun 2027 19:28:51.686            28.141                  Delhi          3517.625
       360   09 Jun 2027 20:49:35.614   09 Jun 2027 20:49:55.851            20.237              Murmansk1          2529.625
       361   09 Jun 2027 20:53:00.267   09 Jun 2027 20:54:29.191            88.924                 Moscow         11115.500
       362   09 Jun 2027 20:55:25.380   09 Jun 2027 20:58:10.732           165.352                 Moscow         20669.000
       363   10 Jun 2027 03:13:55.813   10 Jun 2027 03:18:42.658           286.845                Norilsk         35855.625
       364   10 Jun 2027 04:23:31.298   10 Jun 2027 04:26:06.993           155.695                Sumatra         19461.875
       365   10 Jun 2027 04:49:19.645   10 Jun 2027 04:49:32.367            12.722                Irkutsk          1590.250
       366   10 Jun 2027 04:49:50.691   10 Jun 2027 04:50:18.752            28.061                 Moscow          3507.625
       367   10 Jun 2027 04:50:26.217   10 Jun 2027 04:54:21.197           234.980              Murmansk2         29372.500
       368   10 Jun 2027 04:54:37.523   10 Jun 2027 04:54:59.982            22.459              Murmansk2          2807.375
       369   10 Jun 2027 05:28:33.357   10 Jun 2027 05:28:51.889            18.532            RioGallegos          2316.500
       370   10 Jun 2027 05:28:59.435   10 Jun 2027 05:29:30.675            31.240            RioGallegos          3905.000
       371   10 Jun 2027 05:29:58.196   10 Jun 2027 05:31:28.542            90.346            RioGallegos         11293.250
       372   10 Jun 2027 05:33:58.998   10 Jun 2027 05:34:13.349            14.351            RioGallegos          1793.875
       373   10 Jun 2027 06:00:49.677   10 Jun 2027 06:02:27.823            98.146                Sumatra         12268.250
       374   10 Jun 2027 06:02:57.291   10 Jun 2027 06:04:16.466            79.175                Sumatra          9896.875
       375   10 Jun 2027 06:07:26.420   10 Jun 2027 06:10:18.237           171.817                  Delhi         21477.125
       376   10 Jun 2027 06:14:38.130   10 Jun 2027 06:19:04.697           266.567                Novosib         33320.875
       377   10 Jun 2027 06:19:58.893   10 Jun 2027 06:22:14.590           135.697                 Moscow         16962.125
       378   10 Jun 2027 06:25:10.719   10 Jun 2027 06:28:20.998           190.279                 Moscow         23784.875
       379   10 Jun 2027 06:28:37.801   10 Jun 2027 06:30:09.300            91.499                Norilsk         11437.375
       380   10 Jun 2027 06:30:19.093   10 Jun 2027 06:30:31.429            12.336              Murmansk2          1542.000
       381   10 Jun 2027 07:54:56.344   10 Jun 2027 07:55:41.609            45.265                 Moscow          5658.125
       382   10 Jun 2027 07:55:52.312   10 Jun 2027 07:56:26.488            34.176              Murmansk2          4272.000
       383   10 Jun 2027 08:00:52.097   10 Jun 2027 08:01:33.336            41.239              Murmansk1          5154.875
       384   10 Jun 2027 08:02:10.608   10 Jun 2027 08:05:17.927           187.319                Norilsk         23414.875
       385   10 Jun 2027 08:05:22.677   10 Jun 2027 08:08:11.725           169.048              Murmansk2         21131.000
       386   10 Jun 2027 09:08:01.946   10 Jun 2027 09:10:46.245           164.299               CapeTown         20537.375
       387   10 Jun 2027 09:29:44.893   10 Jun 2027 09:32:40.145           175.252                 Moscow         21906.500
       388   10 Jun 2027 09:34:43.758   10 Jun 2027 09:36:44.009           120.251              Murmansk1         15031.375
       389   10 Jun 2027 09:37:16.831   10 Jun 2027 09:37:36.581            19.750              Murmansk1          2468.750
       390   10 Jun 2027 09:39:48.046   10 Jun 2027 09:40:22.289            34.243              Murmansk1          4280.375
       391   10 Jun 2027 09:41:54.495   10 Jun 2027 09:42:22.418            27.923              Murmansk2          3490.375
       392   10 Jun 2027 09:46:44.159   10 Jun 2027 09:54:15.407           451.248                Anadyr1         56406.000
       393   10 Jun 2027 11:12:26.519   10 Jun 2027 11:13:15.394            48.875              Murmansk2          6109.375
       394   10 Jun 2027 11:24:00.719   10 Jun 2027 11:25:05.407            64.688                Anadyr2          8086.000
       395   10 Jun 2027 11:26:44.122   10 Jun 2027 11:29:46.374           182.252               Magadan1         22781.500
       396   10 Jun 2027 13:00:17.815   10 Jun 2027 13:04:57.424           279.609               Magadan2         34951.125
       397   10 Jun 2027 15:28:06.482   10 Jun 2027 15:32:28.048           261.566            RioGallegos         32695.750
       398   10 Jun 2027 16:15:41.930   10 Jun 2027 16:17:46.690           124.760                Irkutsk         15595.000
       399   10 Jun 2027 16:29:25.333   10 Jun 2027 16:32:13.755           168.422                Sumatra         21052.750
       400   10 Jun 2027 17:51:28.861   10 Jun 2027 17:52:53.562            84.701                Novosib         10587.625
       401   10 Jun 2027 17:59:12.539   10 Jun 2027 18:03:30.794           258.255                  Delhi         32281.875
       402   10 Jun 2027 21:04:57.621   10 Jun 2027 21:06:08.606            70.985                 Moscow          8873.125
       403   10 Jun 2027 21:29:12.639   10 Jun 2027 21:31:07.058           114.419               CapeTown         14302.375
       404   11 Jun 2027 03:25:40.366   11 Jun 2027 03:31:24.824           344.458              Murmansk1         43057.250
       405   11 Jun 2027 03:32:44.369   11 Jun 2027 03:33:56.011            71.642              Murmansk2          8955.250
       406   11 Jun 2027 04:35:20.877   11 Jun 2027 04:38:18.935           178.058                Sumatra         22257.250
       407   11 Jun 2027 05:01:41.305   11 Jun 2027 05:01:51.307            10.002                Norilsk          1250.250
       408   11 Jun 2027 05:02:02.984   11 Jun 2027 05:03:08.679            65.695                 Moscow          8211.875
       409   11 Jun 2027 05:03:13.146   11 Jun 2027 05:07:02.087           228.941              Murmansk1         28617.625
       410   11 Jun 2027 05:41:30.154   11 Jun 2027 05:41:31.031             0.877            RioGallegos           109.625
       411   11 Jun 2027 05:43:31.802   11 Jun 2027 05:43:57.396            25.594            RioGallegos          3199.250
       412   11 Jun 2027 05:46:01.985   11 Jun 2027 05:46:13.300            11.315            RioGallegos          1414.375
       413   11 Jun 2027 06:13:50.347   11 Jun 2027 06:16:36.328           165.981                Sumatra         20747.625
       414   11 Jun 2027 06:19:26.029   11 Jun 2027 06:21:33.815           127.786                  Delhi         15973.250
       415   11 Jun 2027 06:24:04.313   11 Jun 2027 06:24:36.897            32.584                  Delhi          4073.000
       416   11 Jun 2027 06:26:54.201   11 Jun 2027 06:31:10.911           256.710                Novosib         32088.750
       417   11 Jun 2027 06:31:25.165   11 Jun 2027 06:32:32.269            67.104                 Moscow          8388.000
       418   11 Jun 2027 06:37:33.003   11 Jun 2027 06:37:55.791            22.788                 Moscow          2848.500
       419   11 Jun 2027 06:37:58.360   11 Jun 2027 06:42:05.100           246.740                Norilsk         30842.500
       420   11 Jun 2027 06:42:16.824   11 Jun 2027 06:42:29.714            12.890              Murmansk2          1611.250
       421   11 Jun 2027 08:05:15.143   11 Jun 2027 08:07:01.442           106.299                 Moscow         13287.375
       422   11 Jun 2027 08:14:17.824   11 Jun 2027 08:20:13.133           355.309              Murmansk1         44413.625
       423   11 Jun 2027 09:19:12.908   11 Jun 2027 09:27:50.375           517.467               CapeTown         64683.375
       424   11 Jun 2027 09:40:40.408   11 Jun 2027 09:46:03.937           323.529                 Moscow         40441.125
       425   11 Jun 2027 09:46:45.207   11 Jun 2027 09:49:59.680           194.473              Murmansk2         24309.125
       426   11 Jun 2027 09:50:32.738   11 Jun 2027 09:51:24.898            52.160              Murmansk2          6520.000
       427   11 Jun 2027 09:51:49.102   11 Jun 2027 09:54:00.503           131.401              Murmansk1         16425.125
       428   11 Jun 2027 09:54:50.015   11 Jun 2027 09:55:16.040            26.025              Murmansk2          3253.125
       429   11 Jun 2027 09:58:33.851   11 Jun 2027 10:04:14.689           340.838                Anadyr2         42604.750
       430   11 Jun 2027 10:06:41.943   11 Jun 2027 10:06:59.084            17.141                Anadyr1          2142.625
       431   11 Jun 2027 11:22:53.128   11 Jun 2027 11:23:20.977            27.849              Murmansk2          3481.125
       432   11 Jun 2027 11:24:25.584   11 Jun 2027 11:24:57.299            31.715              Murmansk2          3964.375
       433   11 Jun 2027 11:26:03.008   11 Jun 2027 11:26:20.001            16.993              Murmansk1          2124.125
       434   11 Jun 2027 11:26:48.534   11 Jun 2027 11:26:56.408             7.874              Murmansk1           984.250
       435   11 Jun 2027 11:33:55.615   11 Jun 2027 11:37:01.808           186.193                Anadyr2         23274.125
       436   11 Jun 2027 11:37:57.286   11 Jun 2027 11:41:36.397           219.111               Magadan1         27388.875
       437   11 Jun 2027 11:41:54.542   11 Jun 2027 11:43:34.038            99.496               Magadan2         12437.000
       438   11 Jun 2027 13:12:14.891   11 Jun 2027 13:13:28.110            73.219               Magadan2          9152.375
       439   11 Jun 2027 13:14:25.533   11 Jun 2027 13:17:21.536           176.003               Magadan1         22000.375
       440   11 Jun 2027 15:39:57.092   11 Jun 2027 15:44:18.733           261.641            RioGallegos         32705.125
       441   11 Jun 2027 15:45:01.996   11 Jun 2027 15:45:29.336            27.340            RioGallegos          3417.500
       442   11 Jun 2027 16:27:37.216   11 Jun 2027 16:29:21.904           104.688                Irkutsk         13086.000
       443   11 Jun 2027 16:41:17.872   11 Jun 2027 16:44:22.618           184.746                Sumatra         23093.250
       444   11 Jun 2027 18:05:16.696   11 Jun 2027 18:06:14.223            57.527                Novosib          7190.875
       445   11 Jun 2027 18:08:11.740   11 Jun 2027 18:08:31.591            19.851                Novosib          2481.375
       446   11 Jun 2027 18:10:10.101   11 Jun 2027 18:10:54.352            44.251                Novosib          5531.375
       447   11 Jun 2027 18:10:59.453   11 Jun 2027 18:13:26.414           146.961                  Delhi         18370.125
       448   11 Jun 2027 19:42:10.412   11 Jun 2027 19:42:49.386            38.974                 Moscow          4871.750
       449   11 Jun 2027 19:49:26.411   11 Jun 2027 19:50:34.247            67.836                 Moscow          8479.500
       450   11 Jun 2027 21:21:43.600   11 Jun 2027 21:21:58.287            14.687                 Moscow          1835.875
       451   11 Jun 2027 21:23:59.976   11 Jun 2027 21:25:01.874            61.898                 Moscow          7737.250
       452   11 Jun 2027 21:40:59.461   11 Jun 2027 21:41:35.263            35.802               CapeTown          4475.250
       453   11 Jun 2027 21:44:50.352   11 Jun 2027 21:45:42.448            52.096               CapeTown          6512.000
       454   11 Jun 2027 21:48:46.245   11 Jun 2027 21:50:27.120           100.875               CapeTown         12609.375
       455   12 Jun 2027 03:17:29.109   12 Jun 2027 03:18:19.681            50.572                Sumatra          6321.500
       456   12 Jun 2027 03:37:51.170   12 Jun 2027 03:38:57.815            66.645                Novosib          8330.625
       457   12 Jun 2027 03:39:20.837   12 Jun 2027 03:41:28.504           127.667              Murmansk2         15958.375
       458   12 Jun 2027 04:47:16.283   12 Jun 2027 04:50:24.859           188.576                Sumatra         23572.000
       459   12 Jun 2027 05:13:57.258   12 Jun 2027 05:15:13.612            76.354                Novosib          9544.250
       460   12 Jun 2027 05:15:15.210   12 Jun 2027 05:17:58.241           163.031              Murmansk1         20378.875
       461   12 Jun 2027 05:17:58.241   12 Jun 2027 05:19:02.701            64.460              Murmansk2          8057.500
       462   12 Jun 2027 05:20:07.081   12 Jun 2027 05:20:46.262            39.181              Murmansk2          4897.625
       463   12 Jun 2027 05:52:16.163   12 Jun 2027 05:53:34.733            78.570            RioGallegos          9821.250
       464   12 Jun 2027 05:58:07.503   12 Jun 2027 05:58:25.175            17.672            RioGallegos          2209.000
       465   12 Jun 2027 06:27:56.837   12 Jun 2027 06:29:04.906            68.069                Sumatra          8508.625
       466   12 Jun 2027 06:30:04.371   12 Jun 2027 06:30:12.961             8.590                Sumatra          1073.750
       467   12 Jun 2027 06:31:31.023   12 Jun 2027 06:34:03.725           152.702                  Delhi         19087.750
       468   12 Jun 2027 06:34:36.694   12 Jun 2027 06:37:35.496           178.802                  Delhi         22350.250
       469   12 Jun 2027 06:39:14.086   12 Jun 2027 06:42:44.891           210.805                Novosib         26350.625
       470   12 Jun 2027 06:42:46.688   12 Jun 2027 06:44:25.978            99.290                 Moscow         12411.250
       471   12 Jun 2027 06:44:41.862   12 Jun 2027 06:44:59.972            18.110              Murmansk1          2263.750
       472   12 Jun 2027 06:49:24.948   12 Jun 2027 06:50:49.383            84.435                Novosib         10554.375
       473   12 Jun 2027 06:51:03.454   12 Jun 2027 06:52:33.071            89.617                 Moscow         11202.125
       474   12 Jun 2027 06:52:38.613   12 Jun 2027 06:54:13.997            95.384              Murmansk1         11923.000
       475   12 Jun 2027 08:25:46.591   12 Jun 2027 08:30:19.567           272.976                Norilsk         34122.000
       476   12 Jun 2027 08:30:44.025   12 Jun 2027 08:32:14.649            90.624              Murmansk2         11328.000
       477   12 Jun 2027 09:30:39.777   12 Jun 2027 09:40:36.571           596.794               CapeTown         74599.250
       478   12 Jun 2027 09:53:03.568   12 Jun 2027 09:57:00.800           237.232                 Moscow         29654.000
       479   12 Jun 2027 09:57:13.456   12 Jun 2027 10:00:28.976           195.520              Murmansk2         24440.000
       480   12 Jun 2027 10:00:28.976   12 Jun 2027 10:01:47.694            78.718              Murmansk1          9839.750
       481   12 Jun 2027 10:02:59.837   12 Jun 2027 10:04:15.158            75.321                 Moscow          9415.125
       482   12 Jun 2027 10:04:37.087   12 Jun 2027 10:04:46.833             9.746              Murmansk1          1218.250
