uniorb/output/strategy_4/Drop/Drop_KinoSat_111308.txt

KinoSat_111308
-------------------------
    Access    *     Start Time (UTCG)     *     Stop Time (UTCG)  *   Duration (s)        *       Station  *  Data (Mbytes)
         1   01 Jun 2027 03:00:09.650   01 Jun 2027 03:00:12.057             2.407                Norilsk            75.219
         2   01 Jun 2027 03:00:39.709   01 Jun 2027 03:01:48.740            69.031                Novosib          2157.219
         3   01 Jun 2027 03:01:51.327   01 Jun 2027 03:02:16.045            24.718                 Moscow           772.437
         4   01 Jun 2027 03:02:19.613   01 Jun 2027 03:03:02.562            42.949              Murmansk2          1342.156
         5   01 Jun 2027 03:03:02.562   01 Jun 2027 03:03:09.986             7.424              Murmansk1           232.000
         6   01 Jun 2027 03:03:26.731   01 Jun 2027 03:04:21.230            54.499                Novosib          1703.094
         7   01 Jun 2027 03:04:28.110   01 Jun 2027 03:05:07.676            39.566              Murmansk2          1236.438
         8   01 Jun 2027 03:05:53.130   01 Jun 2027 03:08:08.183           135.053                 Moscow          4220.406
         9   01 Jun 2027 03:20:35.886   01 Jun 2027 03:23:56.629           200.743               CapeTown          6273.219
        10   01 Jun 2027 03:24:36.533   01 Jun 2027 03:24:59.739            23.206               CapeTown           725.187
        11   01 Jun 2027 04:24:22.622   01 Jun 2027 04:27:48.975           206.353                Anadyr1          6448.531
        12   01 Jun 2027 04:35:53.877   01 Jun 2027 04:37:04.579            70.702                Norilsk          2209.437
        13   01 Jun 2027 04:37:26.968   01 Jun 2027 04:38:05.490            38.522              Murmansk1          1203.813
        14   01 Jun 2027 05:59:49.449   01 Jun 2027 06:00:03.018            13.569                Anadyr1           424.031
        15   01 Jun 2027 06:00:16.963   01 Jun 2027 06:01:56.497            99.534                Anadyr1          3110.437
        16   01 Jun 2027 06:02:06.920   01 Jun 2027 06:04:01.692           114.772               Magadan2          3586.625
        17   01 Jun 2027 06:04:01.692   01 Jun 2027 06:05:08.761            67.069               Magadan1          2095.906
        18   01 Jun 2027 06:46:04.886   01 Jun 2027 06:46:30.371            25.485            RioGallegos           796.406
        19   01 Jun 2027 06:47:43.470   01 Jun 2027 06:48:45.117            61.647            RioGallegos          1926.469
        20   01 Jun 2027 07:35:52.443   01 Jun 2027 07:38:57.762           185.319               Magadan2          5791.219
        21   01 Jun 2027 07:39:00.466   01 Jun 2027 07:39:54.459            53.993                Anadyr2          1687.281
        22   01 Jun 2027 07:39:54.459   01 Jun 2027 07:40:28.436            33.977                Anadyr1          1061.781
        23   01 Jun 2027 09:11:47.707   01 Jun 2027 09:15:27.548           219.841               Magadan1          6870.031
        24   01 Jun 2027 09:16:10.896   01 Jun 2027 09:16:14.105             3.209               Magadan2           100.281
        25   01 Jun 2027 09:16:55.432   01 Jun 2027 09:17:01.773             6.341                Irkutsk           198.156
        26   01 Jun 2027 09:17:33.888   01 Jun 2027 09:18:13.247            39.359                Novosib          1229.969
        27   01 Jun 2027 09:18:46.354   01 Jun 2027 09:20:16.885            90.531              Murmansk2          2829.094
        28   01 Jun 2027 09:20:42.290   01 Jun 2027 09:21:05.953            23.663                Norilsk           739.469
        29   01 Jun 2027 09:51:45.424   01 Jun 2027 09:55:46.599           241.175            RioGallegos          7536.719
        30   01 Jun 2027 10:26:43.745   01 Jun 2027 10:29:41.361           177.616                Sumatra          5550.500
        31   01 Jun 2027 10:49:05.013   01 Jun 2027 10:50:02.591            57.578                Irkutsk          1799.313
        32   01 Jun 2027 10:50:16.478   01 Jun 2027 10:51:21.849            65.371                Irkutsk          2042.844
        33   01 Jun 2027 10:51:26.461   01 Jun 2027 10:52:15.006            48.545              Murmansk2          1517.031
        34   01 Jun 2027 10:52:28.338   01 Jun 2027 10:53:15.713            47.375              Murmansk1          1480.469
        35   01 Jun 2027 10:54:10.218   01 Jun 2027 10:54:26.513            16.295                 Moscow           509.219
        36   01 Jun 2027 10:56:07.883   01 Jun 2027 10:56:09.009             1.126              Murmansk2            35.187
        37   01 Jun 2027 10:56:47.043   01 Jun 2027 10:57:00.109            13.066              Murmansk2           408.312
        38   01 Jun 2027 10:59:03.157   01 Jun 2027 10:59:10.438             7.281              Murmansk2           227.531
        39   01 Jun 2027 11:00:10.903   01 Jun 2027 11:00:17.100             6.197              Murmansk1           193.656
        40   01 Jun 2027 11:30:40.134   01 Jun 2027 11:32:23.959           103.825            RioGallegos          3244.531
        41   01 Jun 2027 11:32:55.388   01 Jun 2027 11:33:54.933            59.545            RioGallegos          1860.781
        42   01 Jun 2027 11:35:05.141   01 Jun 2027 11:35:26.371            21.230            RioGallegos           663.437
        43   01 Jun 2027 11:36:01.449   01 Jun 2027 11:36:59.596            58.147            RioGallegos          1817.094
        44   01 Jun 2027 12:05:11.580   01 Jun 2027 12:06:48.342            96.762                Sumatra          3023.812
        45   01 Jun 2027 12:09:18.008   01 Jun 2027 12:11:51.891           153.883                Sumatra          4808.844
        46   01 Jun 2027 12:18:16.245   01 Jun 2027 12:18:35.890            19.645                Novosib           613.906
        47   01 Jun 2027 12:19:15.828   01 Jun 2027 12:20:45.782            89.954                Novosib          2811.062
        48   01 Jun 2027 12:21:08.675   01 Jun 2027 12:23:26.430           137.755                Irkutsk          4304.844
        49   01 Jun 2027 13:51:27.882   01 Jun 2027 13:54:07.243           159.361                  Delhi          4980.031
        50   01 Jun 2027 13:55:18.934   01 Jun 2027 13:56:32.511            73.577                 Moscow          2299.281
        51   01 Jun 2027 13:58:38.769   01 Jun 2027 14:00:49.449           130.680              Murmansk1          4083.750
        52   01 Jun 2027 14:00:51.719   01 Jun 2027 14:01:23.237            31.518                Novosib           984.937
        53   01 Jun 2027 14:01:44.282   01 Jun 2027 14:02:55.287            71.005                Norilsk          2218.906
        54   01 Jun 2027 14:02:57.445   01 Jun 2027 14:03:03.272             5.827                Novosib           182.094
        55   01 Jun 2027 14:04:31.794   01 Jun 2027 14:05:07.883            36.089                Norilsk          1127.781
        56   01 Jun 2027 15:10:35.692   01 Jun 2027 15:13:15.344           159.652               CapeTown          4989.125
        57   01 Jun 2027 15:32:02.341   01 Jun 2027 15:33:19.481            77.140                 Moscow          2410.625
        58   01 Jun 2027 15:35:22.634   01 Jun 2027 15:36:00.638            38.004              Murmansk2          1187.625
        59   01 Jun 2027 15:36:17.209   01 Jun 2027 15:36:50.980            33.771              Murmansk1          1055.344
        60   01 Jun 2027 15:49:55.381   01 Jun 2027 15:51:56.264           120.883                Anadyr1          3777.594
        61   01 Jun 2027 15:52:45.928   01 Jun 2027 15:53:02.850            16.922                Anadyr1           528.813
        62   01 Jun 2027 15:53:24.031   01 Jun 2027 15:54:12.454            48.423                Anadyr2          1513.219
        63   01 Jun 2027 16:44:39.023   01 Jun 2027 16:47:03.639           144.616               CapeTown          4519.250
        64   01 Jun 2027 17:14:14.057   01 Jun 2027 17:17:26.996           192.939              Murmansk2          6029.344
        65   01 Jun 2027 17:18:05.531   01 Jun 2027 17:19:29.162            83.631              Murmansk2          2613.469
        66   01 Jun 2027 17:25:33.791   01 Jun 2027 17:26:24.448            50.657                Anadyr1          1583.031
        67   01 Jun 2027 17:29:18.527   01 Jun 2027 17:30:05.062            46.535               Magadan2          1454.219
        68   01 Jun 2027 17:34:01.740   01 Jun 2027 17:34:44.410            42.670               Magadan2          1333.437
        69   01 Jun 2027 19:01:11.433   01 Jun 2027 19:03:06.862           115.429                Anadyr2          3607.156
        70   01 Jun 2027 19:03:16.260   01 Jun 2027 19:05:21.501           125.241                Anadyr1          3913.781
        71   01 Jun 2027 19:05:48.145   01 Jun 2027 19:07:18.366            90.221               Magadan2          2819.406
        72   01 Jun 2027 19:07:18.366   01 Jun 2027 19:08:43.996            85.630               Magadan1          2675.938
        73   01 Jun 2027 20:37:04.844   01 Jun 2027 20:40:42.022           217.178                Anadyr1          6786.812
        74   01 Jun 2027 20:41:09.081   01 Jun 2027 20:41:24.977            15.896                Norilsk           496.750
        75   01 Jun 2027 20:41:50.581   01 Jun 2027 20:43:42.251           111.670               Magadan1          3489.688
        76   01 Jun 2027 20:44:11.475   01 Jun 2027 20:44:40.350            28.875               Magadan2           902.344
        77   01 Jun 2027 20:45:40.722   01 Jun 2027 20:46:33.815            53.093                Irkutsk          1659.156
        78   01 Jun 2027 20:46:55.468   01 Jun 2027 20:47:57.111            61.643                Irkutsk          1926.344
        79   01 Jun 2027 21:31:19.450   01 Jun 2027 21:32:38.363            78.913            RioGallegos          2466.031
        80   01 Jun 2027 21:36:52.422   01 Jun 2027 21:37:10.071            17.649            RioGallegos           551.531
        81   01 Jun 2027 21:40:48.272   01 Jun 2027 21:41:07.082            18.810            RioGallegos           587.812
        82   01 Jun 2027 22:12:35.712   01 Jun 2027 22:13:27.498            51.786                Anadyr1          1618.313
        83   01 Jun 2027 22:13:44.132   01 Jun 2027 22:14:58.570            74.438                Anadyr1          2326.188
        84   01 Jun 2027 22:15:09.781   01 Jun 2027 22:16:54.901           105.120                Norilsk          3285.000
        85   01 Jun 2027 22:17:00.249   01 Jun 2027 22:17:32.315            32.066               Magadan1          1002.063
        86   01 Jun 2027 22:17:39.703   01 Jun 2027 22:18:38.408            58.705               Magadan2          1834.531
        87   01 Jun 2027 22:20:19.537   01 Jun 2027 22:20:52.396            32.859                Novosib          1026.844
        88   01 Jun 2027 22:22:58.998   01 Jun 2027 22:23:11.623            12.625                Novosib           394.531
        89   01 Jun 2027 22:24:55.233   01 Jun 2027 22:25:32.295            37.062                Irkutsk          1158.188
        90   01 Jun 2027 22:32:40.754   01 Jun 2027 22:33:19.385            38.631                Sumatra          1207.219
        91   01 Jun 2027 22:35:55.505   01 Jun 2027 22:35:58.480             2.975                Sumatra            92.969
        92   01 Jun 2027 22:41:00.036   01 Jun 2027 22:42:13.326            73.290                Sumatra          2290.312
        93   01 Jun 2027 23:47:08.008   01 Jun 2027 23:49:06.729           118.721                Anadyr1          3710.031
        94   01 Jun 2027 23:50:54.405   01 Jun 2027 23:51:14.131            19.726                Norilsk           616.438
        95   01 Jun 2027 23:51:32.785   01 Jun 2027 23:53:23.356           110.571               Magadan2          3455.344
        96   01 Jun 2027 23:54:48.336   01 Jun 2027 23:56:09.413            81.077                Irkutsk          2533.656
        97   01 Jun 2027 23:57:14.260   01 Jun 2027 23:58:23.146            68.886                Novosib          2152.687
        98   02 Jun 2027 00:02:22.220   02 Jun 2027 00:03:15.740            53.520                  Delhi          1672.500
        99   02 Jun 2027 00:04:28.256   02 Jun 2027 00:04:48.792            20.536                  Delhi           641.750
       100   02 Jun 2027 00:10:00.937   02 Jun 2027 00:10:40.403            39.466                  Delhi          1233.312
       101   02 Jun 2027 00:43:24.879   02 Jun 2027 00:43:38.525            13.646            RioGallegos           426.438
       102   02 Jun 2027 00:45:03.391   02 Jun 2027 00:45:09.840             6.449            RioGallegos           201.531
       103   02 Jun 2027 00:46:24.247   02 Jun 2027 00:46:29.873             5.626            RioGallegos           175.812
       104   02 Jun 2027 00:47:28.664   02 Jun 2027 00:47:42.539            13.875            RioGallegos           433.594
       105   02 Jun 2027 00:52:12.188   02 Jun 2027 00:52:36.925            24.737            RioGallegos           773.031
       106   02 Jun 2027 01:20:33.515   02 Jun 2027 01:21:42.861            69.346                Anadyr2          2167.063
       107   02 Jun 2027 01:22:22.066   02 Jun 2027 01:22:47.075            25.009                Anadyr1           781.531
       108   02 Jun 2027 01:23:06.879   02 Jun 2027 01:23:22.505            15.626                Anadyr2           488.313
       109   02 Jun 2027 01:23:31.401   02 Jun 2027 01:23:32.577             1.176                Anadyr1            36.750
       110   02 Jun 2027 01:23:46.303   02 Jun 2027 01:23:57.994            11.691                Anadyr2           365.344
       111   02 Jun 2027 01:26:15.601   02 Jun 2027 01:26:36.568            20.967                Anadyr1           655.219
       112   02 Jun 2027 01:26:44.029   02 Jun 2027 01:28:01.123            77.094               Magadan2          2409.188
       113   02 Jun 2027 01:28:03.760   02 Jun 2027 01:28:15.963            12.203               Magadan1           381.344
       114   02 Jun 2027 01:28:48.316   02 Jun 2027 01:29:20.108            31.792               Magadan1           993.500
       115   02 Jun 2027 01:30:36.624   02 Jun 2027 01:31:02.006            25.382              Murmansk1           793.187
       116   02 Jun 2027 01:31:40.767   02 Jun 2027 01:31:47.294             6.527              Murmansk1           203.969
       117   02 Jun 2027 01:32:10.793   02 Jun 2027 01:33:03.119            52.326                Novosib          1635.188
       118   02 Jun 2027 01:33:17.922   02 Jun 2027 01:33:40.094            22.172              Murmansk1           692.875
       119   02 Jun 2027 01:33:52.054   02 Jun 2027 01:34:23.966            31.912                 Moscow           997.250
       120   02 Jun 2027 01:35:42.385   02 Jun 2027 01:36:03.488            21.103                 Moscow           659.469
       121   02 Jun 2027 01:39:27.658   02 Jun 2027 01:39:44.405            16.747                  Delhi           523.344
       122   02 Jun 2027 01:42:22.142   02 Jun 2027 01:42:26.002             3.860                  Delhi           120.625
       123   02 Jun 2027 01:42:47.572   02 Jun 2027 01:43:14.679            27.107                  Delhi           847.094
       124   02 Jun 2027 01:48:29.867   02 Jun 2027 01:48:37.489             7.622                  Delhi           238.188
       125   02 Jun 2027 01:49:07.348   02 Jun 2027 01:49:17.338             9.990                  Delhi           312.188
       126   02 Jun 2027 02:02:27.599   02 Jun 2027 02:02:56.378            28.779               CapeTown           899.344
       127   02 Jun 2027 02:03:36.489   02 Jun 2027 02:05:08.201            91.712               CapeTown          2866.000
       128   02 Jun 2027 02:54:04.688   02 Jun 2027 02:54:54.357            49.669                Anadyr2          1552.156
       129   02 Jun 2027 02:56:18.851   02 Jun 2027 02:56:42.100            23.249                Anadyr2           726.531
       130   02 Jun 2027 02:57:19.235   02 Jun 2027 02:57:38.346            19.111                Anadyr2           597.219
       131   02 Jun 2027 02:58:47.262   02 Jun 2027 02:59:41.526            54.264               Magadan1          1695.750
       132   02 Jun 2027 03:11:50.327   02 Jun 2027 03:12:10.492            20.165                Norilsk           630.156
       133   02 Jun 2027 03:12:15.888   02 Jun 2027 03:12:31.938            16.050              Murmansk1           501.562
       134   02 Jun 2027 03:12:31.938   02 Jun 2027 03:12:38.920             6.982              Murmansk2           218.187
       135   02 Jun 2027 03:12:40.810   02 Jun 2027 03:12:57.765            16.955              Murmansk1           529.844
       136   02 Jun 2027 03:13:03.400   02 Jun 2027 03:13:49.960            46.560              Murmansk2          1455.000
       137   02 Jun 2027 03:14:19.308   02 Jun 2027 03:15:41.506            82.198              Murmansk1          2568.688
       138   02 Jun 2027 03:15:41.506   02 Jun 2027 03:15:56.897            15.391              Murmansk2           480.969
       139   02 Jun 2027 03:16:18.467   02 Jun 2027 03:17:21.885            63.418              Murmansk2          1981.812
       140   02 Jun 2027 03:17:22.856   02 Jun 2027 03:19:51.679           148.823                 Moscow          4650.719
       141   02 Jun 2027 03:32:22.635   02 Jun 2027 03:34:53.978           151.343               CapeTown          4729.469
       142   02 Jun 2027 04:28:52.608   02 Jun 2027 04:30:58.492           125.884                Anadyr2          3933.875
       143   02 Jun 2027 04:31:05.558   02 Jun 2027 04:31:42.601            37.043               Magadan1          1157.594
       144   02 Jun 2027 04:32:39.460   02 Jun 2027 04:32:41.176             1.716                Anadyr1            53.625
       145   02 Jun 2027 04:35:15.359   02 Jun 2027 04:37:30.192           134.833               Magadan1          4213.531
       146   02 Jun 2027 04:37:30.192   02 Jun 2027 04:37:53.139            22.947               Magadan2           717.094
       147   02 Jun 2027 04:38:02.365   02 Jun 2027 04:38:27.312            24.947                Anadyr1           779.594
       148   02 Jun 2027 04:39:50.097   02 Jun 2027 04:40:07.761            17.664                Anadyr2           552.000
       149   02 Jun 2027 06:12:54.504   02 Jun 2027 06:14:18.143            83.639                Norilsk          2613.719
       150   02 Jun 2027 06:15:01.100   02 Jun 2027 06:16:55.299           114.199               Magadan1          3568.719
       151   02 Jun 2027 07:46:11.744   02 Jun 2027 07:46:21.258             9.514                Irkutsk           297.312
       152   02 Jun 2027 07:46:30.649   02 Jun 2027 07:47:20.341            49.692               Magadan2          1552.875
       153   02 Jun 2027 07:47:55.029   02 Jun 2027 07:48:03.261             8.232               Magadan1           257.250
       154   02 Jun 2027 07:48:08.694   02 Jun 2027 07:49:01.315            52.621                Irkutsk          1644.406
       155   02 Jun 2027 07:49:30.442   02 Jun 2027 07:52:53.225           202.783                Anadyr2          6336.969
       156   02 Jun 2027 09:23:47.296   02 Jun 2027 09:26:35.375           168.079               Magadan2          5252.469
       157   02 Jun 2027 09:26:57.553   02 Jun 2027 09:27:09.334            11.781                Irkutsk           368.156
       158   02 Jun 2027 09:27:25.162   02 Jun 2027 09:27:55.510            30.348               Magadan1           948.375
       159   02 Jun 2027 09:28:05.747   02 Jun 2027 09:28:16.251            10.504                Norilsk           328.250
       160   02 Jun 2027 09:28:17.080   02 Jun 2027 09:28:45.646            28.566                Norilsk           892.688
       161   02 Jun 2027 09:28:59.482   02 Jun 2027 09:29:10.314            10.832                Norilsk           338.500
       162   02 Jun 2027 10:03:53.470   02 Jun 2027 10:04:37.828            44.358            RioGallegos          1386.188
       163   02 Jun 2027 10:05:44.867   02 Jun 2027 10:05:52.868             8.001            RioGallegos           250.031
       164   02 Jun 2027 10:07:55.203   02 Jun 2027 10:08:12.393            17.190            RioGallegos           537.187
       165   02 Jun 2027 10:38:39.187   02 Jun 2027 10:39:39.527            60.340                Sumatra          1885.625
       166   02 Jun 2027 10:41:32.028   02 Jun 2027 10:41:43.427            11.399                Sumatra           356.219
       167   02 Jun 2027 10:52:03.957   02 Jun 2027 10:52:25.682            21.725                  Delhi           678.906
       168   02 Jun 2027 10:59:34.788   02 Jun 2027 10:59:41.038             6.250                Irkutsk           195.313
       169   02 Jun 2027 10:59:51.918   02 Jun 2027 11:00:02.067            10.149                Novosib           317.156
       170   02 Jun 2027 11:00:07.798   02 Jun 2027 11:01:13.398            65.600                Irkutsk          2050.000
       171   02 Jun 2027 11:02:05.140   02 Jun 2027 11:02:35.608            30.468                Irkutsk           952.125
       172   02 Jun 2027 11:02:45.112   02 Jun 2027 11:03:24.537            39.425                Irkutsk          1232.031
       173   02 Jun 2027 11:03:34.300   02 Jun 2027 11:04:11.031            36.731                Novosib          1147.844
       174   02 Jun 2027 11:04:15.159   02 Jun 2027 11:04:37.031            21.872                Norilsk           683.500
       175   02 Jun 2027 11:04:43.305   02 Jun 2027 11:05:58.360            75.055                Novosib          2345.469
       176   02 Jun 2027 12:19:14.714   02 Jun 2027 12:21:33.511           138.797                Sumatra          4337.406
       177   02 Jun 2027 12:30:36.184   02 Jun 2027 12:30:44.384             8.200                Novosib           256.250
       178   02 Jun 2027 12:32:58.181   02 Jun 2027 12:33:14.479            16.298                Novosib           509.313
       179   02 Jun 2027 12:33:27.112   02 Jun 2027 12:34:48.860            81.748                Novosib          2554.625
       180   02 Jun 2027 12:35:14.081   02 Jun 2027 12:35:17.872             3.791                Norilsk           118.469
       181   02 Jun 2027 12:35:20.282   02 Jun 2027 12:35:35.389            15.107              Murmansk1           472.094
       182   02 Jun 2027 12:40:02.720   02 Jun 2027 12:40:24.895            22.175              Murmansk2           692.969
       183   02 Jun 2027 14:07:15.810   02 Jun 2027 14:11:03.910           228.100                 Moscow          7128.125
       184   02 Jun 2027 14:11:21.072   02 Jun 2027 14:13:12.320           111.248              Murmansk2          3476.500
       185   02 Jun 2027 14:14:01.842   02 Jun 2027 14:14:28.711            26.869              Murmansk2           839.656
       186   02 Jun 2027 14:14:30.505   02 Jun 2027 14:15:42.005            71.500                Norilsk          2234.375
       187   02 Jun 2027 14:18:27.780   02 Jun 2027 14:18:43.839            16.059                Norilsk           501.844
       188   02 Jun 2027 14:19:19.382   02 Jun 2027 14:19:27.414             8.032                Norilsk           251.000
       189   02 Jun 2027 15:22:02.531   02 Jun 2027 15:25:00.181           177.650               CapeTown          5551.563
       190   02 Jun 2027 15:44:25.555   02 Jun 2027 15:44:53.949            28.394                 Moscow           887.313
       191   02 Jun 2027 15:47:38.341   02 Jun 2027 15:48:19.172            40.831              Murmansk2          1275.969
       192   02 Jun 2027 15:49:53.875   02 Jun 2027 15:50:19.889            26.014              Murmansk1           812.937
       193   02 Jun 2027 15:51:51.494   02 Jun 2027 15:52:04.839            13.345              Murmansk1           417.031
       194   02 Jun 2027 15:56:04.448   02 Jun 2027 15:56:34.485            30.037              Murmansk2           938.656
       195   02 Jun 2027 16:01:48.203   02 Jun 2027 16:03:41.888           113.685                Anadyr1          3552.656
       196   02 Jun 2027 16:05:01.417   02 Jun 2027 16:05:39.571            38.154                Anadyr1          1192.312
       197   02 Jun 2027 16:56:42.585   02 Jun 2027 16:58:47.492           124.907               CapeTown          3903.344
       198   02 Jun 2027 17:26:49.432   02 Jun 2027 17:27:47.259            57.827              Murmansk2          1807.094
       199   02 Jun 2027 17:28:56.062   02 Jun 2027 17:29:22.063            26.001              Murmansk2           812.531
       200   02 Jun 2027 17:30:07.451   02 Jun 2027 17:31:42.221            94.770              Murmansk2          2961.562
       201   02 Jun 2027 17:37:18.409   02 Jun 2027 17:37:42.124            23.715                Anadyr1           741.094
       202   02 Jun 2027 17:38:08.555   02 Jun 2027 17:38:19.587            11.032                Anadyr2           344.750
       203   02 Jun 2027 17:40:45.973   02 Jun 2027 17:41:00.323            14.350                Anadyr1           448.438
       204   02 Jun 2027 17:41:17.329   02 Jun 2027 17:43:03.322           105.993               Magadan2          3312.281
       205   02 Jun 2027 17:43:44.246   02 Jun 2027 17:44:09.441            25.195               Magadan1           787.344
       206   02 Jun 2027 19:13:13.011   02 Jun 2027 19:17:00.410           227.399                Anadyr1          7106.219
       207   02 Jun 2027 19:17:13.814   02 Jun 2027 19:18:36.275            82.461                Anadyr2          2576.906
       208   02 Jun 2027 19:18:45.234   02 Jun 2027 19:19:18.116            32.882               Magadan2          1027.563
       209   02 Jun 2027 19:21:43.971   02 Jun 2027 19:21:59.389            15.418               Magadan1           481.813
       210   02 Jun 2027 19:23:43.686   02 Jun 2027 19:23:59.433            15.747               Magadan2           492.094
       211   02 Jun 2027 20:49:05.014   02 Jun 2027 20:51:14.213           129.199                Anadyr2          4037.469
       212   02 Jun 2027 20:51:19.933   02 Jun 2027 20:53:19.602           119.669                Anadyr1          3739.656
       213   02 Jun 2027 20:53:27.373   02 Jun 2027 20:55:39.505           132.132               Magadan2          4129.125
       214   02 Jun 2027 20:56:51.835   02 Jun 2027 20:57:04.230            12.395                Irkutsk           387.344
       215   02 Jun 2027 20:57:28.376   02 Jun 2027 20:57:58.560            30.184                Norilsk           943.250
       216   02 Jun 2027 20:58:37.687   02 Jun 2027 20:59:38.775            61.088                Irkutsk          1909.000
       217   02 Jun 2027 21:00:53.032   02 Jun 2027 21:02:37.536           104.504                Irkutsk          3265.750
       218   02 Jun 2027 21:13:13.827   02 Jun 2027 21:14:11.909            58.082                Sumatra          1815.062
       219   02 Jun 2027 21:15:49.006   02 Jun 2027 21:16:50.013            61.007                Sumatra          1906.469
       220   02 Jun 2027 22:25:14.441   02 Jun 2027 22:25:26.407            11.966                Anadyr2           373.937
       221   02 Jun 2027 22:26:26.972   02 Jun 2027 22:26:56.854            29.882                Anadyr1           933.813
       222   02 Jun 2027 22:26:56.945   02 Jun 2027 22:28:56.899           119.954                Norilsk          3748.563
       223   02 Jun 2027 22:30:56.674   02 Jun 2027 22:32:10.275            73.601                Irkutsk          2300.031
       224   02 Jun 2027 22:32:12.774   02 Jun 2027 22:32:42.776            30.002                Novosib           937.562
       225   02 Jun 2027 22:33:20.901   02 Jun 2027 22:34:30.647            69.746                Novosib          2179.563
       226   02 Jun 2027 22:44:39.026   02 Jun 2027 22:44:57.599            18.573                Sumatra           580.406
       227   02 Jun 2027 22:49:29.047   02 Jun 2027 22:50:36.564            67.517                Sumatra          2109.906
       228   02 Jun 2027 23:58:53.392   02 Jun 2027 23:58:59.778             6.386                Anadyr2           199.562
       229   02 Jun 2027 23:59:38.247   03 Jun 2027 00:01:03.348            85.101                Anadyr2          2659.406
       230   03 Jun 2027 00:02:56.527   03 Jun 2027 00:04:20.461            83.934                Norilsk          2622.937
       231   03 Jun 2027 00:04:46.419   03 Jun 2027 00:04:49.049             2.630               Magadan2            82.187
       232   03 Jun 2027 00:04:56.608   03 Jun 2027 00:05:42.571            45.963               Magadan1          1436.344
       233   03 Jun 2027 00:06:32.839   03 Jun 2027 00:07:14.848            42.009              Murmansk1          1312.781
       234   03 Jun 2027 00:07:24.141   03 Jun 2027 00:08:55.951            91.810              Murmansk2          2869.062
       235   03 Jun 2027 00:14:13.673   03 Jun 2027 00:15:09.242            55.569                  Delhi          1736.531
       236   03 Jun 2027 00:16:34.261   03 Jun 2027 00:17:05.325            31.064                  Delhi           970.750
       237   03 Jun 2027 00:21:53.457   03 Jun 2027 00:22:29.112            35.655                  Delhi          1114.219
       238   03 Jun 2027 00:55:37.220   03 Jun 2027 00:55:56.488            19.268            RioGallegos           602.125
       239   03 Jun 2027 00:58:31.191   03 Jun 2027 00:58:59.975            28.784            RioGallegos           899.500
       240   03 Jun 2027 01:00:54.098   03 Jun 2027 01:01:11.559            17.461            RioGallegos           545.656
       241   03 Jun 2027 01:02:53.559   03 Jun 2027 01:03:11.625            18.066            RioGallegos           564.563
       242   03 Jun 2027 01:32:14.656   03 Jun 2027 01:32:40.366            25.710                Anadyr2           803.437
       243   03 Jun 2027 01:32:47.819   03 Jun 2027 01:33:00.855            13.036                Anadyr2           407.375
       244   03 Jun 2027 01:33:40.338   03 Jun 2027 01:34:22.041            41.703                Anadyr1          1303.219
       245   03 Jun 2027 01:34:51.157   03 Jun 2027 01:35:14.629            23.472                Anadyr1           733.500
       246   03 Jun 2027 01:35:29.909   03 Jun 2027 01:35:35.816             5.907                Anadyr1           184.594
       247   03 Jun 2027 01:37:57.957   03 Jun 2027 01:38:14.748            16.791                Anadyr1           524.719
       248   03 Jun 2027 01:38:19.151   03 Jun 2027 01:38:20.706             1.555                Anadyr1            48.594
       249   03 Jun 2027 01:38:26.047   03 Jun 2027 01:40:03.595            97.548               Magadan1          3048.375
       250   03 Jun 2027 01:40:18.004   03 Jun 2027 01:40:48.494            30.490               Magadan1           952.813
       251   03 Jun 2027 01:41:09.934   03 Jun 2027 01:41:33.781            23.847              Murmansk2           745.219
       252   03 Jun 2027 01:42:28.670   03 Jun 2027 01:43:28.895            60.225              Murmansk2          1882.031
       253   03 Jun 2027 01:44:17.771   03 Jun 2027 01:44:28.155            10.384                Novosib           324.500
       254   03 Jun 2027 01:44:47.474   03 Jun 2027 01:44:54.644             7.170              Murmansk1           224.062
       255   03 Jun 2027 01:45:15.577   03 Jun 2027 01:46:01.655            46.078                 Moscow          1439.938
       256   03 Jun 2027 01:48:59.980   03 Jun 2027 01:49:15.142            15.162                 Moscow           473.812
       257   03 Jun 2027 01:52:40.777   03 Jun 2027 01:53:24.958            44.181                  Delhi          1380.656
       258   03 Jun 2027 01:56:20.070   03 Jun 2027 01:56:26.040             5.970                  Delhi           186.563
       259   03 Jun 2027 02:12:40.369   03 Jun 2027 02:13:15.591            35.222               CapeTown          1100.688
       260   03 Jun 2027 02:18:03.389   03 Jun 2027 02:18:34.582            31.193               CapeTown           974.781
       261   03 Jun 2027 03:05:52.378   03 Jun 2027 03:06:52.040            59.662                Anadyr2          1864.437
       262   03 Jun 2027 03:07:30.638   03 Jun 2027 03:07:56.113            25.475                Anadyr1           796.094
       263   03 Jun 2027 03:08:58.448   03 Jun 2027 03:09:12.378            13.930                Anadyr2           435.313
       264   03 Jun 2027 03:14:00.086   03 Jun 2027 03:14:32.447            32.361               Magadan2          1011.281
       265   03 Jun 2027 03:24:42.385   03 Jun 2027 03:24:48.446             6.061                Norilsk           189.406
       266   03 Jun 2027 03:25:29.691   03 Jun 2027 03:25:55.785            26.094                 Moscow           815.438
       267   03 Jun 2027 03:26:08.702   03 Jun 2027 03:26:26.993            18.291              Murmansk1           571.594
       268   03 Jun 2027 03:26:36.681   03 Jun 2027 03:26:47.444            10.763                Novosib           336.344
       269   03 Jun 2027 03:27:14.844   03 Jun 2027 03:27:55.955            41.111                 Moscow          1284.719
       270   03 Jun 2027 03:28:01.941   03 Jun 2027 03:29:34.171            92.230              Murmansk2          2882.187
       271   03 Jun 2027 03:29:52.649   03 Jun 2027 03:29:55.055             2.406                 Moscow            75.187
       272   03 Jun 2027 03:30:41.477   03 Jun 2027 03:31:22.886            41.409                 Moscow          1294.031
       273   03 Jun 2027 03:44:14.519   03 Jun 2027 03:47:59.353           224.834               CapeTown          7026.063
       274   03 Jun 2027 04:40:53.182   03 Jun 2027 04:44:39.489           226.307                Anadyr2          7072.094
       275   03 Jun 2027 04:47:36.694   03 Jun 2027 04:50:45.602           188.908               Magadan2          5903.375
       276   03 Jun 2027 04:50:45.602   03 Jun 2027 04:50:54.822             9.220               Magadan1           288.125
       277   03 Jun 2027 04:51:48.399   03 Jun 2027 04:52:06.837            18.438                Anadyr2           576.188
       278   03 Jun 2027 04:52:43.166   03 Jun 2027 04:53:24.734            41.568                Anadyr2          1299.000
       279   03 Jun 2027 06:21:42.302   03 Jun 2027 06:21:52.587            10.285               Magadan1           321.406
       280   03 Jun 2027 06:22:15.241   03 Jun 2027 06:23:07.055            51.814                Anadyr2          1619.187
       281   03 Jun 2027 06:23:22.173   03 Jun 2027 06:24:20.573            58.400                Anadyr1          1825.000
       282   03 Jun 2027 06:24:49.879   03 Jun 2027 06:25:58.112            68.233                Anadyr2          2132.281
       283   03 Jun 2027 06:26:09.197   03 Jun 2027 06:27:27.933            78.736               Magadan1          2460.500
       284   03 Jun 2027 07:56:43.274   03 Jun 2027 07:57:49.763            66.489               Magadan1          2077.781
       285   03 Jun 2027 07:58:08.013   03 Jun 2027 07:58:17.367             9.354                Anadyr2           292.312
       286   03 Jun 2027 07:59:08.258   03 Jun 2027 08:00:12.564            64.306                Anadyr2          2009.562
       287   03 Jun 2027 08:01:33.855   03 Jun 2027 08:01:49.174            15.319               Magadan1           478.719
       288   03 Jun 2027 08:02:12.557   03 Jun 2027 08:02:44.987            32.430                Anadyr1          1013.438
       289   03 Jun 2027 08:02:47.917   03 Jun 2027 08:02:59.220            11.303               Magadan1           353.219
       290   03 Jun 2027 08:03:04.197   03 Jun 2027 08:03:43.961            39.764               Magadan1          1242.625
       291   03 Jun 2027 08:03:52.603   03 Jun 2027 08:04:36.928            44.325                Anadyr2          1385.156
       292   03 Jun 2027 08:07:01.166   03 Jun 2027 08:07:32.511            31.345              Murmansk2           979.531
       293   03 Jun 2027 08:40:23.107   03 Jun 2027 08:41:09.601            46.494            RioGallegos          1452.937
       294   03 Jun 2027 09:18:20.574   03 Jun 2027 09:19:35.765            75.191                Sumatra          2349.719
       295   03 Jun 2027 09:34:33.267   03 Jun 2027 09:35:02.356            29.089                Novosib           909.031
       296   03 Jun 2027 09:35:46.169   03 Jun 2027 09:36:37.649            51.480               Magadan2          1608.750
       297   03 Jun 2027 09:37:18.218   03 Jun 2027 09:37:48.367            30.149                Irkutsk           942.156
       298   03 Jun 2027 09:38:33.895   03 Jun 2027 09:39:06.305            32.410                Irkutsk          1012.813
       299   03 Jun 2027 09:39:08.781   03 Jun 2027 09:40:01.253            52.472                Irkutsk          1639.750
       300   03 Jun 2027 09:40:27.409   03 Jun 2027 09:40:29.436             2.027                Irkutsk            63.344
       301   03 Jun 2027 09:40:32.137   03 Jun 2027 09:40:44.469            12.332                Irkutsk           385.375
       302   03 Jun 2027 09:40:53.295   03 Jun 2027 09:41:23.065            29.770                Novosib           930.312
       303   03 Jun 2027 10:16:05.228   03 Jun 2027 10:17:20.770            75.542            RioGallegos          2360.687
       304   03 Jun 2027 10:54:08.115   03 Jun 2027 10:54:50.819            42.704                Sumatra          1334.500
       305   03 Jun 2027 11:00:54.448   03 Jun 2027 11:00:57.855             3.407                  Delhi           106.469
       306   03 Jun 2027 11:10:33.288   03 Jun 2027 11:10:35.423             2.135                  Delhi            66.719
       307   03 Jun 2027 11:10:40.627   03 Jun 2027 11:11:02.733            22.106                  Delhi           690.812
       308   03 Jun 2027 11:12:08.157   03 Jun 2027 11:12:26.188            18.031                Irkutsk           563.469
       309   03 Jun 2027 11:13:45.438   03 Jun 2027 11:14:33.142            47.704                Irkutsk          1490.750
       310   03 Jun 2027 11:14:59.289   03 Jun 2027 11:15:26.413            27.124                Irkutsk           847.625
       311   03 Jun 2027 11:15:35.426   03 Jun 2027 11:16:34.617            59.191                Novosib          1849.719
       312   03 Jun 2027 11:16:48.455   03 Jun 2027 11:17:25.764            37.309                Novosib          1165.906
       313   03 Jun 2027 11:56:52.666   03 Jun 2027 11:57:06.168            13.502            RioGallegos           421.938
       314   03 Jun 2027 11:57:48.262   03 Jun 2027 11:59:02.860            74.598            RioGallegos          2331.187
       315   03 Jun 2027 12:37:05.308   03 Jun 2027 12:37:54.899            49.591                  Delhi          1549.719
       316   03 Jun 2027 12:38:34.874   03 Jun 2027 12:39:41.183            66.309                  Delhi          2072.156
       317   03 Jun 2027 12:43:00.308   03 Jun 2027 12:43:34.575            34.267                Novosib          1070.844
       318   03 Jun 2027 12:45:18.165   03 Jun 2027 12:46:54.838            96.673                Novosib          3021.031
       319   03 Jun 2027 14:19:15.512   03 Jun 2027 14:22:20.831           185.319                 Moscow          5791.219
       320   03 Jun 2027 14:22:43.797   03 Jun 2027 14:25:37.573           173.776              Murmansk1          5430.500
       321   03 Jun 2027 14:27:08.107   03 Jun 2027 14:28:35.740            87.633                Norilsk          2738.531
       322   03 Jun 2027 15:33:38.809   03 Jun 2027 15:36:49.502           190.693               CapeTown          5959.156
       323   03 Jun 2027 15:56:53.352   03 Jun 2027 15:57:40.873            47.521                 Moscow          1485.031
       324   03 Jun 2027 15:59:56.102   03 Jun 2027 16:00:21.204            25.102              Murmansk2           784.437
       325   03 Jun 2027 16:01:05.555   03 Jun 2027 16:01:42.117            36.562              Murmansk2          1142.562
       326   03 Jun 2027 16:13:43.030   03 Jun 2027 16:13:47.964             4.934                Anadyr2           154.187
       327   03 Jun 2027 16:14:01.775   03 Jun 2027 16:15:23.326            81.551                Anadyr1          2548.469
       328   03 Jun 2027 16:17:04.579   03 Jun 2027 16:17:39.280            34.701                Anadyr2          1084.406
       329   03 Jun 2027 16:22:27.338   03 Jun 2027 16:23:06.244            38.906                Anadyr1          1215.812
       330   03 Jun 2027 17:08:48.955   03 Jun 2027 17:09:39.052            50.097               CapeTown          1565.531
       331   03 Jun 2027 17:09:46.819   03 Jun 2027 17:10:51.153            64.334               CapeTown          2010.437
       332   03 Jun 2027 17:39:28.262   03 Jun 2027 17:41:05.136            96.874              Murmansk2          3027.312
       333   03 Jun 2027 17:41:14.638   03 Jun 2027 17:42:33.200            78.562              Murmansk1          2455.062
       334   03 Jun 2027 17:49:19.198   03 Jun 2027 17:50:16.969            57.771                Anadyr2          1805.344
       335   03 Jun 2027 17:52:27.152   03 Jun 2027 17:52:43.328            16.176                Anadyr1           505.500
       336   03 Jun 2027 17:53:27.163   03 Jun 2027 17:53:47.350            20.187                Anadyr1           630.844
       337   03 Jun 2027 17:53:53.475   03 Jun 2027 17:54:52.480            59.005               Magadan2          1843.906
       338   03 Jun 2027 17:54:59.042   03 Jun 2027 17:55:05.428             6.386               Magadan1           199.562
       339   03 Jun 2027 17:55:17.565   03 Jun 2027 17:55:52.958            35.393               Magadan2          1106.031
       340   03 Jun 2027 19:25:14.553   03 Jun 2027 19:27:07.455           112.902                Anadyr1          3528.188
       341   03 Jun 2027 19:27:19.867   03 Jun 2027 19:28:54.827            94.960                Anadyr2          2967.500
       342   03 Jun 2027 19:29:05.471   03 Jun 2027 19:29:54.287            48.816               Magadan2          1525.500
       343   03 Jun 2027 19:30:22.345   03 Jun 2027 19:31:15.011            52.666               Magadan1          1645.813
       344   03 Jun 2027 19:32:41.794   03 Jun 2027 19:33:06.682            24.888               Magadan2           777.750
       345   03 Jun 2027 19:34:31.298   03 Jun 2027 19:35:02.444            31.146               Magadan2           973.313
       346   03 Jun 2027 19:35:46.106   03 Jun 2027 19:35:49.458             3.352               Magadan2           104.750
       347   03 Jun 2027 19:36:19.952   03 Jun 2027 19:36:21.137             1.185               Magadan2            37.031
       348   03 Jun 2027 19:36:37.173   03 Jun 2027 19:36:44.796             7.623               Magadan2           238.219
       349   03 Jun 2027 19:38:27.825   03 Jun 2027 19:38:47.695            19.870               Magadan1           620.937
       350   03 Jun 2027 20:22:03.695   03 Jun 2027 20:24:09.521           125.826            RioGallegos          3932.062
       351   03 Jun 2027 21:01:04.796   03 Jun 2027 21:02:26.522            81.726                Anadyr1          2553.938
       352   03 Jun 2027 21:02:56.900   03 Jun 2027 21:03:15.314            18.414                Anadyr1           575.438
       353   03 Jun 2027 21:03:15.753   03 Jun 2027 21:05:52.707           156.954                Norilsk          4904.812
       354   03 Jun 2027 21:05:59.226   03 Jun 2027 21:06:03.557             4.331                Norilsk           135.344
       355   03 Jun 2027 21:06:22.188   03 Jun 2027 21:06:51.470            29.282                Norilsk           915.063
       356   03 Jun 2027 21:08:21.978   03 Jun 2027 21:11:25.207           183.229                Irkutsk          5725.906
       357   03 Jun 2027 21:23:41.684   03 Jun 2027 21:24:57.849            76.165                Sumatra          2380.156
       358   03 Jun 2027 21:29:32.235   03 Jun 2027 21:31:16.669           104.434                Sumatra          3263.563
       359   03 Jun 2027 22:38:58.485   03 Jun 2027 22:39:58.639            60.154                Norilsk          1879.813
       360   03 Jun 2027 22:40:12.511   03 Jun 2027 22:40:18.851             6.340               Magadan2           198.125
       361   03 Jun 2027 22:40:32.189   03 Jun 2027 22:40:49.996            17.807                Norilsk           556.469
       362   03 Jun 2027 22:42:54.929   03 Jun 2027 22:44:08.738            73.809                Irkutsk          2306.531
       363   03 Jun 2027 22:44:27.506   03 Jun 2027 22:44:51.093            23.587                Novosib           737.094
       364   03 Jun 2027 22:46:31.865   03 Jun 2027 22:46:57.105            25.240                Novosib           788.750
       365   03 Jun 2027 22:47:27.113   03 Jun 2027 22:47:39.195            12.082                Novosib           377.562
       366   03 Jun 2027 22:54:43.276   03 Jun 2027 22:55:37.789            54.513                  Delhi          1703.531
       367   03 Jun 2027 22:56:43.355   03 Jun 2027 22:57:50.756            67.401                  Delhi          2106.281
       368   03 Jun 2027 23:43:04.037   03 Jun 2027 23:43:16.300            12.263            RioGallegos           383.219
       369   04 Jun 2027 00:10:37.655   04 Jun 2027 00:10:48.026            10.371                Anadyr2           324.094
       370   04 Jun 2027 00:11:36.899   04 Jun 2027 00:13:06.628            89.729                Anadyr2          2804.031
       371   04 Jun 2027 00:14:58.614   04 Jun 2027 00:16:00.690            62.076                Norilsk          1939.875
       372   04 Jun 2027 00:16:09.871   04 Jun 2027 00:16:47.077            37.206                Norilsk          1162.688
       373   04 Jun 2027 00:16:48.177   04 Jun 2027 00:17:20.044            31.867               Magadan1           995.844
       374   04 Jun 2027 00:18:05.350   04 Jun 2027 00:20:18.516           133.166              Murmansk2          4161.437
       375   04 Jun 2027 00:20:30.892   04 Jun 2027 00:20:57.535            26.643              Murmansk2           832.594
       376   04 Jun 2027 00:21:49.017   04 Jun 2027 00:22:34.381            45.364              Murmansk2          1417.625
       377   04 Jun 2027 00:29:49.562   04 Jun 2027 00:30:08.957            19.395                  Delhi           606.094
       378   04 Jun 2027 00:31:42.128   04 Jun 2027 00:32:10.290            28.162                  Delhi           880.063
       379   04 Jun 2027 00:38:51.103   04 Jun 2027 00:38:54.247             3.144                  Delhi            98.250
       380   04 Jun 2027 01:07:52.106   04 Jun 2027 01:09:03.997            71.891            RioGallegos          2246.594
       381   04 Jun 2027 01:13:54.838   04 Jun 2027 01:14:21.748            26.910            RioGallegos           840.937
       382   04 Jun 2027 01:43:56.101   04 Jun 2027 01:44:23.031            26.930                Anadyr1           841.563
       383   04 Jun 2027 01:44:49.033   04 Jun 2027 01:45:11.551            22.518                Anadyr1           703.688
       384   04 Jun 2027 01:45:39.620   04 Jun 2027 01:46:22.354            42.734                Anadyr1          1335.437
       385   04 Jun 2027 01:47:07.937   04 Jun 2027 01:47:21.075            13.138                Anadyr2           410.563
       386   04 Jun 2027 01:49:41.040   04 Jun 2027 01:49:51.217            10.177                Anadyr2           318.031
       387   04 Jun 2027 01:50:03.297   04 Jun 2027 01:50:16.968            13.671                Anadyr2           427.219
       388   04 Jun 2027 01:50:44.423   04 Jun 2027 01:51:00.999            16.576               Magadan2           518.000
       389   04 Jun 2027 01:51:06.667   04 Jun 2027 01:51:15.343             8.676                Norilsk           271.125
       390   04 Jun 2027 01:51:29.041   04 Jun 2027 01:52:16.256            47.215               Magadan1          1475.469
       391   04 Jun 2027 01:52:38.523   04 Jun 2027 01:52:49.549            11.026                Norilsk           344.563
       392   04 Jun 2027 01:53:09.854   04 Jun 2027 01:55:27.707           137.853              Murmansk1          4307.906
       393   04 Jun 2027 01:56:21.689   04 Jun 2027 01:56:51.911            30.222                Novosib           944.438
       394   04 Jun 2027 01:57:44.300   04 Jun 2027 01:58:21.153            36.853                 Moscow          1151.656
       395   04 Jun 2027 02:04:20.729   04 Jun 2027 02:05:06.318            45.589                  Delhi          1424.656
       396   04 Jun 2027 02:23:34.008   04 Jun 2027 02:23:39.272             5.264               CapeTown           164.500
       397   04 Jun 2027 02:23:46.176   04 Jun 2027 02:25:22.547            96.371               CapeTown          3011.594
       398   04 Jun 2027 03:22:29.840   04 Jun 2027 03:23:00.500            30.660                Anadyr2           958.125
       399   04 Jun 2027 03:38:38.979   04 Jun 2027 03:39:17.093            38.114              Murmansk2          1191.063
       400   04 Jun 2027 03:39:56.934   04 Jun 2027 03:41:44.603           107.669              Murmansk2          3364.656
       401   04 Jun 2027 03:41:53.467   04 Jun 2027 03:42:48.264            54.797                 Moscow          1712.406
       402   04 Jun 2027 03:56:11.404   04 Jun 2027 03:59:03.496           172.092               CapeTown          5377.875
       403   04 Jun 2027 04:03:30.309   04 Jun 2027 04:04:43.758            73.449               CapeTown          2295.281
       404   04 Jun 2027 04:05:46.888   04 Jun 2027 04:06:28.949            42.061               CapeTown          1314.406
       405   04 Jun 2027 04:52:55.684   04 Jun 2027 04:54:08.762            73.078                Anadyr2          2283.688
       406   04 Jun 2027 04:54:16.714   04 Jun 2027 04:55:08.024            51.310                Anadyr2          1603.438
       407   04 Jun 2027 04:58:33.463   04 Jun 2027 04:59:01.195            27.732               Magadan1           866.625
       408   04 Jun 2027 04:59:17.654   04 Jun 2027 05:03:10.624           232.970               Magadan1          7280.313
       409   04 Jun 2027 05:03:15.820   04 Jun 2027 05:03:51.672            35.852                Anadyr2          1120.375
       410   04 Jun 2027 05:04:11.750   04 Jun 2027 05:04:39.981            28.231                Anadyr2           882.219
       411   04 Jun 2027 06:36:05.296   04 Jun 2027 06:36:30.098            24.802               Magadan2           775.062
       412   04 Jun 2027 06:36:59.857   04 Jun 2027 06:37:58.425            58.568                Anadyr2          1830.250
       413   04 Jun 2027 06:38:08.862   04 Jun 2027 06:39:27.937            79.075               Magadan1          2471.094
       414   04 Jun 2027 08:08:40.789   04 Jun 2027 08:09:53.035            72.246               Magadan1          2257.688
       415   04 Jun 2027 08:10:20.795   04 Jun 2027 08:10:57.249            36.454               Magadan2          1139.188
       416   04 Jun 2027 08:11:05.123   04 Jun 2027 08:11:34.194            29.071               Magadan2           908.469
       417   04 Jun 2027 08:11:59.544   04 Jun 2027 08:12:28.507            28.963               Magadan2           905.094
       418   04 Jun 2027 08:13:33.091   04 Jun 2027 08:13:52.211            19.120               Magadan2           597.500
       419   04 Jun 2027 08:14:13.860   04 Jun 2027 08:15:13.095            59.235                Anadyr1          1851.094
       420   04 Jun 2027 08:15:13.095   04 Jun 2027 08:15:31.332            18.237                Anadyr2           569.906
       421   04 Jun 2027 08:15:41.352   04 Jun 2027 08:16:29.258            47.906               Magadan2          1497.063
       422   04 Jun 2027 08:17:09.175   04 Jun 2027 08:17:09.724             0.549               Magadan1            17.156
       423   04 Jun 2027 08:19:05.228   04 Jun 2027 08:19:28.038            22.810              Murmansk2           712.812
       424   04 Jun 2027 08:52:11.461   04 Jun 2027 08:53:10.826            59.365            RioGallegos          1855.156
       425   04 Jun 2027 09:29:10.781   04 Jun 2027 09:30:06.665            55.884                Sumatra          1746.375
       426   04 Jun 2027 09:47:22.347   04 Jun 2027 09:48:11.038            48.691                Irkutsk          1521.594
       427   04 Jun 2027 09:48:14.379   04 Jun 2027 09:48:15.285             0.906                Irkutsk            28.312
       428   04 Jun 2027 09:49:41.606   04 Jun 2027 09:50:06.286            24.680                Novosib           771.250
       429   04 Jun 2027 09:51:10.944   04 Jun 2027 09:51:13.939             2.995                Irkutsk            93.594
       430   04 Jun 2027 09:52:05.479   04 Jun 2027 09:52:30.415            24.936                Irkutsk           779.250
       431   04 Jun 2027 09:52:34.129   04 Jun 2027 09:52:43.843             9.714                Novosib           303.563
       432   04 Jun 2027 09:52:54.211   04 Jun 2027 09:52:56.122             1.911                Irkutsk            59.719
       433   04 Jun 2027 09:53:11.989   04 Jun 2027 09:53:15.761             3.772                Novosib           117.875
       434   04 Jun 2027 10:28:20.965   04 Jun 2027 10:29:03.760            42.795            RioGallegos          1337.344
       435   04 Jun 2027 10:30:53.623   04 Jun 2027 10:31:10.509            16.886            RioGallegos           527.688
       436   04 Jun 2027 11:02:47.058   04 Jun 2027 11:03:04.963            17.905                Sumatra           559.531
       437   04 Jun 2027 11:05:03.965   04 Jun 2027 11:05:43.251            39.286                Sumatra          1227.688
       438   04 Jun 2027 11:11:03.573   04 Jun 2027 11:11:24.617            21.044                Sumatra           657.625
       439   04 Jun 2027 11:17:49.523   04 Jun 2027 11:17:54.176             4.653                  Delhi           145.406
       440   04 Jun 2027 11:21:47.757   04 Jun 2027 11:22:48.877            61.120                  Delhi          1910.000
       441   04 Jun 2027 11:23:41.611   04 Jun 2027 11:24:11.792            30.181                Irkutsk           943.156
       442   04 Jun 2027 11:24:57.618   04 Jun 2027 11:25:21.788            24.170                Norilsk           755.313
       443   04 Jun 2027 11:25:27.127   04 Jun 2027 11:26:24.270            57.143                Irkutsk          1785.719
       444   04 Jun 2027 11:26:30.127   04 Jun 2027 11:26:34.252             4.125                Norilsk           128.906
       445   04 Jun 2027 11:27:03.025   04 Jun 2027 11:27:21.871            18.846                Novosib           588.938
       446   04 Jun 2027 11:27:27.421   04 Jun 2027 11:27:28.110             0.689                Irkutsk            21.531
       447   04 Jun 2027 11:27:41.805   04 Jun 2027 11:28:02.852            21.047                Norilsk           657.719
       448   04 Jun 2027 11:28:14.499   04 Jun 2027 11:28:35.127            20.628                Irkutsk           644.625
       449   04 Jun 2027 11:28:39.184   04 Jun 2027 11:28:56.620            17.436                Norilsk           544.875
       450   04 Jun 2027 12:47:21.356   04 Jun 2027 12:48:07.090            45.734                  Delhi          1429.187
       451   04 Jun 2027 12:49:00.285   04 Jun 2027 12:49:41.266            40.981                  Delhi          1280.656
       452   04 Jun 2027 12:52:02.420   04 Jun 2027 12:52:18.055            15.635                  Delhi           488.594
       453   04 Jun 2027 12:55:29.143   04 Jun 2027 12:57:21.346           112.203                Novosib          3506.344
       454   04 Jun 2027 12:59:06.844   04 Jun 2027 12:59:15.790             8.946              Murmansk2           279.563
       455   04 Jun 2027 12:59:25.561   04 Jun 2027 13:00:15.853            50.292                Norilsk          1571.625
       456   04 Jun 2027 13:00:48.028   04 Jun 2027 13:00:53.244             5.216                Norilsk           163.000
       457   04 Jun 2027 13:02:11.985   04 Jun 2027 13:02:34.859            22.874                Norilsk           714.813
       458   04 Jun 2027 13:03:10.577   04 Jun 2027 13:04:15.513            64.936                Norilsk          2029.250
       459   04 Jun 2027 14:31:18.118   04 Jun 2027 14:34:35.521           197.403                 Moscow          6168.844
       460   04 Jun 2027 14:34:48.685   04 Jun 2027 14:36:09.116            80.431              Murmansk2          2513.469
       461   04 Jun 2027 14:37:00.195   04 Jun 2027 14:37:29.853            29.658              Murmansk1           926.813
       462   04 Jun 2027 14:39:56.870   04 Jun 2027 14:40:37.389            40.519                Norilsk          1266.219
       463   04 Jun 2027 14:40:51.018   04 Jun 2027 14:42:04.296            73.278                Norilsk          2289.938
       464   04 Jun 2027 14:44:21.647   04 Jun 2027 14:44:35.396            13.749                Norilsk           429.656
       465   04 Jun 2027 15:45:21.587   04 Jun 2027 15:46:49.238            87.651               CapeTown          2739.094
       466   04 Jun 2027 15:51:37.468   04 Jun 2027 15:51:43.277             5.809               CapeTown           181.531
       467   04 Jun 2027 15:55:38.830   04 Jun 2027 15:56:22.795            43.965               CapeTown          1373.906
       468   04 Jun 2027 16:09:54.828   04 Jun 2027 16:09:56.745             1.917                 Moscow            59.906
       469   04 Jun 2027 16:10:54.028   04 Jun 2027 16:11:16.974            22.946                 Moscow           717.062
       470   04 Jun 2027 16:12:16.008   04 Jun 2027 16:13:02.615            46.607              Murmansk2          1456.469
       471   04 Jun 2027 16:14:03.396   04 Jun 2027 16:14:23.466            20.070              Murmansk1           627.188
       472   04 Jun 2027 16:16:08.841   04 Jun 2027 16:16:57.029            48.188              Murmansk2          1505.875
       473   04 Jun 2027 16:25:39.337   04 Jun 2027 16:27:40.850           121.513                Anadyr1          3797.281
       474   04 Jun 2027 16:30:04.888   04 Jun 2027 16:30:14.301             9.413                Anadyr2           294.156
       475   04 Jun 2027 16:30:56.149   04 Jun 2027 16:31:20.141            23.992                Anadyr2           749.750
       476   04 Jun 2027 17:20:58.320   04 Jun 2027 17:22:29.314            90.994               CapeTown          2843.563
       477   04 Jun 2027 17:52:11.131   04 Jun 2027 17:55:36.197           205.066              Murmansk2          6408.313
       478   04 Jun 2027 17:55:36.197   04 Jun 2027 17:56:58.522            82.325              Murmansk1          2572.656
       479   04 Jun 2027 18:04:21.400   04 Jun 2027 18:06:25.638           124.238               Magadan2          3882.438
       480   04 Jun 2027 18:06:25.638   04 Jun 2027 18:07:03.095            37.457               Magadan1          1170.531
       481   04 Jun 2027 19:37:16.016   04 Jun 2027 19:39:21.543           125.527                Anadyr2          3922.719
       482   04 Jun 2027 19:39:34.124   04 Jun 2027 19:43:40.601           246.477               Magadan1          7702.406
