uniorb/output/strategy_4/Drop/Drop_KinoSat_110209.txt

KinoSat_110209
-------------------------
    Access    *     Start Time (UTCG)     *     Stop Time (UTCG)  *   Duration (s)        *       Station  *  Data (Mbytes)
         1   01 Jun 2027 03:24:06.441   01 Jun 2027 03:24:22.641            16.200               Magadan1          2025.000
         2   01 Jun 2027 03:25:11.966   01 Jun 2027 03:27:38.878           146.912               Magadan1         18364.000
         3   01 Jun 2027 03:27:38.878   01 Jun 2027 03:29:11.646            92.768               Magadan2         11596.000
         4   01 Jun 2027 03:35:32.475   01 Jun 2027 03:36:08.136            35.661              Murmansk1          4457.625
         5   01 Jun 2027 04:04:54.228   01 Jun 2027 04:05:04.861            10.633            RioGallegos          1329.125
         6   01 Jun 2027 04:06:47.365   01 Jun 2027 04:08:04.682            77.317            RioGallegos          9664.625
         7   01 Jun 2027 04:39:47.203   01 Jun 2027 04:43:49.323           242.120                Sumatra         30265.000
         8   01 Jun 2027 05:02:27.677   01 Jun 2027 05:03:07.768            40.091                Irkutsk          5011.375
         9   01 Jun 2027 05:03:15.516   01 Jun 2027 05:04:26.894            71.378                Novosib          8922.250
        10   01 Jun 2027 05:04:43.594   01 Jun 2027 05:05:45.840            62.246                Novosib          7780.750
        11   01 Jun 2027 06:18:52.147   01 Jun 2027 06:21:11.440           139.293                Sumatra         17411.625
        12   01 Jun 2027 06:24:51.140   01 Jun 2027 06:25:48.503            57.363                  Delhi          7170.375
        13   01 Jun 2027 06:40:11.594   01 Jun 2027 06:41:12.828            61.234                 Moscow          7654.250
        14   01 Jun 2027 06:41:35.902   01 Jun 2027 06:42:37.194            61.292              Murmansk1          7661.500
        15   01 Jun 2027 06:43:23.875   01 Jun 2027 06:43:26.026             2.151                 Moscow           268.875
        16   01 Jun 2027 06:44:20.584   01 Jun 2027 06:44:58.322            37.738                 Moscow          4717.250
        17   01 Jun 2027 08:13:16.020   01 Jun 2027 08:15:14.290           118.270                 Moscow         14783.750
        18   01 Jun 2027 08:15:37.090   01 Jun 2027 08:16:16.721            39.631                 Moscow          4953.875
        19   01 Jun 2027 08:16:30.502   01 Jun 2027 08:16:52.452            21.950                Norilsk          2743.750
        20   01 Jun 2027 08:17:28.546   01 Jun 2027 08:20:50.722           202.176                Norilsk         25272.000
        21   01 Jun 2027 09:23:27.749   01 Jun 2027 09:29:27.495           359.746               CapeTown         44968.250
        22   01 Jun 2027 11:38:37.519   01 Jun 2027 11:38:56.747            19.228                Anadyr1          2403.500
        23   01 Jun 2027 13:16:42.771   01 Jun 2027 13:22:44.089           361.318               Magadan1         45164.750
        24   01 Jun 2027 15:44:22.933   01 Jun 2027 15:47:35.991           193.058            RioGallegos         24132.250
        25   01 Jun 2027 16:32:04.570   01 Jun 2027 16:33:39.873            95.303                Irkutsk         11912.875
        26   01 Jun 2027 16:40:35.476   01 Jun 2027 16:41:11.534            36.058                Novosib          4507.250
        27   01 Jun 2027 16:45:45.267   01 Jun 2027 16:48:53.169           187.902                Sumatra         23487.750
        28   01 Jun 2027 18:12:40.737   01 Jun 2027 18:14:48.509           127.772                Novosib         15971.500
        29   01 Jun 2027 18:15:24.428   01 Jun 2027 18:18:02.024           157.596                  Delhi         19699.500
        30   01 Jun 2027 19:46:32.114   01 Jun 2027 19:47:33.110            60.996                 Moscow          1447.875
        31   02 Jun 2027 03:42:22.568   02 Jun 2027 03:45:33.519           190.951                Norilsk         23868.875
        32   02 Jun 2027 04:17:03.605   02 Jun 2027 04:17:24.623            21.018            RioGallegos          2627.250
        33   02 Jun 2027 04:24:30.798   02 Jun 2027 04:24:58.476            27.678            RioGallegos          3459.750
        34   02 Jun 2027 04:25:27.908   02 Jun 2027 04:26:48.318            80.410            RioGallegos         10051.250
        35   02 Jun 2027 04:51:44.727   02 Jun 2027 04:52:20.256            35.529                Sumatra          4441.125
        36   02 Jun 2027 04:54:54.353   02 Jun 2027 04:57:03.389           129.036                Sumatra         16129.500
        37   02 Jun 2027 05:15:50.560   02 Jun 2027 05:16:53.218            62.658                Irkutsk          7832.250
        38   02 Jun 2027 05:17:30.856   02 Jun 2027 05:17:59.729            28.873                Norilsk          3609.125
        39   02 Jun 2027 05:18:22.108   02 Jun 2027 05:23:08.710           286.602                Norilsk         35825.250
        40   02 Jun 2027 05:23:11.367   02 Jun 2027 05:25:18.048           126.681              Murmansk2         15835.125
        41   02 Jun 2027 05:57:10.776   02 Jun 2027 06:01:18.188           247.412            RioGallegos         30926.500
        42   02 Jun 2027 06:02:25.244   02 Jun 2027 06:02:57.582            32.338            RioGallegos          4042.250
        43   02 Jun 2027 06:37:17.123   02 Jun 2027 06:38:40.878            83.755                  Delhi         10469.375
        44   02 Jun 2027 06:40:52.199   02 Jun 2027 06:42:21.022            88.823                  Delhi         11102.875
        45   02 Jun 2027 06:53:46.111   02 Jun 2027 06:54:13.934            27.823                Novosib          3477.875
        46   02 Jun 2027 06:54:15.278   02 Jun 2027 06:56:39.089           143.811                Norilsk         17976.375
        47   02 Jun 2027 06:56:40.710   02 Jun 2027 06:59:00.188           139.478              Murmansk2         17434.750
        48   02 Jun 2027 08:20:21.066   02 Jun 2027 08:23:38.444           197.378                 Moscow         24672.250
        49   02 Jun 2027 08:30:11.296   02 Jun 2027 08:33:14.867           183.571                 Moscow         22946.375
        50   02 Jun 2027 08:33:16.918   02 Jun 2027 08:34:46.412            89.494                Norilsk         11186.750
        51   02 Jun 2027 08:35:24.305   02 Jun 2027 08:36:43.971            79.666              Murmansk1          9958.250
        52   02 Jun 2027 09:34:58.628   02 Jun 2027 09:44:15.775           557.147               CapeTown         69643.375
        53   02 Jun 2027 09:57:42.215   02 Jun 2027 10:01:05.942           203.727                 Moscow         25465.875
        54   02 Jun 2027 10:01:12.407   02 Jun 2027 10:02:29.968            77.561              Murmansk1          9695.125
        55   02 Jun 2027 10:03:16.325   02 Jun 2027 10:04:55.264            98.939              Murmansk1         12367.375
        56   02 Jun 2027 10:07:07.200   02 Jun 2027 10:07:39.976            32.776                 Moscow          4097.000
        57   02 Jun 2027 10:08:23.607   02 Jun 2027 10:08:30.053             6.446              Murmansk2           805.750
        58   02 Jun 2027 10:09:11.469   02 Jun 2027 10:10:14.154            62.685              Murmansk2          7835.625
        59   02 Jun 2027 10:14:52.880   02 Jun 2027 10:24:19.541           566.661                Anadyr1         70832.625
        60   02 Jun 2027 11:46:28.235   02 Jun 2027 11:46:45.703            17.468              Murmansk2          2183.500
        61   02 Jun 2027 11:47:11.906   02 Jun 2027 11:47:15.693             3.787              Murmansk2           473.375
        62   02 Jun 2027 11:50:24.790   02 Jun 2027 11:52:47.228           142.438                Anadyr2         17804.750
        63   02 Jun 2027 11:54:43.367   02 Jun 2027 11:57:55.174           191.807               Magadan2         23975.875
        64   02 Jun 2027 13:31:00.597   02 Jun 2027 13:33:26.710           146.113               Magadan2         18264.125
        65   02 Jun 2027 15:25:35.861   02 Jun 2027 15:29:13.126           217.265                Sumatra         27158.125
        66   02 Jun 2027 15:56:16.706   02 Jun 2027 15:58:29.593           132.887            RioGallegos         16610.875
        67   02 Jun 2027 16:44:57.834   02 Jun 2027 16:46:18.368            80.534                Novosib         10066.750
        68   02 Jun 2027 16:57:45.581   02 Jun 2027 17:00:05.909           140.328                Sumatra         17541.000
        69   02 Jun 2027 17:05:28.877   02 Jun 2027 17:07:24.385           115.508                Sumatra         14438.500
        70   02 Jun 2027 18:23:50.363   02 Jun 2027 18:24:42.404            52.041                Novosib          6505.125
        71   02 Jun 2027 18:30:15.820   02 Jun 2027 18:30:28.065            12.245                  Delhi          1530.625
        72   02 Jun 2027 18:32:08.591   02 Jun 2027 18:32:45.718            37.127                  Delhi          4640.875
        73   02 Jun 2027 18:35:02.129   02 Jun 2027 18:36:41.567            99.438                  Delhi         12429.750
        74   02 Jun 2027 19:58:16.985   02 Jun 2027 19:59:47.513            90.528                 Moscow         11316.000
        75   02 Jun 2027 20:07:42.229   02 Jun 2027 20:08:00.850            18.621                 Moscow          2327.625
        76   02 Jun 2027 21:42:58.668   02 Jun 2027 21:44:53.261           114.593                 Moscow         14324.125
        77   02 Jun 2027 22:02:28.794   02 Jun 2027 22:05:00.320           151.526               CapeTown          7303.125
        78   03 Jun 2027 03:54:15.372   03 Jun 2027 03:57:19.859           184.487                Norilsk         23060.875
        79   03 Jun 2027 05:03:47.838   03 Jun 2027 05:05:43.095           115.257                Sumatra         14407.125
        80   03 Jun 2027 05:13:23.533   03 Jun 2027 05:14:25.820            62.287                  Delhi          7785.875
        81   03 Jun 2027 05:30:20.644   03 Jun 2027 05:34:41.250           260.606              Murmansk1         32575.750
        82   03 Jun 2027 05:34:41.250   03 Jun 2027 05:35:23.939            42.689              Murmansk2          5336.125
        83   03 Jun 2027 06:13:58.828   03 Jun 2027 06:14:27.174            28.346            RioGallegos          3543.250
        84   03 Jun 2027 06:48:15.991   03 Jun 2027 06:52:48.724           272.733                  Delhi         34091.625
        85   03 Jun 2027 06:54:29.192   03 Jun 2027 06:55:20.749            51.557                  Delhi          6444.625
        86   03 Jun 2027 06:56:01.017   03 Jun 2027 06:57:29.237            88.220                  Delhi         11027.500
        87   03 Jun 2027 06:57:46.944   03 Jun 2027 07:01:14.167           207.223                 Moscow         25902.875
        88   03 Jun 2027 07:05:49.646   03 Jun 2027 07:08:05.058           135.412              Murmansk1         16926.500
        89   03 Jun 2027 07:08:09.103   03 Jun 2027 07:11:09.215           180.112                Norilsk         22514.000
        90   03 Jun 2027 07:11:28.562   03 Jun 2027 07:11:57.639            29.077              Murmansk1          3634.625
        91   03 Jun 2027 07:12:48.959   03 Jun 2027 07:12:51.082             2.123              Murmansk1           265.375
        92   03 Jun 2027 08:35:40.570   03 Jun 2027 08:35:54.222            13.652                 Moscow          1706.500
        93   03 Jun 2027 08:36:39.922   03 Jun 2027 08:37:47.634            67.712              Murmansk1          8464.000
        94   03 Jun 2027 08:40:51.968   03 Jun 2027 08:45:15.708           263.740                 Moscow         32967.500
        95   03 Jun 2027 08:45:24.152   03 Jun 2027 08:48:45.603           201.451              Murmansk2         25181.375
        96   03 Jun 2027 09:47:52.027   03 Jun 2027 09:53:01.975           309.948               CapeTown         38743.500
        97   03 Jun 2027 10:13:09.748   03 Jun 2027 10:13:48.567            38.819              Murmansk1          4852.375
        98   03 Jun 2027 10:15:07.564   03 Jun 2027 10:16:23.861            76.297              Murmansk1          9537.125
        99   03 Jun 2027 10:16:23.861   03 Jun 2027 10:18:53.256           149.395              Murmansk2         18674.375
       100   03 Jun 2027 10:20:21.236   03 Jun 2027 10:21:45.895            84.659              Murmansk1         10582.375
       101   03 Jun 2027 10:22:09.838   03 Jun 2027 10:22:12.458             2.620              Murmansk2           327.500
       102   03 Jun 2027 10:22:35.667   03 Jun 2027 10:23:00.545            24.878              Murmansk2          3109.750
       103   03 Jun 2027 10:26:48.051   03 Jun 2027 10:36:46.513           598.462                Anadyr1         74807.750
       104   03 Jun 2027 11:58:30.002   03 Jun 2027 11:59:14.143            44.141              Murmansk1          5517.625
       105   03 Jun 2027 12:04:23.358   03 Jun 2027 12:05:25.361            62.003                Anadyr2          7750.375
       106   03 Jun 2027 12:05:35.628   03 Jun 2027 12:06:32.519            56.891               Magadan2          7111.375
       107   03 Jun 2027 12:09:29.314   03 Jun 2027 12:09:50.150            20.836               Magadan1          2604.500
       108   03 Jun 2027 12:11:15.706   03 Jun 2027 12:11:43.836            28.130               Magadan1          3516.250
       109   03 Jun 2027 13:40:40.155   03 Jun 2027 13:41:25.974            45.819               Magadan2          5727.375
       110   03 Jun 2027 13:43:33.004   03 Jun 2027 13:45:39.641           126.637               Magadan2         15829.625
       111   03 Jun 2027 13:47:36.280   03 Jun 2027 13:48:47.409            71.129               Magadan1          8891.125
       112   03 Jun 2027 15:25:59.503   03 Jun 2027 15:28:39.587           160.084                Irkutsk         20010.500
       113   03 Jun 2027 15:36:22.623   03 Jun 2027 15:39:03.832           161.209                Sumatra         20151.125
       114   03 Jun 2027 15:41:33.471   03 Jun 2027 15:44:45.360           191.889                Sumatra         23986.125
       115   03 Jun 2027 16:58:35.662   03 Jun 2027 16:59:57.186            81.524                Novosib         10190.500
       116   03 Jun 2027 17:06:58.800   03 Jun 2027 17:08:54.493           115.693                  Delhi         14461.625
       117   03 Jun 2027 18:39:13.722   03 Jun 2027 18:44:18.340           304.618                  Delhi         38077.250
       118   03 Jun 2027 20:10:05.677   03 Jun 2027 20:10:33.671            27.994                 Moscow          3499.250
       119   03 Jun 2027 20:19:33.196   03 Jun 2027 20:20:34.815            61.619                 Moscow          7702.375
       120   03 Jun 2027 21:47:24.443   03 Jun 2027 21:48:41.757            77.314                 Moscow          9664.250
       121   03 Jun 2027 22:09:17.063   03 Jun 2027 22:10:19.973            62.910               CapeTown          7863.750
       122   03 Jun 2027 22:12:30.810   03 Jun 2027 22:14:29.594           118.784               CapeTown          3400.751
       123   04 Jun 2027 04:06:09.023   04 Jun 2027 04:06:45.779            36.756              Murmansk2          4594.500
       124   04 Jun 2027 05:15:56.725   04 Jun 2027 05:16:15.547            18.822                Sumatra          2352.750
       125   04 Jun 2027 05:18:04.370   04 Jun 2027 05:18:45.043            40.673                Sumatra          5084.125
       126   04 Jun 2027 05:21:53.238   04 Jun 2027 05:22:34.764            41.526                Sumatra          5190.750
       127   04 Jun 2027 05:24:56.495   04 Jun 2027 05:26:45.652           109.157                  Delhi         13644.625
       128   04 Jun 2027 05:40:40.436   04 Jun 2027 05:41:06.049            25.613                 Moscow          3201.625
       129   04 Jun 2027 05:42:09.996   04 Jun 2027 05:43:45.036            95.040                Novosib         11880.000
       130   04 Jun 2027 05:43:52.903   04 Jun 2027 05:47:12.542           199.639                Norilsk         24954.875
       131   04 Jun 2027 07:00:35.390   04 Jun 2027 07:02:46.553           131.163                  Delhi         16395.375
       132   04 Jun 2027 07:03:11.170   04 Jun 2027 07:04:50.551            99.381                  Delhi         12422.625
       133   04 Jun 2027 07:09:32.382   04 Jun 2027 07:12:25.163           172.781                Novosib         21597.625
       134   04 Jun 2027 07:12:41.706   04 Jun 2027 07:13:21.354            39.648                Norilsk          4956.000
       135   04 Jun 2027 07:17:37.500   04 Jun 2027 07:17:58.805            21.305              Murmansk2          2663.125
       136   04 Jun 2027 07:17:58.805   04 Jun 2027 07:18:47.234            48.429              Murmansk1          6053.625
       137   04 Jun 2027 07:18:47.465   04 Jun 2027 07:23:10.066           262.601                Norilsk         32825.125
       138   04 Jun 2027 07:23:29.319   04 Jun 2027 07:23:48.272            18.953              Murmansk1          2369.125
       139   04 Jun 2027 07:24:41.577   04 Jun 2027 07:24:51.596            10.019              Murmansk1          1252.375
       140   04 Jun 2027 08:47:41.281   04 Jun 2027 08:49:56.307           135.026                 Moscow         16878.250
       141   04 Jun 2027 08:52:22.738   04 Jun 2027 08:57:15.877           293.139                 Moscow         36642.375
       142   04 Jun 2027 08:57:16.567   04 Jun 2027 08:58:15.826            59.259              Murmansk2          7407.375
       143   04 Jun 2027 08:59:04.467   04 Jun 2027 09:00:01.285            56.818              Murmansk2          7102.250
       144   04 Jun 2027 09:00:16.162   04 Jun 2027 09:00:35.612            19.450              Murmansk2          2431.250
       145   04 Jun 2027 10:03:17.181   04 Jun 2027 10:04:20.836            63.655               CapeTown          7956.875
       146   04 Jun 2027 10:25:30.365   04 Jun 2027 10:25:36.487             6.122              Murmansk1           765.250
       147   04 Jun 2027 10:28:52.251   04 Jun 2027 10:29:03.595            11.344              Murmansk1          1418.000
       148   04 Jun 2027 10:29:29.786   04 Jun 2027 10:30:04.048            34.262              Murmansk1          4282.750
       149   04 Jun 2027 10:31:59.230   04 Jun 2027 10:33:01.062            61.832              Murmansk1          7729.000
       150   04 Jun 2027 10:33:01.062   04 Jun 2027 10:34:12.162            71.100              Murmansk2          8887.500
       151   04 Jun 2027 10:38:44.573   04 Jun 2027 10:40:16.648            92.075                Anadyr1         11509.375
       152   04 Jun 2027 10:42:31.616   04 Jun 2027 10:43:53.699            82.083                Anadyr2         10260.375
       153   04 Jun 2027 10:45:00.281   04 Jun 2027 10:48:17.073           196.792                Anadyr1         24599.000
       154   04 Jun 2027 12:05:36.446   04 Jun 2027 12:08:15.811           159.365              Murmansk2         19920.625
       155   04 Jun 2027 12:08:20.533   04 Jun 2027 12:08:27.907             7.374              Murmansk1           921.750
       156   04 Jun 2027 12:17:23.923   04 Jun 2027 12:20:38.271           194.348               Magadan2         24293.500
       157   04 Jun 2027 12:20:38.271   04 Jun 2027 12:20:47.700             9.429               Magadan1          1178.625
       158   04 Jun 2027 13:52:39.831   04 Jun 2027 13:53:18.169            38.338               Magadan1          4792.250
       159   04 Jun 2027 13:53:51.151   04 Jun 2027 13:55:44.186           113.035               Magadan2         14129.375
       160   04 Jun 2027 14:50:14.916   04 Jun 2027 14:53:07.900           172.984            RioGallegos         21623.000
       161   04 Jun 2027 15:33:01.214   04 Jun 2027 15:33:55.636            54.422                Irkutsk          6802.750
       162   04 Jun 2027 15:47:33.928   04 Jun 2027 15:50:52.200           198.272                Sumatra         24784.000
       163   04 Jun 2027 15:53:46.737   04 Jun 2027 15:56:39.726           172.989                Sumatra         21623.625
       164   04 Jun 2027 17:11:48.299   04 Jun 2027 17:12:57.691            69.392                Novosib          8674.000
       165   04 Jun 2027 17:17:45.035   04 Jun 2027 17:22:40.683           295.648                  Delhi         36956.000
       166   04 Jun 2027 18:56:32.110   04 Jun 2027 18:58:29.969           117.859                  Delhi         14732.375
       167   04 Jun 2027 20:21:57.145   04 Jun 2027 20:23:06.466            69.321                 Moscow          8665.125
       168   04 Jun 2027 20:26:03.855   04 Jun 2027 20:26:26.717            22.862                 Moscow          2857.750
       169   04 Jun 2027 21:54:12.784   04 Jun 2027 21:54:23.781            10.997              Murmansk1          1374.625
       170   04 Jun 2027 22:07:00.977   04 Jun 2027 22:07:25.592            24.615                 Moscow          3076.875
       171   04 Jun 2027 22:22:50.156   04 Jun 2027 22:24:01.589            71.433               CapeTown          3870.875
       172   05 Jun 2027 04:18:04.940   05 Jun 2027 04:18:18.055            13.115                Irkutsk          1639.375
       173   05 Jun 2027 04:18:19.416   05 Jun 2027 04:18:32.796            13.380                Novosib          1672.500
       174   05 Jun 2027 05:28:11.970   05 Jun 2027 05:28:41.418            29.448                Sumatra          3681.000
       175   05 Jun 2027 05:30:31.495   05 Jun 2027 05:32:39.103           127.608                Sumatra         15951.000
       176   05 Jun 2027 05:36:36.116   05 Jun 2027 05:39:00.372           144.256                  Delhi         18032.000
       177   05 Jun 2027 05:53:30.556   05 Jun 2027 05:56:44.170           193.614                 Moscow         24201.750
       178   05 Jun 2027 05:56:57.067   05 Jun 2027 05:59:14.464           137.397                Norilsk         17174.625
       179   05 Jun 2027 05:59:36.747   05 Jun 2027 06:00:32.827            56.080              Murmansk2          7010.000
       180   05 Jun 2027 07:16:03.863   05 Jun 2027 07:16:43.747            39.884                  Delhi          4985.500
       181   05 Jun 2027 07:21:13.320   05 Jun 2027 07:21:37.636            24.316                 Moscow          3039.500
       182   05 Jun 2027 07:22:15.933   05 Jun 2027 07:24:34.502           138.569                Novosib         17321.125
       183   05 Jun 2027 07:24:52.698   05 Jun 2027 07:24:57.126             4.428              Murmansk2           553.500
       184   05 Jun 2027 07:29:55.730   05 Jun 2027 07:35:10.523           314.793                Norilsk         39349.125
       185   05 Jun 2027 07:35:29.773   05 Jun 2027 07:36:52.356            82.583              Murmansk1         10322.875
       186   05 Jun 2027 08:58:16.537   05 Jun 2027 08:58:44.840            28.303                 Moscow          3537.875
       187   05 Jun 2027 08:59:36.924   05 Jun 2027 09:02:16.579           159.655                 Moscow         19956.875
       188   05 Jun 2027 09:02:40.402   05 Jun 2027 09:02:58.735            18.333              Murmansk1          2291.625
       189   05 Jun 2027 09:03:13.109   05 Jun 2027 09:03:20.468             7.359              Murmansk1           919.875
       190   05 Jun 2027 09:03:24.257   05 Jun 2027 09:04:41.902            77.645              Murmansk2          9705.625
       191   05 Jun 2027 09:05:02.141   05 Jun 2027 09:05:34.358            32.217              Murmansk2          4027.125
       192   05 Jun 2027 09:06:08.997   05 Jun 2027 09:06:33.132            24.135              Murmansk2          3016.875
       193   05 Jun 2027 09:08:05.799   05 Jun 2027 09:10:55.834           170.035              Murmansk1         21254.375
       194   05 Jun 2027 09:16:25.649   05 Jun 2027 09:20:00.922           215.273                Anadyr1         26909.125
       195   05 Jun 2027 10:44:24.345   05 Jun 2027 10:44:32.962             8.617              Murmansk1          1077.125
       196   05 Jun 2027 10:50:42.137   05 Jun 2027 10:51:52.011            69.874                Anadyr1          8734.250
       197   05 Jun 2027 10:55:11.893   05 Jun 2027 10:55:25.329            13.436                Anadyr2          1679.500
       198   05 Jun 2027 10:58:03.644   05 Jun 2027 11:00:15.316           131.672                Anadyr2         16459.000
       199   05 Jun 2027 12:26:27.446   05 Jun 2027 12:26:45.990            18.544                Anadyr1          2318.000
       200   05 Jun 2027 12:29:15.175   05 Jun 2027 12:33:43.872           268.697               Magadan2         33587.125
       201   05 Jun 2027 14:04:40.031   05 Jun 2027 14:06:21.926           101.895               Magadan1         12736.875
       202   05 Jun 2027 14:16:17.914   05 Jun 2027 14:16:34.703            16.789               Magadan2          2098.625
       203   05 Jun 2027 15:01:21.470   05 Jun 2027 15:03:07.322           105.852            RioGallegos         13231.500
       204   05 Jun 2027 15:44:47.394   05 Jun 2027 15:47:33.604           166.210                Irkutsk         20776.250
       205   05 Jun 2027 16:01:19.081   05 Jun 2027 16:02:46.483            87.402                Sumatra         10925.250
       206   05 Jun 2027 16:05:53.863   05 Jun 2027 16:08:12.789           138.926                Sumatra         17365.750
       207   05 Jun 2027 17:20:24.895   05 Jun 2027 17:24:43.514           258.619                Novosib         32327.375
       208   05 Jun 2027 17:29:00.185   05 Jun 2027 17:35:01.684           361.499                  Delhi         45187.375
       209   05 Jun 2027 21:07:25.063   05 Jun 2027 21:07:34.672             9.609               CapeTown          1201.125
       210   05 Jun 2027 22:12:43.730   05 Jun 2027 22:14:18.312            94.582                 Moscow          3633.125
       211   06 Jun 2027 05:40:34.719   06 Jun 2027 05:42:11.072            96.353                Sumatra         12044.125
       212   06 Jun 2027 05:48:21.683   06 Jun 2027 05:51:10.928           169.245                  Delhi         21155.625
       213   06 Jun 2027 06:05:55.235   06 Jun 2027 06:06:43.466            48.231              Murmansk2          6028.875
       214   06 Jun 2027 06:06:59.172   06 Jun 2027 06:08:52.781           113.609                 Moscow         14201.125
       215   06 Jun 2027 06:08:57.960   06 Jun 2027 06:10:48.501           110.541              Murmansk1         13817.625
       216   06 Jun 2027 06:10:48.501   06 Jun 2027 06:11:38.661            50.160              Murmansk2          6270.000
       217   06 Jun 2027 07:26:35.403   06 Jun 2027 07:27:12.562            37.159                  Delhi          4644.875
       218   06 Jun 2027 07:27:50.667   06 Jun 2027 07:28:35.976            45.309                  Delhi          5663.625
       219   06 Jun 2027 07:34:08.249   06 Jun 2027 07:36:07.928           119.679                Novosib         14959.875
       220   06 Jun 2027 07:36:45.653   06 Jun 2027 07:37:55.545            69.892              Murmansk2          8736.500
       221   06 Jun 2027 07:42:08.217   06 Jun 2027 07:45:20.719           192.502                 Moscow         24062.750
       222   06 Jun 2027 07:45:28.477   06 Jun 2027 07:47:10.475           101.998                Norilsk         12749.750
       223   06 Jun 2027 07:47:27.211   06 Jun 2027 07:48:53.333            86.122              Murmansk1         10765.250
       224   06 Jun 2027 09:12:12.525   06 Jun 2027 09:13:19.675            67.150              Murmansk2          8393.750
       225   06 Jun 2027 09:13:19.675   06 Jun 2027 09:14:32.386            72.711              Murmansk1          9088.875
       226   06 Jun 2027 09:16:09.646   06 Jun 2027 09:16:45.742            36.096              Murmansk2          4512.000
       227   06 Jun 2027 09:20:04.172   06 Jun 2027 09:21:55.371           111.199              Murmansk1         13899.875
       228   06 Jun 2027 09:27:54.637   06 Jun 2027 09:33:33.320           338.683                Anadyr1         42335.375
       229   06 Jun 2027 11:02:40.532   06 Jun 2027 11:04:16.824            96.292                Anadyr1         12036.500
       230   06 Jun 2027 12:31:25.966   06 Jun 2027 12:32:21.139            55.173              Murmansk1          6896.625
       231   06 Jun 2027 12:41:08.598   06 Jun 2027 12:45:42.167           273.569               Magadan2         34196.125
       232   06 Jun 2027 14:16:40.684   06 Jun 2027 14:17:07.938            27.254               Magadan2          3406.750
       233   06 Jun 2027 14:18:48.379   06 Jun 2027 14:18:55.400             7.021               Magadan1           877.625
       234   06 Jun 2027 14:19:58.297   06 Jun 2027 14:21:32.677            94.380               Magadan2         11797.500
       235   06 Jun 2027 15:09:12.035   06 Jun 2027 15:13:18.080           246.045            RioGallegos         30755.625
       236   06 Jun 2027 15:56:37.003   06 Jun 2027 15:57:47.777            70.774                Irkutsk          8846.750
       237   06 Jun 2027 16:00:38.470   06 Jun 2027 16:01:02.994            24.524                Irkutsk          3065.500
       238   06 Jun 2027 16:10:33.855   06 Jun 2027 16:12:29.353           115.498                Sumatra         14437.250
       239   06 Jun 2027 17:32:18.862   06 Jun 2027 17:34:28.509           129.647                Novosib         16205.875
       240   06 Jun 2027 17:40:29.024   06 Jun 2027 17:47:15.996           406.972                  Delhi         50871.500
       241   06 Jun 2027 20:45:46.007   06 Jun 2027 20:47:29.377           103.370                 Moscow         12921.250
       242   06 Jun 2027 22:46:05.764   06 Jun 2027 22:48:19.869           134.105               CapeTown         11086.750
       243   07 Jun 2027 04:16:24.212   07 Jun 2027 04:20:48.437           264.225                Sumatra         33028.125
       244   07 Jun 2027 04:41:58.834   07 Jun 2027 04:42:33.096            34.262                Norilsk          4282.750
       245   07 Jun 2027 04:42:51.747   07 Jun 2027 04:46:54.614           242.867              Murmansk2         30358.375
       246   07 Jun 2027 04:46:54.614   07 Jun 2027 04:47:12.119            17.505              Murmansk1          2188.125
       247   07 Jun 2027 05:18:55.041   07 Jun 2027 05:19:23.077            28.036            RioGallegos          3504.500
       248   07 Jun 2027 05:20:25.487   07 Jun 2027 05:21:28.547            63.060            RioGallegos          7882.500
       249   07 Jun 2027 05:22:15.648   07 Jun 2027 05:22:29.129            13.481            RioGallegos          1685.125
       250   07 Jun 2027 05:25:29.927   07 Jun 2027 05:26:03.818            33.891            RioGallegos          4236.375
       251   07 Jun 2027 05:26:32.201   07 Jun 2027 05:26:45.824            13.623            RioGallegos          1702.875
       252   07 Jun 2027 05:53:07.148   07 Jun 2027 05:55:06.527           119.379                Sumatra         14922.375
       253   07 Jun 2027 05:56:29.210   07 Jun 2027 05:56:51.519            22.309                Sumatra          2788.625
       254   07 Jun 2027 06:00:12.771   07 Jun 2027 06:03:35.071           202.300                  Delhi         25287.500
       255   07 Jun 2027 06:07:13.680   07 Jun 2027 06:09:36.580           142.900                Novosib         17862.500
       256   07 Jun 2027 06:10:09.514   07 Jun 2027 06:11:16.816            67.302                Novosib          8412.750
       257   07 Jun 2027 06:11:40.507   07 Jun 2027 06:13:43.544           123.037                 Moscow         15379.625
       258   07 Jun 2027 06:17:45.346   07 Jun 2027 06:19:58.030           132.684              Murmansk1         16585.500
       259   07 Jun 2027 06:20:08.409   07 Jun 2027 06:21:00.367            51.958                 Moscow          6494.750
       260   07 Jun 2027 06:21:22.483   07 Jun 2027 06:22:54.300            91.817                Norilsk         11477.125
       261   07 Jun 2027 07:38:29.007   07 Jun 2027 07:41:30.631           181.624                  Delhi         22703.000
       262   07 Jun 2027 07:47:01.871   07 Jun 2027 07:48:14.538            72.667                Novosib          9083.375
       263   07 Jun 2027 07:48:16.907   07 Jun 2027 07:49:22.687            65.780                 Moscow          8222.500
       264   07 Jun 2027 07:53:35.873   07 Jun 2027 07:54:21.296            45.423              Murmansk2          5677.875
       265   07 Jun 2027 07:54:45.934   07 Jun 2027 07:59:08.469           262.535              Murmansk2         32816.875
       266   07 Jun 2027 07:59:08.469   07 Jun 2027 08:00:54.499           106.030              Murmansk1         13253.750
       267   07 Jun 2027 09:20:55.188   07 Jun 2027 09:25:19.999           264.811                 Moscow         33101.375
       268   07 Jun 2027 09:25:36.192   07 Jun 2027 09:26:34.090            57.898              Murmansk1          7237.250
       269   07 Jun 2027 09:27:26.553   07 Jun 2027 09:27:47.938            21.385              Murmansk2          2673.125
       270   07 Jun 2027 09:28:09.439   07 Jun 2027 09:29:28.807            79.368              Murmansk2          9921.000
       271   07 Jun 2027 09:32:31.124   07 Jun 2027 09:33:19.863            48.739              Murmansk2          6092.375
       272   07 Jun 2027 09:39:35.937   07 Jun 2027 09:46:29.362           413.425                Anadyr2         51678.125
       273   07 Jun 2027 11:03:24.502   07 Jun 2027 11:04:23.449            58.947              Murmansk2          7368.375
       274   07 Jun 2027 11:05:09.582   07 Jun 2027 11:05:58.559            48.977              Murmansk2          6122.125
       275   07 Jun 2027 11:16:38.799   07 Jun 2027 11:18:16.812            98.013                Anadyr2         12251.625
       276   07 Jun 2027 12:53:03.686   07 Jun 2027 12:54:53.613           109.927               Magadan2         13740.875
       277   07 Jun 2027 12:57:48.725   07 Jun 2027 12:58:17.973            29.248               Magadan1          3656.000
       278   07 Jun 2027 13:00:18.747   07 Jun 2027 13:04:03.728           224.981               Magadan1         28122.625
       279   07 Jun 2027 15:20:57.167   07 Jun 2027 15:25:13.549           256.382            RioGallegos         32047.750
       280   07 Jun 2027 16:08:29.190   07 Jun 2027 16:10:15.788           106.598                Irkutsk         13324.750
       281   07 Jun 2027 16:22:16.305   07 Jun 2027 16:26:51.922           275.617                Sumatra         34452.125
       282   07 Jun 2027 17:44:14.437   07 Jun 2027 17:46:30.495           136.058                Novosib         17007.250
       283   07 Jun 2027 17:52:06.540   07 Jun 2027 17:55:38.715           212.175                  Delhi         26521.875
       284   07 Jun 2027 20:54:19.679   07 Jun 2027 20:54:38.760            19.081              Murmansk2          2385.125
       285   07 Jun 2027 20:57:42.641   07 Jun 2027 20:59:03.799            81.158                 Moscow         10144.750
       286   07 Jun 2027 21:22:06.752   07 Jun 2027 21:22:58.035            51.283               CapeTown          6410.375
       287   08 Jun 2027 03:18:28.515   08 Jun 2027 03:19:31.066            62.551                Novosib          7818.875
       288   08 Jun 2027 03:19:32.338   08 Jun 2027 03:23:26.233           233.895                Norilsk         29236.875
       289   08 Jun 2027 03:23:47.710   08 Jun 2027 03:24:08.804            21.094              Murmansk1          2636.750
       290   08 Jun 2027 04:28:10.012   08 Jun 2027 04:30:56.021           166.009                Sumatra         20751.125
       291   08 Jun 2027 04:54:00.743   08 Jun 2027 04:59:43.622           342.879              Murmansk2         42859.875
       292   08 Jun 2027 05:34:51.012   08 Jun 2027 05:36:04.797            73.785            RioGallegos          9223.125
       293   08 Jun 2027 05:38:48.459   08 Jun 2027 05:39:01.449            12.990            RioGallegos          1623.750
       294   08 Jun 2027 06:05:53.922   08 Jun 2027 06:09:07.003           193.081                Sumatra         24135.125
       295   08 Jun 2027 06:12:09.187   08 Jun 2027 06:14:00.549           111.362                  Delhi         13920.250
       296   08 Jun 2027 06:19:27.592   08 Jun 2027 06:23:50.381           262.789                Novosib         32848.625
       297   08 Jun 2027 06:24:26.008   08 Jun 2027 06:25:19.326            53.318                Norilsk          6664.750
       298   08 Jun 2027 06:25:32.393   08 Jun 2027 06:25:52.828            20.435                 Moscow          2554.375
       299   08 Jun 2027 06:30:05.134   08 Jun 2027 06:31:39.944            94.810                Novosib         11851.250
       300   08 Jun 2027 06:31:45.555   08 Jun 2027 06:34:50.508           184.953                Norilsk         23119.125
       301   08 Jun 2027 06:35:01.572   08 Jun 2027 06:35:15.311            13.739              Murmansk1          1717.375
       302   08 Jun 2027 07:57:37.343   08 Jun 2027 07:59:14.918            97.575                 Moscow         12196.875
       303   08 Jun 2027 08:05:45.788   08 Jun 2027 08:06:04.158            18.370                Norilsk          2296.250
       304   08 Jun 2027 08:06:54.952   08 Jun 2027 08:11:08.203           253.251                Norilsk         31656.375
       305   08 Jun 2027 08:11:16.854   08 Jun 2027 08:12:55.817            98.963              Murmansk2         12370.375
       306   08 Jun 2027 09:12:23.474   08 Jun 2027 09:19:57.894           454.420               CapeTown         56802.500
       307   08 Jun 2027 09:33:11.954   08 Jun 2027 09:37:26.795           254.841                 Moscow         31855.125
       308   08 Jun 2027 09:37:32.670   08 Jun 2027 09:42:43.262           310.592              Murmansk2         38824.000
       309   08 Jun 2027 09:44:06.968   08 Jun 2027 09:45:40.257            93.289              Murmansk2         11661.125
       310   08 Jun 2027 09:46:36.069   08 Jun 2027 09:47:25.190            49.121              Murmansk2          6140.125
       311   08 Jun 2027 09:47:25.190   08 Jun 2027 09:47:45.575            20.385              Murmansk1          2548.125
       312   08 Jun 2027 09:51:23.233   08 Jun 2027 09:57:18.709           355.476                Anadyr1         44434.500
       313   08 Jun 2027 11:15:56.873   08 Jun 2027 11:16:15.316            18.443              Murmansk2          2305.375
       314   08 Jun 2027 11:17:10.429   08 Jun 2027 11:18:35.363            84.934              Murmansk2         10616.750
       315   08 Jun 2027 11:26:39.194   08 Jun 2027 11:31:27.318           288.124                Anadyr1         36015.500
       316   08 Jun 2027 11:31:29.529   08 Jun 2027 11:34:25.605           176.076               Magadan2         22009.500
       317   08 Jun 2027 11:34:45.141   08 Jun 2027 11:35:40.237            55.096               Magadan1          6887.000
       318   08 Jun 2027 13:05:00.092   08 Jun 2027 13:09:40.865           280.773               Magadan1         35096.625
       319   08 Jun 2027 15:32:46.002   08 Jun 2027 15:36:42.192           236.190            RioGallegos         29523.750
       320   08 Jun 2027 16:20:23.425   08 Jun 2027 16:22:26.800           123.375                Irkutsk         15421.875
       321   08 Jun 2027 16:34:05.245   08 Jun 2027 16:37:01.525           176.280                Sumatra         22035.000
       322   08 Jun 2027 17:56:11.330   08 Jun 2027 17:57:28.793            77.463                Novosib          9682.875
       323   08 Jun 2027 18:03:50.346   08 Jun 2027 18:08:14.553           264.207                  Delhi         33025.875
       324   08 Jun 2027 21:06:36.609   08 Jun 2027 21:06:37.587             0.978              Murmansk1           122.250
       325   08 Jun 2027 21:06:48.116   08 Jun 2027 21:07:33.517            45.401              Murmansk2          5675.125
       326   08 Jun 2027 21:14:21.214   08 Jun 2027 21:15:56.828            95.614              Murmansk1         11951.750
       327   08 Jun 2027 21:33:50.370   08 Jun 2027 21:36:31.184           160.814               CapeTown         20101.750
       328   09 Jun 2027 03:30:26.526   09 Jun 2027 03:35:26.817           300.291              Murmansk2         37536.375
       329   09 Jun 2027 04:40:01.938   09 Jun 2027 04:43:05.517           183.579                Sumatra         22947.375
       330   09 Jun 2027 05:06:21.805   09 Jun 2027 05:06:35.412            13.607                Norilsk          1700.875
       331   09 Jun 2027 05:06:38.031   09 Jun 2027 05:08:02.770            84.739                 Moscow         10592.375
       332   09 Jun 2027 05:08:30.184   09 Jun 2027 05:11:08.336           158.152              Murmansk2         19769.000
       333   09 Jun 2027 05:11:08.336   09 Jun 2027 05:11:45.739            37.403              Murmansk1          4675.375
       334   09 Jun 2027 05:45:48.947   09 Jun 2027 05:46:15.706            26.759            RioGallegos          3344.875
       335   09 Jun 2027 05:50:16.672   09 Jun 2027 05:51:01.715            45.043            RioGallegos          5630.375
       336   09 Jun 2027 06:19:08.700   09 Jun 2027 06:21:25.909           137.209                Sumatra         17151.125
       337   09 Jun 2027 06:24:10.898   09 Jun 2027 06:25:04.358            53.460                  Delhi          6682.500
       338   09 Jun 2027 06:26:32.417   09 Jun 2027 06:27:21.695            49.278                  Delhi          6159.750
       339   09 Jun 2027 06:31:33.588   09 Jun 2027 06:33:25.706           112.118                  Delhi         14014.750
       340   09 Jun 2027 06:34:04.741   09 Jun 2027 06:35:57.815           113.074                Novosib         14134.250
       341   09 Jun 2027 06:36:45.399   09 Jun 2027 06:37:41.576            56.177              Murmansk1          7022.125
       342   09 Jun 2027 06:42:07.477   09 Jun 2027 06:42:34.662            27.185                Norilsk          3398.125
       343   09 Jun 2027 06:42:39.578   09 Jun 2027 06:45:13.232           153.654                 Moscow         19206.750
       344   09 Jun 2027 06:45:25.503   09 Jun 2027 06:47:09.379           103.876              Murmansk2         12984.500
       345   09 Jun 2027 06:47:09.379   09 Jun 2027 06:47:17.209             7.830              Murmansk1           978.750
       346   09 Jun 2027 08:08:37.925   09 Jun 2027 08:11:48.033           190.108                 Moscow         23763.500
       347   09 Jun 2027 08:18:02.404   09 Jun 2027 08:18:30.233            27.829                Norilsk          3478.625
       348   09 Jun 2027 08:18:56.743   09 Jun 2027 08:23:05.495           248.752                Norilsk         31094.000
       349   09 Jun 2027 08:23:27.830   09 Jun 2027 08:24:57.269            89.439              Murmansk2         11179.875
       350   09 Jun 2027 09:23:41.977   09 Jun 2027 09:32:52.644           550.667               CapeTown         68833.375
       351   09 Jun 2027 09:45:32.595   09 Jun 2027 09:49:36.753           244.158                 Moscow         30519.750
       352   09 Jun 2027 09:49:48.659   09 Jun 2027 09:56:09.150           380.491              Murmansk2         47561.375
       353   09 Jun 2027 09:56:33.182   09 Jun 2027 09:57:47.403            74.221              Murmansk2          9277.625
       354   09 Jun 2027 10:03:14.177   09 Jun 2027 10:08:48.307           334.130                Anadyr2         41766.250
       355   09 Jun 2027 10:08:50.987   09 Jun 2027 10:11:58.372           187.385                Anadyr1         23423.125
       356   09 Jun 2027 11:38:39.225   09 Jun 2027 11:39:11.321            32.096                Anadyr1          4012.000
       357   09 Jun 2027 11:41:14.559   09 Jun 2027 11:43:28.419           133.860                Anadyr2         16732.500
       358   09 Jun 2027 11:46:16.703   09 Jun 2027 11:48:52.450           155.747               Magadan2         19468.375
       359   09 Jun 2027 13:14:32.706   09 Jun 2027 13:16:30.987           118.281                Anadyr2         14785.125
       360   09 Jun 2027 13:16:57.553   09 Jun 2027 13:18:04.813            67.260               Magadan2          8407.500
       361   09 Jun 2027 13:19:16.782   09 Jun 2027 13:21:41.059           144.277               Magadan2         18034.625
       362   09 Jun 2027 14:54:05.417   09 Jun 2027 14:55:45.898           100.481               Magadan1         12560.125
       363   09 Jun 2027 15:44:37.621   09 Jun 2027 15:47:49.314           191.693            RioGallegos         23961.625
       364   09 Jun 2027 16:32:19.331   09 Jun 2027 16:33:54.177            94.846                Irkutsk         11855.750
       365   09 Jun 2027 16:38:43.208   09 Jun 2027 16:40:19.311            96.103                Irkutsk         12012.875
       366   09 Jun 2027 16:46:00.050   09 Jun 2027 16:49:08.056           188.006                Sumatra         23500.750
       367   09 Jun 2027 18:12:55.750   09 Jun 2027 18:15:03.562           127.812                Novosib         15976.500
       368   09 Jun 2027 18:15:39.093   09 Jun 2027 18:18:17.137           158.044                  Delhi         19755.500
       369   09 Jun 2027 19:46:46.625   09 Jun 2027 19:47:57.840            71.215                 Moscow          8901.875
       370   09 Jun 2027 21:18:22.625   09 Jun 2027 21:18:37.094            14.469              Murmansk1          1808.625
       371   09 Jun 2027 21:25:22.392   09 Jun 2027 21:26:27.786            65.394                 Moscow          8174.250
       372   09 Jun 2027 21:45:39.220   09 Jun 2027 21:46:42.283            63.063               CapeTown          7882.875
       373   09 Jun 2027 21:51:22.086   09 Jun 2027 21:53:00.966            98.880               CapeTown         12360.000
       374   10 Jun 2027 03:20:45.975   10 Jun 2027 03:21:48.408            62.433                Sumatra          7804.125
       375   10 Jun 2027 03:42:40.600   10 Jun 2027 03:46:09.157           208.557              Murmansk1         26069.625
       376   10 Jun 2027 04:51:59.557   10 Jun 2027 04:54:47.062           167.505                Sumatra         20938.125
       377   10 Jun 2027 05:17:49.888   10 Jun 2027 05:17:58.656             8.768              Murmansk2          1096.000
       378   10 Jun 2027 05:18:55.265   10 Jun 2027 05:23:41.307           286.042              Murmansk2         35755.250
       379   10 Jun 2027 05:57:26.828   10 Jun 2027 05:58:20.762            53.934            RioGallegos          6741.750
       380   10 Jun 2027 06:02:21.678   10 Jun 2027 06:02:39.629            17.951            RioGallegos          2243.875
       381   10 Jun 2027 06:36:18.080   10 Jun 2027 06:42:36.867           378.787                  Delhi         47348.375
       382   10 Jun 2027 06:44:06.615   10 Jun 2027 06:47:44.480           217.865                Novosib         27233.125
       383   10 Jun 2027 06:47:52.019   10 Jun 2027 06:49:40.075           108.056                 Moscow         13507.000
       384   10 Jun 2027 06:54:03.254   10 Jun 2027 06:55:30.594            87.340                Novosib         10917.500
       385   10 Jun 2027 06:55:35.902   10 Jun 2027 06:58:40.967           185.065                Norilsk         23133.125
       386   10 Jun 2027 06:58:56.035   10 Jun 2027 06:59:17.612            21.577              Murmansk2          2697.125
       387   10 Jun 2027 08:20:35.879   10 Jun 2027 08:22:07.602            91.723                 Moscow         11465.375
       388   10 Jun 2027 08:22:26.441   10 Jun 2027 08:23:53.143            86.702                 Moscow         10837.750
       389   10 Jun 2027 08:30:29.575   10 Jun 2027 08:33:29.712           180.137                 Moscow         22517.125
       390   10 Jun 2027 08:33:31.743   10 Jun 2027 08:35:01.175            89.432                Norilsk         11179.000
       391   10 Jun 2027 08:35:26.209   10 Jun 2027 08:36:58.825            92.616              Murmansk1         11577.000
       392   10 Jun 2027 09:35:13.025   10 Jun 2027 09:44:30.264           557.239               CapeTown         69654.875
       393   10 Jun 2027 09:57:57.497   10 Jun 2027 10:01:20.917           203.420                 Moscow         25427.500
       394   10 Jun 2027 10:01:27.374   10 Jun 2027 10:02:37.475            70.101              Murmansk1          8762.625
       395   10 Jun 2027 10:03:30.985   10 Jun 2027 10:05:11.874           100.889              Murmansk1         12611.125
       396   10 Jun 2027 10:05:45.373   10 Jun 2027 10:06:21.799            36.426                 Moscow          4553.250
       397   10 Jun 2027 10:09:18.831   10 Jun 2027 10:09:53.181            34.350              Murmansk1          4293.750
       398   10 Jun 2027 10:15:07.589   10 Jun 2027 10:20:29.849           322.260                Anadyr1         40282.500
       399   10 Jun 2027 10:21:16.204   10 Jun 2027 10:24:34.969           198.765                Anadyr2         24845.625
       400   10 Jun 2027 11:45:20.597   10 Jun 2027 11:45:24.097             3.500              Murmansk1           437.500
       401   10 Jun 2027 11:45:38.913   10 Jun 2027 11:46:04.151            25.238              Murmansk1          3154.750
       402   10 Jun 2027 11:46:43.010   10 Jun 2027 11:47:26.773            43.763              Murmansk1          5470.375
       403   10 Jun 2027 11:50:39.615   10 Jun 2027 11:53:01.514           141.899                Anadyr2         17737.375
       404   10 Jun 2027 11:54:06.103   10 Jun 2027 11:58:10.019           243.916               Magadan2         30489.500
       405   10 Jun 2027 11:58:12.706   10 Jun 2027 11:59:02.681            49.975               Magadan1          6246.875
       406   10 Jun 2027 13:28:55.894   10 Jun 2027 13:33:41.713           285.819               Magadan2         35727.375
       407   10 Jun 2027 15:25:49.083   10 Jun 2027 15:31:54.703           365.620                Sumatra         45702.500
       408   10 Jun 2027 16:45:12.361   10 Jun 2027 16:46:43.613            91.252                Novosib         11406.500
       409   10 Jun 2027 16:58:00.461   10 Jun 2027 17:00:19.925           139.464                Sumatra         17433.000
       410   10 Jun 2027 17:05:43.807   10 Jun 2027 17:09:19.865           216.058                Sumatra         27007.250
       411   10 Jun 2027 18:27:31.981   10 Jun 2027 18:30:30.827           178.846                  Delhi         22355.750
       412   10 Jun 2027 19:58:31.577   10 Jun 2027 20:00:03.609            92.032                 Moscow         11504.000
       413   10 Jun 2027 21:45:08.262   10 Jun 2027 21:46:30.328            82.066                 Moscow         10258.250
       414   10 Jun 2027 21:59:24.807   10 Jun 2027 22:00:17.411            52.604               CapeTown          6575.500
       415   10 Jun 2027 22:05:15.201   10 Jun 2027 22:07:06.266           111.065               CapeTown          9053.501
       416   11 Jun 2027 03:54:31.740   11 Jun 2027 03:57:37.030           185.290                Norilsk         23161.250
       417   11 Jun 2027 05:04:02.766   11 Jun 2027 05:05:57.209           114.443                Sumatra         14305.375
       418   11 Jun 2027 05:14:41.025   11 Jun 2027 05:16:36.580           115.555                  Delhi         14444.375
       419   11 Jun 2027 05:29:02.488   11 Jun 2027 05:29:45.893            43.405                Novosib          5425.625
       420   11 Jun 2027 05:30:38.400   11 Jun 2027 05:32:08.945            90.545                Norilsk         11318.125
       421   11 Jun 2027 05:32:14.016   11 Jun 2027 05:32:34.537            20.521              Murmansk2          2565.125
       422   11 Jun 2027 05:33:03.793   11 Jun 2027 05:34:59.590           115.797              Murmansk2         14474.625
       423   11 Jun 2027 05:34:59.590   11 Jun 2027 05:35:38.862            39.272              Murmansk1          4909.000
       424   11 Jun 2027 05:35:49.983   11 Jun 2027 05:36:32.768            42.785              Murmansk2          5348.125
       425   11 Jun 2027 06:48:31.090   11 Jun 2027 06:51:11.925           160.835                  Delhi         20104.375
       426   11 Jun 2027 06:55:20.550   11 Jun 2027 06:55:34.866            14.316                  Delhi          1789.500
       427   11 Jun 2027 06:58:01.444   11 Jun 2027 07:01:28.329           206.885                 Moscow         25860.625
       428   11 Jun 2027 07:06:00.654   11 Jun 2027 07:11:24.069           323.415                Norilsk         40426.875
       429   11 Jun 2027 07:11:45.786   11 Jun 2027 07:13:05.911            80.125              Murmansk2         10015.625
       430   11 Jun 2027 08:35:55.413   11 Jun 2027 08:36:08.983            13.570                 Moscow          1696.250
       431   11 Jun 2027 08:37:01.782   11 Jun 2027 08:37:51.522            49.740              Murmansk2          6217.500
       432   11 Jun 2027 08:41:06.887   11 Jun 2027 08:45:30.544           263.657                 Moscow         32957.125
       433   11 Jun 2027 08:45:41.985   11 Jun 2027 08:49:00.459           198.474              Murmansk1         24809.250
       434   11 Jun 2027 09:46:52.024   11 Jun 2027 09:48:07.428            75.404               CapeTown          9425.500
       435   11 Jun 2027 09:50:17.817   11 Jun 2027 09:53:15.969           178.152               CapeTown         22269.000
       436   11 Jun 2027 10:12:01.856   11 Jun 2027 10:14:06.958           125.102                 Moscow         15637.750
       437   11 Jun 2027 10:14:28.451   11 Jun 2027 10:14:35.942             7.491              Murmansk2           936.375
       438   11 Jun 2027 10:15:32.618   11 Jun 2027 10:16:39.248            66.630              Murmansk1          8328.750
       439   11 Jun 2027 10:20:28.006   11 Jun 2027 10:22:00.639            92.633              Murmansk1         11579.125
       440   11 Jun 2027 10:22:27.088   11 Jun 2027 10:22:58.887            31.799              Murmansk2          3974.875
       441   11 Jun 2027 10:23:04.702   11 Jun 2027 10:23:15.727            11.025              Murmansk2          1378.125
       442   11 Jun 2027 10:23:29.539   11 Jun 2027 10:24:04.205            34.666              Murmansk1          4333.250
       443   11 Jun 2027 10:27:02.793   11 Jun 2027 10:29:19.657           136.864                Anadyr2         17108.000
       444   11 Jun 2027 10:30:01.001   11 Jun 2027 10:32:17.272           136.271                Anadyr1         17033.875
       445   11 Jun 2027 10:32:49.807   11 Jun 2027 10:36:46.030           236.223                Anadyr2         29527.875
       446   11 Jun 2027 11:55:25.524   11 Jun 2027 11:56:03.373            37.849              Murmansk1          4731.125
       447   11 Jun 2027 11:57:09.105   11 Jun 2027 11:57:25.728            16.623              Murmansk2          2077.875
       448   11 Jun 2027 11:57:57.170   11 Jun 2027 11:58:45.034            47.864              Murmansk2          5983.000
       449   11 Jun 2027 11:58:54.139   11 Jun 2027 11:58:59.047             4.908              Murmansk1           613.500
       450   11 Jun 2027 11:59:29.034   11 Jun 2027 12:00:10.992            41.958              Murmansk2          5244.750
       451   11 Jun 2027 12:02:40.293   11 Jun 2027 12:03:56.707            76.414                Anadyr1          9551.750
       452   11 Jun 2027 12:05:40.369   11 Jun 2027 12:07:30.988           110.619                Anadyr1         13827.375
       453   11 Jun 2027 12:09:43.752   11 Jun 2027 12:10:05.030            21.278               Magadan1          2659.750
       454   11 Jun 2027 12:11:31.252   11 Jun 2027 12:11:57.848            26.596               Magadan1          3324.500
       455   11 Jun 2027 13:40:54.965   11 Jun 2027 13:41:40.499            45.534               Magadan1          5691.750
       456   11 Jun 2027 13:43:48.046   11 Jun 2027 13:47:51.308           243.262               Magadan1         30407.750
       457   11 Jun 2027 14:39:52.658   11 Jun 2027 14:40:09.837            17.179            RioGallegos          2147.375
       458   11 Jun 2027 15:21:34.273   11 Jun 2027 15:21:43.422             9.149                Irkutsk          1143.625
       459   11 Jun 2027 15:26:11.095   11 Jun 2027 15:27:15.030            63.935                Irkutsk          7991.875
       460   11 Jun 2027 15:36:36.458   11 Jun 2027 15:39:18.504           162.046                Sumatra         20255.750
       461   11 Jun 2027 15:41:48.796   11 Jun 2027 15:45:01.065           192.269                Sumatra         24033.625
       462   11 Jun 2027 16:58:51.618   11 Jun 2027 17:00:29.165            97.547                Novosib         12193.375
       463   11 Jun 2027 17:03:07.620   11 Jun 2027 17:03:30.138            22.518                Novosib          2814.750
       464   11 Jun 2027 17:07:11.855   11 Jun 2027 17:09:09.057           117.202                  Delhi         14650.250
       465   11 Jun 2027 17:16:28.222   11 Jun 2027 17:17:56.152            87.930                Sumatra         10991.250
       466   11 Jun 2027 18:39:28.516   11 Jun 2027 18:41:44.023           135.507                  Delhi         16938.375
       467   11 Jun 2027 18:50:07.250   11 Jun 2027 18:50:47.140            39.890                  Delhi          4986.250
       468   11 Jun 2027 20:10:49.112   11 Jun 2027 20:13:21.531           152.419                 Moscow         19052.375
       469   11 Jun 2027 21:51:13.268   11 Jun 2027 21:53:25.868           132.600                 Moscow         16575.000
       470   11 Jun 2027 22:17:25.818   11 Jun 2027 22:18:58.626            92.808               CapeTown          1975.750
       471   12 Jun 2027 04:06:23.507   12 Jun 2027 04:07:00.644            37.137              Murmansk2          4642.125
       472   12 Jun 2027 05:16:11.758   12 Jun 2027 05:16:28.379            16.621                Sumatra          2077.625
       473   12 Jun 2027 05:18:19.437   12 Jun 2027 05:18:59.691            40.254                Sumatra          5031.750
       474   12 Jun 2027 05:20:36.580   12 Jun 2027 05:20:56.011            19.431                Sumatra          2428.875
       475   12 Jun 2027 05:25:10.921   12 Jun 2027 05:27:00.761           109.840                  Delhi         13730.000
       476   12 Jun 2027 05:30:33.546   12 Jun 2027 05:31:49.611            76.065                  Delhi          9508.125
       477   12 Jun 2027 05:42:29.770   12 Jun 2027 05:44:07.608            97.838                Norilsk         12229.750
       478   12 Jun 2027 05:44:33.399   12 Jun 2027 05:47:52.055           198.656              Murmansk2         24832.000
       479   12 Jun 2027 07:00:50.607   12 Jun 2027 07:05:27.737           277.130                  Delhi         34641.250
       480   12 Jun 2027 07:09:47.067   12 Jun 2027 07:12:40.149           173.082                Novosib         21635.250
       481   12 Jun 2027 07:12:56.963   12 Jun 2027 07:13:36.734            39.771                Norilsk          4971.375
       482   12 Jun 2027 07:17:49.976   12 Jun 2027 07:23:09.631           319.655                Norilsk         39956.875
