uniorb/output/strategy_4/Drop/Drop_KinoSat_111505.txt

KinoSat_111505
-------------------------
    Access    *     Start Time (UTCG)     *     Stop Time (UTCG)  *   Duration (s)        *       Station  *  Data (Mbytes)
         1   01 Jun 2027 03:20:05.574   01 Jun 2027 03:20:10.098             4.524                Novosib           141.375
         2   01 Jun 2027 03:20:15.707   01 Jun 2027 03:20:32.304            16.597                 Moscow           518.656
         3   01 Jun 2027 03:20:50.389   01 Jun 2027 03:21:40.344            49.955                Norilsk          1561.094
         4   01 Jun 2027 03:21:43.014   01 Jun 2027 03:22:37.858            54.844                Novosib          1713.875
         5   01 Jun 2027 03:22:55.391   01 Jun 2027 03:24:25.654            90.263                Norilsk          2820.719
         6   01 Jun 2027 03:24:31.186   01 Jun 2027 03:25:08.315            37.129              Murmansk2          1160.281
         7   01 Jun 2027 03:25:08.315   01 Jun 2027 03:25:47.702            39.387              Murmansk1          1230.844
         8   01 Jun 2027 03:25:48.387   01 Jun 2027 03:26:13.193            24.806                Novosib           775.188
         9   01 Jun 2027 03:42:47.775   01 Jun 2027 03:43:06.008            18.233               CapeTown           569.781
        10   01 Jun 2027 03:49:04.012   01 Jun 2027 03:49:36.084            32.072               CapeTown          1002.250
        11   01 Jun 2027 04:58:03.210   01 Jun 2027 04:59:10.582            67.372              Murmansk1          2105.375
        12   01 Jun 2027 04:59:16.627   01 Jun 2027 05:01:05.518           108.891                 Moscow          3402.844
        13   01 Jun 2027 05:01:08.715   01 Jun 2027 05:01:31.169            22.454              Murmansk1           701.688
        14   01 Jun 2027 05:04:11.619   01 Jun 2027 05:04:29.072            17.453                 Moscow           545.406
        15   01 Jun 2027 05:04:44.164   01 Jun 2027 05:05:01.745            17.581                 Moscow           549.406
        16   01 Jun 2027 06:21:06.628   01 Jun 2027 06:24:17.249           190.621                Anadyr2          5956.906
        17   01 Jun 2027 06:24:17.249   01 Jun 2027 06:24:48.857            31.608                Anadyr1           987.750
        18   01 Jun 2027 07:58:29.681   01 Jun 2027 08:02:31.093           241.412                Anadyr1          7544.125
        19   01 Jun 2027 08:02:33.635   01 Jun 2027 08:02:35.732             2.097               Magadan2            65.531
        20   01 Jun 2027 09:33:50.726   01 Jun 2027 09:34:31.888            41.162               Magadan1          1286.313
        21   01 Jun 2027 09:34:31.888   01 Jun 2027 09:38:00.161           208.273               Magadan2          6508.531
        22   01 Jun 2027 09:38:13.055   01 Jun 2027 09:39:10.458            57.403                Novosib          1793.844
        23   01 Jun 2027 11:10:34.361   01 Jun 2027 11:12:28.626           114.265                Irkutsk          3570.781
        24   01 Jun 2027 11:13:00.597   01 Jun 2027 11:13:11.264            10.667                Irkutsk           333.344
        25   01 Jun 2027 11:13:24.964   01 Jun 2027 11:13:56.441            31.477              Murmansk1           983.656
        26   01 Jun 2027 11:14:04.524   01 Jun 2027 11:15:31.192            86.668                Norilsk          2708.375
        27   01 Jun 2027 11:16:03.929   01 Jun 2027 11:17:07.629            63.700              Murmansk2          1990.625
        28   01 Jun 2027 11:18:05.809   01 Jun 2027 11:18:14.729             8.920              Murmansk2           278.750
        29   01 Jun 2027 11:18:59.626   01 Jun 2027 11:19:16.121            16.495                Norilsk           515.469
        30   01 Jun 2027 11:20:56.820   01 Jun 2027 11:21:03.889             7.069              Murmansk1           220.906
        31   01 Jun 2027 11:21:06.500   01 Jun 2027 11:21:44.460            37.960              Murmansk1          1186.250
        32   01 Jun 2027 11:50:29.183   01 Jun 2027 11:51:26.766            57.583            RioGallegos          1799.469
        33   01 Jun 2027 11:54:12.306   01 Jun 2027 11:55:40.938            88.632            RioGallegos          2769.750
        34   01 Jun 2027 11:58:47.888   01 Jun 2027 12:00:03.784            75.896            RioGallegos          2371.750
        35   01 Jun 2027 12:24:41.996   01 Jun 2027 12:25:54.305            72.309                Sumatra          2259.656
        36   01 Jun 2027 12:28:34.511   01 Jun 2027 12:29:03.415            28.904                Sumatra           903.250
        37   01 Jun 2027 12:40:08.438   01 Jun 2027 12:44:39.691           271.253                Irkutsk          8476.656
        38   01 Jun 2027 14:09:50.029   01 Jun 2027 14:12:01.993           131.964                  Delhi          4123.875
        39   01 Jun 2027 14:13:11.330   01 Jun 2027 14:14:46.295            94.965                  Delhi          2967.656
        40   01 Jun 2027 14:18:19.476   01 Jun 2027 14:23:05.019           285.543                Novosib          8923.219
        41   01 Jun 2027 15:52:44.049   01 Jun 2027 15:53:58.465            74.416                 Moscow          2325.500
        42   01 Jun 2027 15:54:30.128   01 Jun 2027 15:56:36.325           126.197                 Moscow          3943.656
        43   01 Jun 2027 15:56:56.542   01 Jun 2027 15:57:10.203            13.661              Murmansk1           426.906
        44   01 Jun 2027 15:57:10.203   01 Jun 2027 15:57:29.386            19.183              Murmansk2           599.469
        45   01 Jun 2027 15:57:57.647   01 Jun 2027 15:58:59.710            62.063              Murmansk2          1939.469
        46   01 Jun 2027 16:04:13.375   01 Jun 2027 16:05:20.754            67.379                Norilsk          2105.594
        47   01 Jun 2027 16:12:13.374   01 Jun 2027 16:12:55.289            41.915                Anadyr1          1309.844
        48   01 Jun 2027 17:06:01.335   01 Jun 2027 17:08:03.553           122.218               CapeTown          3819.312
        49   01 Jun 2027 17:32:34.022   01 Jun 2027 17:37:08.038           274.016                 Moscow          8563.000
        50   01 Jun 2027 17:48:14.244   01 Jun 2027 17:48:41.146            26.902                Anadyr1           840.688
        51   01 Jun 2027 17:54:56.704   01 Jun 2027 17:55:25.400            28.696                Anadyr2           896.750
        52   01 Jun 2027 18:42:46.288   01 Jun 2027 18:45:58.076           191.788               CapeTown          5993.375
        53   01 Jun 2027 18:46:57.519   01 Jun 2027 18:47:46.536            49.017               CapeTown          1531.781
        54   01 Jun 2027 19:15:38.422   01 Jun 2027 19:19:40.725           242.303              Murmansk1          7571.969
        55   01 Jun 2027 19:25:25.190   01 Jun 2027 19:25:37.478            12.288               Magadan1           384.000
        56   01 Jun 2027 19:25:47.854   01 Jun 2027 19:26:05.743            17.889               Magadan1           559.031
        57   01 Jun 2027 19:30:17.511   01 Jun 2027 19:30:50.151            32.640               Magadan1          1020.000
        58   01 Jun 2027 19:33:36.221   01 Jun 2027 19:33:37.863             1.642               Magadan2            51.312
        59   01 Jun 2027 20:58:23.574   01 Jun 2027 21:03:36.493           312.919                Anadyr2          9778.719
        60   01 Jun 2027 21:03:55.303   01 Jun 2027 21:07:40.490           225.187               Magadan2          7037.094
        61   01 Jun 2027 21:53:04.845   01 Jun 2027 21:56:08.283           183.438            RioGallegos          5732.437
        62   01 Jun 2027 22:34:04.226   01 Jun 2027 22:36:20.396           136.170                Anadyr1          4255.312
        63   01 Jun 2027 22:36:40.629   01 Jun 2027 22:37:59.123            78.494                Norilsk          2452.938
        64   01 Jun 2027 22:38:01.109   01 Jun 2027 22:39:30.001            88.892               Magadan1          2777.875
        65   01 Jun 2027 22:40:10.361   01 Jun 2027 22:40:29.847            19.486               Magadan2           608.937
        66   01 Jun 2027 22:40:32.505   01 Jun 2027 22:41:02.263            29.758                Irkutsk           929.937
        67   01 Jun 2027 22:42:54.580   01 Jun 2027 22:44:00.649            66.069                Irkutsk          2064.656
        68   01 Jun 2027 22:49:10.537   01 Jun 2027 22:50:01.272            50.735                Irkutsk          1585.469
        69   01 Jun 2027 22:55:28.117   01 Jun 2027 22:56:01.467            33.350                Sumatra          1042.188
        70   01 Jun 2027 23:00:46.651   01 Jun 2027 23:00:55.584             8.933                Sumatra           279.156
        71   01 Jun 2027 23:04:27.319   01 Jun 2027 23:05:54.170            86.851                Sumatra          2714.094
        72   01 Jun 2027 23:38:23.604   01 Jun 2027 23:38:29.839             6.235            RioGallegos           194.844
        73   01 Jun 2027 23:39:20.130   01 Jun 2027 23:39:30.522            10.392            RioGallegos           324.750
        74   01 Jun 2027 23:39:39.529   01 Jun 2027 23:39:54.555            15.026            RioGallegos           469.563
        75   02 Jun 2027 00:08:57.546   02 Jun 2027 00:09:40.239            42.693                Anadyr1          1334.156
        76   02 Jun 2027 00:10:14.715   02 Jun 2027 00:11:13.840            59.125                Anadyr1          1847.656
        77   02 Jun 2027 00:11:36.557   02 Jun 2027 00:11:39.710             3.153                Anadyr2            98.531
        78   02 Jun 2027 00:12:09.366   02 Jun 2027 00:13:55.303           105.937                Norilsk          3310.531
        79   02 Jun 2027 00:14:21.144   02 Jun 2027 00:14:43.114            21.970               Magadan2           686.563
        80   02 Jun 2027 00:15:54.017   02 Jun 2027 00:15:55.597             1.580                Norilsk            49.375
        81   02 Jun 2027 00:16:01.336   02 Jun 2027 00:17:07.448            66.112                Irkutsk          2066.000
        82   02 Jun 2027 00:18:14.567   02 Jun 2027 00:18:38.625            24.058                Novosib           751.813
        83   02 Jun 2027 00:19:17.543   02 Jun 2027 00:19:37.981            20.438                Irkutsk           638.688
        84   02 Jun 2027 00:21:10.585   02 Jun 2027 00:21:37.548            26.963                Irkutsk           842.594
        85   02 Jun 2027 00:22:35.535   02 Jun 2027 00:22:38.426             2.891                Novosib            90.344
        86   02 Jun 2027 00:22:46.055   02 Jun 2027 00:23:23.446            37.391                Irkutsk          1168.469
        87   02 Jun 2027 00:24:42.836   02 Jun 2027 00:25:06.078            23.242                Novosib           726.313
        88   02 Jun 2027 00:27:22.948   02 Jun 2027 00:28:12.402            49.454                  Delhi          1545.438
        89   02 Jun 2027 00:31:34.473   02 Jun 2027 00:32:06.690            32.217                  Delhi          1006.781
        90   02 Jun 2027 00:34:40.968   02 Jun 2027 00:35:04.990            24.022                  Delhi           750.687
        91   02 Jun 2027 01:08:38.480   02 Jun 2027 01:09:07.378            28.898            RioGallegos           903.063
        92   02 Jun 2027 01:11:19.391   02 Jun 2027 01:11:55.055            35.664            RioGallegos          1114.500
        93   02 Jun 2027 01:42:37.508   02 Jun 2027 01:44:08.620            91.112                Anadyr2          2847.250
        94   02 Jun 2027 01:44:57.060   02 Jun 2027 01:45:04.397             7.337                Anadyr2           229.281
        95   02 Jun 2027 01:45:09.972   02 Jun 2027 01:45:28.642            18.670                Anadyr2           583.438
        96   02 Jun 2027 01:48:03.681   02 Jun 2027 01:48:23.631            19.950                Anadyr1           623.438
        97   02 Jun 2027 01:48:30.865   02 Jun 2027 01:49:38.153            67.288               Magadan2          2102.750
        98   02 Jun 2027 01:50:27.776   02 Jun 2027 01:51:45.327            77.551               Magadan2          2423.469
        99   02 Jun 2027 01:51:54.000   02 Jun 2027 01:52:51.983            57.983              Murmansk1          1811.969
       100   02 Jun 2027 01:52:51.983   02 Jun 2027 01:53:22.181            30.198              Murmansk2           943.688
       101   02 Jun 2027 01:55:53.697   02 Jun 2027 01:55:58.239             4.542                Irkutsk           141.938
       102   02 Jun 2027 01:58:55.378   02 Jun 2027 02:00:35.030            99.652                 Moscow          3114.125
       103   02 Jun 2027 02:43:24.690   02 Jun 2027 02:44:14.884            50.194            RioGallegos          1568.563
       104   02 Jun 2027 03:18:07.177   02 Jun 2027 03:18:44.378            37.201                Anadyr1          1162.531
       105   02 Jun 2027 03:27:00.357   02 Jun 2027 03:27:12.815            12.458                Anadyr1           389.312
       106   02 Jun 2027 03:33:29.978   02 Jun 2027 03:33:45.333            15.355                Norilsk           479.844
       107   02 Jun 2027 03:33:59.382   02 Jun 2027 03:35:07.567            68.185                Novosib          2130.781
       108   02 Jun 2027 03:35:31.479   02 Jun 2027 03:38:17.846           166.367                Novosib          5198.969
       109   02 Jun 2027 03:38:31.994   02 Jun 2027 03:40:47.813           135.819                 Moscow          4244.344
       110   02 Jun 2027 03:41:31.133   02 Jun 2027 03:41:51.214            20.081                 Moscow           627.531
       111   02 Jun 2027 03:54:21.270   02 Jun 2027 03:59:02.652           281.382               CapeTown          8793.188
       112   02 Jun 2027 04:00:54.735   02 Jun 2027 04:00:57.970             3.235               CapeTown           101.094
       113   02 Jun 2027 06:33:03.509   02 Jun 2027 06:34:36.912            93.403               Magadan2          2918.844
       114   02 Jun 2027 06:34:51.662   02 Jun 2027 06:35:51.616            59.954               Magadan2          1873.562
       115   02 Jun 2027 06:36:09.149   02 Jun 2027 06:37:34.687            85.538                Anadyr1          2673.062
       116   02 Jun 2027 08:11:33.343   02 Jun 2027 08:12:53.572            80.229               Magadan2          2507.156
       117   02 Jun 2027 08:12:59.401   02 Jun 2027 08:13:23.630            24.229               Magadan1           757.156
       118   02 Jun 2027 09:44:58.651   02 Jun 2027 09:45:25.558            26.907               Magadan1           840.844
       119   02 Jun 2027 09:45:51.977   02 Jun 2027 09:46:04.807            12.830               Magadan2           400.937
       120   02 Jun 2027 09:46:11.556   02 Jun 2027 09:46:27.603            16.047               Magadan2           501.469
       121   02 Jun 2027 09:46:39.511   02 Jun 2027 09:46:44.107             4.596                Norilsk           143.625
       122   02 Jun 2027 09:47:14.615   02 Jun 2027 09:47:24.250             9.635                Irkutsk           301.094
       123   02 Jun 2027 09:47:31.241   02 Jun 2027 09:47:44.515            13.274                Irkutsk           414.813
       124   02 Jun 2027 09:47:46.564   02 Jun 2027 09:47:53.664             7.100                Irkutsk           221.875
       125   02 Jun 2027 09:48:04.767   02 Jun 2027 09:48:05.350             0.583                Norilsk            18.219
       126   02 Jun 2027 09:48:18.950   02 Jun 2027 09:48:43.028            24.078                Irkutsk           752.437
       127   02 Jun 2027 09:48:46.050   02 Jun 2027 09:49:51.318            65.268               Magadan1          2039.625
       128   02 Jun 2027 09:49:58.720   02 Jun 2027 09:50:15.578            16.858                Irkutsk           526.812
       129   02 Jun 2027 09:50:18.554   02 Jun 2027 09:51:18.920            60.366                Norilsk          1886.438
       130   02 Jun 2027 10:25:00.356   02 Jun 2027 10:26:03.875            63.519            RioGallegos          1984.969
       131   02 Jun 2027 11:00:18.420   02 Jun 2027 11:00:54.806            36.386                Sumatra          1137.063
       132   02 Jun 2027 11:21:28.848   02 Jun 2027 11:21:35.809             6.961                Novosib           217.531
       133   02 Jun 2027 11:21:37.572   02 Jun 2027 11:22:01.449            23.877                Novosib           746.156
       134   02 Jun 2027 11:22:12.472   02 Jun 2027 11:22:49.378            36.906                Norilsk          1153.313
       135   02 Jun 2027 11:22:52.994   02 Jun 2027 11:23:27.345            34.351                Norilsk          1073.469
       136   02 Jun 2027 11:23:42.333   02 Jun 2027 11:23:59.856            17.523                Novosib           547.594
       137   02 Jun 2027 11:24:11.380   02 Jun 2027 11:24:58.281            46.901                Norilsk          1465.656
       138   02 Jun 2027 11:25:01.330   02 Jun 2027 11:25:44.913            43.583                Novosib          1361.969
       139   02 Jun 2027 11:25:47.788   02 Jun 2027 11:25:48.673             0.885                Novosib            27.656
       140   02 Jun 2027 11:26:03.406   02 Jun 2027 11:26:16.159            12.753                Irkutsk           398.531
       141   02 Jun 2027 12:03:03.826   02 Jun 2027 12:04:17.054            73.228            RioGallegos          2288.375
       142   02 Jun 2027 12:09:39.207   02 Jun 2027 12:10:42.312            63.105            RioGallegos          1972.031
       143   02 Jun 2027 12:50:16.972   02 Jun 2027 12:51:00.963            43.991                  Delhi          1374.719
       144   02 Jun 2027 12:51:16.169   02 Jun 2027 12:52:05.108            48.939                Novosib          1529.344
       145   02 Jun 2027 12:52:28.598   02 Jun 2027 12:54:06.469            97.871                Novosib          3058.469
       146   02 Jun 2027 12:56:39.834   02 Jun 2027 12:57:44.048            64.214                Irkutsk          2006.687
       147   02 Jun 2027 14:22:45.411   02 Jun 2027 14:27:14.977           269.566                  Delhi          8423.937
       148   02 Jun 2027 14:31:58.880   02 Jun 2027 14:33:34.850            95.970              Murmansk1          2999.062
       149   02 Jun 2027 14:34:06.075   02 Jun 2027 14:35:06.723            60.648                Novosib          1895.250
       150   02 Jun 2027 14:35:45.310   02 Jun 2027 14:36:06.168            20.858                Norilsk           651.813
       151   02 Jun 2027 14:38:18.546   02 Jun 2027 14:39:20.923            62.377                Norilsk          1949.281
       152   02 Jun 2027 15:45:03.906   02 Jun 2027 15:46:17.092            73.186               CapeTown          2287.062
       153   02 Jun 2027 15:46:51.561   02 Jun 2027 15:47:02.533            10.972               CapeTown           342.875
       154   02 Jun 2027 16:04:58.443   02 Jun 2027 16:05:47.837            49.394                 Moscow          1543.563
       155   02 Jun 2027 16:08:25.299   02 Jun 2027 16:09:11.663            46.364              Murmansk2          1448.875
       156   02 Jun 2027 16:09:31.186   02 Jun 2027 16:10:57.703            86.517              Murmansk1          2703.656
       157   02 Jun 2027 16:23:28.146   02 Jun 2027 16:24:28.031            59.885                Anadyr1          1871.406
       158   02 Jun 2027 16:24:37.825   02 Jun 2027 16:25:55.178            77.353                Anadyr2          2417.281
       159   02 Jun 2027 17:17:58.585   02 Jun 2027 17:18:41.921            43.336               CapeTown          1354.250
       160   02 Jun 2027 17:21:09.293   02 Jun 2027 17:21:40.846            31.553               CapeTown           986.031
       161   02 Jun 2027 17:26:47.509   02 Jun 2027 17:27:01.687            14.178               CapeTown           443.062
       162   02 Jun 2027 17:45:44.772   02 Jun 2027 17:49:34.195           229.423                 Moscow          7169.469
       163   02 Jun 2027 17:58:37.738   02 Jun 2027 17:59:30.143            52.405                Anadyr1          1637.656
       164   02 Jun 2027 18:03:45.675   02 Jun 2027 18:05:52.070           126.395               Magadan1          3949.844
       165   02 Jun 2027 19:29:04.044   02 Jun 2027 19:31:00.099           116.055              Murmansk1          3626.719
       166   02 Jun 2027 19:34:29.532   02 Jun 2027 19:36:11.271           101.739                Anadyr1          3179.344
       167   02 Jun 2027 19:37:00.706   02 Jun 2027 19:38:37.771            97.065               Magadan2          3033.281
       168   02 Jun 2027 19:39:26.075   02 Jun 2027 19:39:48.283            22.208               Magadan2           694.000
       169   02 Jun 2027 19:39:56.757   02 Jun 2027 19:40:23.195            26.438               Magadan2           826.187
       170   02 Jun 2027 19:42:37.148   02 Jun 2027 19:43:03.088            25.940               Magadan2           810.625
       171   02 Jun 2027 19:47:31.804   02 Jun 2027 19:48:14.650            42.846               Magadan2          1338.938
       172   02 Jun 2027 21:10:24.541   02 Jun 2027 21:14:09.912           225.371                Anadyr2          7042.844
       173   02 Jun 2027 21:14:52.790   02 Jun 2027 21:16:21.007            88.217                Norilsk          2756.781
       174   02 Jun 2027 21:16:39.419   02 Jun 2027 21:17:36.042            56.623               Magadan1          1769.469
       175   02 Jun 2027 21:17:47.457   02 Jun 2027 21:18:08.367            20.910               Magadan1           653.438
       176   02 Jun 2027 21:19:38.059   02 Jun 2027 21:20:05.050            26.991               Magadan1           843.469
       177   02 Jun 2027 21:23:03.859   02 Jun 2027 21:23:04.575             0.716               Magadan1            22.375
       178   02 Jun 2027 21:23:07.239   02 Jun 2027 21:23:14.852             7.613               Magadan1           237.906
       179   02 Jun 2027 21:23:27.779   02 Jun 2027 21:23:33.262             5.483               Magadan2           171.344
       180   02 Jun 2027 21:25:02.640   02 Jun 2027 21:25:35.787            33.147               Magadan1          1035.844
       181   02 Jun 2027 22:04:51.573   02 Jun 2027 22:07:04.571           132.998            RioGallegos          4156.187
       182   02 Jun 2027 22:13:00.332   02 Jun 2027 22:13:35.806            35.474            RioGallegos          1108.563
       183   02 Jun 2027 22:46:01.384   02 Jun 2027 22:46:27.574            26.190                Anadyr2           818.438
       184   02 Jun 2027 22:47:10.310   02 Jun 2027 22:47:27.774            17.464                Anadyr2           545.750
       185   02 Jun 2027 22:47:57.637   02 Jun 2027 22:49:16.558            78.921                Anadyr2          2466.281
       186   02 Jun 2027 22:49:19.235   02 Jun 2027 22:50:10.130            50.895               Magadan2          1590.469
       187   02 Jun 2027 22:50:18.603   02 Jun 2027 22:50:34.742            16.139               Magadan2           504.344
       188   02 Jun 2027 22:52:11.139   02 Jun 2027 22:52:28.557            17.418               Magadan2           544.313
       189   02 Jun 2027 22:53:12.239   02 Jun 2027 22:53:40.793            28.554               Magadan1           892.312
       190   02 Jun 2027 22:54:05.033   02 Jun 2027 22:55:03.418            58.385               Magadan2          1824.531
       191   02 Jun 2027 22:55:03.977   02 Jun 2027 22:55:25.357            21.380                Novosib           668.125
       192   02 Jun 2027 22:55:46.239   02 Jun 2027 22:57:10.100            83.861                Novosib          2620.656
       193   02 Jun 2027 23:06:51.308   02 Jun 2027 23:08:25.315            94.007                Sumatra          2937.719
       194   02 Jun 2027 23:50:17.313   02 Jun 2027 23:50:26.386             9.073            RioGallegos           283.531
       195   02 Jun 2027 23:50:38.397   02 Jun 2027 23:50:57.212            18.815            RioGallegos           587.969
       196   03 Jun 2027 00:20:45.871   03 Jun 2027 00:21:21.031            35.160                Anadyr2          1098.750
       197   03 Jun 2027 00:21:32.275   03 Jun 2027 00:21:44.162            11.887                Anadyr1           371.469
       198   03 Jun 2027 00:23:00.721   03 Jun 2027 00:23:22.880            22.159                Anadyr2           692.469
       199   03 Jun 2027 00:23:36.523   03 Jun 2027 00:23:37.942             1.419                Anadyr1            44.344
       200   03 Jun 2027 00:23:45.492   03 Jun 2027 00:23:52.440             6.948                Anadyr1           217.125
       201   03 Jun 2027 00:24:11.600   03 Jun 2027 00:24:18.149             6.549                Norilsk           204.656
       202   03 Jun 2027 00:24:51.361   03 Jun 2027 00:27:14.648           143.287               Magadan1          4477.719
       203   03 Jun 2027 00:28:04.074   03 Jun 2027 00:30:09.132           125.058                Irkutsk          3908.062
       204   03 Jun 2027 00:30:33.958   03 Jun 2027 00:30:46.576            12.618                Novosib           394.313
       205   03 Jun 2027 00:33:45.589   03 Jun 2027 00:34:19.208            33.619                Novosib          1050.594
       206   03 Jun 2027 00:35:55.058   03 Jun 2027 00:36:06.695            11.637                Novosib           363.656
       207   03 Jun 2027 00:36:19.582   03 Jun 2027 00:36:27.904             8.322                  Delhi           260.062
       208   03 Jun 2027 00:37:07.903   03 Jun 2027 00:37:37.071            29.168                  Delhi           911.500
       209   03 Jun 2027 00:40:06.380   03 Jun 2027 00:40:31.150            24.770                  Delhi           774.062
       210   03 Jun 2027 00:45:40.019   03 Jun 2027 00:46:03.918            23.899                  Delhi           746.844
       211   03 Jun 2027 00:49:57.384   03 Jun 2027 00:52:06.501           129.117                Sumatra          4034.906
       212   03 Jun 2027 01:54:18.656   03 Jun 2027 01:54:34.753            16.097                Anadyr1           503.031
       213   03 Jun 2027 01:55:15.016   03 Jun 2027 01:56:09.977            54.961                Anadyr1          1717.531
       214   03 Jun 2027 01:56:53.645   03 Jun 2027 01:57:06.524            12.879                Anadyr2           402.469
       215   03 Jun 2027 02:00:22.718   03 Jun 2027 02:01:29.883            67.165               Magadan2          2098.906
       216   03 Jun 2027 02:02:06.941   03 Jun 2027 02:02:10.265             3.324                Norilsk           103.875
       217   03 Jun 2027 02:02:32.289   03 Jun 2027 02:04:05.073            92.784              Murmansk2          2899.500
       218   03 Jun 2027 02:04:06.347   03 Jun 2027 02:05:05.160            58.813              Murmansk1          1837.906
       219   03 Jun 2027 02:07:23.714   03 Jun 2027 02:07:41.231            17.517                 Moscow           547.406
       220   03 Jun 2027 02:09:51.403   03 Jun 2027 02:10:02.680            11.277                Novosib           352.406
       221   03 Jun 2027 02:11:36.742   03 Jun 2027 02:11:42.779             6.037                  Delhi           188.656
       222   03 Jun 2027 02:12:18.426   03 Jun 2027 02:13:22.218            63.792                Irkutsk          1993.500
       223   03 Jun 2027 02:22:58.002   03 Jun 2027 02:23:13.347            15.345                  Delhi           479.531
       224   03 Jun 2027 03:27:42.805   03 Jun 2027 03:28:10.234            27.429                Anadyr2           857.156
       225   03 Jun 2027 03:28:14.824   03 Jun 2027 03:28:25.028            10.204                Anadyr2           318.875
       226   03 Jun 2027 03:38:05.188   03 Jun 2027 03:38:34.365            29.177               Magadan2           911.781
       227   03 Jun 2027 03:46:27.689   03 Jun 2027 03:50:23.563           235.874              Murmansk2          7371.062
       228   03 Jun 2027 03:51:11.283   03 Jun 2027 03:54:06.320           175.037                 Moscow          5469.906
       229   03 Jun 2027 04:08:22.560   03 Jun 2027 04:12:10.920           228.360               CapeTown          7136.250
       230   03 Jun 2027 04:12:58.584   03 Jun 2027 04:13:28.376            29.792               CapeTown           931.000
       231   03 Jun 2027 04:13:52.914   03 Jun 2027 04:15:23.138            90.224               CapeTown          2819.500
       232   03 Jun 2027 04:16:08.106   03 Jun 2027 04:18:05.334           117.228               CapeTown          3663.375
       233   03 Jun 2027 05:09:34.917   03 Jun 2027 05:10:55.708            80.791                Anadyr1          2524.719
       234   03 Jun 2027 05:12:35.840   03 Jun 2027 05:12:49.976            14.136               Magadan1           441.750
       235   03 Jun 2027 05:13:04.914   03 Jun 2027 05:14:35.239            90.325               Magadan2          2822.656
       236   03 Jun 2027 05:14:50.897   03 Jun 2027 05:15:06.209            15.312                Anadyr1           478.500
       237   03 Jun 2027 05:21:40.312   03 Jun 2027 05:22:03.638            23.326                Norilsk           728.938
       238   03 Jun 2027 05:24:17.228   03 Jun 2027 05:25:15.673            58.445                 Moscow          1826.406
       239   03 Jun 2027 05:42:11.689   03 Jun 2027 05:43:12.712            61.023               CapeTown          1906.969
       240   03 Jun 2027 05:47:20.842   03 Jun 2027 05:47:32.328            11.486               CapeTown           358.937
       241   03 Jun 2027 05:52:09.930   03 Jun 2027 05:53:06.095            56.165               CapeTown          1755.156
       242   03 Jun 2027 06:43:31.895   03 Jun 2027 06:43:36.338             4.443                Anadyr2           138.844
       243   03 Jun 2027 06:44:14.103   03 Jun 2027 06:45:07.154            53.051                Anadyr1          1657.844
       244   03 Jun 2027 06:45:18.617   03 Jun 2027 06:46:36.583            77.966               Magadan2          2436.437
       245   03 Jun 2027 06:46:54.642   03 Jun 2027 06:47:30.857            36.215               Magadan1          1131.719
       246   03 Jun 2027 06:47:30.857   03 Jun 2027 06:47:39.077             8.220               Magadan2           256.875
       247   03 Jun 2027 06:48:46.827   03 Jun 2027 06:49:19.212            32.385                Anadyr2          1012.031
       248   03 Jun 2027 08:19:20.335   03 Jun 2027 08:20:17.621            57.286                Anadyr1          1790.188
       249   03 Jun 2027 08:21:02.376   03 Jun 2027 08:21:38.768            36.392               Magadan2          1137.250
       250   03 Jun 2027 08:21:41.208   03 Jun 2027 08:22:50.736            69.528               Magadan1          2172.750
       251   03 Jun 2027 08:22:57.419   03 Jun 2027 08:23:04.785             7.366                Anadyr2           230.187
       252   03 Jun 2027 08:23:04.785   03 Jun 2027 08:23:58.025            53.240                Anadyr1          1663.750
       253   03 Jun 2027 08:24:10.046   03 Jun 2027 08:24:16.317             6.271               Magadan1           195.969
       254   03 Jun 2027 08:24:27.013   03 Jun 2027 08:24:56.006            28.993               Magadan1           906.031
       255   03 Jun 2027 08:25:11.377   03 Jun 2027 08:26:26.296            74.919                Anadyr2          2341.219
       256   03 Jun 2027 09:55:17.245   03 Jun 2027 09:56:59.217           101.972               Magadan2          3186.625
       257   03 Jun 2027 09:57:58.015   03 Jun 2027 09:58:21.723            23.708               Magadan1           740.875
       258   03 Jun 2027 09:58:26.570   03 Jun 2027 09:58:57.183            30.613                Irkutsk           956.656
       259   03 Jun 2027 09:59:25.656   03 Jun 2027 10:00:44.991            79.335               Magadan1          2479.219
       260   03 Jun 2027 10:01:42.713   03 Jun 2027 10:02:09.540            26.827                Novosib           838.344
       261   03 Jun 2027 10:02:18.082   03 Jun 2027 10:02:20.556             2.474                Irkutsk            77.312
       262   03 Jun 2027 10:02:45.384   03 Jun 2027 10:03:07.820            22.436                Novosib           701.125
       263   03 Jun 2027 10:37:03.944   03 Jun 2027 10:37:56.520            52.576            RioGallegos          1643.000
       264   03 Jun 2027 11:12:06.274   03 Jun 2027 11:12:46.330            40.056                Sumatra          1251.750
       265   03 Jun 2027 11:19:03.985   03 Jun 2027 11:19:49.971            45.986                Sumatra          1437.063
       266   03 Jun 2027 11:28:56.349   03 Jun 2027 11:30:08.895            72.546                  Delhi          2267.062
       267   03 Jun 2027 11:34:03.731   03 Jun 2027 11:34:33.628            29.897                Novosib           934.281
       268   03 Jun 2027 11:34:36.200   03 Jun 2027 11:34:56.709            20.509                Irkutsk           640.906
       269   03 Jun 2027 11:35:29.403   03 Jun 2027 11:35:48.567            19.164                Norilsk           598.875
       270   03 Jun 2027 11:36:04.208   03 Jun 2027 11:36:13.734             9.526                Novosib           297.687
       271   03 Jun 2027 11:36:16.483   03 Jun 2027 11:36:37.156            20.673                Irkutsk           646.031
       272   03 Jun 2027 11:36:44.315   03 Jun 2027 11:37:48.595            64.280                Novosib          2008.750
       273   03 Jun 2027 11:38:10.981   03 Jun 2027 11:38:14.045             3.064                Irkutsk            95.750
       274   03 Jun 2027 11:38:17.765   03 Jun 2027 11:38:40.853            23.088                Novosib           721.500
       275   03 Jun 2027 12:15:46.067   03 Jun 2027 12:15:51.050             4.983            RioGallegos           155.719
       276   03 Jun 2027 12:16:20.599   03 Jun 2027 12:17:00.896            40.297            RioGallegos          1259.281
       277   03 Jun 2027 12:20:16.466   03 Jun 2027 12:20:37.883            21.417            RioGallegos           669.281
       278   03 Jun 2027 12:50:11.640   03 Jun 2027 12:52:03.428           111.788                Sumatra          3493.375
       279   03 Jun 2027 13:03:31.315   03 Jun 2027 13:03:34.824             3.509                Novosib           109.656
       280   03 Jun 2027 13:04:31.475   03 Jun 2027 13:05:02.437            30.962                Novosib           967.562
       281   03 Jun 2027 13:06:04.736   03 Jun 2027 13:08:38.914           154.178                Irkutsk          4818.063
       282   03 Jun 2027 14:36:10.263   03 Jun 2027 14:39:18.309           188.046                  Delhi          5876.438
       283   03 Jun 2027 14:41:44.859   03 Jun 2027 14:41:47.839             2.980                 Moscow            93.125
       284   03 Jun 2027 14:42:13.857   03 Jun 2027 14:42:37.048            23.191                 Moscow           724.719
       285   03 Jun 2027 14:43:58.772   03 Jun 2027 14:45:13.309            74.537              Murmansk1          2329.281
       286   03 Jun 2027 14:45:15.315   03 Jun 2027 14:45:32.225            16.910              Murmansk2           528.437
       287   03 Jun 2027 14:45:40.405   03 Jun 2027 14:45:50.635            10.230              Murmansk2           319.688
       288   03 Jun 2027 14:46:04.535   03 Jun 2027 14:46:50.370            45.835                Novosib          1432.344
       289   03 Jun 2027 14:46:52.965   03 Jun 2027 14:47:37.550            44.585                Norilsk          1393.281
       290   03 Jun 2027 14:49:10.781   03 Jun 2027 14:49:42.426            31.645                Norilsk           988.906
       291   03 Jun 2027 14:51:30.484   03 Jun 2027 14:51:52.477            21.993                Norilsk           687.281
       292   03 Jun 2027 15:56:07.347   03 Jun 2027 15:58:33.365           146.018               CapeTown          4563.063
       293   03 Jun 2027 16:18:03.904   03 Jun 2027 16:18:37.250            33.346                 Moscow          1042.063
       294   03 Jun 2027 16:20:38.548   03 Jun 2027 16:21:33.125            54.577              Murmansk1          1705.531
       295   03 Jun 2027 16:23:55.904   03 Jun 2027 16:24:22.120            26.216              Murmansk2           819.250
       296   03 Jun 2027 16:29:09.077   03 Jun 2027 16:29:30.522            21.445              Murmansk2           670.156
       297   03 Jun 2027 16:35:17.311   03 Jun 2027 16:36:27.028            69.717                Anadyr2          2178.656
       298   03 Jun 2027 16:37:10.224   03 Jun 2027 16:37:52.308            42.084                Anadyr1          1315.125
       299   03 Jun 2027 16:38:18.417   03 Jun 2027 16:38:33.018            14.601                Anadyr1           456.281
       300   03 Jun 2027 16:40:40.101   03 Jun 2027 16:41:27.226            47.125                Anadyr2          1472.656
       301   03 Jun 2027 17:29:58.722   03 Jun 2027 17:32:26.233           147.511               CapeTown          4609.719
       302   03 Jun 2027 17:59:24.188   03 Jun 2027 18:01:20.183           115.995              Murmansk1          3624.844
       303   03 Jun 2027 18:02:46.433   03 Jun 2027 18:05:03.805           137.372              Murmansk2          4292.875
       304   03 Jun 2027 18:14:47.593   03 Jun 2027 18:14:52.502             4.909               Magadan2           153.406
       305   03 Jun 2027 18:15:37.564   03 Jun 2027 18:17:34.559           116.995               Magadan2          3656.094
       306   03 Jun 2027 19:46:31.225   03 Jun 2027 19:51:12.432           281.207                Anadyr1          8787.719
       307   03 Jun 2027 19:51:19.940   03 Jun 2027 19:53:40.634           140.694               Magadan1          4396.688
       308   03 Jun 2027 21:22:25.236   03 Jun 2027 21:26:06.225           220.989                Anadyr1          6905.906
       309   03 Jun 2027 21:26:52.406   03 Jun 2027 21:28:21.047            88.641               Magadan2          2770.031
       310   03 Jun 2027 21:28:21.047   03 Jun 2027 21:28:54.414            33.367               Magadan1          1042.719
       311   03 Jun 2027 21:29:10.171   03 Jun 2027 21:29:44.990            34.819               Magadan1          1088.094
       312   03 Jun 2027 21:31:21.318   03 Jun 2027 21:33:18.023           116.705                Irkutsk          3647.031
       313   03 Jun 2027 22:16:41.685   03 Jun 2027 22:18:04.076            82.391            RioGallegos          2574.719
       314   03 Jun 2027 22:18:28.557   03 Jun 2027 22:18:56.288            27.731            RioGallegos           866.594
       315   03 Jun 2027 22:25:22.329   03 Jun 2027 22:25:47.788            25.459            RioGallegos           795.594
       316   03 Jun 2027 22:57:57.727   03 Jun 2027 22:58:41.435            43.708                Anadyr2          1365.875
       317   03 Jun 2027 22:59:11.161   03 Jun 2027 22:59:46.027            34.866                Anadyr2          1089.563
       318   03 Jun 2027 23:00:15.111   03 Jun 2027 23:00:55.077            39.966                Norilsk          1248.937
       319   03 Jun 2027 23:01:03.020   03 Jun 2027 23:01:20.055            17.035                Norilsk           532.344
       320   03 Jun 2027 23:01:29.058   03 Jun 2027 23:01:34.605             5.547               Magadan1           173.344
       321   03 Jun 2027 23:01:47.702   03 Jun 2027 23:01:58.964            11.262                Norilsk           351.938
       322   03 Jun 2027 23:02:25.568   03 Jun 2027 23:03:46.093            80.525               Magadan1          2516.406
       323   03 Jun 2027 23:05:15.846   03 Jun 2027 23:06:09.078            53.232                Irkutsk          1663.500
       324   03 Jun 2027 23:06:28.906   03 Jun 2027 23:06:44.413            15.507                Irkutsk           484.594
       325   03 Jun 2027 23:07:12.264   03 Jun 2027 23:08:10.159            57.895                Novosib          1809.219
       326   03 Jun 2027 23:18:02.492   03 Jun 2027 23:20:01.913           119.421                Sumatra          3731.906
       327   03 Jun 2027 23:28:00.369   03 Jun 2027 23:28:10.614            10.245                Sumatra           320.156
       328   03 Jun 2027 23:30:29.338   03 Jun 2027 23:30:36.471             7.133                Sumatra           222.906
       329   04 Jun 2027 00:01:45.976   04 Jun 2027 00:02:01.569            15.593            RioGallegos           487.281
       330   04 Jun 2027 00:32:32.892   04 Jun 2027 00:34:48.902           136.010                Anadyr2          4250.313
       331   04 Jun 2027 00:36:13.853   04 Jun 2027 00:36:17.974             4.121                Norilsk           128.781
       332   04 Jun 2027 00:36:53.462   04 Jun 2027 00:37:44.163            50.701               Magadan2          1584.406
       333   04 Jun 2027 00:39:02.638   04 Jun 2027 00:39:11.624             8.986               Magadan1           280.812
       334   04 Jun 2027 00:39:25.482   04 Jun 2027 00:39:44.786            19.304               Magadan1           603.250
       335   04 Jun 2027 00:40:07.594   04 Jun 2027 00:40:42.441            34.847                Irkutsk          1088.969
       336   04 Jun 2027 00:41:15.788   04 Jun 2027 00:42:19.787            63.999                Novosib          1999.969
       337   04 Jun 2027 00:42:52.986   04 Jun 2027 00:43:24.836            31.850                Novosib           995.313
       338   04 Jun 2027 00:43:29.996   04 Jun 2027 00:43:34.156             4.160                Novosib           130.000
       339   04 Jun 2027 00:44:58.111   04 Jun 2027 00:45:24.312            26.201                Novosib           818.781
       340   04 Jun 2027 00:47:10.836   04 Jun 2027 00:47:59.452            48.616                Irkutsk          1519.250
       341   04 Jun 2027 00:48:10.050   04 Jun 2027 00:48:29.378            19.328                  Delhi           604.000
       342   04 Jun 2027 00:49:16.730   04 Jun 2027 00:49:26.654             9.924                  Delhi           310.125
       343   04 Jun 2027 00:50:03.060   04 Jun 2027 00:51:10.101            67.041                  Delhi          2095.031
       344   04 Jun 2027 01:28:42.463   04 Jun 2027 01:29:26.462            43.999            RioGallegos          1374.969
       345   04 Jun 2027 01:31:29.701   04 Jun 2027 01:32:06.559            36.858            RioGallegos          1151.812
       346   04 Jun 2027 01:36:03.035   04 Jun 2027 01:36:48.561            45.526            RioGallegos          1422.687
       347   04 Jun 2027 02:05:59.681   04 Jun 2027 02:06:19.785            20.104                Anadyr1           628.250
       348   04 Jun 2027 02:07:15.312   04 Jun 2027 02:07:27.568            12.256                Anadyr1           383.000
       349   04 Jun 2027 02:08:11.293   04 Jun 2027 02:08:44.218            32.925                Anadyr1          1028.906
       350   04 Jun 2027 02:12:10.639   04 Jun 2027 02:12:54.689            44.050               Magadan2          1376.562
       351   04 Jun 2027 02:13:03.087   04 Jun 2027 02:13:23.825            20.738               Magadan1           648.062
       352   04 Jun 2027 02:13:34.567   04 Jun 2027 02:13:47.873            13.306                Norilsk           415.812
       353   04 Jun 2027 02:13:56.664   04 Jun 2027 02:14:17.179            20.515                Norilsk           641.094
       354   04 Jun 2027 02:14:30.604   04 Jun 2027 02:16:55.555           144.951              Murmansk1          4529.719
       355   04 Jun 2027 02:17:24.132   04 Jun 2027 02:17:42.999            18.867                Novosib           589.594
       356   04 Jun 2027 02:23:37.631   04 Jun 2027 02:24:26.985            49.354                Novosib          1542.312
       357   04 Jun 2027 02:29:59.913   04 Jun 2027 02:31:13.385            73.472                  Delhi          2296.000
       358   04 Jun 2027 03:39:39.230   04 Jun 2027 03:39:54.089            14.859                Anadyr1           464.344
       359   04 Jun 2027 03:59:27.615   04 Jun 2027 04:02:00.519           152.904              Murmansk2          4778.250
       360   04 Jun 2027 04:02:04.647   04 Jun 2027 04:02:09.919             5.272                 Moscow           164.750
       361   04 Jun 2027 04:02:15.782   04 Jun 2027 04:02:38.418            22.636              Murmansk2           707.375
       362   04 Jun 2027 04:03:12.766   04 Jun 2027 04:06:17.950           185.184                 Moscow          5787.000
       363   04 Jun 2027 04:21:28.170   04 Jun 2027 04:21:40.882            12.712               CapeTown           397.250
       364   04 Jun 2027 04:24:04.315   04 Jun 2027 04:30:13.149           368.834               CapeTown         11526.063
       365   04 Jun 2027 05:21:03.587   04 Jun 2027 05:22:14.866            71.279               Magadan1          2227.469
       366   04 Jun 2027 05:22:45.075   04 Jun 2027 05:24:50.659           125.584                Anadyr1          3924.500
       367   04 Jun 2027 05:25:04.283   04 Jun 2027 05:26:38.339            94.056               Magadan1          2939.250
       368   04 Jun 2027 05:26:49.613   04 Jun 2027 05:27:07.910            18.297                Anadyr2           571.781
       369   04 Jun 2027 06:55:19.954   04 Jun 2027 06:55:33.500            13.546                Anadyr2           423.313
       370   04 Jun 2027 06:56:01.275   04 Jun 2027 06:56:02.235             0.960               Magadan2            30.000
       371   04 Jun 2027 06:56:25.495   04 Jun 2027 06:57:06.725            41.230                Anadyr2          1288.437
       372   04 Jun 2027 06:57:22.228   04 Jun 2027 06:58:35.611            73.383               Magadan1          2293.219
       373   04 Jun 2027 06:58:57.499   04 Jun 2027 06:59:11.997            14.498               Magadan1           453.063
       374   04 Jun 2027 06:59:16.078   04 Jun 2027 06:59:33.436            17.358               Magadan1           542.437
       375   04 Jun 2027 06:59:57.839   04 Jun 2027 07:00:03.288             5.449                Anadyr1           170.281
       376   04 Jun 2027 07:00:03.288   04 Jun 2027 07:00:42.204            38.916                Anadyr2          1216.125
       377   04 Jun 2027 08:30:09.067   04 Jun 2027 08:30:25.710            16.643               Magadan2           520.094
       378   04 Jun 2027 08:31:18.947   04 Jun 2027 08:32:02.296            43.349                Anadyr2          1354.656
       379   04 Jun 2027 08:32:39.011   04 Jun 2027 08:33:05.163            26.152               Magadan2           817.250
       380   04 Jun 2027 08:33:13.617   04 Jun 2027 08:33:21.775             8.158               Magadan1           254.937
       381   04 Jun 2027 08:33:34.939   04 Jun 2027 08:34:25.063            50.124                Anadyr2          1566.375
       382   04 Jun 2027 08:34:53.485   04 Jun 2027 08:35:15.193            21.708                Anadyr1           678.375
       383   04 Jun 2027 08:35:17.738   04 Jun 2027 08:35:19.670             1.932               Magadan2            60.375
       384   04 Jun 2027 08:35:26.402   04 Jun 2027 08:36:08.930            42.528                Anadyr1          1329.000
       385   04 Jun 2027 08:36:11.456   04 Jun 2027 08:36:15.015             3.559               Magadan1           111.219
       386   04 Jun 2027 08:36:41.453   04 Jun 2027 08:36:55.019            13.566                Irkutsk           423.938
       387   04 Jun 2027 08:36:58.196   04 Jun 2027 08:37:29.538            31.342               Magadan2           979.437
       388   04 Jun 2027 08:42:37.700   04 Jun 2027 08:42:45.189             7.489              Murmansk1           234.031
       389   04 Jun 2027 09:14:03.254   04 Jun 2027 09:14:30.482            27.228            RioGallegos           850.875
       390   04 Jun 2027 09:16:11.034   04 Jun 2027 09:17:12.413            61.379            RioGallegos          1918.094
       391   04 Jun 2027 10:09:05.511   04 Jun 2027 10:09:13.216             7.705                Irkutsk           240.781
       392   04 Jun 2027 10:10:10.801   04 Jun 2027 10:10:15.196             4.395                Irkutsk           137.344
       393   04 Jun 2027 10:10:32.708   04 Jun 2027 10:11:23.135            50.427                Irkutsk          1575.844
       394   04 Jun 2027 10:11:33.367   04 Jun 2027 10:12:25.241            51.874               Magadan1          1621.063
       395   04 Jun 2027 10:12:43.077   04 Jun 2027 10:13:22.736            39.659               Magadan2          1239.344
       396   04 Jun 2027 10:13:33.994   04 Jun 2027 10:13:43.236             9.242                Norilsk           288.813
       397   04 Jun 2027 10:13:47.228   04 Jun 2027 10:13:47.599             0.371                Novosib            11.594
       398   04 Jun 2027 10:14:11.990   04 Jun 2027 10:15:22.642            70.652                Norilsk          2207.875
       399   04 Jun 2027 11:24:00.161   04 Jun 2027 11:24:31.623            31.462                Sumatra           983.187
       400   04 Jun 2027 11:27:06.710   04 Jun 2027 11:27:21.369            14.659                Sumatra           458.094
       401   04 Jun 2027 11:34:43.003   04 Jun 2027 11:35:19.383            36.380                  Delhi          1136.875
       402   04 Jun 2027 11:45:12.704   04 Jun 2027 11:45:26.301            13.597                Novosib           424.906
       403   04 Jun 2027 11:46:38.784   04 Jun 2027 11:46:41.083             2.299                Novosib            71.844
       404   04 Jun 2027 11:47:20.562   04 Jun 2027 11:47:35.222            14.660                Novosib           458.125
       405   04 Jun 2027 11:47:35.744   04 Jun 2027 11:47:49.840            14.096                Irkutsk           440.500
       406   04 Jun 2027 11:47:59.318   04 Jun 2027 11:48:40.251            40.933                Irkutsk          1279.156
       407   04 Jun 2027 11:49:09.145   04 Jun 2027 11:49:31.920            22.775                Norilsk           711.719
       408   04 Jun 2027 11:49:37.943   04 Jun 2027 11:49:46.201             8.258                Norilsk           258.062
       409   04 Jun 2027 11:49:48.053   04 Jun 2027 11:49:57.497             9.444                Norilsk           295.125
       410   04 Jun 2027 11:50:20.550   04 Jun 2027 11:50:37.834            17.284                Norilsk           540.125
       411   04 Jun 2027 12:28:38.571   04 Jun 2027 12:29:08.039            29.468            RioGallegos           920.875
       412   04 Jun 2027 12:29:59.844   04 Jun 2027 12:32:16.580           136.736            RioGallegos          4273.000
       413   04 Jun 2027 13:03:43.965   04 Jun 2027 13:03:57.394            13.429                Sumatra           419.656
       414   04 Jun 2027 13:11:04.066   04 Jun 2027 13:11:20.912            16.846                  Delhi           526.437
       415   04 Jun 2027 13:15:50.200   04 Jun 2027 13:16:33.805            43.605                Novosib          1362.656
       416   04 Jun 2027 13:17:08.153   04 Jun 2027 13:18:04.043            55.890                Novosib          1746.562
       417   04 Jun 2027 13:19:43.637   04 Jun 2027 13:20:36.786            53.149                Irkutsk          1660.906
       418   04 Jun 2027 13:21:07.692   04 Jun 2027 13:22:39.878            92.186                Irkutsk          2880.813
       419   04 Jun 2027 14:52:36.736   04 Jun 2027 14:56:19.564           222.828                 Moscow          6963.375
       420   04 Jun 2027 14:57:17.215   04 Jun 2027 14:58:04.417            47.202              Murmansk2          1475.063
       421   04 Jun 2027 14:58:14.116   04 Jun 2027 14:58:18.025             3.909              Murmansk1           122.156
       422   04 Jun 2027 14:59:21.670   04 Jun 2027 14:59:37.465            15.795              Murmansk2           493.594
       423   04 Jun 2027 14:59:44.908   04 Jun 2027 15:00:39.874            54.966                Norilsk          1717.687
       424   04 Jun 2027 15:01:44.656   04 Jun 2027 15:03:30.318           105.662                Norilsk          3301.938
       425   04 Jun 2027 15:04:14.545   04 Jun 2027 15:04:26.765            12.220                Norilsk           381.875
       426   04 Jun 2027 16:07:30.687   04 Jun 2027 16:08:34.016            63.329               CapeTown          1979.031
       427   04 Jun 2027 16:11:20.205   04 Jun 2027 16:11:40.718            20.513               CapeTown           641.031
       428   04 Jun 2027 16:13:41.908   04 Jun 2027 16:14:26.577            44.669               CapeTown          1395.906
       429   04 Jun 2027 16:29:38.586   04 Jun 2027 16:29:41.471             2.885                 Moscow            90.156
       430   04 Jun 2027 16:32:53.751   04 Jun 2027 16:33:38.082            44.331              Murmansk2          1385.344
       431   04 Jun 2027 16:33:51.569   04 Jun 2027 16:34:28.943            37.374                 Moscow          1167.937
       432   04 Jun 2027 16:34:49.648   04 Jun 2027 16:35:20.522            30.874              Murmansk1           964.812
       433   04 Jun 2027 16:41:11.115   04 Jun 2027 16:42:04.481            53.366              Murmansk1          1667.688
       434   04 Jun 2027 16:47:09.609   04 Jun 2027 16:48:26.606            76.997                Anadyr1          2406.156
       435   04 Jun 2027 16:50:14.507   04 Jun 2027 16:50:31.168            16.661                Anadyr1           520.656
       436   04 Jun 2027 16:55:04.711   04 Jun 2027 16:55:08.707             3.996                Anadyr2           124.875
       437   04 Jun 2027 16:55:55.394   04 Jun 2027 16:56:10.743            15.349                Anadyr1           479.656
       438   04 Jun 2027 17:42:01.633   04 Jun 2027 17:44:17.361           135.728               CapeTown          4241.500
       439   04 Jun 2027 18:11:58.704   04 Jun 2027 18:12:39.161            40.457              Murmansk1          1264.281
       440   04 Jun 2027 18:13:21.320   04 Jun 2027 18:16:06.034           164.714              Murmansk2          5147.313
       441   04 Jun 2027 18:17:04.061   04 Jun 2027 18:17:24.287            20.226              Murmansk1           632.062
       442   04 Jun 2027 18:24:49.846   04 Jun 2027 18:24:59.127             9.281                Anadyr2           290.031
       443   04 Jun 2027 18:25:30.977   04 Jun 2027 18:25:57.640            26.663                Anadyr2           833.219
       444   04 Jun 2027 18:26:17.788   04 Jun 2027 18:27:49.145            91.357               Magadan1          2854.906
       445   04 Jun 2027 18:28:34.840   04 Jun 2027 18:30:17.662           102.822               Magadan1          3213.187
       446   04 Jun 2027 19:58:32.918   04 Jun 2027 20:02:04.926           212.008                Anadyr1          6625.250
       447   04 Jun 2027 20:02:35.164   04 Jun 2027 20:02:57.183            22.019                Anadyr1           688.094
       448   04 Jun 2027 20:03:07.888   04 Jun 2027 20:03:54.701            46.813                Anadyr1          1462.906
       449   04 Jun 2027 20:03:56.088   04 Jun 2027 20:04:16.357            20.269               Magadan2           633.406
       450   04 Jun 2027 20:06:13.417   04 Jun 2027 20:06:44.026            30.609               Magadan1           956.531
       451   04 Jun 2027 20:11:10.954   04 Jun 2027 20:11:36.432            25.478               Magadan2           796.188
       452   04 Jun 2027 21:34:25.615   04 Jun 2027 21:36:33.956           128.341                Anadyr2          4010.656
       453   04 Jun 2027 21:36:41.499   04 Jun 2027 21:41:53.420           311.921                Norilsk          9747.531
       454   04 Jun 2027 21:42:22.231   04 Jun 2027 21:43:06.432            44.201                Irkutsk          1381.281
       455   04 Jun 2027 21:45:01.529   04 Jun 2027 21:45:01.535             0.006                Irkutsk             0.187
       456   04 Jun 2027 21:47:19.697   04 Jun 2027 21:48:03.253            43.556                Irkutsk          1361.125
       457   04 Jun 2027 21:59:19.363   04 Jun 2027 22:00:51.350            91.987                Sumatra          2874.594
       458   04 Jun 2027 22:36:37.433   04 Jun 2027 22:36:50.462            13.029            RioGallegos           407.156
       459   04 Jun 2027 22:36:56.884   04 Jun 2027 22:37:53.380            56.496            RioGallegos          1765.500
       460   04 Jun 2027 23:09:53.152   04 Jun 2027 23:11:47.324           114.172                Anadyr1          3567.875
       461   04 Jun 2027 23:11:47.324   04 Jun 2027 23:11:59.440            12.116                Anadyr2           378.625
       462   04 Jun 2027 23:12:16.425   04 Jun 2027 23:12:49.920            33.495                Norilsk          1046.719
       463   04 Jun 2027 23:12:59.784   04 Jun 2027 23:13:24.499            24.715               Magadan2           772.344
       464   04 Jun 2027 23:14:14.524   04 Jun 2027 23:14:39.239            24.715               Magadan2           772.344
       465   04 Jun 2027 23:16:17.520   04 Jun 2027 23:17:22.352            64.832                Irkutsk          2026.000
       466   04 Jun 2027 23:17:51.328   04 Jun 2027 23:17:53.398             2.070                Irkutsk            64.688
       467   04 Jun 2027 23:18:25.409   04 Jun 2027 23:19:17.456            52.047                Novosib          1626.469
       468   04 Jun 2027 23:20:52.810   04 Jun 2027 23:23:12.475           139.665                Novosib          4364.531
       469   04 Jun 2027 23:39:09.053   04 Jun 2027 23:39:19.283            10.230                Sumatra           319.688
       470   05 Jun 2027 00:12:00.124   05 Jun 2027 00:12:08.857             8.733            RioGallegos           272.906
       471   05 Jun 2027 00:13:18.742   05 Jun 2027 00:13:42.530            23.788            RioGallegos           743.375
       472   05 Jun 2027 00:16:26.785   05 Jun 2027 00:16:49.626            22.841            RioGallegos           713.781
       473   05 Jun 2027 00:44:43.566   05 Jun 2027 00:45:42.124            58.558                Anadyr2          1829.937
       474   05 Jun 2027 00:46:03.204   05 Jun 2027 00:46:32.916            29.712                Anadyr1           928.500
       475   05 Jun 2027 00:48:16.097   05 Jun 2027 00:48:18.466             2.369                Norilsk            74.031
       476   05 Jun 2027 00:48:53.786   05 Jun 2027 00:48:58.351             4.565                Norilsk           142.656
       477   05 Jun 2027 00:49:07.095   05 Jun 2027 00:50:54.341           107.246               Magadan2          3351.438
       478   05 Jun 2027 00:51:43.587   05 Jun 2027 00:52:13.814            30.227               Magadan1           944.594
       479   05 Jun 2027 00:52:52.416   05 Jun 2027 00:54:33.577           101.161                Novosib          3161.281
       480   05 Jun 2027 00:56:03.977   05 Jun 2027 00:56:18.701            14.724                Novosib           460.125
       481   05 Jun 2027 00:57:00.366   05 Jun 2027 00:57:43.803            43.437                Novosib          1357.406
       482   05 Jun 2027 00:59:35.876   05 Jun 2027 01:00:25.511            49.635                  Delhi          1551.094
