uniorb/output/strategy_4/Drop/Drop_KinoSat_111805.txt

KinoSat_111805
-------------------------
    Access    *     Start Time (UTCG)     *     Stop Time (UTCG)  *   Duration (s)        *       Station  *  Data (Mbytes)
         1   01 Jun 2027 03:05:49.161   01 Jun 2027 03:08:17.626           148.465                Irkutsk          4639.531
         2   01 Jun 2027 03:08:24.522   01 Jun 2027 03:09:22.474            57.952              Murmansk1          1811.000
         3   01 Jun 2027 03:09:35.336   01 Jun 2027 03:10:14.907            39.571              Murmansk1          1236.594
         4   01 Jun 2027 03:10:15.053   01 Jun 2027 03:10:42.698            27.645                Novosib           863.906
         5   01 Jun 2027 03:10:50.603   01 Jun 2027 03:10:55.043             4.440                 Moscow           138.750
         6   01 Jun 2027 03:11:04.398   01 Jun 2027 03:11:48.417            44.019                 Moscow          1375.594
         7   01 Jun 2027 03:11:59.575   01 Jun 2027 03:14:47.886           168.311                  Delhi          5259.719
         8   01 Jun 2027 04:45:16.659   01 Jun 2027 04:45:38.035            21.376              Murmansk1           668.000
         9   01 Jun 2027 04:45:58.626   01 Jun 2027 04:47:08.617            69.991                 Moscow          2187.219
        10   01 Jun 2027 04:47:09.719   01 Jun 2027 04:48:04.355            54.636                Norilsk          1707.375
        11   01 Jun 2027 04:48:04.631   01 Jun 2027 04:48:27.453            22.822              Murmansk2           713.187
        12   01 Jun 2027 04:48:32.847   01 Jun 2027 04:50:41.264           128.417                 Moscow          4013.031
        13   01 Jun 2027 04:51:27.631   01 Jun 2027 04:54:24.632           177.001                 Moscow          5531.281
        14   01 Jun 2027 05:07:00.265   01 Jun 2027 05:10:03.241           182.976               CapeTown          5718.000
        15   01 Jun 2027 05:10:35.853   01 Jun 2027 05:10:53.422            17.569               CapeTown           549.031
        16   01 Jun 2027 05:11:57.106   01 Jun 2027 05:12:52.932            55.826               CapeTown          1744.563
        17   01 Jun 2027 06:23:02.882   01 Jun 2027 06:25:09.069           126.187              Murmansk2          3943.344
        18   01 Jun 2027 06:25:09.069   01 Jun 2027 06:25:28.257            19.188              Murmansk1           599.625
        19   01 Jun 2027 06:25:39.225   01 Jun 2027 06:25:50.110            10.885                 Moscow           340.156
        20   01 Jun 2027 06:26:34.297   01 Jun 2027 06:28:04.092            89.795                 Moscow          2806.094
        21   01 Jun 2027 06:28:43.851   01 Jun 2027 06:29:27.384            43.533                 Moscow          1360.406
        22   01 Jun 2027 06:42:21.451   01 Jun 2027 06:43:48.046            86.595               CapeTown          2706.094
        23   01 Jun 2027 07:45:28.795   01 Jun 2027 07:45:43.349            14.554               Magadan2           454.813
        24   01 Jun 2027 07:45:57.120   01 Jun 2027 07:47:08.315            71.195               Magadan2          2224.844
        25   01 Jun 2027 07:47:31.040   01 Jun 2027 07:47:44.931            13.891                Anadyr1           434.094
        26   01 Jun 2027 09:22:29.747   01 Jun 2027 09:22:55.620            25.873                Anadyr2           808.531
        27   01 Jun 2027 09:23:30.517   01 Jun 2027 09:25:26.894           116.377                Anadyr2          3636.781
        28   01 Jun 2027 10:57:45.829   01 Jun 2027 10:58:56.372            70.543               Magadan1          2204.469
        29   01 Jun 2027 10:58:56.372   01 Jun 2027 11:02:29.235           212.863               Magadan2          6651.969
        30   01 Jun 2027 13:56:44.830   01 Jun 2027 13:56:51.180             6.350                Sumatra           198.438
        31   01 Jun 2027 14:09:36.224   01 Jun 2027 14:12:46.663           190.439                Irkutsk          5951.219
        32   01 Jun 2027 15:37:28.316   01 Jun 2027 15:39:38.701           130.385                  Delhi          4074.531
        33   01 Jun 2027 15:44:12.081   01 Jun 2027 15:47:39.602           207.521                Novosib          6485.031
        34   01 Jun 2027 15:47:40.611   01 Jun 2027 15:48:02.659            22.048                Novosib           689.000
        35   01 Jun 2027 15:50:12.622   01 Jun 2027 15:50:39.671            27.049                Novosib           845.281
        36   01 Jun 2027 18:58:07.880   01 Jun 2027 19:03:27.047           319.167                 Moscow          9973.969
        37   01 Jun 2027 20:11:12.175   01 Jun 2027 20:13:35.692           143.517               CapeTown          4484.906
        38   01 Jun 2027 20:41:19.671   01 Jun 2027 20:43:49.835           150.164              Murmansk2          4692.625
        39   01 Jun 2027 22:23:00.452   01 Jun 2027 22:24:04.037            63.585                Anadyr1          1987.031
        40   01 Jun 2027 22:25:16.734   01 Jun 2027 22:27:08.197           111.463               Magadan2          3483.219
        41   01 Jun 2027 22:27:47.481   01 Jun 2027 22:28:36.598            49.117               Magadan1          1534.906
        42   01 Jun 2027 23:17:28.148   01 Jun 2027 23:20:20.923           172.775            RioGallegos          5399.219
        43   01 Jun 2027 23:23:26.298   01 Jun 2027 23:23:40.406            14.108            RioGallegos           440.875
        44   01 Jun 2027 23:58:38.247   02 Jun 2027 00:00:13.152            94.905                Anadyr2          2965.781
        45   02 Jun 2027 00:00:48.925   02 Jun 2027 00:02:33.288           104.363                Norilsk          3261.344
        46   02 Jun 2027 00:02:36.580   02 Jun 2027 00:03:16.911            40.331               Magadan1          1260.344
        47   02 Jun 2027 00:05:01.718   02 Jun 2027 00:06:25.394            83.676                Irkutsk          2614.875
        48   02 Jun 2027 00:07:04.220   02 Jun 2027 00:08:02.431            58.211                Novosib          1819.094
        49   02 Jun 2027 00:08:20.357   02 Jun 2027 00:09:18.262            57.905                Novosib          1809.531
        50   02 Jun 2027 00:18:48.837   02 Jun 2027 00:19:31.459            42.622                Sumatra          1331.938
        51   02 Jun 2027 00:52:42.733   02 Jun 2027 00:53:08.920            26.187            RioGallegos           818.344
        52   02 Jun 2027 00:53:33.220   02 Jun 2027 00:53:50.765            17.545            RioGallegos           548.281
        53   02 Jun 2027 00:56:22.668   02 Jun 2027 00:56:33.456            10.788            RioGallegos           337.125
        54   02 Jun 2027 00:59:39.145   02 Jun 2027 01:00:26.659            47.514            RioGallegos          1484.812
        55   02 Jun 2027 01:33:24.221   02 Jun 2027 01:33:56.197            31.976                Anadyr2           999.250
        56   02 Jun 2027 01:34:33.010   02 Jun 2027 01:35:31.663            58.653                Anadyr1          1832.906
        57   02 Jun 2027 01:35:45.749   02 Jun 2027 01:35:53.483             7.734                Anadyr2           241.688
        58   02 Jun 2027 01:36:46.677   02 Jun 2027 01:38:32.690           106.013                Norilsk          3312.906
        59   02 Jun 2027 01:40:39.464   02 Jun 2027 01:43:50.495           191.031                Irkutsk          5969.719
        60   02 Jun 2027 01:48:37.489   02 Jun 2027 01:49:07.348            29.859                  Delhi           933.094
        61   02 Jun 2027 01:56:11.312   02 Jun 2027 01:56:45.725            34.413                Sumatra          1075.406
        62   02 Jun 2027 01:59:20.056   02 Jun 2027 02:00:55.672            95.616                Sumatra          2988.000
        63   02 Jun 2027 02:29:07.357   02 Jun 2027 02:29:49.270            41.913            RioGallegos          1309.781
        64   02 Jun 2027 02:30:12.624   02 Jun 2027 02:30:33.573            20.949            RioGallegos           654.656
        65   02 Jun 2027 03:19:39.142   02 Jun 2027 03:19:51.703            12.561                Novosib           392.531
        66   02 Jun 2027 03:19:57.485   02 Jun 2027 03:20:26.187            28.702              Murmansk1           896.937
        67   02 Jun 2027 03:20:26.187   02 Jun 2027 03:21:32.139            65.952              Murmansk2          2061.000
        68   02 Jun 2027 03:21:35.773   02 Jun 2027 03:22:17.011            41.238                Novosib          1288.687
        69   02 Jun 2027 03:22:19.232   02 Jun 2027 03:23:16.097            56.865                Norilsk          1777.031
        70   02 Jun 2027 03:23:44.882   02 Jun 2027 03:23:53.825             8.943              Murmansk2           279.469
        71   02 Jun 2027 03:23:58.265   02 Jun 2027 03:24:56.860            58.595                 Moscow          1831.094
        72   02 Jun 2027 03:25:46.513   02 Jun 2027 03:26:28.320            41.807                Irkutsk          1306.469
        73   02 Jun 2027 03:29:03.902   02 Jun 2027 03:29:11.660             7.758                Novosib           242.438
        74   02 Jun 2027 03:31:07.387   02 Jun 2027 03:32:41.448            94.061                  Delhi          2939.406
        75   02 Jun 2027 03:35:17.154   02 Jun 2027 03:35:52.058            34.904                  Delhi          1090.750
        76   02 Jun 2027 04:40:20.853   02 Jun 2027 04:41:07.965            47.112                Anadyr1          1472.250
        77   02 Jun 2027 04:41:07.965   02 Jun 2027 04:42:13.701            65.736                Anadyr2          2054.250
        78   02 Jun 2027 04:59:45.132   02 Jun 2027 05:00:22.473            37.341                Novosib          1166.906
        79   02 Jun 2027 05:00:30.672   02 Jun 2027 05:02:28.704           118.032                Novosib          3688.500
        80   02 Jun 2027 05:02:33.350   02 Jun 2027 05:03:32.060            58.710                 Moscow          1834.688
        81   02 Jun 2027 05:03:49.208   02 Jun 2027 05:04:48.946            59.738                 Moscow          1866.813
        82   02 Jun 2027 05:18:39.145   02 Jun 2027 05:20:00.568            81.423               CapeTown          2544.469
        83   02 Jun 2027 05:21:40.223   02 Jun 2027 05:21:55.115            14.892               CapeTown           465.375
        84   02 Jun 2027 06:14:51.001   02 Jun 2027 06:16:43.862           112.861                Anadyr1          3526.906
        85   02 Jun 2027 06:17:19.691   02 Jun 2027 06:17:24.891             5.200               Magadan1           162.500
        86   02 Jun 2027 06:17:53.334   02 Jun 2027 06:19:15.982            82.648               Magadan1          2582.750
        87   02 Jun 2027 06:22:29.377   02 Jun 2027 06:25:02.327           152.950               Magadan1          4779.688
        88   02 Jun 2027 06:37:06.675   02 Jun 2027 06:39:36.173           149.498              Murmansk1          4671.813
        89   02 Jun 2027 06:54:43.778   02 Jun 2027 07:01:35.849           412.071               CapeTown         12877.219
        90   02 Jun 2027 07:02:46.082   02 Jun 2027 07:04:41.088           115.006               CapeTown          3593.938
        91   02 Jun 2027 07:51:12.843   02 Jun 2027 07:51:53.864            41.021                Anadyr1          1281.906
        92   02 Jun 2027 07:56:40.415   02 Jun 2027 07:59:46.488           186.073                Anadyr2          5814.781
        93   02 Jun 2027 07:59:46.488   02 Jun 2027 08:01:27.243           100.755                Anadyr1          3148.594
        94   02 Jun 2027 09:33:25.364   02 Jun 2027 09:35:28.312           122.948                Anadyr2          3842.125
        95   02 Jun 2027 09:36:19.152   02 Jun 2027 09:36:56.802            37.650               Magadan2          1176.563
        96   02 Jun 2027 09:37:08.898   02 Jun 2027 09:37:44.255            35.357               Magadan1          1104.906
        97   02 Jun 2027 10:15:01.200   02 Jun 2027 10:15:25.575            24.375            RioGallegos           761.719
        98   02 Jun 2027 10:17:17.365   02 Jun 2027 10:17:43.964            26.599            RioGallegos           831.219
        99   02 Jun 2027 11:07:13.085   02 Jun 2027 11:07:59.391            46.306               Magadan2          1447.062
       100   02 Jun 2027 11:08:02.736   02 Jun 2027 11:10:17.014           134.278               Magadan2          4196.187
       101   02 Jun 2027 11:10:46.625   02 Jun 2027 11:10:53.573             6.948               Magadan1           217.125
       102   02 Jun 2027 11:10:53.573   02 Jun 2027 11:14:17.996           204.423               Magadan2          6388.219
       103   02 Jun 2027 11:14:36.915   02 Jun 2027 11:15:02.878            25.963                Norilsk           811.344
       104   02 Jun 2027 11:49:38.973   02 Jun 2027 11:50:39.413            60.440            RioGallegos          1888.750
       105   02 Jun 2027 12:24:43.196   02 Jun 2027 12:25:26.693            43.497                Sumatra          1359.281
       106   02 Jun 2027 12:28:30.984   02 Jun 2027 12:30:24.485           113.501                Sumatra          3546.906
       107   02 Jun 2027 12:39:51.888   02 Jun 2027 12:40:29.410            37.522                Novosib          1172.563
       108   02 Jun 2027 12:42:59.544   02 Jun 2027 12:44:02.255            62.711                Norilsk          1959.719
       109   02 Jun 2027 12:45:25.298   02 Jun 2027 12:45:31.055             5.757                Norilsk           179.906
       110   02 Jun 2027 12:48:06.579   02 Jun 2027 12:48:41.558            34.979                Norilsk          1093.094
       111   02 Jun 2027 13:28:15.091   02 Jun 2027 13:30:28.417           133.326            RioGallegos          4166.437
       112   02 Jun 2027 14:02:39.205   02 Jun 2027 14:05:16.184           156.979                Sumatra          4905.594
       113   02 Jun 2027 14:18:29.372   02 Jun 2027 14:22:03.765           214.393                Irkutsk          6699.781
       114   02 Jun 2027 15:48:31.111   02 Jun 2027 15:52:20.276           229.165                  Delhi          7161.406
       115   02 Jun 2027 15:56:54.787   02 Jun 2027 16:00:36.498           221.711                Novosib          6928.469
       116   02 Jun 2027 17:29:49.437   02 Jun 2027 17:30:54.403            64.966                 Moscow          2030.187
       117   02 Jun 2027 17:33:12.206   02 Jun 2027 17:35:19.934           127.728              Murmansk2          3991.500
       118   02 Jun 2027 17:47:53.064   02 Jun 2027 17:49:03.681            70.617                Anadyr1          2206.781
       119   02 Jun 2027 17:50:18.459   02 Jun 2027 17:50:40.078            21.619                Anadyr1           675.594
       120   02 Jun 2027 18:42:34.296   02 Jun 2027 18:44:52.114           137.818               CapeTown          4306.812
       121   02 Jun 2027 19:11:52.347   02 Jun 2027 19:14:33.941           161.594                 Moscow          5049.813
       122   02 Jun 2027 19:15:27.123   02 Jun 2027 19:17:06.691            99.568              Murmansk2          3111.500
       123   02 Jun 2027 19:17:33.925   02 Jun 2027 19:18:18.687            44.762              Murmansk1          1398.813
       124   02 Jun 2027 19:27:26.441   02 Jun 2027 19:27:29.528             3.087               Magadan2            96.469
       125   02 Jun 2027 19:29:49.387   02 Jun 2027 19:30:47.589            58.202               Magadan1          1818.813
       126   02 Jun 2027 20:20:21.406   02 Jun 2027 20:20:37.296            15.890               CapeTown           496.563
       127   02 Jun 2027 20:22:57.324   02 Jun 2027 20:25:14.160           136.836               CapeTown          4276.125
       128   02 Jun 2027 20:59:06.802   02 Jun 2027 21:00:03.683            56.881                Anadyr1          1777.531
       129   02 Jun 2027 21:00:10.080   02 Jun 2027 21:00:16.062             5.982                Anadyr1           186.937
       130   02 Jun 2027 21:00:25.833   02 Jun 2027 21:00:49.448            23.615                Anadyr1           737.969
       131   02 Jun 2027 21:01:25.861   02 Jun 2027 21:02:12.107            46.246                Anadyr2          1445.187
       132   02 Jun 2027 21:02:29.023   02 Jun 2027 21:03:39.442            70.419               Magadan2          2200.594
       133   02 Jun 2027 21:03:51.651   02 Jun 2027 21:04:28.709            37.058               Magadan2          1158.063
       134   02 Jun 2027 21:05:52.710   02 Jun 2027 21:06:14.339            21.629               Magadan1           675.906
       135   02 Jun 2027 21:07:25.844   02 Jun 2027 21:07:31.374             5.530               Magadan1           172.813
       136   02 Jun 2027 21:08:02.911   02 Jun 2027 21:08:19.641            16.730               Magadan1           522.812
       137   02 Jun 2027 21:13:19.135   02 Jun 2027 21:13:25.699             6.564               Magadan2           205.125
       138   02 Jun 2027 22:35:01.351   02 Jun 2027 22:38:46.077           224.726                Anadyr1          7022.688
       139   02 Jun 2027 22:38:50.930   02 Jun 2027 22:41:20.841           149.911               Magadan1          4684.719
       140   02 Jun 2027 22:41:49.599   02 Jun 2027 22:42:13.155            23.556               Magadan2           736.125
       141   02 Jun 2027 22:42:26.733   02 Jun 2027 22:42:36.399             9.666               Magadan1           302.063
       142   02 Jun 2027 22:42:54.938   02 Jun 2027 22:42:55.759             0.821               Magadan2            25.656
       143   02 Jun 2027 22:42:57.711   02 Jun 2027 22:43:22.120            24.409               Magadan1           762.781
       144   02 Jun 2027 22:44:00.821   02 Jun 2027 22:44:12.909            12.088               Magadan2           377.750
       145   02 Jun 2027 22:44:22.352   02 Jun 2027 22:44:44.277            21.925               Magadan2           685.156
       146   02 Jun 2027 22:44:54.037   02 Jun 2027 22:46:25.568            91.531                Irkutsk          2860.344
       147   02 Jun 2027 23:29:18.061   02 Jun 2027 23:30:31.928            73.867            RioGallegos          2308.344
       148   02 Jun 2027 23:30:36.167   02 Jun 2027 23:31:01.510            25.343            RioGallegos           791.969
       149   02 Jun 2027 23:40:07.263   02 Jun 2027 23:40:32.940            25.677            RioGallegos           802.406
       150   03 Jun 2027 00:10:34.851   03 Jun 2027 00:11:20.903            46.052                Anadyr1          1439.125
       151   03 Jun 2027 00:11:32.711   03 Jun 2027 00:12:11.092            38.381                Anadyr2          1199.406
       152   03 Jun 2027 00:12:50.019   03 Jun 2027 00:14:35.483           105.464                Norilsk          3295.750
       153   03 Jun 2027 00:15:00.004   03 Jun 2027 00:15:06.538             6.534               Magadan2           204.188
       154   03 Jun 2027 00:15:18.696   03 Jun 2027 00:16:01.500            42.804               Magadan1          1337.625
       155   03 Jun 2027 00:16:40.408   03 Jun 2027 00:17:52.796            72.388               Magadan1          2262.125
       156   03 Jun 2027 00:17:57.942   03 Jun 2027 00:18:27.493            29.551                Irkutsk           923.469
       157   03 Jun 2027 00:20:44.920   03 Jun 2027 00:21:59.752            74.832                Novosib          2338.500
       158   03 Jun 2027 00:30:39.084   03 Jun 2027 00:33:31.961           172.877                Sumatra          5402.406
       159   03 Jun 2027 01:12:32.913   03 Jun 2027 01:13:15.135            42.222            RioGallegos          1319.437
       160   03 Jun 2027 01:45:11.492   03 Jun 2027 01:46:34.366            82.874                Anadyr2          2589.812
       161   03 Jun 2027 01:47:19.040   03 Jun 2027 01:47:27.778             8.738                Anadyr1           273.063
       162   03 Jun 2027 01:47:27.778   03 Jun 2027 01:47:36.591             8.813                Anadyr2           275.406
       163   03 Jun 2027 01:48:49.090   03 Jun 2027 01:50:35.624           106.534                Norilsk          3329.187
       164   03 Jun 2027 01:52:43.068   03 Jun 2027 01:54:29.286           106.218                Irkutsk          3319.312
       165   03 Jun 2027 01:54:49.420   03 Jun 2027 01:55:26.874            37.454                Novosib          1170.437
       166   03 Jun 2027 01:55:37.477   03 Jun 2027 01:56:20.011            42.534                Novosib          1329.187
       167   03 Jun 2027 02:00:59.228   03 Jun 2027 02:01:09.199             9.971                  Delhi           311.594
       168   03 Jun 2027 02:04:33.664   03 Jun 2027 02:06:09.642            95.978                  Delhi          2999.312
       169   03 Jun 2027 02:11:10.782   03 Jun 2027 02:13:28.566           137.784                Sumatra          4305.750
       170   03 Jun 2027 02:45:10.515   03 Jun 2027 02:45:34.041            23.526            RioGallegos           735.188
       171   03 Jun 2027 02:49:48.175   03 Jun 2027 02:50:11.707            23.532            RioGallegos           735.375
       172   03 Jun 2027 03:32:18.959   03 Jun 2027 03:32:32.902            13.943                Norilsk           435.719
       173   03 Jun 2027 03:33:04.062   03 Jun 2027 03:33:54.363            50.301                Norilsk          1571.906
       174   03 Jun 2027 03:33:59.579   03 Jun 2027 03:34:19.553            19.974                Novosib           624.187
       175   03 Jun 2027 03:34:23.871   03 Jun 2027 03:35:17.256            53.385                Norilsk          1668.281
       176   03 Jun 2027 03:35:17.732   03 Jun 2027 03:37:16.361           118.629                Norilsk          3707.156
       177   03 Jun 2027 03:37:28.496   03 Jun 2027 03:37:52.968            24.472                Irkutsk           764.750
       178   03 Jun 2027 03:38:15.084   03 Jun 2027 03:38:47.124            32.040                Novosib          1001.250
       179   03 Jun 2027 03:40:22.446   03 Jun 2027 03:40:37.925            15.479                Novosib           483.719
       180   03 Jun 2027 03:44:30.928   03 Jun 2027 03:46:16.834           105.906                  Delhi          3309.562
       181   03 Jun 2027 05:09:15.694   03 Jun 2027 05:10:36.960            81.266                Novosib          2539.563
       182   03 Jun 2027 05:11:21.363   03 Jun 2027 05:13:31.042           129.679                Novosib          4052.469
       183   03 Jun 2027 05:13:47.812   03 Jun 2027 05:13:58.897            11.085                 Moscow           346.406
       184   03 Jun 2027 05:14:22.536   03 Jun 2027 05:14:28.862             6.326                 Moscow           197.687
       185   03 Jun 2027 05:15:36.979   03 Jun 2027 05:15:48.444            11.465                 Moscow           358.281
       186   03 Jun 2027 05:16:13.228   03 Jun 2027 05:17:01.484            48.256                 Moscow          1508.000
       187   03 Jun 2027 05:30:23.714   03 Jun 2027 05:31:08.288            44.574               CapeTown          1392.938
       188   03 Jun 2027 05:31:25.670   03 Jun 2027 05:32:18.396            52.726               CapeTown          1647.688
       189   03 Jun 2027 06:33:28.406   03 Jun 2027 06:33:34.507             6.101               Magadan1           190.656
       190   03 Jun 2027 06:33:56.259   03 Jun 2027 06:34:32.368            36.109                Anadyr1          1128.406
       191   03 Jun 2027 06:34:55.550   03 Jun 2027 06:35:06.031            10.481               Magadan1           327.531
       192   03 Jun 2027 06:35:32.764   03 Jun 2027 06:35:51.733            18.969                Anadyr2           592.781
       193   03 Jun 2027 06:36:23.113   03 Jun 2027 06:36:56.696            33.583                Anadyr2          1049.469
       194   03 Jun 2027 06:46:06.347   03 Jun 2027 06:47:04.187            57.840                 Moscow          1807.500
       195   03 Jun 2027 07:07:13.802   03 Jun 2027 07:07:49.951            36.149               CapeTown          1129.656
       196   03 Jun 2027 07:11:00.559   03 Jun 2027 07:12:14.977            74.418               CapeTown          2325.562
       197   03 Jun 2027 08:07:26.690   03 Jun 2027 08:07:38.049            11.359                Anadyr2           354.969
       198   03 Jun 2027 08:07:48.964   03 Jun 2027 08:08:28.331            39.367               Magadan1          1230.219
       199   03 Jun 2027 08:08:51.246   03 Jun 2027 08:09:46.638            55.392                Anadyr2          1731.000
       200   03 Jun 2027 08:10:01.762   03 Jun 2027 08:11:07.673            65.911               Magadan1          2059.719
       201   03 Jun 2027 08:11:25.817   03 Jun 2027 08:12:09.971            44.154               Magadan2          1379.813
       202   03 Jun 2027 08:12:14.420   03 Jun 2027 08:12:56.271            41.851               Magadan1          1307.844
       203   03 Jun 2027 08:26:12.657   03 Jun 2027 08:27:02.041            49.384                 Moscow          1543.250
       204   03 Jun 2027 09:42:57.630   03 Jun 2027 09:43:14.084            16.454               Magadan2           514.188
       205   03 Jun 2027 09:43:30.307   03 Jun 2027 09:44:15.727            45.420               Magadan2          1419.375
       206   03 Jun 2027 09:45:18.958   03 Jun 2027 09:45:59.496            40.538               Magadan1          1266.812
       207   03 Jun 2027 09:46:21.500   03 Jun 2027 09:48:52.663           151.163                Anadyr1          4723.844
       208   03 Jun 2027 09:49:47.254   03 Jun 2027 09:51:11.631            84.377               Magadan2          2636.781
       209   03 Jun 2027 11:19:29.765   03 Jun 2027 11:20:57.455            87.690               Magadan1          2740.313
       210   03 Jun 2027 11:21:45.082   03 Jun 2027 11:22:43.710            58.628                Irkutsk          1832.125
       211   03 Jun 2027 11:22:46.470   03 Jun 2027 11:24:55.529           129.059               Magadan1          4033.094
       212   03 Jun 2027 11:25:01.600   03 Jun 2027 11:25:46.115            44.515                Irkutsk          1391.094
       213   03 Jun 2027 11:25:53.334   03 Jun 2027 11:26:13.197            19.863                Norilsk           620.719
       214   03 Jun 2027 11:26:31.866   03 Jun 2027 11:26:37.249             5.383                Norilsk           168.219
       215   03 Jun 2027 11:26:58.125   03 Jun 2027 11:26:59.897             1.772                Irkutsk            55.375
       216   03 Jun 2027 11:27:04.592   03 Jun 2027 11:27:15.005            10.413                Novosib           325.406
       217   03 Jun 2027 12:01:45.671   03 Jun 2027 12:03:36.742           111.071            RioGallegos          3470.969
       218   03 Jun 2027 12:36:36.442   03 Jun 2027 12:37:12.413            35.971                Sumatra          1124.094
       219   03 Jun 2027 12:39:41.797   03 Jun 2027 12:39:48.336             6.539                Sumatra           204.344
       220   03 Jun 2027 12:50:34.415   03 Jun 2027 12:51:54.504            80.089                Irkutsk          2502.781
       221   03 Jun 2027 12:52:54.202   03 Jun 2027 12:52:57.231             3.029                Novosib            94.656
       222   03 Jun 2027 12:53:15.650   03 Jun 2027 12:55:10.256           114.606                Irkutsk          3581.437
       223   03 Jun 2027 13:41:06.036   03 Jun 2027 13:41:50.632            44.596            RioGallegos          1393.625
       224   03 Jun 2027 13:42:23.667   03 Jun 2027 13:43:32.920            69.253            RioGallegos          2164.156
       225   03 Jun 2027 14:16:03.464   03 Jun 2027 14:19:47.811           224.347                Sumatra          7010.844
       226   03 Jun 2027 14:30:40.762   03 Jun 2027 14:31:06.206            25.444                Novosib           795.125
       227   03 Jun 2027 14:32:00.100   03 Jun 2027 14:35:31.884           211.784                Irkutsk          6618.250
       228   03 Jun 2027 16:08:35.736   03 Jun 2027 16:09:26.172            50.436              Murmansk1          1576.125
       229   03 Jun 2027 16:09:35.879   03 Jun 2027 16:09:46.157            10.278              Murmansk2           321.188
       230   03 Jun 2027 16:11:04.684   03 Jun 2027 16:12:28.675            83.991                Novosib          2624.719
       231   03 Jun 2027 16:14:19.291   03 Jun 2027 16:16:00.803           101.512                Norilsk          3172.250
       232   03 Jun 2027 16:16:59.004   03 Jun 2027 16:17:34.370            35.366                Norilsk          1105.188
       233   03 Jun 2027 17:20:09.920   03 Jun 2027 17:20:24.042            14.122               CapeTown           441.313
       234   03 Jun 2027 17:22:43.258   03 Jun 2027 17:22:49.756             6.498               CapeTown           203.062
       235   03 Jun 2027 17:26:04.184   03 Jun 2027 17:26:21.796            17.612               CapeTown           550.375
       236   03 Jun 2027 17:29:16.012   03 Jun 2027 17:29:22.208             6.196               CapeTown           193.625
       237   03 Jun 2027 17:42:11.071   03 Jun 2027 17:43:01.066            49.995                 Moscow          1562.344
       238   03 Jun 2027 17:44:08.359   03 Jun 2027 17:46:11.931           123.572                 Moscow          3861.625
       239   03 Jun 2027 17:47:16.177   03 Jun 2027 17:47:56.539            40.362              Murmansk2          1261.313
       240   03 Jun 2027 17:49:36.129   03 Jun 2027 17:49:36.392             0.263              Murmansk2             8.219
       241   03 Jun 2027 17:49:43.585   03 Jun 2027 17:49:55.911            12.326              Murmansk1           385.187
       242   03 Jun 2027 17:51:44.781   03 Jun 2027 17:52:22.583            37.802              Murmansk1          1181.313
       243   03 Jun 2027 18:00:17.190   03 Jun 2027 18:00:50.918            33.728                Anadyr2          1054.000
       244   03 Jun 2027 18:08:29.747   03 Jun 2027 18:08:42.424            12.677                Anadyr2           396.156
       245   03 Jun 2027 18:54:37.046   03 Jun 2027 18:56:41.377           124.331               CapeTown          3885.344
       246   03 Jun 2027 19:06:02.579   03 Jun 2027 19:06:09.835             7.256               CapeTown           226.750
       247   03 Jun 2027 19:06:20.761   03 Jun 2027 19:07:16.770            56.009               CapeTown          1750.281
       248   03 Jun 2027 19:24:29.046   03 Jun 2027 19:25:14.556            45.510              Murmansk1          1422.187
       249   03 Jun 2027 19:25:41.544   03 Jun 2027 19:29:52.160           250.616              Murmansk2          7831.750
       250   03 Jun 2027 19:30:46.193   03 Jun 2027 19:32:00.200            74.007              Murmansk2          2312.719
       251   03 Jun 2027 19:33:04.775   03 Jun 2027 19:33:19.080            14.305              Murmansk2           447.031
       252   03 Jun 2027 20:33:17.005   03 Jun 2027 20:36:17.837           180.832               CapeTown          5651.000
       253   03 Jun 2027 21:11:08.665   03 Jun 2027 21:11:51.073            42.408                Anadyr2          1325.250
       254   03 Jun 2027 21:13:31.611   03 Jun 2027 21:16:00.994           149.383               Magadan1          4668.219
       255   03 Jun 2027 21:16:08.045   03 Jun 2027 21:16:16.815             8.770               Magadan1           274.062
       256   03 Jun 2027 21:16:31.377   03 Jun 2027 21:17:42.629            71.252               Magadan2          2226.625
       257   03 Jun 2027 22:47:01.932   03 Jun 2027 22:50:45.631           223.699                Anadyr1          6990.594
       258   03 Jun 2027 22:50:57.643   03 Jun 2027 22:52:22.912            85.269                Norilsk          2664.656
       259   03 Jun 2027 22:52:26.790   03 Jun 2027 22:52:51.783            24.993                Norilsk           781.031
       260   03 Jun 2027 22:53:05.127   03 Jun 2027 22:53:21.815            16.688               Magadan1           521.500
       261   03 Jun 2027 22:54:22.202   03 Jun 2027 22:55:31.680            69.478               Magadan1          2171.187
       262   03 Jun 2027 22:56:14.491   03 Jun 2027 22:56:15.615             1.124                Irkutsk            35.125
       263   03 Jun 2027 22:56:50.533   03 Jun 2027 22:58:22.928            92.395                Irkutsk          2887.344
       264   03 Jun 2027 23:12:26.818   03 Jun 2027 23:14:20.507           113.689                Sumatra          3552.781
       265   03 Jun 2027 23:42:12.246   03 Jun 2027 23:42:27.586            15.340            RioGallegos           479.375
       266   03 Jun 2027 23:43:20.274   03 Jun 2027 23:44:01.142            40.868            RioGallegos          1277.125
       267   03 Jun 2027 23:52:39.955   03 Jun 2027 23:52:56.670            16.715            RioGallegos           522.344
       268   04 Jun 2027 00:22:30.540   04 Jun 2027 00:24:09.363            98.823                Anadyr1          3088.219
       269   04 Jun 2027 00:24:51.478   04 Jun 2027 00:26:37.722           106.244                Norilsk          3320.125
       270   04 Jun 2027 00:26:44.419   04 Jun 2027 00:27:22.983            38.564               Magadan2          1205.125
       271   04 Jun 2027 00:28:53.475   04 Jun 2027 00:30:30.396            96.921                Irkutsk          3028.781
       272   04 Jun 2027 00:32:24.984   04 Jun 2027 00:32:56.819            31.835                Novosib           994.844
       273   04 Jun 2027 00:35:26.028   04 Jun 2027 00:36:07.004            40.976                Novosib          1280.500
       274   04 Jun 2027 00:42:35.236   04 Jun 2027 00:43:02.673            27.437                Sumatra           857.406
       275   04 Jun 2027 00:45:28.316   04 Jun 2027 00:45:31.802             3.486                Sumatra           108.938
       276   04 Jun 2027 00:46:26.796   04 Jun 2027 00:46:33.417             6.621                Sumatra           206.906
       277   04 Jun 2027 00:48:32.075   04 Jun 2027 00:49:19.528            47.453                Sumatra          1482.906
       278   04 Jun 2027 00:51:17.535   04 Jun 2027 00:52:10.480            52.945                Sumatra          1654.531
       279   04 Jun 2027 01:19:57.226   04 Jun 2027 01:20:42.731            45.505            RioGallegos          1422.031
       280   04 Jun 2027 01:28:42.463   04 Jun 2027 01:29:06.898            24.435            RioGallegos           763.594
       281   04 Jun 2027 01:56:57.474   04 Jun 2027 01:57:40.560            43.086                Anadyr1          1346.438
       282   04 Jun 2027 01:57:53.598   04 Jun 2027 01:58:35.718            42.120                Anadyr2          1316.250
       283   04 Jun 2027 02:00:51.503   04 Jun 2027 02:02:03.791            72.288                Norilsk          2259.000
       284   04 Jun 2027 02:02:11.641   04 Jun 2027 02:02:22.932            11.291                Norilsk           352.844
       285   04 Jun 2027 02:02:57.011   04 Jun 2027 02:03:17.990            20.979               Magadan2           655.594
       286   04 Jun 2027 02:04:41.347   04 Jun 2027 02:04:57.520            16.173              Murmansk1           505.406
       287   04 Jun 2027 02:05:16.188   04 Jun 2027 02:05:41.353            25.165              Murmansk2           786.406
       288   04 Jun 2027 02:05:57.006   04 Jun 2027 02:07:01.007            64.001                Novosib          2000.031
       289   04 Jun 2027 02:07:13.135   04 Jun 2027 02:07:37.272            24.137                Novosib           754.281
       290   04 Jun 2027 02:09:16.302   04 Jun 2027 02:09:48.377            32.075                Irkutsk          1002.344
       291   04 Jun 2027 02:12:12.580   04 Jun 2027 02:13:05.668            53.088                  Delhi          1659.000
       292   04 Jun 2027 02:18:19.076   04 Jun 2027 02:18:34.535            15.459                  Delhi           483.094
       293   04 Jun 2027 02:23:38.775   04 Jun 2027 02:25:11.031            92.256                Sumatra          2883.000
       294   04 Jun 2027 02:54:45.514   04 Jun 2027 02:55:28.591            43.077            RioGallegos          1346.156
       295   04 Jun 2027 02:56:36.949   04 Jun 2027 02:57:53.217            76.268            RioGallegos          2383.375
       296   04 Jun 2027 02:59:51.402   04 Jun 2027 03:01:28.753            97.351            RioGallegos          3042.219
       297   04 Jun 2027 03:44:13.554   04 Jun 2027 03:45:48.240            94.686                Irkutsk          2958.938
       298   04 Jun 2027 03:46:02.381   04 Jun 2027 03:46:35.252            32.871              Murmansk1          1027.219
       299   04 Jun 2027 03:46:36.535   04 Jun 2027 03:47:37.171            60.636                Novosib          1894.875
       300   04 Jun 2027 03:48:46.250   04 Jun 2027 03:49:12.970            26.720                Irkutsk           835.000
       301   04 Jun 2027 05:22:32.224   04 Jun 2027 05:23:36.120            63.896                Novosib          1996.750
       302   04 Jun 2027 05:24:35.065   04 Jun 2027 05:25:24.038            48.973                Novosib          1530.406
       303   04 Jun 2027 05:25:47.134   04 Jun 2027 05:26:07.174            20.040                 Moscow           626.250
       304   04 Jun 2027 05:26:09.040   04 Jun 2027 05:26:46.339            37.299                 Moscow          1165.594
       305   04 Jun 2027 05:27:09.749   04 Jun 2027 05:27:24.282            14.533              Murmansk2           454.156
       306   04 Jun 2027 05:27:34.095   04 Jun 2027 05:27:42.429             8.334                 Moscow           260.437
       307   04 Jun 2027 05:42:13.581   04 Jun 2027 05:44:43.036           149.455               CapeTown          4670.469
       308   04 Jun 2027 06:45:02.736   04 Jun 2027 06:45:28.603            25.867                Anadyr1           808.344
       309   04 Jun 2027 06:45:28.603   04 Jun 2027 06:45:57.955            29.352                Anadyr2           917.250
       310   04 Jun 2027 06:46:13.732   04 Jun 2027 06:46:41.961            28.229                Anadyr1           882.156
       311   04 Jun 2027 06:46:41.961   04 Jun 2027 06:47:32.735            50.774                Anadyr2          1586.687
       312   04 Jun 2027 07:01:29.380   04 Jun 2027 07:01:40.083            10.703                 Moscow           334.469
       313   04 Jun 2027 07:01:50.862   04 Jun 2027 07:02:08.479            17.617                 Moscow           550.531
       314   04 Jun 2027 07:02:41.552   04 Jun 2027 07:02:52.445            10.893                 Moscow           340.406
       315   04 Jun 2027 07:19:53.598   04 Jun 2027 07:19:58.740             5.142               CapeTown           160.688
       316   04 Jun 2027 07:20:07.909   04 Jun 2027 07:22:18.476           130.567               CapeTown          4080.219
       317   04 Jun 2027 08:19:21.540   04 Jun 2027 08:19:54.681            33.141                Anadyr1          1035.656
       318   04 Jun 2027 08:20:16.099   04 Jun 2027 08:21:04.419            48.320                Anadyr1          1510.000
       319   04 Jun 2027 08:21:35.313   04 Jun 2027 08:22:07.940            32.627               Magadan2          1019.594
       320   04 Jun 2027 08:22:40.560   04 Jun 2027 08:23:48.945            68.385                Anadyr2          2137.031
       321   04 Jun 2027 08:24:01.299   04 Jun 2027 08:24:06.401             5.102               Magadan1           159.437
       322   04 Jun 2027 08:25:12.889   04 Jun 2027 08:25:22.402             9.513                Anadyr2           297.281
       323   04 Jun 2027 08:26:25.910   04 Jun 2027 08:27:37.109            71.199                Anadyr2          2224.969
       324   04 Jun 2027 09:54:38.129   04 Jun 2027 09:55:31.937            53.808               Magadan2          1681.500
       325   04 Jun 2027 09:55:37.554   04 Jun 2027 09:56:26.130            48.576               Magadan1          1518.000
       326   04 Jun 2027 09:57:16.163   04 Jun 2027 09:57:37.636            21.473               Magadan2           671.031
       327   04 Jun 2027 09:58:59.534   04 Jun 2027 09:59:28.438            28.904                Irkutsk           903.250
       328   04 Jun 2027 10:00:31.041   04 Jun 2027 10:00:45.948            14.907               Magadan2           465.844
       329   04 Jun 2027 10:00:51.765   04 Jun 2027 10:01:36.356            44.591               Magadan2          1393.469
       330   04 Jun 2027 10:01:52.836   04 Jun 2027 10:03:10.411            77.575               Magadan2          2424.219
       331   04 Jun 2027 11:16:58.982   04 Jun 2027 11:17:26.420            27.438                Sumatra           857.437
       332   04 Jun 2027 11:18:00.255   04 Jun 2027 11:18:04.765             4.510                Sumatra           140.937
       333   04 Jun 2027 11:31:18.173   04 Jun 2027 11:37:39.932           381.759               Magadan1         11929.969
       334   04 Jun 2027 11:38:14.591   04 Jun 2027 11:38:27.584            12.993                Norilsk           406.031
       335   04 Jun 2027 11:38:31.118   04 Jun 2027 11:38:58.931            27.813                Novosib           869.156
       336   04 Jun 2027 11:39:55.126   04 Jun 2027 11:39:55.830             0.704                Norilsk            22.000
       337   04 Jun 2027 12:13:56.034   04 Jun 2027 12:14:27.155            31.121            RioGallegos           972.531
       338   04 Jun 2027 12:16:54.272   04 Jun 2027 12:17:38.334            44.062            RioGallegos          1376.938
       339   04 Jun 2027 12:23:53.581   04 Jun 2027 12:24:43.183            49.602            RioGallegos          1550.063
       340   04 Jun 2027 12:48:35.444   04 Jun 2027 12:48:50.992            15.548                Sumatra           485.875
       341   04 Jun 2027 12:51:02.815   04 Jun 2027 12:51:17.796            14.981                Sumatra           468.156
       342   04 Jun 2027 12:57:23.420   04 Jun 2027 12:57:24.353             0.933                Sumatra            29.156
       343   04 Jun 2027 13:00:34.259   04 Jun 2027 13:01:17.822            43.563                Sumatra          1361.344
       344   04 Jun 2027 13:02:52.836   04 Jun 2027 13:03:57.366            64.530                Irkutsk          2016.562
       345   04 Jun 2027 13:05:12.233   04 Jun 2027 13:07:14.212           121.979                Irkutsk          3811.844
       346   04 Jun 2027 13:54:12.003   04 Jun 2027 13:57:36.972           204.969            RioGallegos          6405.281
       347   04 Jun 2027 14:40:45.662   04 Jun 2027 14:41:32.386            46.724                Novosib          1460.125
       348   04 Jun 2027 14:42:35.074   04 Jun 2027 14:44:41.480           126.406                Novosib          3950.187
       349   04 Jun 2027 14:46:04.020   04 Jun 2027 14:47:18.414            74.394                Novosib          2324.813
       350   04 Jun 2027 16:17:11.653   04 Jun 2027 16:18:24.502            72.849                 Moscow          2276.531
       351   04 Jun 2027 16:19:20.663   04 Jun 2027 16:19:31.551            10.888                 Moscow           340.250
       352   04 Jun 2027 16:20:38.527   04 Jun 2027 16:21:35.107            56.580              Murmansk1          1768.125
       353   04 Jun 2027 16:23:59.283   04 Jun 2027 16:24:35.857            36.574              Murmansk1          1142.938
       354   04 Jun 2027 16:24:43.551   04 Jun 2027 16:26:38.679           115.128                Norilsk          3597.750
       355   04 Jun 2027 16:28:19.504   04 Jun 2027 16:31:40.739           201.235                Norilsk          6288.594
       356   04 Jun 2027 17:54:37.082   04 Jun 2027 17:55:11.476            34.394                 Moscow          1074.812
       357   04 Jun 2027 17:55:25.818   04 Jun 2027 17:56:03.224            37.406                 Moscow          1168.937
       358   04 Jun 2027 17:57:44.349   04 Jun 2027 17:58:41.500            57.151              Murmansk2          1785.969
       359   04 Jun 2027 17:59:25.844   04 Jun 2027 17:59:45.430            19.586                 Moscow           612.063
       360   04 Jun 2027 18:01:35.628   04 Jun 2027 18:01:56.708            21.080              Murmansk1           658.750
       361   04 Jun 2027 18:05:11.359   04 Jun 2027 18:07:04.798           113.439              Murmansk2          3544.969
       362   04 Jun 2027 18:18:16.860   04 Jun 2027 18:18:33.471            16.611                Anadyr2           519.094
       363   04 Jun 2027 19:06:42.590   04 Jun 2027 19:08:16.961            94.371               CapeTown          2949.094
       364   04 Jun 2027 19:15:21.445   04 Jun 2027 19:15:22.905             1.460               CapeTown            45.625
       365   04 Jun 2027 19:18:05.559   04 Jun 2027 19:19:06.567            61.008               CapeTown          1906.500
       366   04 Jun 2027 19:37:06.492   04 Jun 2027 19:38:14.469            67.977              Murmansk1          2124.281
       367   04 Jun 2027 19:39:17.726   04 Jun 2027 19:41:52.539           154.813              Murmansk2          4837.906
       368   04 Jun 2027 19:42:29.096   04 Jun 2027 19:42:38.908             9.812              Murmansk1           306.625
       369   04 Jun 2027 19:44:45.204   04 Jun 2027 19:45:08.803            23.599              Murmansk1           737.469
       370   04 Jun 2027 19:50:35.102   04 Jun 2027 19:51:05.408            30.306               Magadan1           947.063
       371   04 Jun 2027 19:51:05.408   04 Jun 2027 19:51:29.642            24.234               Magadan2           757.312
       372   04 Jun 2027 19:52:17.072   04 Jun 2027 19:53:06.131            49.059               Magadan2          1533.094
       373   04 Jun 2027 21:23:10.498   04 Jun 2027 21:27:03.686           233.188                Anadyr2          7287.125
       374   04 Jun 2027 21:27:11.847   04 Jun 2027 21:28:32.843            80.996               Magadan2          2531.125
       375   04 Jun 2027 21:28:32.843   04 Jun 2027 21:30:26.671           113.828               Magadan1          3557.125
       376   04 Jun 2027 21:30:41.320   04 Jun 2027 21:31:04.734            23.414               Magadan1           731.687
       377   04 Jun 2027 22:20:37.524   04 Jun 2027 22:22:14.672            97.148            RioGallegos          3035.875
       378   04 Jun 2027 22:59:02.152   04 Jun 2027 23:02:44.666           222.514                Anadyr2          6953.563
       379   04 Jun 2027 23:03:08.934   04 Jun 2027 23:04:31.063            82.129               Magadan1          2566.531
       380   04 Jun 2027 23:04:31.063   04 Jun 2027 23:04:47.422            16.359               Magadan2           511.219
       381   04 Jun 2027 23:06:06.715   04 Jun 2027 23:06:21.149            14.434               Magadan1           451.062
       382   04 Jun 2027 23:06:27.114   04 Jun 2027 23:07:32.079            64.965                Irkutsk          2030.156
       383   04 Jun 2027 23:08:03.618   04 Jun 2027 23:08:16.674            13.056                Irkutsk           408.000
       384   04 Jun 2027 23:09:14.016   04 Jun 2027 23:09:25.960            11.944                Irkutsk           373.250
       385   04 Jun 2027 23:11:30.324   04 Jun 2027 23:11:51.007            20.683                Irkutsk           646.344
       386   04 Jun 2027 23:22:08.912   04 Jun 2027 23:23:46.583            97.671                Sumatra          3052.219
       387   04 Jun 2027 23:24:21.772   04 Jun 2027 23:24:59.590            37.818                Sumatra          1181.812
       388   04 Jun 2027 23:55:02.462   04 Jun 2027 23:55:26.746            24.284            RioGallegos           758.875
       389   05 Jun 2027 00:02:19.993   05 Jun 2027 00:02:36.619            16.626            RioGallegos           519.562
       390   05 Jun 2027 00:03:43.812   05 Jun 2027 00:04:01.722            17.910            RioGallegos           559.687
       391   05 Jun 2027 00:04:12.316   05 Jun 2027 00:04:23.544            11.228            RioGallegos           350.875
       392   05 Jun 2027 00:34:25.224   05 Jun 2027 00:34:55.712            30.488                Anadyr1           952.750
       393   05 Jun 2027 00:35:03.708   05 Jun 2027 00:35:50.274            46.566                Anadyr2          1455.187
       394   05 Jun 2027 00:36:08.201   05 Jun 2027 00:36:37.760            29.559                Anadyr2           923.719
       395   05 Jun 2027 00:36:53.225   05 Jun 2027 00:37:26.865            33.640                Norilsk          1051.250
       396   05 Jun 2027 00:37:30.269   05 Jun 2027 00:38:23.527            53.258               Magadan1          1664.313
       397   05 Jun 2027 00:38:26.629   05 Jun 2027 00:38:44.161            17.532               Magadan1           547.875
       398   05 Jun 2027 00:39:29.888   05 Jun 2027 00:40:03.352            33.464               Magadan2          1045.750
       399   05 Jun 2027 00:40:51.521   05 Jun 2027 00:42:02.405            70.884                Irkutsk          2215.125
       400   05 Jun 2027 00:42:23.645   05 Jun 2027 00:42:34.070            10.425                Irkutsk           325.781
       401   05 Jun 2027 00:44:14.442   05 Jun 2027 00:44:35.441            20.999                Irkutsk           656.219
       402   05 Jun 2027 00:45:52.498   05 Jun 2027 00:46:06.486            13.988                Novosib           437.125
       403   05 Jun 2027 00:46:39.255   05 Jun 2027 00:47:22.798            43.543                Novosib          1360.719
       404   05 Jun 2027 00:50:48.500   05 Jun 2027 00:50:49.961             1.461                Novosib            45.656
       405   05 Jun 2027 00:51:40.557   05 Jun 2027 00:53:12.691            92.134                Irkutsk          2879.188
       406   05 Jun 2027 00:58:49.906   05 Jun 2027 00:58:56.939             7.033                Sumatra           219.781
       407   05 Jun 2027 01:03:27.762   05 Jun 2027 01:03:44.224            16.462                Sumatra           514.437
       408   05 Jun 2027 01:04:16.878   05 Jun 2027 01:04:58.326            41.448                Sumatra          1295.250
       409   05 Jun 2027 01:33:03.568   05 Jun 2027 01:33:47.222            43.654            RioGallegos          1364.187
       410   05 Jun 2027 01:37:47.020   05 Jun 2027 01:38:00.739            13.719            RioGallegos           428.719
       411   05 Jun 2027 01:40:35.997   05 Jun 2027 01:40:54.406            18.409            RioGallegos           575.281
       412   05 Jun 2027 02:08:42.267   05 Jun 2027 02:08:48.957             6.690                Anadyr1           209.063
       413   05 Jun 2027 02:08:55.350   05 Jun 2027 02:09:15.633            20.283                Anadyr1           633.844
       414   05 Jun 2027 02:09:40.792   05 Jun 2027 02:09:53.069            12.277                Anadyr1           383.656
       415   05 Jun 2027 02:10:37.022   05 Jun 2027 02:10:44.067             7.045                Anadyr2           220.156
       416   05 Jun 2027 02:11:08.143   05 Jun 2027 02:11:16.622             8.479                Anadyr1           264.969
       417   05 Jun 2027 02:12:53.877   05 Jun 2027 02:14:39.607           105.730                Norilsk          3304.063
       418   05 Jun 2027 02:16:05.742   05 Jun 2027 02:16:42.755            37.013              Murmansk1          1156.656
       419   05 Jun 2027 02:16:43.583   05 Jun 2027 02:17:44.421            60.838                Novosib          1901.188
       420   05 Jun 2027 02:18:10.496   05 Jun 2027 02:18:32.193            21.697                Irkutsk           678.031
       421   05 Jun 2027 02:20:02.038   05 Jun 2027 02:20:32.325            30.287                Novosib           946.469
       422   05 Jun 2027 02:21:53.193   05 Jun 2027 02:22:25.554            32.361                Irkutsk          1011.281
       423   05 Jun 2027 02:24:56.740   05 Jun 2027 02:26:22.305            85.565                  Delhi          2673.906
       424   05 Jun 2027 03:05:43.828   05 Jun 2027 03:06:40.321            56.493            RioGallegos          1765.406
       425   05 Jun 2027 03:07:21.864   05 Jun 2027 03:10:01.386           159.522            RioGallegos          4985.062
       426   05 Jun 2027 03:10:12.659   05 Jun 2027 03:10:18.932             6.273            RioGallegos           196.031
       427   05 Jun 2027 03:13:09.444   05 Jun 2027 03:13:44.261            34.817            RioGallegos          1088.031
       428   05 Jun 2027 03:58:17.815   05 Jun 2027 04:02:24.096           246.281                Novosib          7696.281
       429   05 Jun 2027 04:02:36.324   05 Jun 2027 04:07:22.016           285.692                  Delhi          8927.875
       430   05 Jun 2027 05:34:25.352   05 Jun 2027 05:34:53.417            28.065                Novosib           877.031
       431   05 Jun 2027 05:36:01.504   05 Jun 2027 05:36:42.906            41.402                 Moscow          1293.813
       432   05 Jun 2027 05:37:18.386   05 Jun 2027 05:37:50.183            31.797                 Moscow           993.656
       433   05 Jun 2027 05:37:52.877   05 Jun 2027 05:38:06.660            13.783                 Moscow           430.719
       434   05 Jun 2027 05:38:16.638   05 Jun 2027 05:38:50.937            34.299                 Moscow          1071.844
       435   05 Jun 2027 05:38:59.641   05 Jun 2027 05:39:19.773            20.132              Murmansk2           629.125
       436   05 Jun 2027 05:54:08.540   05 Jun 2027 05:55:02.801            54.261               CapeTown          1695.656
       437   05 Jun 2027 06:57:12.670   05 Jun 2027 06:57:38.873            26.203                Anadyr1           818.844
       438   05 Jun 2027 06:57:50.269   05 Jun 2027 06:57:59.533             9.264                Anadyr2           289.500
       439   05 Jun 2027 06:58:30.222   05 Jun 2027 06:58:32.770             2.548               Magadan2            79.625
       440   05 Jun 2027 06:58:36.047   05 Jun 2027 06:58:54.939            18.892               Magadan1           590.375
       441   05 Jun 2027 06:58:54.939   05 Jun 2027 06:59:20.210            25.271               Magadan2           789.719
       442   05 Jun 2027 06:59:55.493   05 Jun 2027 07:00:27.958            32.465                Anadyr1          1014.531
       443   05 Jun 2027 07:32:47.273   05 Jun 2027 07:34:52.215           124.942               CapeTown          3904.437
       444   05 Jun 2027 08:32:59.495   05 Jun 2027 08:33:06.291             6.796               Magadan2           212.375
       445   05 Jun 2027 08:33:20.048   05 Jun 2027 08:33:22.537             2.489                Anadyr2            77.781
       446   05 Jun 2027 08:33:36.899   05 Jun 2027 08:34:16.822            39.923               Magadan2          1247.594
       447   05 Jun 2027 08:34:23.910   05 Jun 2027 08:35:49.735            85.825                Anadyr1          2682.031
       448   05 Jun 2027 08:36:05.203   05 Jun 2027 08:37:20.921            75.718               Magadan1          2366.187
       449   05 Jun 2027 10:07:33.173   05 Jun 2027 10:08:04.962            31.789               Magadan2           993.406
       450   05 Jun 2027 10:08:29.925   05 Jun 2027 10:08:39.458             9.533               Magadan1           297.906
       451   05 Jun 2027 10:08:39.458   05 Jun 2027 10:09:03.016            23.558               Magadan2           736.187
       452   05 Jun 2027 10:09:12.135   05 Jun 2027 10:11:24.911           132.776               Magadan2          4149.250
       453   05 Jun 2027 10:11:50.622   05 Jun 2027 10:12:35.922            45.300                Anadyr1          1415.625
       454   05 Jun 2027 10:12:59.556   05 Jun 2027 10:13:47.292            47.736                Irkutsk          1491.750
       455   05 Jun 2027 10:13:51.588   05 Jun 2027 10:13:57.113             5.525                Norilsk           172.656
       456   05 Jun 2027 10:14:01.120   05 Jun 2027 10:15:08.297            67.177               Magadan2          2099.281
       457   05 Jun 2027 10:55:36.775   05 Jun 2027 10:55:39.494             2.719            RioGallegos            84.969
       458   05 Jun 2027 11:27:31.649   05 Jun 2027 11:29:24.584           112.935                Sumatra          3529.219
       459   05 Jun 2027 11:44:31.974   05 Jun 2027 11:48:44.496           252.522               Magadan1          7891.313
       460   05 Jun 2027 11:49:01.105   05 Jun 2027 11:49:48.188            47.083                Irkutsk          1471.344
       461   05 Jun 2027 11:49:57.377   05 Jun 2027 11:50:16.186            18.809                Norilsk           587.781
       462   05 Jun 2027 11:50:19.739   05 Jun 2027 11:50:21.917             2.178                Irkutsk            68.062
       463   05 Jun 2027 11:50:34.500   05 Jun 2027 11:50:38.650             4.150                Novosib           129.688
       464   05 Jun 2027 11:50:42.138   05 Jun 2027 11:51:57.995            75.857                Norilsk          2370.531
       465   05 Jun 2027 12:26:16.888   05 Jun 2027 12:27:31.614            74.726            RioGallegos          2335.187
       466   05 Jun 2027 13:01:52.876   05 Jun 2027 13:02:56.165            63.289                Sumatra          1977.781
       467   05 Jun 2027 13:06:43.490   05 Jun 2027 13:06:56.097            12.607                Sumatra           393.969
       468   05 Jun 2027 13:09:46.226   05 Jun 2027 13:10:11.224            24.998                Sumatra           781.187
       469   05 Jun 2027 13:15:15.727   05 Jun 2027 13:15:37.307            21.580                Irkutsk           674.375
       470   05 Jun 2027 13:15:41.188   05 Jun 2027 13:16:53.693            72.505                Novosib          2265.781
       471   05 Jun 2027 13:19:14.742   05 Jun 2027 13:20:16.646            61.904                Irkutsk          1934.500
       472   05 Jun 2027 13:24:58.286   05 Jun 2027 13:25:11.642            13.356                Irkutsk           417.375
       473   05 Jun 2027 14:07:52.483   05 Jun 2027 14:11:07.577           195.094            RioGallegos          6096.688
       474   05 Jun 2027 14:53:12.677   05 Jun 2027 14:53:53.726            41.049                Novosib          1282.781
       475   05 Jun 2027 14:56:41.251   05 Jun 2027 15:00:26.916           225.665                Novosib          7052.031
       476   05 Jun 2027 16:29:13.196   05 Jun 2027 16:30:23.102            69.906                 Moscow          2184.563
       477   05 Jun 2027 16:31:06.619   05 Jun 2027 16:32:09.327            62.708                 Moscow          1959.625
       478   05 Jun 2027 16:32:42.909   05 Jun 2027 16:33:33.517            50.608              Murmansk2          1581.500
       479   05 Jun 2027 16:37:13.921   05 Jun 2027 16:37:46.550            32.629              Murmansk1          1019.656
       480   05 Jun 2027 16:38:08.943   05 Jun 2027 16:42:01.512           232.569                Norilsk          7267.781
       481   05 Jun 2027 17:48:05.107   05 Jun 2027 17:48:28.138            23.031               CapeTown           719.719
       482   05 Jun 2027 17:52:57.055   05 Jun 2027 17:53:31.061            34.006               CapeTown          1062.688
