uniorb/output/strategy_4/Drop/Drop_KinoSat_110305.txt

KinoSat_110305
-------------------------
    Access    *     Start Time (UTCG)     *     Stop Time (UTCG)  *   Duration (s)        *       Station  *  Data (Mbytes)
         1   01 Jun 2027 03:58:07.571   01 Jun 2027 03:58:34.989            27.418               Magadan1          3427.250
         2   01 Jun 2027 03:58:58.603   01 Jun 2027 04:01:06.645           128.042               Magadan1         16005.250
         3   01 Jun 2027 04:01:58.770   01 Jun 2027 04:02:58.843            60.073               Magadan1          7509.125
         4   01 Jun 2027 04:03:11.332   01 Jun 2027 04:03:54.408            43.076                Novosib          5384.500
         5   01 Jun 2027 04:04:17.094   01 Jun 2027 04:04:58.733            41.639                Norilsk          5204.875
         6   01 Jun 2027 04:08:48.416   01 Jun 2027 04:08:49.483             1.067                Norilsk           133.375
         7   01 Jun 2027 04:38:28.503   01 Jun 2027 04:39:09.675            41.172            RioGallegos          5146.500
         8   01 Jun 2027 04:41:59.600   01 Jun 2027 04:42:11.190            11.590            RioGallegos          1448.750
         9   01 Jun 2027 04:42:47.490   01 Jun 2027 04:43:26.907            39.417            RioGallegos          4927.125
        10   01 Jun 2027 05:13:29.068   01 Jun 2027 05:14:48.907            79.839                Sumatra          9979.875
        11   01 Jun 2027 05:26:03.111   01 Jun 2027 05:27:10.136            67.025                  Delhi          8378.125
        12   01 Jun 2027 05:29:06.927   01 Jun 2027 05:31:13.286           126.359                  Delhi         15794.875
        13   01 Jun 2027 05:36:56.489   01 Jun 2027 05:37:49.907            53.418                Norilsk          6677.250
        14   01 Jun 2027 05:38:07.247   01 Jun 2027 05:40:04.440           117.193                Novosib         14649.125
        15   01 Jun 2027 06:22:10.829   01 Jun 2027 06:22:43.244            32.415            RioGallegos          4051.875
        16   01 Jun 2027 06:51:43.359   01 Jun 2027 06:52:14.485            31.126                Sumatra          3890.750
        17   01 Jun 2027 06:57:32.395   01 Jun 2027 06:58:59.379            86.984                  Delhi         10873.000
        18   01 Jun 2027 07:13:54.153   01 Jun 2027 07:14:06.761            12.608                 Moscow          1576.000
        19   01 Jun 2027 07:14:13.144   01 Jun 2027 07:14:27.106            13.962              Murmansk1          1745.250
        20   01 Jun 2027 07:14:34.245   01 Jun 2027 07:14:49.003            14.758                 Moscow          1844.750
        21   01 Jun 2027 07:15:02.269   01 Jun 2027 07:16:06.375            64.106                Novosib          8013.250
        22   01 Jun 2027 07:16:11.737   01 Jun 2027 07:16:37.185            25.448              Murmansk1          3181.000
        23   01 Jun 2027 07:17:02.778   01 Jun 2027 07:17:27.404            24.626                 Moscow          3078.250
        24   01 Jun 2027 08:37:50.895   01 Jun 2027 08:39:06.211            75.316                  Delhi          9414.500
        25   01 Jun 2027 08:47:06.629   01 Jun 2027 08:47:36.584            29.955              Murmansk2          3744.375
        26   01 Jun 2027 08:47:37.463   01 Jun 2027 08:48:14.549            37.086                Novosib          4635.750
        27   01 Jun 2027 08:48:29.926   01 Jun 2027 08:48:43.928            14.002              Murmansk2          1750.250
        28   01 Jun 2027 08:49:04.753   01 Jun 2027 08:50:06.377            61.624                Novosib          7703.000
        29   01 Jun 2027 08:50:15.926   01 Jun 2027 08:50:27.123            11.197              Murmansk2          1399.625
        30   01 Jun 2027 08:50:32.661   01 Jun 2027 08:51:50.590            77.929                Norilsk          9741.125
        31   01 Jun 2027 08:52:07.600   01 Jun 2027 08:57:00.901           293.301              Murmansk2         36662.625
        32   01 Jun 2027 08:57:00.901   01 Jun 2027 08:58:19.551            78.650              Murmansk1          9831.250
        33   01 Jun 2027 09:57:27.323   01 Jun 2027 10:00:37.806           190.483               CapeTown         23810.375
        34   01 Jun 2027 10:05:03.314   01 Jun 2027 10:05:46.750            43.436               CapeTown          5429.500
        35   01 Jun 2027 10:36:42.391   01 Jun 2027 10:37:26.674            44.283                Anadyr1          5535.375
        36   01 Jun 2027 10:38:14.487   01 Jun 2027 10:41:02.103           167.616                Anadyr2         20952.000
        37   01 Jun 2027 12:16:10.817   01 Jun 2027 12:19:18.774           187.957               Magadan1         23494.625
        38   01 Jun 2027 13:50:22.111   01 Jun 2027 13:52:28.375           126.264               Magadan2         15783.000
        39   01 Jun 2027 15:32:39.946   01 Jun 2027 15:35:16.298           156.352                Irkutsk         19544.000
        40   01 Jun 2027 16:18:05.406   01 Jun 2027 16:20:55.696           170.290            RioGallegos         21286.250
        41   01 Jun 2027 17:05:44.716   01 Jun 2027 17:07:37.907           113.191                Irkutsk         14148.875
        42   01 Jun 2027 17:08:05.974   01 Jun 2027 17:11:34.782           208.808                Novosib         26101.000
        43   01 Jun 2027 17:22:28.111   01 Jun 2027 17:23:17.315            49.204                Sumatra          6150.500
        44   01 Jun 2027 18:46:11.888   01 Jun 2027 18:46:45.057            33.169                Novosib          4146.125
        45   01 Jun 2027 18:48:22.619   01 Jun 2027 18:49:30.385            67.766                Novosib          8470.750
        46   01 Jun 2027 18:51:05.940   01 Jun 2027 18:52:02.717            56.777                Novosib          6799.500
        47   02 Jun 2027 04:15:57.628   02 Jun 2027 04:17:03.488            65.860                Novosib          8232.500
        48   02 Jun 2027 04:17:10.767   02 Jun 2027 04:18:39.602            88.835              Murmansk1         11104.375
        49   02 Jun 2027 04:19:21.556   02 Jun 2027 04:19:50.245            28.689              Murmansk1          3586.125
        50   02 Jun 2027 04:20:14.123   02 Jun 2027 04:20:49.867            35.744                Norilsk          4468.000
        51   02 Jun 2027 04:50:35.829   02 Jun 2027 04:50:45.203             9.374            RioGallegos          1171.750
        52   02 Jun 2027 04:52:44.840   02 Jun 2027 04:53:17.781            32.941            RioGallegos          4117.625
        53   02 Jun 2027 05:25:23.395   02 Jun 2027 05:27:41.788           138.393                Sumatra         17299.125
        54   02 Jun 2027 05:36:00.246   02 Jun 2027 05:38:50.950           170.704                  Delhi         21338.000
        55   02 Jun 2027 05:49:16.293   02 Jun 2027 05:49:31.327            15.034                Irkutsk          1879.250
        56   02 Jun 2027 05:50:51.173   02 Jun 2027 05:51:13.964            22.791                Novosib          2848.875
        57   02 Jun 2027 05:51:44.144   02 Jun 2027 05:53:19.953            95.809                Novosib         11976.125
        58   02 Jun 2027 05:53:24.194   02 Jun 2027 05:58:58.193           333.999              Murmansk1         41749.875
        59   02 Jun 2027 06:30:11.272   02 Jun 2027 06:36:18.835           367.563            RioGallegos         45945.375
        60   02 Jun 2027 07:05:24.967   02 Jun 2027 07:07:17.207           112.240                Sumatra         14030.000
        61   02 Jun 2027 07:08:18.431   02 Jun 2027 07:08:59.512            41.081                Sumatra          5135.125
        62   02 Jun 2027 07:27:31.874   02 Jun 2027 07:32:54.186           322.312              Murmansk1         40289.000
        63   02 Jun 2027 07:34:25.912   02 Jun 2027 07:34:28.833             2.921              Murmansk1           365.125
        64   02 Jun 2027 08:53:59.849   02 Jun 2027 08:54:47.320            47.471                 Moscow          5933.875
        65   02 Jun 2027 09:04:21.543   02 Jun 2027 09:08:26.835           245.292                Norilsk         30661.500
        66   02 Jun 2027 09:08:33.015   02 Jun 2027 09:10:21.028           108.013              Murmansk1         13501.625
        67   02 Jun 2027 10:08:51.893   02 Jun 2027 10:18:05.610           553.717               CapeTown         69214.625
        68   02 Jun 2027 10:31:05.643   02 Jun 2027 10:38:47.911           462.268                 Moscow         57783.500
        69   02 Jun 2027 10:38:56.049   02 Jun 2027 10:44:18.516           322.467              Murmansk1         40308.375
        70   02 Jun 2027 10:48:34.441   02 Jun 2027 10:54:06.560           332.119                Anadyr1         41514.875
        71   02 Jun 2027 10:54:14.992   02 Jun 2027 10:57:37.265           202.273                Anadyr2         25284.125
        72   02 Jun 2027 12:13:28.449   02 Jun 2027 12:15:23.026           114.577              Murmansk2         14322.125
        73   02 Jun 2027 12:15:23.026   02 Jun 2027 12:16:25.059            62.033              Murmansk1          7754.125
        74   02 Jun 2027 12:24:02.521   02 Jun 2027 12:24:44.504            41.983                Anadyr1          5247.875
        75   02 Jun 2027 12:27:41.559   02 Jun 2027 12:31:31.830           230.271               Magadan2         28783.875
        76   02 Jun 2027 12:32:08.252   02 Jun 2027 12:34:40.243           151.991               Magadan1         18998.875
        77   02 Jun 2027 14:05:31.560   02 Jun 2027 14:06:58.194            86.634               Magadan2         10829.250
        78   02 Jun 2027 15:43:44.038   02 Jun 2027 15:47:03.226           199.188                Irkutsk         24898.500
        79   02 Jun 2027 16:00:21.371   02 Jun 2027 16:01:11.577            50.206                Sumatra          6275.750
        80   02 Jun 2027 16:02:25.470   02 Jun 2027 16:04:12.904           107.434                Sumatra         13429.250
        81   02 Jun 2027 17:17:41.202   02 Jun 2027 17:17:54.272            13.070                Irkutsk          1633.750
        82   02 Jun 2027 17:18:46.079   02 Jun 2027 17:22:41.662           235.583                Novosib         29447.875
        83   02 Jun 2027 17:32:30.200   02 Jun 2027 17:34:09.879            99.679                Sumatra         12459.875
        84   02 Jun 2027 18:57:42.461   02 Jun 2027 18:58:40.019            57.558                Novosib          7194.750
        85   02 Jun 2027 19:00:58.791   02 Jun 2027 19:03:04.269           125.478                  Delhi         15684.750
        86   02 Jun 2027 19:03:46.739   02 Jun 2027 19:04:39.422            52.683                  Delhi          6585.375
        87   02 Jun 2027 20:32:03.027   02 Jun 2027 20:34:04.662           121.635                 Moscow         15204.375
        88   02 Jun 2027 22:07:02.055   02 Jun 2027 22:08:01.132            59.077                 Moscow          1505.875
        89   03 Jun 2027 04:27:50.217   03 Jun 2027 04:27:52.033             1.816                Irkutsk           227.000
        90   03 Jun 2027 04:27:59.394   03 Jun 2027 04:29:10.791            71.397                Norilsk          8924.625
        91   03 Jun 2027 04:29:11.189   03 Jun 2027 04:31:14.642           123.453              Murmansk1         15431.625
        92   03 Jun 2027 05:37:23.328   03 Jun 2027 05:39:45.011           141.683                Sumatra         17710.375
        93   03 Jun 2027 05:47:20.077   03 Jun 2027 05:47:49.776            29.699                  Delhi          3712.375
        94   03 Jun 2027 05:50:29.661   03 Jun 2027 05:50:37.610             7.949                  Delhi           993.625
        95   03 Jun 2027 05:53:30.609   03 Jun 2027 05:54:48.855            78.246                  Delhi          9780.750
        96   03 Jun 2027 06:03:53.752   03 Jun 2027 06:05:21.590            87.838                Novosib         10979.750
        97   03 Jun 2027 06:05:24.328   03 Jun 2027 06:05:52.661            28.333                 Moscow          3541.625
        98   03 Jun 2027 06:05:52.689   03 Jun 2027 06:10:26.203           273.514              Murmansk2         34189.250
        99   03 Jun 2027 06:43:23.382   03 Jun 2027 06:45:42.516           139.134            RioGallegos         17391.750
       100   03 Jun 2027 06:47:15.122   03 Jun 2027 06:48:09.272            54.150            RioGallegos          6768.750
       101   03 Jun 2027 07:21:45.903   03 Jun 2027 07:26:33.875           287.972                  Delhi         35996.500
       102   03 Jun 2027 07:29:00.470   03 Jun 2027 07:29:44.373            43.903                  Delhi          5487.875
       103   03 Jun 2027 07:30:15.328   03 Jun 2027 07:33:45.785           210.457                Novosib         26307.125
       104   03 Jun 2027 07:34:22.751   03 Jun 2027 07:34:48.993            26.242                 Moscow          3280.250
       105   03 Jun 2027 07:39:34.414   03 Jun 2027 07:46:02.189           387.775              Murmansk2         48471.875
       106   03 Jun 2027 07:46:25.939   03 Jun 2027 07:46:28.882             2.943              Murmansk2           367.875
       107   03 Jun 2027 09:05:58.971   03 Jun 2027 09:07:09.197            70.226                 Moscow          8778.250
       108   03 Jun 2027 09:09:26.820   03 Jun 2027 09:10:26.324            59.504              Murmansk2          7438.000
       109   03 Jun 2027 09:10:47.946   03 Jun 2027 09:11:11.203            23.257              Murmansk2          2907.125
       110   03 Jun 2027 09:15:22.023   03 Jun 2027 09:20:21.600           299.577                Norilsk         37447.125
       111   03 Jun 2027 09:20:35.364   03 Jun 2027 09:21:17.808            42.444              Murmansk1          5305.500
       112   03 Jun 2027 09:21:17.808   03 Jun 2027 09:22:22.598            64.790              Murmansk2          8098.750
       113   03 Jun 2027 10:21:09.293   03 Jun 2027 10:27:09.110           359.817               CapeTown         44977.125
       114   03 Jun 2027 10:44:22.923   03 Jun 2027 10:45:38.240            75.317                 Moscow          9414.625
       115   03 Jun 2027 10:46:26.617   03 Jun 2027 10:46:54.535            27.918                 Moscow          3489.750
       116   03 Jun 2027 10:47:08.851   03 Jun 2027 10:47:32.068            23.217              Murmansk2          2902.125
       117   03 Jun 2027 10:48:35.235   03 Jun 2027 10:48:41.749             6.514              Murmansk2           814.250
       118   03 Jun 2027 10:48:44.748   03 Jun 2027 10:49:08.605            23.857              Murmansk2          2982.125
       119   03 Jun 2027 10:49:08.605   03 Jun 2027 10:50:54.557           105.952              Murmansk1         13244.000
       120   03 Jun 2027 10:51:07.016   03 Jun 2027 10:51:25.600            18.584              Murmansk2          2323.000
       121   03 Jun 2027 10:52:06.288   03 Jun 2027 10:52:41.769            35.481              Murmansk2          4435.125
       122   03 Jun 2027 10:53:18.701   03 Jun 2027 10:53:41.385            22.684              Murmansk2          2835.500
       123   03 Jun 2027 11:00:28.638   03 Jun 2027 11:03:26.973           178.335                Anadyr1         22291.875
       124   03 Jun 2027 11:04:40.166   03 Jun 2027 11:05:51.843            71.677                Anadyr2          8959.625
       125   03 Jun 2027 11:06:39.362   03 Jun 2027 11:09:43.842           184.480                Anadyr1         23060.000
       126   03 Jun 2027 12:26:06.585   03 Jun 2027 12:28:37.766           151.181              Murmansk1         18897.625
       127   03 Jun 2027 12:36:03.017   03 Jun 2027 12:36:41.182            38.165                Anadyr1          4770.625
       128   03 Jun 2027 12:39:22.092   03 Jun 2027 12:40:51.979            89.887               Magadan1         11235.875
       129   03 Jun 2027 12:43:30.180   03 Jun 2027 12:47:31.590           241.410               Magadan2         30176.250
       130   03 Jun 2027 14:22:17.178   03 Jun 2027 14:23:51.073            93.895               Magadan1         11736.875
       131   03 Jun 2027 15:09:06.385   03 Jun 2027 15:11:05.239           118.854            RioGallegos         14856.750
       132   03 Jun 2027 15:55:11.454   03 Jun 2027 15:58:53.383           221.929                Irkutsk         27741.125
       133   03 Jun 2027 16:10:37.548   03 Jun 2027 16:12:47.985           130.437                Sumatra         16304.625
       134   03 Jun 2027 17:30:29.170   03 Jun 2027 17:31:40.064            70.894                Novosib          8861.750
       135   03 Jun 2027 17:32:36.413   03 Jun 2027 17:34:35.966           119.553                Novosib         14944.125
       136   03 Jun 2027 17:42:10.194   03 Jun 2027 17:42:42.174            31.980                  Delhi          3997.500
       137   03 Jun 2027 19:12:53.228   03 Jun 2027 19:15:33.032           159.804                  Delhi         19975.500
       138   03 Jun 2027 20:39:54.427   03 Jun 2027 20:40:23.963            29.536              Murmansk2          3692.000
       139   03 Jun 2027 20:43:49.699   03 Jun 2027 20:46:15.411           145.712                 Moscow         18214.000
       140   03 Jun 2027 21:11:04.959   03 Jun 2027 21:12:31.908            86.949               CapeTown         10868.625
       141   03 Jun 2027 22:42:55.100   03 Jun 2027 22:44:27.336            92.236               CapeTown           932.375
       142   04 Jun 2027 04:16:04.385   04 Jun 2027 04:18:39.030           154.645                Sumatra         19330.625
       143   04 Jun 2027 04:40:00.864   04 Jun 2027 04:44:51.405           290.541                Norilsk         36317.625
       144   04 Jun 2027 04:45:07.377   04 Jun 2027 04:46:10.132            62.755              Murmansk2          7844.375
       145   04 Jun 2027 04:46:10.132   04 Jun 2027 04:47:49.212            99.080              Murmansk1         12385.000
       146   04 Jun 2027 05:15:01.698   04 Jun 2027 05:19:19.453           257.755            RioGallegos         32219.375
       147   04 Jun 2027 05:49:28.891   04 Jun 2027 05:51:06.216            97.325                Sumatra         12165.625
       148   04 Jun 2027 05:51:46.539   04 Jun 2027 05:52:27.905            41.366                Sumatra          5170.750
       149   04 Jun 2027 05:54:05.139   04 Jun 2027 05:54:28.293            23.154                Sumatra          2894.250
       150   04 Jun 2027 06:04:09.654   04 Jun 2027 06:05:01.010            51.356                Irkutsk          6419.500
       151   04 Jun 2027 06:14:20.079   04 Jun 2027 06:14:51.574            31.495              Murmansk1          3936.875
       152   04 Jun 2027 06:15:39.061   04 Jun 2027 06:16:09.002            29.941                Norilsk          3742.625
       153   04 Jun 2027 06:16:11.256   04 Jun 2027 06:18:05.918           114.662                 Moscow         14332.750
       154   04 Jun 2027 06:18:13.000   04 Jun 2027 06:20:01.640           108.640              Murmansk1         13580.000
       155   04 Jun 2027 06:20:01.640   04 Jun 2027 06:20:47.069            45.429              Murmansk2          5678.625
       156   04 Jun 2027 06:57:37.871   04 Jun 2027 06:58:27.563            49.692            RioGallegos          6211.500
       157   04 Jun 2027 07:34:01.516   04 Jun 2027 07:39:50.638           349.122                  Delhi         43640.250
       158   04 Jun 2027 07:42:07.868   04 Jun 2027 07:46:01.867           233.999                Novosib         29249.875
       159   04 Jun 2027 07:46:05.130   04 Jun 2027 07:46:30.869            25.739                 Moscow          3217.375
       160   04 Jun 2027 07:51:28.534   04 Jun 2027 07:52:42.603            74.069                Novosib          9258.625
       161   04 Jun 2027 07:53:00.503   04 Jun 2027 07:57:02.622           242.119              Murmansk2         30264.875
       162   04 Jun 2027 07:58:29.034   04 Jun 2027 07:58:29.219             0.185              Murmansk1            23.125
       163   04 Jun 2027 09:21:31.294   04 Jun 2027 09:23:41.306           130.012              Murmansk2         16251.500
       164   04 Jun 2027 09:26:23.475   04 Jun 2027 09:28:38.711           135.236              Murmansk2         16904.500
       165   04 Jun 2027 09:28:38.711   04 Jun 2027 09:34:24.235           345.524              Murmansk1         43190.500
       166   04 Jun 2027 10:36:34.520   04 Jun 2027 10:38:20.210           105.690               CapeTown         13211.250
       167   04 Jun 2027 10:56:04.435   04 Jun 2027 10:59:48.105           223.670                 Moscow         27958.750
       168   04 Jun 2027 11:00:00.223   04 Jun 2027 11:04:00.388           240.165              Murmansk1         30020.625
       169   04 Jun 2027 11:04:00.388   04 Jun 2027 11:05:10.072            69.684              Murmansk2          8710.500
       170   04 Jun 2027 11:05:27.836   04 Jun 2027 11:08:16.748           168.912              Murmansk1         21114.000
       171   04 Jun 2027 11:12:24.412   04 Jun 2027 11:15:57.816           213.404                Anadyr2         26675.500
       172   04 Jun 2027 11:19:00.786   04 Jun 2027 11:20:27.681            86.895                Anadyr2         10861.875
       173   04 Jun 2027 12:38:48.683   04 Jun 2027 12:39:41.173            52.490              Murmansk2          6561.250
       174   04 Jun 2027 12:51:08.156   04 Jun 2027 12:56:55.091           346.935               Magadan2         43366.875
       175   04 Jun 2027 14:35:52.296   04 Jun 2027 14:35:53.232             0.936               Magadan1           117.000
       176   04 Jun 2027 15:20:00.884   04 Jun 2027 15:23:12.832           191.948            RioGallegos         23993.500
       177   04 Jun 2027 16:06:49.056   04 Jun 2027 16:10:46.009           236.953                Irkutsk         29619.125
       178   04 Jun 2027 16:21:37.263   04 Jun 2027 16:24:31.758           174.495                Sumatra         21811.875
       179   04 Jun 2027 17:44:46.480   04 Jun 2027 17:46:31.815           105.335                Novosib         13166.875
       180   04 Jun 2027 17:51:59.012   04 Jun 2027 17:54:21.050           142.038                  Delhi         17754.750
       181   04 Jun 2027 19:24:51.183   04 Jun 2027 19:26:05.700            74.517                  Delhi          9314.625
       182   04 Jun 2027 19:26:11.421   04 Jun 2027 19:26:51.092            39.671                  Delhi          4958.875
       183   04 Jun 2027 20:52:33.275   04 Jun 2027 20:52:41.615             8.340              Murmansk1          1042.500
       184   04 Jun 2027 20:55:39.671   04 Jun 2027 20:56:26.502            46.831                 Moscow          5853.875
       185   04 Jun 2027 20:58:22.940   04 Jun 2027 20:59:26.042            63.102                 Moscow          7887.750
       186   04 Jun 2027 21:22:14.218   04 Jun 2027 21:24:21.233           127.015               CapeTown         15876.875
       187   05 Jun 2027 03:14:47.013   05 Jun 2027 03:14:55.567             8.554                Irkutsk          1069.250
       188   05 Jun 2027 03:15:53.361   05 Jun 2027 03:21:23.264           329.903              Murmansk1         41237.875
       189   05 Jun 2027 03:21:23.264   05 Jun 2027 03:23:28.656           125.392              Murmansk2         15674.000
       190   05 Jun 2027 04:27:14.553   05 Jun 2027 04:30:26.064           191.511                Sumatra         23938.875
       191   05 Jun 2027 04:51:50.914   05 Jun 2027 04:52:21.028            30.114              Murmansk2          3764.250
       192   05 Jun 2027 04:52:21.028   05 Jun 2027 04:57:56.409           335.381              Murmansk1         41922.625
       193   05 Jun 2027 04:57:56.409   05 Jun 2027 04:59:41.314           104.905              Murmansk2         13113.125
       194   05 Jun 2027 05:30:14.394   05 Jun 2027 05:30:50.269            35.875            RioGallegos          4484.375
       195   05 Jun 2027 05:31:04.293   05 Jun 2027 05:31:22.525            18.232            RioGallegos          2279.000
       196   05 Jun 2027 06:01:40.420   05 Jun 2027 06:04:17.832           157.412                Sumatra         19676.500
       197   05 Jun 2027 06:12:30.566   05 Jun 2027 06:14:27.173           116.607                  Delhi         14575.875
       198   05 Jun 2027 06:16:30.960   05 Jun 2027 06:17:59.199            88.239                Novosib         11029.875
       199   05 Jun 2027 06:19:27.736   05 Jun 2027 06:20:19.939            52.203                Irkutsk          6525.375
       200   05 Jun 2027 06:27:05.244   05 Jun 2027 06:29:23.029           137.785                Novosib         17223.125
       201   05 Jun 2027 06:29:36.395   05 Jun 2027 06:30:16.804            40.409                 Moscow          5051.125
       202   05 Jun 2027 06:30:19.037   05 Jun 2027 06:34:48.983           269.946              Murmansk1         33743.250
       203   05 Jun 2027 07:46:24.032   05 Jun 2027 07:50:38.529           254.497                  Delhi         31812.125
       204   05 Jun 2027 07:53:44.081   05 Jun 2027 07:56:22.412           158.331                  Delhi         19791.375
       205   05 Jun 2027 07:56:29.751   05 Jun 2027 07:58:07.583            97.832                Novosib         12229.000
       206   05 Jun 2027 08:03:19.035   05 Jun 2027 08:08:27.811           308.776                Norilsk         38597.000
       207   05 Jun 2027 08:08:30.909   05 Jun 2027 08:10:29.829           118.920              Murmansk2         14865.000
       208   05 Jun 2027 09:30:05.905   05 Jun 2027 09:35:00.217           294.312                 Moscow         36789.000
       209   05 Jun 2027 09:35:00.520   05 Jun 2027 09:37:15.082           134.562              Murmansk2         16820.250
       210   05 Jun 2027 09:37:58.317   05 Jun 2027 09:40:28.772           150.455              Murmansk2         18806.875
       211   05 Jun 2027 09:40:39.485   05 Jun 2027 09:44:00.537           201.052                Norilsk         25131.500
       212   05 Jun 2027 09:50:36.563   05 Jun 2027 09:53:03.737           147.174                Anadyr1         18396.750
       213   05 Jun 2027 10:49:34.131   05 Jun 2027 10:49:47.133            13.002               CapeTown          1625.250
       214   05 Jun 2027 11:11:17.999   05 Jun 2027 11:12:21.599            63.600              Murmansk2          7950.000
       215   05 Jun 2027 11:18:22.063   05 Jun 2027 11:18:31.227             9.164              Murmansk1          1145.500
       216   05 Jun 2027 11:19:27.751   05 Jun 2027 11:20:51.012            83.261              Murmansk2         10407.625
       217   05 Jun 2027 11:24:21.395   05 Jun 2027 11:25:48.181            86.786                Anadyr2         10848.250
       218   05 Jun 2027 11:28:40.279   05 Jun 2027 11:28:57.242            16.963                Anadyr1          2120.375
       219   05 Jun 2027 12:19:51.351   05 Jun 2027 12:22:57.528           186.177               CapeTown         23272.125
       220   05 Jun 2027 12:51:35.664   05 Jun 2027 12:54:19.386           163.722              Murmansk1         20465.250
       221   05 Jun 2027 13:02:57.828   05 Jun 2027 13:07:17.596           259.768               Magadan2         32471.000
       222   05 Jun 2027 14:38:17.787   05 Jun 2027 14:39:04.681            46.894               Magadan2          5861.750
       223   05 Jun 2027 15:31:24.956   05 Jun 2027 15:35:02.262           217.306            RioGallegos         27163.250
       224   05 Jun 2027 16:20:44.140   05 Jun 2027 16:22:40.589           116.449                Irkutsk         14556.125
       225   05 Jun 2027 16:32:55.304   05 Jun 2027 16:36:21.867           206.563                Sumatra         25820.375
       226   05 Jun 2027 17:54:07.151   05 Jun 2027 17:55:02.453            55.302                Novosib          6912.750
       227   05 Jun 2027 17:56:53.362   05 Jun 2027 17:58:28.935            95.573                Novosib         11946.625
       228   05 Jun 2027 18:03:01.315   05 Jun 2027 18:06:05.889           184.574                  Delhi         23071.750
       229   05 Jun 2027 21:08:56.905   05 Jun 2027 21:10:15.204            78.299                 Moscow          9787.375
       230   05 Jun 2027 21:32:54.148   05 Jun 2027 21:33:11.810            17.662               CapeTown          2207.750
       231   05 Jun 2027 21:34:15.478   05 Jun 2027 21:36:04.888           109.410               CapeTown         13676.250
       232   06 Jun 2027 03:28:06.132   06 Jun 2027 03:28:48.061            41.929                Novosib          5241.125
       233   06 Jun 2027 03:28:52.148   06 Jun 2027 03:31:35.546           163.398              Murmansk2         20424.750
       234   06 Jun 2027 03:31:37.868   06 Jun 2027 03:32:00.200            22.332              Murmansk2          2791.500
       235   06 Jun 2027 04:38:38.917   06 Jun 2027 04:39:36.875            57.958                Sumatra          7244.750
       236   06 Jun 2027 04:41:21.856   06 Jun 2027 04:42:19.112            57.256                Sumatra          7157.000
       237   06 Jun 2027 05:03:46.374   06 Jun 2027 05:03:56.056             9.682                Irkutsk          1210.250
       238   06 Jun 2027 05:04:04.186   06 Jun 2027 05:04:15.761            11.575                Norilsk          1446.875
       239   06 Jun 2027 05:04:16.325   06 Jun 2027 05:08:53.793           277.468                Norilsk         34683.500
       240   06 Jun 2027 05:09:53.861   06 Jun 2027 05:10:14.038            20.177              Murmansk1          2522.125
       241   06 Jun 2027 05:10:46.664   06 Jun 2027 05:11:27.409            40.745              Murmansk1          5093.125
       242   06 Jun 2027 05:39:44.619   06 Jun 2027 05:41:26.185           101.566            RioGallegos         12695.750
       243   06 Jun 2027 05:42:56.789   06 Jun 2027 05:43:37.470            40.681            RioGallegos          5085.125
       244   06 Jun 2027 06:13:58.714   06 Jun 2027 06:14:18.204            19.490                Sumatra          2436.250
       245   06 Jun 2027 06:16:01.405   06 Jun 2027 06:18:10.386           128.981                Sumatra         16122.625
       246   06 Jun 2027 06:22:07.034   06 Jun 2027 06:22:27.618            20.584                  Delhi          2573.000
       247   06 Jun 2027 06:28:36.533   06 Jun 2027 06:29:23.846            47.313                Novosib          5914.125
       248   06 Jun 2027 06:29:32.046   06 Jun 2027 06:30:40.103            68.057                Irkutsk          8507.125
       249   06 Jun 2027 06:31:27.458   06 Jun 2027 06:32:50.969            83.511                Irkutsk         10438.875
       250   06 Jun 2027 06:33:25.870   06 Jun 2027 06:35:10.876           105.006                Novosib         13125.750
       251   06 Jun 2027 06:39:43.969   06 Jun 2027 06:40:25.508            41.539              Murmansk2          5192.375
       252   06 Jun 2027 06:40:27.864   06 Jun 2027 06:43:45.923           198.059                Norilsk         24757.375
       253   06 Jun 2027 06:44:40.219   06 Jun 2027 06:45:07.710            27.491              Murmansk2          3436.375
       254   06 Jun 2027 06:45:37.846   06 Jun 2027 06:45:49.821            11.975              Murmansk2          1496.875
       255   06 Jun 2027 06:46:13.115   06 Jun 2027 06:46:47.011            33.896              Murmansk2          4237.000
       256   06 Jun 2027 07:58:54.866   06 Jun 2027 08:02:49.197           234.331                  Delhi         29291.375
       257   06 Jun 2027 08:07:20.459   06 Jun 2027 08:10:45.840           205.381                Novosib         25672.625
       258   06 Jun 2027 08:15:15.090   06 Jun 2027 08:21:14.233           359.143              Murmansk1         44892.875
       259   06 Jun 2027 09:45:03.581   06 Jun 2027 09:45:18.942            15.361                 Moscow          1920.125
       260   06 Jun 2027 09:45:44.288   06 Jun 2027 09:47:55.127           130.839                 Moscow         16354.875
       261   06 Jun 2027 09:47:56.135   06 Jun 2027 09:51:17.832           201.697              Murmansk2         25212.125
       262   06 Jun 2027 09:51:17.832   06 Jun 2027 09:51:47.240            29.408              Murmansk1          3676.000
       263   06 Jun 2027 09:52:04.258   06 Jun 2027 09:52:18.097            13.839              Murmansk1          1729.875
       264   06 Jun 2027 09:52:36.289   06 Jun 2027 09:55:36.825           180.536                Norilsk         22567.000
       265   06 Jun 2027 10:01:48.054   06 Jun 2027 10:05:30.816           222.762                Anadyr2         27845.250
       266   06 Jun 2027 11:23:41.892   06 Jun 2027 11:24:47.454            65.562              Murmansk1          8195.250
       267   06 Jun 2027 11:36:19.319   06 Jun 2027 11:37:30.660            71.341                Anadyr2          8917.625
       268   06 Jun 2027 11:39:21.997   06 Jun 2027 11:40:57.347            95.350                Anadyr1         11918.750
       269   06 Jun 2027 11:41:17.699   06 Jun 2027 11:43:35.537           137.838                Anadyr2         17229.750
       270   06 Jun 2027 12:32:54.284   06 Jun 2027 12:33:31.316            37.032               CapeTown          4629.000
       271   06 Jun 2027 12:35:06.256   06 Jun 2027 12:35:27.876            21.620               CapeTown          2702.500
       272   06 Jun 2027 12:39:48.355   06 Jun 2027 12:41:09.737            81.382               CapeTown         10172.750
       273   06 Jun 2027 13:04:29.348   06 Jun 2027 13:05:02.741            33.393              Murmansk2          4174.125
       274   06 Jun 2027 13:14:50.071   06 Jun 2027 13:19:15.247           265.176               Magadan1         33147.000
       275   06 Jun 2027 15:43:00.647   06 Jun 2027 15:46:54.347           233.700            RioGallegos         29212.500
       276   06 Jun 2027 15:48:46.509   06 Jun 2027 15:49:49.688            63.179            RioGallegos          7897.375
       277   06 Jun 2027 16:33:00.722   06 Jun 2027 16:34:36.775            96.053                Irkutsk         12006.625
       278   06 Jun 2027 16:44:24.974   06 Jun 2027 16:46:19.066           114.092                Sumatra         14261.500
       279   06 Jun 2027 16:55:38.947   06 Jun 2027 16:55:47.025             8.078                Sumatra          1009.750
       280   06 Jun 2027 18:06:00.014   06 Jun 2027 18:08:32.142           152.128                Novosib         19016.000
       281   06 Jun 2027 18:14:23.323   06 Jun 2027 18:16:10.339           107.016                  Delhi         13377.000
       282   06 Jun 2027 18:20:38.336   06 Jun 2027 18:22:26.091           107.755                  Delhi         13469.375
       283   06 Jun 2027 19:47:51.110   06 Jun 2027 19:48:17.285            26.175                 Moscow          3271.875
       284   06 Jun 2027 21:18:34.687   06 Jun 2027 21:19:07.922            33.235              Murmansk2          4154.375
       285   06 Jun 2027 21:19:26.440   06 Jun 2027 21:21:22.395           115.955                 Moscow         14494.375
       286   06 Jun 2027 21:45:33.872   06 Jun 2027 21:47:55.723           141.851               CapeTown         17731.375
       287   07 Jun 2027 03:39:59.603   07 Jun 2027 03:41:38.658            99.055                Norilsk         12381.875
       288   07 Jun 2027 04:50:13.163   07 Jun 2027 04:52:05.695           112.532                Sumatra         14066.500
       289   07 Jun 2027 05:01:27.362   07 Jun 2027 05:01:56.830            29.468                Sumatra          3683.500
       290   07 Jun 2027 05:04:40.867   07 Jun 2027 05:06:05.427            84.560                  Delhi         10570.000
       291   07 Jun 2027 05:15:21.908   07 Jun 2027 05:15:27.747             5.839              Murmansk2           729.875
       292   07 Jun 2027 05:15:59.786   07 Jun 2027 05:17:57.698           117.912              Murmansk2         14739.000
       293   07 Jun 2027 05:18:15.954   07 Jun 2027 05:21:11.009           175.055              Murmansk2         21881.875
       294   07 Jun 2027 06:26:25.269   07 Jun 2027 06:27:37.593            72.324                Sumatra          9040.500
       295   07 Jun 2027 06:28:24.031   07 Jun 2027 06:28:54.926            30.895                Sumatra          3861.875
       296   07 Jun 2027 06:30:26.748   07 Jun 2027 06:30:31.385             4.637                Sumatra           579.625
       297   07 Jun 2027 06:33:18.511   07 Jun 2027 06:35:33.463           134.952                Sumatra         16869.000
       298   07 Jun 2027 06:36:09.613   07 Jun 2027 06:37:41.647            92.034                  Delhi         11504.250
       299   07 Jun 2027 06:40:45.217   07 Jun 2027 06:43:21.956           156.739                Novosib         19592.375
       300   07 Jun 2027 06:44:36.639   07 Jun 2027 06:45:38.319            61.680                Irkutsk          7710.000
       301   07 Jun 2027 06:46:15.115   07 Jun 2027 06:47:11.443            56.328                 Moscow          7041.000
       302   07 Jun 2027 06:51:49.152   07 Jun 2027 06:55:20.837           211.685              Murmansk1         26460.625
       303   07 Jun 2027 06:55:20.837   07 Jun 2027 06:56:54.985            94.148              Murmansk2         11768.500
       304   07 Jun 2027 08:11:36.601   07 Jun 2027 08:15:06.056           209.455                  Delhi         26181.875
       305   07 Jun 2027 08:20:08.087   07 Jun 2027 08:23:15.349           187.262                Novosib         23407.750
       306   07 Jun 2027 08:27:15.927   07 Jun 2027 08:27:22.538             6.611                Novosib           826.375
       307   07 Jun 2027 08:28:00.652   07 Jun 2027 08:30:59.994           179.342                 Moscow         22417.750
       308   07 Jun 2027 08:31:02.619   07 Jun 2027 08:32:48.007           105.388                Norilsk         13173.500
       309   07 Jun 2027 08:33:07.424   07 Jun 2027 08:34:31.708            84.284              Murmansk1         10535.500
       310   07 Jun 2027 09:54:47.556   07 Jun 2027 09:59:02.430           254.874                 Moscow         31859.250
       311   07 Jun 2027 09:59:16.274   07 Jun 2027 10:02:33.102           196.828              Murmansk1         24603.500
       312   07 Jun 2027 10:03:21.299   07 Jun 2027 10:03:44.972            23.673              Murmansk1          2959.125
       313   07 Jun 2027 10:13:23.652   07 Jun 2027 10:19:36.630           372.978                Anadyr2         46622.250
       314   07 Jun 2027 11:36:08.228   07 Jun 2027 11:37:15.159            66.931              Murmansk1          8366.375
       315   07 Jun 2027 11:48:17.997   07 Jun 2027 11:50:04.547           106.550                Anadyr1         13318.750
       316   07 Jun 2027 11:51:28.662   07 Jun 2027 11:53:24.547           115.885                Anadyr1         14485.625
       317   07 Jun 2027 11:55:49.163   07 Jun 2027 11:57:51.911           122.748                Anadyr2         15343.500
       318   07 Jun 2027 12:46:02.350   07 Jun 2027 12:46:34.352            32.002               CapeTown          4000.250
       319   07 Jun 2027 12:47:09.782   07 Jun 2027 12:48:42.317            92.535               CapeTown         11566.875
       320   07 Jun 2027 13:26:44.243   07 Jun 2027 13:28:54.698           130.455               Magadan1         16306.875
       321   07 Jun 2027 13:29:39.283   07 Jun 2027 13:31:15.627            96.344               Magadan2         12043.000
       322   07 Jun 2027 13:33:50.700   07 Jun 2027 13:37:50.364           239.664               Magadan2         29958.000
       323   07 Jun 2027 15:56:41.247   07 Jun 2027 15:58:48.522           127.275            RioGallegos         15909.375
       324   07 Jun 2027 16:42:11.275   07 Jun 2027 16:45:03.528           172.253                Irkutsk         21531.625
       325   07 Jun 2027 16:45:22.564   07 Jun 2027 16:46:30.428            67.864                Novosib          8483.000
       326   07 Jun 2027 16:56:03.275   07 Jun 2027 16:58:00.005           116.730                Sumatra         14591.250
       327   07 Jun 2027 18:17:54.697   07 Jun 2027 18:19:51.012           116.315                Novosib         14539.375
       328   07 Jun 2027 18:25:56.314   07 Jun 2027 18:28:05.763           129.449                  Delhi         16181.125
       329   07 Jun 2027 18:28:35.560   07 Jun 2027 18:29:49.105            73.545                  Delhi          9193.125
       330   07 Jun 2027 19:58:22.242   07 Jun 2027 20:00:36.303           134.061                 Moscow         16757.625
       331   07 Jun 2027 21:55:56.342   07 Jun 2027 21:57:50.666           114.324               CapeTown         14290.500
       332   08 Jun 2027 03:52:09.860   08 Jun 2027 03:53:04.960            55.100                Novosib          6887.500
       333   08 Jun 2027 03:53:08.855   08 Jun 2027 03:55:32.345           143.490              Murmansk1         17936.250
       334   08 Jun 2027 05:01:55.139   08 Jun 2027 05:04:25.731           150.592                Sumatra         18824.000
       335   08 Jun 2027 05:15:40.628   08 Jun 2027 05:15:50.143             9.515                  Delhi          1189.375
       336   08 Jun 2027 05:17:03.367   08 Jun 2027 05:19:05.894           122.527                  Delhi         15315.875
       337   08 Jun 2027 05:27:39.970   08 Jun 2027 05:28:27.648            47.678                Novosib          5959.750
       338   08 Jun 2027 05:28:28.879   08 Jun 2027 05:32:58.954           270.075              Murmansk2         33759.375
       339   08 Jun 2027 05:32:58.954   08 Jun 2027 05:33:29.316            30.362              Murmansk1          3795.250
       340   08 Jun 2027 05:34:18.312   08 Jun 2027 05:35:19.368            61.056              Murmansk1          7632.000
       341   08 Jun 2027 06:39:03.061   08 Jun 2027 06:41:03.351           120.290                Sumatra         15036.250
       342   08 Jun 2027 06:45:15.896   08 Jun 2027 06:47:30.875           134.979                Sumatra         16872.375
       343   08 Jun 2027 06:52:57.176   08 Jun 2027 06:56:08.506           191.330                Novosib         23916.250
       344   08 Jun 2027 06:56:18.667   08 Jun 2027 06:59:54.667           216.000                Irkutsk         27000.000
       345   08 Jun 2027 07:03:39.094   08 Jun 2027 07:04:02.508            23.414                 Moscow          2926.750
       346   08 Jun 2027 07:04:07.128   08 Jun 2027 07:05:19.426            72.298                Novosib          9037.250
       347   08 Jun 2027 07:05:28.624   08 Jun 2027 07:08:56.756           208.132                Norilsk         26016.500
       348   08 Jun 2027 08:30:24.515   08 Jun 2027 08:30:30.406             5.891                 Moscow           736.375
       349   08 Jun 2027 08:33:07.484   08 Jun 2027 08:35:12.835           125.351                Novosib         15668.875
       350   08 Jun 2027 08:39:16.899   08 Jun 2027 08:39:31.833            14.934              Murmansk1          1866.750
       351   08 Jun 2027 08:40:21.382   08 Jun 2027 08:43:02.781           161.399                 Moscow         20174.875
       352   08 Jun 2027 08:43:11.701   08 Jun 2027 08:45:40.968           149.267              Murmansk2         18658.375
       353   08 Jun 2027 08:45:40.968   08 Jun 2027 08:46:32.923            51.955              Murmansk1          6494.375
       354   08 Jun 2027 09:46:34.612   08 Jun 2027 09:49:06.750           152.138               CapeTown         19017.250
       355   08 Jun 2027 09:50:31.814   08 Jun 2027 09:52:53.344           141.530               CapeTown         17691.250
       356   08 Jun 2027 10:09:15.685   08 Jun 2027 10:09:45.965            30.280                 Moscow          3785.000
       357   08 Jun 2027 10:10:06.212   08 Jun 2027 10:10:39.622            33.410              Murmansk1          4176.250
       358   08 Jun 2027 10:11:09.976   08 Jun 2027 10:11:53.494            43.518              Murmansk1          5439.750
       359   08 Jun 2027 10:12:55.050   08 Jun 2027 10:13:05.647            10.597              Murmansk1          1324.625
       360   08 Jun 2027 10:13:17.705   08 Jun 2027 10:15:43.220           145.515              Murmansk1         18189.375
       361   08 Jun 2027 10:15:43.220   08 Jun 2027 10:15:46.790             3.570              Murmansk2           446.250
       362   08 Jun 2027 10:18:29.831   08 Jun 2027 10:19:14.081            44.250              Murmansk2          5531.250
       363   08 Jun 2027 10:25:07.924   08 Jun 2027 10:31:23.921           375.997                Anadyr1         46999.625
       364   08 Jun 2027 11:49:16.657   08 Jun 2027 11:51:27.852           131.195              Murmansk2         16399.375
       365   08 Jun 2027 11:52:11.032   08 Jun 2027 11:52:23.217            12.185              Murmansk2          1523.125
       366   08 Jun 2027 12:00:17.280   08 Jun 2027 12:02:25.280           128.000                Anadyr2         16000.000
       367   08 Jun 2027 12:04:58.524   08 Jun 2027 12:05:21.713            23.189                Anadyr2          2898.625
       368   08 Jun 2027 12:06:20.322   08 Jun 2027 12:06:52.432            32.110                Anadyr2          4013.750
       369   08 Jun 2027 13:38:39.913   08 Jun 2027 13:43:12.930           273.017               Magadan2         34127.125
       370   08 Jun 2027 16:06:29.882   08 Jun 2027 16:12:20.382           350.500            RioGallegos         43812.500
       371   08 Jun 2027 16:56:04.158   08 Jun 2027 16:56:28.646            24.488                Irkutsk          3061.000
       372   08 Jun 2027 16:56:40.503   08 Jun 2027 16:59:13.885           153.382                Novosib         19172.750
       373   08 Jun 2027 17:07:48.631   08 Jun 2027 17:09:32.950           104.319                Sumatra         13039.875
       374   08 Jun 2027 17:10:33.047   08 Jun 2027 17:12:26.427           113.380                Sumatra         14172.500
       375   08 Jun 2027 18:37:36.751   08 Jun 2027 18:39:19.854           103.103                  Delhi         12887.875
       376   08 Jun 2027 18:44:57.557   08 Jun 2027 18:46:53.898           116.341                  Delhi         14542.625
       377   08 Jun 2027 20:09:48.122   08 Jun 2027 20:12:36.566           168.444                 Moscow         21055.500
       378   08 Jun 2027 21:45:42.663   08 Jun 2027 21:46:23.480            40.817                 Moscow          5102.125
       379   08 Jun 2027 22:07:36.832   08 Jun 2027 22:10:01.682           144.850               CapeTown         15246.498
       380   09 Jun 2027 04:04:12.595   09 Jun 2027 04:05:11.978            59.383                Novosib          7422.875
       381   09 Jun 2027 04:05:15.577   09 Jun 2027 04:08:21.130           185.553              Murmansk2         23194.125
       382   09 Jun 2027 05:13:43.657   09 Jun 2027 05:15:04.802            81.145                Sumatra         10143.125
       383   09 Jun 2027 05:26:10.138   09 Jun 2027 05:27:24.583            74.445                  Delhi          9305.625
       384   09 Jun 2027 05:39:43.172   09 Jun 2027 05:44:19.630           276.458                Norilsk         34557.250
       385   09 Jun 2027 05:44:20.103   09 Jun 2027 05:45:13.770            53.667              Murmansk1          6708.375
       386   09 Jun 2027 05:46:20.491   09 Jun 2027 05:46:51.235            30.744              Murmansk1          3843.000
       387   09 Jun 2027 05:47:06.462   09 Jun 2027 05:47:17.135            10.673              Murmansk1          1334.125
       388   09 Jun 2027 06:21:56.309   09 Jun 2027 06:22:25.371            29.062            RioGallegos          3632.750
       389   09 Jun 2027 06:23:30.615   09 Jun 2027 06:24:28.926            58.311            RioGallegos          7288.875
       390   09 Jun 2027 06:51:59.066   09 Jun 2027 06:54:08.628           129.562                Sumatra         16195.250
       391   09 Jun 2027 06:56:58.131   09 Jun 2027 06:58:02.924            64.793                Sumatra          8099.125
       392   09 Jun 2027 06:59:12.426   09 Jun 2027 07:00:02.810            50.384                  Delhi          6298.000
       393   09 Jun 2027 07:05:12.610   09 Jun 2027 07:09:06.204           233.594                Novosib         29199.250
       394   09 Jun 2027 07:09:08.188   09 Jun 2027 07:09:56.186            47.998                 Moscow          5999.750
       395   09 Jun 2027 07:09:56.959   09 Jun 2027 07:11:00.379            63.420                Irkutsk          7927.500
       396   09 Jun 2027 07:11:20.096   09 Jun 2027 07:11:39.483            19.387                 Moscow          2423.375
       397   09 Jun 2027 07:15:54.161   09 Jun 2027 07:20:33.007           278.846                Norilsk         34855.750
       398   09 Jun 2027 08:38:07.427   09 Jun 2027 08:40:02.719           115.292                  Delhi         14411.500
       399   09 Jun 2027 08:42:08.173   09 Jun 2027 08:42:37.191            29.018                  Delhi          3627.250
       400   09 Jun 2027 08:51:04.092   09 Jun 2027 08:52:05.951            61.859              Murmansk1          7732.375
       401   09 Jun 2027 08:52:54.467   09 Jun 2027 08:56:44.875           230.408                Norilsk         28801.000
       402   09 Jun 2027 08:56:50.773   09 Jun 2027 08:58:34.280           103.507              Murmansk2         12938.375
       403   09 Jun 2027 09:57:41.423   09 Jun 2027 10:06:02.269           500.846               CapeTown         62605.750
       404   09 Jun 2027 10:18:58.284   09 Jun 2027 10:27:59.718           541.434                 Moscow         67679.250
       405   09 Jun 2027 10:28:07.874   09 Jun 2027 10:32:36.108           268.234              Murmansk2         33529.250
       406   09 Jun 2027 10:33:23.672   09 Jun 2027 10:34:32.364            68.692              Murmansk2          8586.500
       407   09 Jun 2027 10:36:56.956   09 Jun 2027 10:41:16.869           259.913                Anadyr2         32489.125
       408   09 Jun 2027 10:42:02.780   09 Jun 2027 10:45:13.272           190.492                Anadyr1         23811.500
       409   09 Jun 2027 12:01:08.888   09 Jun 2027 12:02:37.579            88.691              Murmansk2         11086.375
       410   09 Jun 2027 12:03:29.009   09 Jun 2027 12:04:14.978            45.969              Murmansk2          5746.125
       411   09 Jun 2027 12:16:24.981   09 Jun 2027 12:19:54.760           209.779               Magadan2         26222.375
       412   09 Jun 2027 13:50:36.783   09 Jun 2027 13:52:00.125            83.342               Magadan1         10417.750
       413   09 Jun 2027 13:53:46.582   09 Jun 2027 13:55:12.724            86.142               Magadan2         10767.750
       414   09 Jun 2027 15:32:53.482   09 Jun 2027 15:35:14.986           141.504                Irkutsk         17688.000
       415   09 Jun 2027 16:18:19.988   09 Jun 2027 16:19:45.973            85.985            RioGallegos         10748.125
       416   09 Jun 2027 16:21:10.695   09 Jun 2027 16:22:13.214            62.519            RioGallegos          7814.875
       417   09 Jun 2027 17:05:59.360   09 Jun 2027 17:07:52.180           112.820                Irkutsk         14102.500
       418   09 Jun 2027 17:08:21.357   09 Jun 2027 17:11:03.946           162.589                Novosib         20323.625
       419   09 Jun 2027 17:11:50.182   09 Jun 2027 17:14:33.730           163.548                Novosib         20443.500
       420   09 Jun 2027 18:46:26.729   09 Jun 2027 18:46:59.622            32.893                Novosib          4111.625
       421   09 Jun 2027 18:48:37.585   09 Jun 2027 18:49:45.252            67.667                Novosib          8458.375
       422   09 Jun 2027 18:51:40.314   09 Jun 2027 18:53:46.869           126.555                  Delhi         15819.375
       423   09 Jun 2027 20:20:35.475   09 Jun 2027 20:24:28.526           233.051                 Moscow         29131.375
       424   09 Jun 2027 22:19:22.747   09 Jun 2027 22:19:57.999            35.252               CapeTown           255.750
       425   10 Jun 2027 04:16:12.936   10 Jun 2027 04:17:08.333            55.397                Norilsk          6924.625
       426   10 Jun 2027 04:17:16.170   10 Jun 2027 04:17:18.276             2.106                Novosib           263.250
       427   10 Jun 2027 04:17:28.034   10 Jun 2027 04:19:06.853            98.819              Murmansk1         12352.375
       428   10 Jun 2027 05:25:38.064   10 Jun 2027 05:27:58.158           140.094                Sumatra         17511.750
       429   10 Jun 2027 05:36:14.312   10 Jun 2027 05:39:05.500           171.188                  Delhi         21398.500
       430   10 Jun 2027 05:52:05.320   10 Jun 2027 05:54:30.270           144.950              Murmansk2         18118.750
       431   10 Jun 2027 05:54:46.967   10 Jun 2027 05:57:00.329           133.362                Norilsk         16670.250
       432   10 Jun 2027 06:31:13.747   10 Jun 2027 06:31:48.207            34.460            RioGallegos          4307.500
       433   10 Jun 2027 06:32:16.753   10 Jun 2027 06:32:56.705            39.952            RioGallegos          4994.000
       434   10 Jun 2027 06:33:43.999   10 Jun 2027 06:34:16.130            32.131            RioGallegos          4016.375
       435   10 Jun 2027 06:35:30.713   10 Jun 2027 06:36:33.755            63.042            RioGallegos          7880.250
       436   10 Jun 2027 07:05:42.074   10 Jun 2027 07:08:32.699           170.625                Sumatra         21328.125
       437   10 Jun 2027 07:09:51.161   10 Jun 2027 07:11:29.510            98.349                  Delhi         12293.625
       438   10 Jun 2027 07:12:58.609   10 Jun 2027 07:13:59.908            61.299                  Delhi          7662.375
       439   10 Jun 2027 07:16:59.966   10 Jun 2027 07:18:24.789            84.823                  Delhi         10602.875
       440   10 Jun 2027 07:19:40.868   10 Jun 2027 07:21:47.996           127.128                Novosib         15891.000
       441   10 Jun 2027 07:21:50.665   10 Jun 2027 07:23:51.720           121.055                Irkutsk         15131.875
       442   10 Jun 2027 07:27:52.342   10 Jun 2027 07:28:20.039            27.697                Norilsk          3462.125
       443   10 Jun 2027 07:28:21.155   10 Jun 2027 07:29:11.636            50.481                Novosib          6310.125
       444   10 Jun 2027 07:29:35.563   10 Jun 2027 07:32:11.398           155.835              Murmansk2         19479.375
       445   10 Jun 2027 07:34:40.925   10 Jun 2027 07:34:43.539             2.614              Murmansk1           326.750
       446   10 Jun 2027 08:54:14.526   10 Jun 2027 08:55:02.713            48.187                 Moscow          6023.375
       447   10 Jun 2027 09:04:08.690   10 Jun 2027 09:08:41.499           272.809                Norilsk         34101.125
       448   10 Jun 2027 09:08:47.863   10 Jun 2027 09:10:35.760           107.897              Murmansk2         13487.125
       449   10 Jun 2027 10:09:06.177   10 Jun 2027 10:18:19.988           553.811               CapeTown         69226.375
       450   10 Jun 2027 10:31:20.699   10 Jun 2027 10:38:04.297           403.598                 Moscow         50449.750
       451   10 Jun 2027 10:38:12.059   10 Jun 2027 10:38:18.155             6.096                 Moscow           762.000
       452   10 Jun 2027 10:38:57.411   10 Jun 2027 10:44:33.200           335.789              Murmansk2         41973.625
       453   10 Jun 2027 10:46:26.169   10 Jun 2027 10:46:33.750             7.581              Murmansk2           947.625
       454   10 Jun 2027 10:48:49.044   10 Jun 2027 10:57:52.507           543.463                Anadyr1         67932.875
       455   10 Jun 2027 12:13:43.667   10 Jun 2027 12:16:18.349           154.682              Murmansk2         19335.250
       456   10 Jun 2027 12:16:18.349   10 Jun 2027 12:17:48.330            89.981              Murmansk1         11247.625
       457   10 Jun 2027 12:24:17.232   10 Jun 2027 12:24:59.078            41.846                Anadyr1          5230.750
       458   10 Jun 2027 12:26:58.767   10 Jun 2027 12:27:36.532            37.765                Anadyr1          4720.625
       459   10 Jun 2027 12:27:55.919   10 Jun 2027 12:31:46.520           230.601               Magadan1         28825.125
       460   10 Jun 2027 14:05:46.516   10 Jun 2027 14:07:13.026            86.510               Magadan2         10813.750
       461   10 Jun 2027 15:43:58.159   10 Jun 2027 15:47:17.846           199.687                Irkutsk         24960.875
       462   10 Jun 2027 15:47:54.448   10 Jun 2027 15:50:21.638           147.190                Irkutsk         18398.750
       463   10 Jun 2027 16:00:33.838   10 Jun 2027 16:01:25.927            52.089                Sumatra          6511.125
       464   10 Jun 2027 17:17:55.869   10 Jun 2027 17:18:04.974             9.105                Irkutsk          1138.125
       465   10 Jun 2027 17:19:00.497   10 Jun 2027 17:22:56.365           235.868                Novosib         29483.500
       466   10 Jun 2027 17:37:00.152   10 Jun 2027 17:37:00.654             0.502                Sumatra            62.750
       467   10 Jun 2027 17:40:35.797   10 Jun 2027 17:41:13.696            37.899                Sumatra          4737.375
       468   10 Jun 2027 18:57:57.954   10 Jun 2027 18:58:54.604            56.650                Novosib          7081.250
       469   10 Jun 2027 19:01:13.397   10 Jun 2027 19:04:52.980           219.583                  Delhi         27447.875
       470   10 Jun 2027 19:10:24.858   10 Jun 2027 19:10:43.230            18.372                  Delhi          2296.500
       471   10 Jun 2027 20:31:29.708   10 Jun 2027 20:32:01.280            31.572              Murmansk2          3946.500
       472   10 Jun 2027 20:32:17.508   10 Jun 2027 20:33:02.241            44.733                 Moscow          5591.625
       473   10 Jun 2027 20:34:19.907   10 Jun 2027 20:36:22.501           122.594                 Moscow         14563.375
       474   11 Jun 2027 04:28:04.740   11 Jun 2027 04:28:06.778             2.038                Irkutsk           254.750
       475   11 Jun 2027 04:28:07.558   11 Jun 2027 04:28:27.113            19.555                Novosib          2444.375
       476   11 Jun 2027 04:28:29.749   11 Jun 2027 04:31:30.193           180.444                Norilsk         22555.500
       477   11 Jun 2027 05:37:38.080   11 Jun 2027 05:39:59.084           141.004                Sumatra         17625.500
       478   11 Jun 2027 05:47:34.288   11 Jun 2027 05:48:04.865            30.577                  Delhi          3822.125
       479   11 Jun 2027 05:50:45.662   11 Jun 2027 05:53:45.566           179.904                  Delhi         22488.000
       480   11 Jun 2027 06:03:15.070   11 Jun 2027 06:03:45.160            30.090              Murmansk2          3761.250
       481   11 Jun 2027 06:04:08.735   11 Jun 2027 06:05:36.318            87.583                Novosib         10947.875
       482   11 Jun 2027 06:05:38.869   11 Jun 2027 06:06:07.564            28.695                 Moscow          3586.875
