uniorb/output/strategy_4/Drop/Drop_KinoSat_111110.txt

KinoSat_111110
-------------------------
    Access    *     Start Time (UTCG)     *     Stop Time (UTCG)  *   Duration (s)        *       Station  *  Data (Mbytes)
         1   01 Jun 2027 04:12:46.222   01 Jun 2027 04:13:05.682            19.460               Magadan2           608.125
         2   01 Jun 2027 04:13:07.901   01 Jun 2027 04:13:31.568            23.667               Magadan1           739.594
         3   01 Jun 2027 04:14:53.444   01 Jun 2027 04:15:45.680            52.236               Magadan2          1632.375
         4   01 Jun 2027 04:15:45.680   01 Jun 2027 04:16:12.013            26.333               Magadan1           822.906
         5   01 Jun 2027 04:16:53.893   01 Jun 2027 04:16:55.923             2.030                Anadyr1            63.437
         6   01 Jun 2027 05:49:56.971   01 Jun 2027 05:54:00.169           243.198                Anadyr1          7599.938
         7   01 Jun 2027 07:23:04.474   01 Jun 2027 07:23:17.047            12.573               Magadan2           392.906
         8   01 Jun 2027 07:23:17.047   01 Jun 2027 07:23:25.167             8.120               Magadan1           253.750
         9   01 Jun 2027 07:23:37.553   01 Jun 2027 07:24:06.043            28.490               Magadan2           890.313
        10   01 Jun 2027 07:24:06.969   01 Jun 2027 07:25:01.023            54.054                Norilsk          1689.187
        11   01 Jun 2027 07:25:14.175   01 Jun 2027 07:27:28.458           134.283                Anadyr2          4196.344
        12   01 Jun 2027 07:27:28.458   01 Jun 2027 07:28:29.929            61.471                Anadyr1          1920.969
        13   01 Jun 2027 07:28:34.620   01 Jun 2027 07:30:08.311            93.691                Novosib          2927.844
        14   01 Jun 2027 07:30:30.507   01 Jun 2027 07:30:46.145            15.638              Murmansk2           488.688
        15   01 Jun 2027 07:31:03.934   01 Jun 2027 07:32:00.126            56.192              Murmansk2          1756.000
        16   01 Jun 2027 08:04:30.706   01 Jun 2027 08:04:59.538            28.832            RioGallegos           901.000
        17   01 Jun 2027 08:41:18.041   01 Jun 2027 08:41:33.868            15.827                Sumatra           494.594
        18   01 Jun 2027 09:00:34.298   01 Jun 2027 09:00:52.042            17.744               Magadan2           554.500
        19   01 Jun 2027 09:02:13.277   01 Jun 2027 09:05:37.049           203.772                Novosib          6367.875
        20   01 Jun 2027 09:05:56.136   01 Jun 2027 09:06:18.323            22.187                Novosib           693.344
        21   01 Jun 2027 09:06:25.110   01 Jun 2027 09:06:39.029            13.919              Murmansk1           434.969
        22   01 Jun 2027 09:06:41.029   01 Jun 2027 09:07:10.505            29.476                Norilsk           921.125
        23   01 Jun 2027 09:09:58.172   01 Jun 2027 09:10:48.560            50.388              Murmansk2          1574.625
        24   01 Jun 2027 09:41:09.342   01 Jun 2027 09:41:37.871            28.529            RioGallegos           891.531
        25   01 Jun 2027 09:42:42.483   01 Jun 2027 09:43:14.275            31.792            RioGallegos           993.500
        26   01 Jun 2027 09:44:29.749   01 Jun 2027 09:44:59.624            29.875            RioGallegos           933.594
        27   01 Jun 2027 10:15:11.991   01 Jun 2027 10:15:44.683            32.692                Sumatra          1021.625
        28   01 Jun 2027 10:17:17.146   01 Jun 2027 10:18:02.749            45.603                Sumatra          1425.094
        29   01 Jun 2027 10:19:56.002   01 Jun 2027 10:20:48.715            52.713                Sumatra          1647.281
        30   01 Jun 2027 10:36:22.912   01 Jun 2027 10:37:24.624            61.712                Irkutsk          1928.500
        31   01 Jun 2027 10:37:27.848   01 Jun 2027 10:37:51.737            23.889                Irkutsk           746.531
        32   01 Jun 2027 10:39:13.959   01 Jun 2027 10:41:16.092           122.133              Murmansk1          3816.656
        33   01 Jun 2027 10:41:30.812   01 Jun 2027 10:42:58.369            87.557                Novosib          2736.156
        34   01 Jun 2027 11:59:49.358   01 Jun 2027 12:01:14.220            84.862                  Delhi          2651.938
        35   01 Jun 2027 12:08:00.426   01 Jun 2027 12:08:28.726            28.300                Novosib           884.375
        36   01 Jun 2027 12:08:47.413   01 Jun 2027 12:09:33.193            45.780                 Moscow          1430.625
        37   01 Jun 2027 12:09:39.524   01 Jun 2027 12:10:11.515            31.991                Novosib           999.719
        38   01 Jun 2027 12:11:27.232   01 Jun 2027 12:11:31.100             3.868              Murmansk1           120.875
        39   01 Jun 2027 12:11:50.337   01 Jun 2027 12:12:49.512            59.175              Murmansk1          1849.219
        40   01 Jun 2027 12:12:51.754   01 Jun 2027 12:13:05.953            14.199                Norilsk           443.719
        41   01 Jun 2027 12:15:06.106   01 Jun 2027 12:15:09.813             3.707                Norilsk           115.844
        42   01 Jun 2027 13:43:41.402   01 Jun 2027 13:45:48.988           127.586                 Moscow          3987.062
        43   01 Jun 2027 13:46:17.587   01 Jun 2027 13:46:54.627            37.040                 Moscow          1157.500
        44   01 Jun 2027 13:47:12.399   01 Jun 2027 13:48:22.358            69.959              Murmansk1          2186.219
        45   01 Jun 2027 13:48:39.660   01 Jun 2027 13:49:18.726            39.066              Murmansk2          1220.812
        46   01 Jun 2027 13:50:27.845   01 Jun 2027 13:51:24.742            56.897              Murmansk2          1778.031
        47   01 Jun 2027 13:52:34.885   01 Jun 2027 13:53:46.700            71.815                Norilsk          2244.219
        48   01 Jun 2027 13:54:46.579   01 Jun 2027 13:54:55.785             9.206                Norilsk           287.688
        49   01 Jun 2027 13:56:34.328   01 Jun 2027 13:56:40.518             6.190                Norilsk           193.437
        50   01 Jun 2027 14:58:25.122   01 Jun 2027 14:58:41.886            16.764               CapeTown           523.875
        51   01 Jun 2027 14:59:35.118   01 Jun 2027 15:00:27.979            52.861               CapeTown          1651.906
        52   01 Jun 2027 15:01:09.421   01 Jun 2027 15:01:38.565            29.144               CapeTown           910.750
        53   01 Jun 2027 15:07:09.856   01 Jun 2027 15:08:14.915            65.059               CapeTown          2033.094
        54   01 Jun 2027 15:26:28.526   01 Jun 2027 15:26:38.542            10.016                 Moscow           313.000
        55   01 Jun 2027 15:26:51.406   01 Jun 2027 15:26:56.809             5.403                 Moscow           168.844
        56   01 Jun 2027 15:27:04.407   01 Jun 2027 15:27:11.147             6.740              Murmansk2           210.625
        57   01 Jun 2027 15:28:31.380   01 Jun 2027 15:28:43.022            11.642              Murmansk2           363.812
        58   01 Jun 2027 15:29:10.052   01 Jun 2027 15:29:58.458            48.406              Murmansk2          1512.688
        59   01 Jun 2027 15:38:00.953   01 Jun 2027 15:40:10.415           129.462                Anadyr1          4045.687
        60   01 Jun 2027 15:43:12.140   01 Jun 2027 15:43:27.432            15.292                Anadyr1           477.875
        61   01 Jun 2027 15:43:35.089   01 Jun 2027 15:44:20.795            45.706                Anadyr1          1428.313
        62   01 Jun 2027 16:43:58.127   01 Jun 2027 16:44:36.507            38.380               CapeTown          1199.375
        63   01 Jun 2027 17:04:46.816   01 Jun 2027 17:07:55.249           188.433              Murmansk2          5888.531
        64   01 Jun 2027 17:08:29.646   01 Jun 2027 17:09:22.296            52.650              Murmansk2          1645.312
        65   01 Jun 2027 17:16:40.998   01 Jun 2027 17:18:24.846           103.848               Magadan2          3245.250
        66   01 Jun 2027 17:24:00.534   01 Jun 2027 17:24:28.083            27.549               Magadan2           860.906
        67   01 Jun 2027 17:25:50.876   01 Jun 2027 17:26:11.128            20.252               Magadan2           632.875
        68   01 Jun 2027 18:49:38.276   01 Jun 2027 18:53:31.827           233.551                Anadyr1          7298.469
        69   01 Jun 2027 18:53:52.361   01 Jun 2027 18:54:54.474            62.113               Magadan2          1941.031
        70   01 Jun 2027 18:56:34.947   01 Jun 2027 18:57:12.026            37.079               Magadan2          1158.719
        71   01 Jun 2027 18:57:47.588   01 Jun 2027 18:58:03.869            16.281               Magadan1           508.781
        72   01 Jun 2027 18:59:07.689   01 Jun 2027 19:00:03.258            55.569               Magadan1          1736.531
        73   01 Jun 2027 19:03:40.161   01 Jun 2027 19:04:13.518            33.357               Magadan1          1042.406
        74   01 Jun 2027 19:45:20.119   01 Jun 2027 19:47:55.679           155.560            RioGallegos          4861.250
        75   01 Jun 2027 20:25:25.482   01 Jun 2027 20:25:52.658            27.176                Anadyr1           849.250
        76   01 Jun 2027 20:27:04.247   01 Jun 2027 20:27:09.935             5.688                Anadyr1           177.750
        77   01 Jun 2027 20:27:34.886   01 Jun 2027 20:29:50.474           135.588                Norilsk          4237.125
        78   01 Jun 2027 20:30:24.419   01 Jun 2027 20:30:52.737            28.318                Norilsk           884.937
        79   01 Jun 2027 20:31:10.131   01 Jun 2027 20:31:23.663            13.532                Norilsk           422.875
        80   01 Jun 2027 20:32:18.993   01 Jun 2027 20:33:44.950            85.957                Irkutsk          2686.156
        81   01 Jun 2027 20:35:35.856   01 Jun 2027 20:35:40.492             4.636                Irkutsk           144.875
        82   01 Jun 2027 20:36:16.661   01 Jun 2027 20:36:53.805            37.144                Irkutsk          1160.750
        83   01 Jun 2027 20:37:47.511   01 Jun 2027 20:38:42.341            54.830                Irkutsk          1713.438
        84   01 Jun 2027 20:47:38.128   01 Jun 2027 20:49:32.407           114.279                Sumatra          3571.219
        85   01 Jun 2027 20:52:46.540   01 Jun 2027 20:53:03.097            16.557                Sumatra           517.406
        86   01 Jun 2027 22:03:23.010   01 Jun 2027 22:03:58.743            35.733                Norilsk          1116.656
        87   01 Jun 2027 22:03:59.158   01 Jun 2027 22:04:10.970            11.812               Magadan1           369.125
        88   01 Jun 2027 22:04:32.916   01 Jun 2027 22:05:12.053            39.137               Magadan1          1223.031
        89   01 Jun 2027 22:06:22.451   01 Jun 2027 22:06:38.278            15.827               Magadan1           494.594
        90   01 Jun 2027 22:06:53.599   01 Jun 2027 22:07:17.447            23.848               Magadan1           745.250
        91   01 Jun 2027 22:07:50.076   01 Jun 2027 22:08:14.163            24.087                Novosib           752.719
        92   01 Jun 2027 22:08:23.144   01 Jun 2027 22:09:01.058            37.914                Novosib          1184.812
        93   01 Jun 2027 22:11:47.008   01 Jun 2027 22:12:52.893            65.885                Novosib          2058.906
        94   01 Jun 2027 22:17:04.040   01 Jun 2027 22:17:17.841            13.801                Novosib           431.281
        95   01 Jun 2027 22:18:01.087   01 Jun 2027 22:19:25.126            84.039                  Delhi          2626.219
        96   01 Jun 2027 22:32:40.754   01 Jun 2027 22:33:19.385            38.631                Sumatra          1207.219
        97   01 Jun 2027 23:34:37.514   01 Jun 2027 23:35:30.064            52.550                Anadyr2          1642.187
        98   01 Jun 2027 23:35:30.064   01 Jun 2027 23:35:41.652            11.588                Anadyr1           362.125
        99   01 Jun 2027 23:38:33.260   01 Jun 2027 23:39:32.679            59.419                Anadyr2          1856.844
       100   01 Jun 2027 23:39:38.779   01 Jun 2027 23:39:53.876            15.097                Norilsk           471.781
       101   01 Jun 2027 23:39:54.566   01 Jun 2027 23:40:35.707            41.141               Magadan2          1285.656
       102   01 Jun 2027 23:41:12.330   01 Jun 2027 23:41:19.137             6.807               Magadan1           212.719
       103   01 Jun 2027 23:42:10.472   01 Jun 2027 23:44:01.228           110.756              Murmansk2          3461.125
       104   01 Jun 2027 23:44:51.724   01 Jun 2027 23:46:47.865           116.141              Murmansk2          3629.406
       105   01 Jun 2027 23:46:47.865   01 Jun 2027 23:46:54.006             6.141              Murmansk1           191.906
       106   01 Jun 2027 23:47:18.448   01 Jun 2027 23:48:10.620            52.172              Murmansk1          1630.375
       107   01 Jun 2027 23:59:57.252   02 Jun 2027 00:00:14.223            16.971                  Delhi           530.344
       108   02 Jun 2027 00:35:45.202   02 Jun 2027 00:36:45.533            60.331            RioGallegos          1885.344
       109   02 Jun 2027 01:07:54.737   02 Jun 2027 01:08:25.046            30.309                Anadyr1           947.156
       110   02 Jun 2027 01:08:25.720   02 Jun 2027 01:08:58.371            32.651                Anadyr2          1020.344
       111   02 Jun 2027 01:10:03.998   02 Jun 2027 01:10:39.542            35.544                Anadyr2          1110.750
       112   02 Jun 2027 01:10:42.517   02 Jun 2027 01:11:06.851            24.334                Anadyr1           760.438
       113   02 Jun 2027 01:13:50.174   02 Jun 2027 01:14:43.375            53.201               Magadan2          1662.531
       114   02 Jun 2027 01:14:43.375   02 Jun 2027 01:15:44.836            61.461               Magadan1          1920.656
       115   02 Jun 2027 01:17:32.816   02 Jun 2027 01:19:10.214            97.398              Murmansk2          3043.688
       116   02 Jun 2027 01:19:18.658   02 Jun 2027 01:20:01.715            43.057                Novosib          1345.531
       117   02 Jun 2027 01:22:10.654   02 Jun 2027 01:22:11.872             1.218              Murmansk2            38.063
       118   02 Jun 2027 01:23:14.694   02 Jun 2027 01:23:28.934            14.240              Murmansk2           445.000
       119   02 Jun 2027 01:25:11.187   02 Jun 2027 01:25:26.169            14.982              Murmansk2           468.187
       120   02 Jun 2027 01:26:47.180   02 Jun 2027 01:27:27.284            40.104                Novosib          1253.250
       121   02 Jun 2027 01:33:27.754   02 Jun 2027 01:33:40.256            12.502                  Delhi           390.688
       122   02 Jun 2027 01:46:54.059   02 Jun 2027 01:47:21.005            26.946               CapeTown           842.063
       123   02 Jun 2027 01:50:34.199   02 Jun 2027 01:51:11.208            37.009               CapeTown          1156.531
       124   02 Jun 2027 01:55:37.527   02 Jun 2027 01:55:58.622            21.095               CapeTown           659.219
       125   02 Jun 2027 02:41:51.372   02 Jun 2027 02:44:24.804           153.432                Anadyr1          4794.750
       126   02 Jun 2027 02:45:27.605   02 Jun 2027 02:45:40.376            12.771               Magadan1           399.094
       127   02 Jun 2027 02:46:27.445   02 Jun 2027 02:46:41.188            13.743               Magadan1           429.469
       128   02 Jun 2027 02:46:43.707   02 Jun 2027 02:46:46.343             2.636               Magadan1            82.375
       129   02 Jun 2027 02:47:15.385   02 Jun 2027 02:48:05.876            50.491               Magadan2          1577.844
       130   02 Jun 2027 02:53:29.034   02 Jun 2027 02:54:40.296            71.262              Murmansk2          2226.938
       131   02 Jun 2027 02:55:10.108   02 Jun 2027 02:55:25.053            14.945              Murmansk1           467.031
       132   02 Jun 2027 02:56:08.605   02 Jun 2027 02:56:45.388            36.783                Novosib          1149.469
       133   02 Jun 2027 02:59:06.926   02 Jun 2027 02:59:18.210            11.284                Novosib           352.625
       134   02 Jun 2027 03:00:21.663   02 Jun 2027 03:00:39.145            17.482                Novosib           546.313
       135   02 Jun 2027 03:00:43.765   02 Jun 2027 03:01:14.879            31.114              Murmansk2           972.313
       136   02 Jun 2027 03:01:14.879   02 Jun 2027 03:01:39.095            24.216              Murmansk1           756.750
       137   02 Jun 2027 03:01:46.473   02 Jun 2027 03:02:24.910            38.437                Norilsk          1201.156
       138   02 Jun 2027 03:03:02.802   02 Jun 2027 03:06:16.259           193.457              Murmansk1          6045.531
       139   02 Jun 2027 03:20:36.688   02 Jun 2027 03:22:58.344           141.656               CapeTown          4426.750
       140   02 Jun 2027 04:17:23.812   02 Jun 2027 04:20:14.422           170.610                Anadyr1          5331.562
       141   02 Jun 2027 04:23:55.130   02 Jun 2027 04:24:06.044            10.914               Magadan1           341.063
       142   02 Jun 2027 04:24:06.044   02 Jun 2027 04:24:13.502             7.458               Magadan2           233.062
       143   02 Jun 2027 04:24:32.864   02 Jun 2027 04:26:13.092           100.228                Anadyr1          3132.125
       144   02 Jun 2027 04:26:53.951   02 Jun 2027 04:27:53.529            59.578               Magadan1          1861.813
       145   02 Jun 2027 06:02:11.465   02 Jun 2027 06:02:16.344             4.879               Magadan2           152.469
       146   02 Jun 2027 06:02:29.598   02 Jun 2027 06:03:15.108            45.510                Irkutsk          1422.188
       147   02 Jun 2027 07:36:09.456   02 Jun 2027 07:37:47.973            98.517               Magadan2          3078.656
       148   02 Jun 2027 07:37:57.277   02 Jun 2027 07:38:26.749            29.472                Novosib           921.000
       149   02 Jun 2027 07:38:37.671   02 Jun 2027 07:39:37.986            60.315                Anadyr2          1884.844
       150   02 Jun 2027 07:39:43.787   02 Jun 2027 07:40:25.271            41.484                Irkutsk          1296.375
       151   02 Jun 2027 07:40:31.133   02 Jun 2027 07:40:43.926            12.793                Irkutsk           399.781
       152   02 Jun 2027 07:40:57.853   02 Jun 2027 07:41:21.266            23.413               Magadan1           731.656
       153   02 Jun 2027 08:16:23.119   02 Jun 2027 08:19:17.724           174.605            RioGallegos          5456.406
       154   02 Jun 2027 08:52:35.442   02 Jun 2027 08:53:43.915            68.473                Sumatra          2139.781
       155   02 Jun 2027 09:14:17.317   02 Jun 2027 09:14:31.273            13.956                Norilsk           436.125
       156   02 Jun 2027 09:14:38.716   02 Jun 2027 09:14:46.459             7.743                Irkutsk           241.969
       157   02 Jun 2027 09:14:57.982   02 Jun 2027 09:17:00.907           122.925                Irkutsk          3841.406
       158   02 Jun 2027 09:17:15.350   02 Jun 2027 09:17:34.625            19.275                Irkutsk           602.344
       159   02 Jun 2027 09:53:09.532   02 Jun 2027 09:53:46.060            36.528            RioGallegos          1141.500
       160   02 Jun 2027 09:54:02.513   02 Jun 2027 09:54:12.372             9.859            RioGallegos           308.094
       161   02 Jun 2027 09:57:14.818   02 Jun 2027 09:57:24.612             9.794            RioGallegos           306.062
       162   02 Jun 2027 10:27:26.625   02 Jun 2027 10:29:07.945           101.320                Sumatra          3166.250
       163   02 Jun 2027 10:36:49.852   02 Jun 2027 10:38:15.372            85.520                  Delhi          2672.500
       164   02 Jun 2027 10:48:32.527   02 Jun 2027 10:49:19.177            46.650                Irkutsk          1457.813
       165   02 Jun 2027 10:50:24.784   02 Jun 2027 10:50:35.466            10.682                Irkutsk           333.812
       166   02 Jun 2027 10:50:38.632   02 Jun 2027 10:50:48.391             9.759                Novosib           304.969
       167   02 Jun 2027 10:50:50.363   02 Jun 2027 10:51:17.506            27.143                Norilsk           848.219
       168   02 Jun 2027 10:51:32.631   02 Jun 2027 10:51:40.522             7.891                Irkutsk           246.594
       169   02 Jun 2027 10:51:51.597   02 Jun 2027 10:52:28.156            36.559                Novosib          1142.469
       170   02 Jun 2027 10:52:36.178   02 Jun 2027 10:52:42.573             6.395                Irkutsk           199.844
       171   02 Jun 2027 12:12:15.557   02 Jun 2027 12:15:53.768           218.211                  Delhi          6819.094
       172   02 Jun 2027 12:20:36.353   02 Jun 2027 12:20:45.600             9.247                Novosib           288.969
       173   02 Jun 2027 12:21:41.978   02 Jun 2027 12:22:10.715            28.737                Novosib           898.031
       174   02 Jun 2027 12:23:36.949   02 Jun 2027 12:24:10.673            33.724                Novosib          1053.875
       175   02 Jun 2027 12:25:08.156   02 Jun 2027 12:25:46.105            37.949                Norilsk          1185.906
       176   02 Jun 2027 13:55:47.814   02 Jun 2027 13:58:58.040           190.226                 Moscow          5944.562
       177   02 Jun 2027 13:59:19.367   02 Jun 2027 14:00:40.809            81.442              Murmansk2          2545.063
       178   02 Jun 2027 14:00:40.809   02 Jun 2027 14:01:04.599            23.790              Murmansk1           743.437
       179   02 Jun 2027 14:01:16.022   02 Jun 2027 14:01:48.242            32.220              Murmansk2          1006.875
       180   02 Jun 2027 14:02:29.638   02 Jun 2027 14:02:49.825            20.187              Murmansk1           630.844
       181   02 Jun 2027 14:05:20.747   02 Jun 2027 14:06:25.024            64.277              Murmansk1          2008.656
       182   02 Jun 2027 14:06:57.947   02 Jun 2027 14:07:44.277            46.330                Norilsk          1447.812
       183   02 Jun 2027 14:15:45.065   02 Jun 2027 14:16:28.841            43.776                Anadyr1          1368.000
       184   02 Jun 2027 14:17:00.400   02 Jun 2027 14:19:03.727           123.327                Anadyr2          3853.969
       185   02 Jun 2027 15:35:14.114   02 Jun 2027 15:35:46.740            32.626                 Moscow          1019.562
       186   02 Jun 2027 15:37:06.932   02 Jun 2027 15:37:51.283            44.351              Murmansk1          1385.969
       187   02 Jun 2027 15:38:26.345   02 Jun 2027 15:38:43.293            16.948              Murmansk2           529.625
       188   02 Jun 2027 15:46:29.230   02 Jun 2027 15:47:01.178            31.948              Murmansk2           998.375
       189   02 Jun 2027 15:49:58.553   02 Jun 2027 15:52:19.319           140.766                Anadyr1          4398.937
       190   02 Jun 2027 15:55:28.519   02 Jun 2027 15:55:40.011            11.492                Anadyr1           359.125
       191   02 Jun 2027 16:46:18.986   02 Jun 2027 16:47:05.127            46.141               CapeTown          1441.906
       192   02 Jun 2027 16:56:06.810   02 Jun 2027 16:56:37.364            30.554               CapeTown           954.812
       193   02 Jun 2027 17:17:36.446   02 Jun 2027 17:18:26.173            49.727              Murmansk1          1553.969
       194   02 Jun 2027 17:18:26.173   02 Jun 2027 17:19:51.712            85.539              Murmansk2          2673.094
       195   02 Jun 2027 17:20:31.654   02 Jun 2027 17:22:08.102            96.448              Murmansk1          3014.000
       196   02 Jun 2027 17:25:43.845   02 Jun 2027 17:26:12.154            28.309                Anadyr2           884.656
       197   02 Jun 2027 17:26:29.428   02 Jun 2027 17:26:54.296            24.868                Anadyr1           777.125
       198   02 Jun 2027 17:28:32.123   02 Jun 2027 17:30:40.681           128.558               Magadan1          4017.438
       199   02 Jun 2027 19:01:39.485   02 Jun 2027 19:03:37.357           117.872                Anadyr2          3683.500
       200   02 Jun 2027 19:03:37.574   02 Jun 2027 19:05:32.497           114.923                Anadyr1          3591.344
       201   02 Jun 2027 19:05:59.183   02 Jun 2027 19:07:36.015            96.832               Magadan2          3026.000
       202   02 Jun 2027 19:08:15.585   02 Jun 2027 19:08:30.141            14.556               Magadan1           454.875
       203   02 Jun 2027 19:14:23.977   02 Jun 2027 19:14:37.369            13.392               Magadan1           418.500
       204   02 Jun 2027 19:56:50.706   02 Jun 2027 19:59:58.989           188.283            RioGallegos          5883.844
       205   02 Jun 2027 20:03:33.841   02 Jun 2027 20:03:35.855             2.014            RioGallegos            62.938
       206   02 Jun 2027 20:37:24.044   02 Jun 2027 20:37:54.365            30.321                Anadyr1           947.531
       207   02 Jun 2027 20:39:52.949   02 Jun 2027 20:43:23.920           210.971                Norilsk          6592.844
       208   02 Jun 2027 20:44:04.880   02 Jun 2027 20:44:36.373            31.493                Irkutsk           984.156
       209   02 Jun 2027 20:44:38.102   02 Jun 2027 20:44:43.310             5.208                Irkutsk           162.750
       210   02 Jun 2027 20:45:44.673   02 Jun 2027 20:46:50.742            66.069                Irkutsk          2064.656
       211   02 Jun 2027 20:47:27.820   02 Jun 2027 20:47:53.624            25.804                Irkutsk           806.375
       212   02 Jun 2027 20:54:16.925   02 Jun 2027 20:54:29.284            12.359                Irkutsk           386.219
       213   02 Jun 2027 20:58:18.840   02 Jun 2027 21:01:18.021           179.181                Sumatra          5599.406
       214   02 Jun 2027 22:16:01.811   02 Jun 2027 22:16:15.347            13.536               Magadan2           423.000
       215   02 Jun 2027 22:16:57.358   02 Jun 2027 22:17:23.378            26.020               Magadan2           813.125
       216   02 Jun 2027 22:18:14.569   02 Jun 2027 22:18:40.574            26.005                Norilsk           812.656
       217   02 Jun 2027 22:19:11.796   02 Jun 2027 22:19:21.960            10.164               Magadan2           317.625
       218   02 Jun 2027 22:19:23.461   02 Jun 2027 22:19:56.769            33.308                Irkutsk          1040.875
       219   02 Jun 2027 22:19:59.990   02 Jun 2027 22:20:50.624            50.634                Novosib          1582.312
       220   02 Jun 2027 22:23:10.178   02 Jun 2027 22:24:49.455            99.277                Novosib          3102.406
       221   02 Jun 2027 22:29:31.494   02 Jun 2027 22:30:54.342            82.848                  Delhi          2589.000
       222   02 Jun 2027 22:32:50.561   02 Jun 2027 22:34:34.567           104.006                  Delhi          3250.187
       223   02 Jun 2027 23:51:25.023   02 Jun 2027 23:52:48.656            83.633                Norilsk          2613.531
       224   02 Jun 2027 23:52:59.902   02 Jun 2027 23:53:11.338            11.436                Norilsk           357.375
       225   02 Jun 2027 23:53:50.907   02 Jun 2027 23:53:58.689             7.782               Magadan1           243.188
       226   02 Jun 2027 23:54:01.886   02 Jun 2027 23:56:01.650           119.764              Murmansk1          3742.625
       227   02 Jun 2027 23:56:32.066   02 Jun 2027 23:58:46.898           134.832              Murmansk2          4213.500
       228   03 Jun 2027 00:10:22.366   03 Jun 2027 00:10:58.889            36.523                  Delhi          1141.344
       229   03 Jun 2027 00:45:43.567   03 Jun 2027 00:45:49.144             5.577            RioGallegos           174.281
       230   03 Jun 2027 00:45:57.909   03 Jun 2027 00:46:30.714            32.805            RioGallegos          1025.156
       231   03 Jun 2027 01:19:37.502   03 Jun 2027 01:20:12.269            34.767                Anadyr2          1086.469
       232   03 Jun 2027 01:20:49.943   03 Jun 2027 01:20:58.289             8.346                Anadyr1           260.812
       233   03 Jun 2027 01:21:24.066   03 Jun 2027 01:22:24.171            60.105                Anadyr1          1878.281
       234   03 Jun 2027 01:24:47.553   03 Jun 2027 01:25:09.767            22.214                Anadyr1           694.188
       235   03 Jun 2027 01:25:20.820   03 Jun 2027 01:25:52.468            31.648               Magadan1           989.000
       236   03 Jun 2027 01:26:06.647   03 Jun 2027 01:27:37.112            90.465               Magadan2          2827.031
       237   03 Jun 2027 01:29:33.620   03 Jun 2027 01:30:43.327            69.707              Murmansk2          2178.344
       238   03 Jun 2027 01:31:16.522   03 Jun 2027 01:31:32.038            15.516              Murmansk1           484.875
       239   03 Jun 2027 01:32:33.737   03 Jun 2027 01:34:38.182           124.445                Novosib          3888.906
       240   03 Jun 2027 01:43:48.980   03 Jun 2027 01:43:55.688             6.708                 Moscow           209.625
       241   03 Jun 2027 01:58:17.382   03 Jun 2027 01:59:00.928            43.546               CapeTown          1360.813
       242   03 Jun 2027 02:03:33.390   03 Jun 2027 02:03:59.062            25.672               CapeTown           802.250
       243   03 Jun 2027 02:05:11.839   03 Jun 2027 02:05:59.416            47.577               CapeTown          1486.781
       244   03 Jun 2027 02:53:43.779   03 Jun 2027 02:55:02.291            78.512                Anadyr1          2453.500
       245   03 Jun 2027 02:56:37.357   03 Jun 2027 02:56:44.899             7.542                Anadyr1           235.687
       246   03 Jun 2027 02:56:53.297   03 Jun 2027 02:56:58.285             4.988                Anadyr1           155.875
       247   03 Jun 2027 02:56:59.135   03 Jun 2027 02:58:06.799            67.664               Magadan1          2114.500
       248   03 Jun 2027 02:58:11.054   03 Jun 2027 02:58:29.416            18.362               Magadan1           573.812
       249   03 Jun 2027 03:13:45.670   03 Jun 2027 03:14:47.603            61.933                 Moscow          1935.406
       250   03 Jun 2027 03:15:32.678   03 Jun 2027 03:16:44.478            71.800              Murmansk1          2243.750
       251   03 Jun 2027 03:18:12.388   03 Jun 2027 03:18:19.459             7.071                 Moscow           220.969
       252   03 Jun 2027 03:32:45.147   03 Jun 2027 03:34:46.163           121.016               CapeTown          3781.750
       253   03 Jun 2027 04:29:30.921   03 Jun 2027 04:31:18.170           107.249                Anadyr1          3351.531
       254   03 Jun 2027 04:31:19.577   03 Jun 2027 04:33:21.041           121.464                Anadyr2          3795.750
       255   03 Jun 2027 04:33:27.298   03 Jun 2027 04:34:08.807            41.509               Magadan2          1297.156
       256   03 Jun 2027 04:35:52.639   03 Jun 2027 04:37:59.981           127.342               Magadan2          3979.438
       257   03 Jun 2027 04:38:10.921   03 Jun 2027 04:38:42.398            31.477               Magadan2           983.656
       258   03 Jun 2027 06:13:36.229   03 Jun 2027 06:13:40.446             4.217                Anadyr1           131.781
       259   03 Jun 2027 06:13:49.222   03 Jun 2027 06:14:03.395            14.173               Magadan2           442.906
       260   03 Jun 2027 06:14:06.813   03 Jun 2027 06:14:14.698             7.885               Magadan1           246.406
       261   03 Jun 2027 06:14:14.698   03 Jun 2027 06:14:23.199             8.501               Magadan2           265.656
       262   03 Jun 2027 06:14:39.321   03 Jun 2027 06:16:02.018            82.697               Magadan2          2584.281
       263   03 Jun 2027 06:17:16.197   03 Jun 2027 06:17:38.180            21.983                Anadyr2           686.969
       264   03 Jun 2027 07:47:11.190   03 Jun 2027 07:47:19.541             8.351               Magadan2           260.969
       265   03 Jun 2027 07:48:12.872   03 Jun 2027 07:48:17.260             4.388               Magadan2           137.125
       266   03 Jun 2027 07:48:22.341   03 Jun 2027 07:48:58.465            36.124               Magadan1          1128.875
       267   03 Jun 2027 07:49:45.274   03 Jun 2027 07:50:21.259            35.985               Magadan1          1124.531
       268   03 Jun 2027 07:50:48.633   03 Jun 2027 07:51:59.629            70.996               Magadan1          2218.625
       269   03 Jun 2027 07:52:12.457   03 Jun 2027 07:52:55.595            43.138               Magadan1          1348.062
       270   03 Jun 2027 07:53:11.830   03 Jun 2027 07:53:19.771             7.941               Magadan2           248.156
       271   03 Jun 2027 07:57:04.184   03 Jun 2027 07:57:26.406            22.222              Murmansk1           694.438
       272   03 Jun 2027 08:28:18.719   03 Jun 2027 08:29:20.381            61.662            RioGallegos          1926.938
       273   03 Jun 2027 09:04:04.725   03 Jun 2027 09:04:38.013            33.288                Sumatra          1040.250
       274   03 Jun 2027 09:05:29.905   03 Jun 2027 09:06:00.485            30.580                Sumatra           955.625
       275   03 Jun 2027 09:10:08.843   03 Jun 2027 09:10:26.726            17.883                Sumatra           558.844
       276   03 Jun 2027 09:23:49.038   03 Jun 2027 09:23:54.692             5.654                Irkutsk           176.688
       277   03 Jun 2027 09:24:47.746   03 Jun 2027 09:25:12.598            24.852                Novosib           776.625
       278   03 Jun 2027 09:26:01.933   03 Jun 2027 09:26:22.614            20.681                Irkutsk           646.281
       279   03 Jun 2027 09:27:05.248   03 Jun 2027 09:27:59.141            53.893                Novosib          1684.156
       280   03 Jun 2027 09:28:22.199   03 Jun 2027 09:28:48.223            26.024                Novosib           813.250
       281   03 Jun 2027 09:29:25.156   03 Jun 2027 09:29:34.846             9.690                Irkutsk           302.813
       282   03 Jun 2027 10:05:35.773   03 Jun 2027 10:06:21.165            45.392            RioGallegos          1418.500
       283   03 Jun 2027 10:07:01.705   03 Jun 2027 10:07:23.309            21.604            RioGallegos           675.125
       284   03 Jun 2027 10:39:48.629   03 Jun 2027 10:41:04.553            75.924                Sumatra          2372.625
       285   03 Jun 2027 10:54:40.443   03 Jun 2027 10:55:37.020            56.577                  Delhi          1768.031
       286   03 Jun 2027 11:02:13.275   03 Jun 2027 11:02:22.675             9.400                Novosib           293.750
       287   03 Jun 2027 11:02:33.297   03 Jun 2027 11:03:39.355            66.058                Irkutsk          2064.313
       288   03 Jun 2027 11:04:01.180   03 Jun 2027 11:04:40.701            39.521                Novosib          1235.031
       289   03 Jun 2027 11:04:52.688   03 Jun 2027 11:04:56.596             3.908                Norilsk           122.125
       290   03 Jun 2027 11:04:57.195   03 Jun 2027 11:05:14.309            17.114                Novosib           534.813
       291   03 Jun 2027 12:24:51.076   03 Jun 2027 12:27:38.045           166.969                  Delhi          5217.781
       292   03 Jun 2027 12:33:43.870   03 Jun 2027 12:34:17.899            34.029                Novosib          1063.406
       293   03 Jun 2027 12:35:19.049   03 Jun 2027 12:35:34.437            15.388              Murmansk2           480.875
       294   03 Jun 2027 12:35:41.032   03 Jun 2027 12:35:48.483             7.451                Novosib           232.844
       295   03 Jun 2027 12:36:14.379   03 Jun 2027 12:36:52.482            38.103              Murmansk2          1190.719
       296   03 Jun 2027 12:36:53.247   03 Jun 2027 12:37:43.143            49.896                Norilsk          1559.250
       297   03 Jun 2027 14:07:57.381   03 Jun 2027 14:09:41.115           103.734                 Moscow          3241.687
       298   03 Jun 2027 14:11:28.071   03 Jun 2027 14:15:18.311           230.240              Murmansk1          7195.000
       299   03 Jun 2027 14:18:26.697   03 Jun 2027 14:18:56.576            29.879              Murmansk2           933.719
       300   03 Jun 2027 14:18:59.978   03 Jun 2027 14:20:04.477            64.499                Norilsk          2015.594
       301   03 Jun 2027 14:20:33.693   03 Jun 2027 14:20:54.060            20.367                Norilsk           636.469
       302   03 Jun 2027 14:27:12.545   03 Jun 2027 14:28:26.583            74.038                Anadyr2          2313.687
       303   03 Jun 2027 14:29:41.661   03 Jun 2027 14:31:03.200            81.539                Anadyr1          2548.094
       304   03 Jun 2027 15:47:30.553   03 Jun 2027 15:47:56.444            25.891                 Moscow           809.094
       305   03 Jun 2027 15:49:32.021   03 Jun 2027 15:50:09.510            37.489              Murmansk1          1171.531
       306   03 Jun 2027 15:50:26.940   03 Jun 2027 15:51:27.078            60.138              Murmansk1          1879.312
       307   03 Jun 2027 15:54:30.913   03 Jun 2027 15:54:36.694             5.781              Murmansk1           180.656
       308   03 Jun 2027 16:01:56.998   03 Jun 2027 16:04:12.473           135.475                Anadyr2          4233.594
       309   03 Jun 2027 16:08:34.449   03 Jun 2027 16:10:15.935           101.486                Anadyr2          3171.438
       310   03 Jun 2027 17:30:34.117   03 Jun 2027 17:34:07.710           213.593              Murmansk1          6674.781
       311   03 Jun 2027 17:37:45.157   03 Jun 2027 17:38:18.531            33.374                Anadyr2          1042.937
       312   03 Jun 2027 17:38:45.838   03 Jun 2027 17:39:16.409            30.571                Anadyr1           955.344
       313   03 Jun 2027 17:39:45.175   03 Jun 2027 17:40:07.809            22.634                Anadyr2           707.313
       314   03 Jun 2027 17:40:25.481   03 Jun 2027 17:42:09.164           103.683               Magadan2          3240.094
       315   03 Jun 2027 17:46:14.033   03 Jun 2027 17:46:25.100            11.067               Magadan1           345.844
       316   03 Jun 2027 19:13:40.539   03 Jun 2027 19:17:32.890           232.351                Anadyr1          7260.969
       317   03 Jun 2027 19:18:01.885   03 Jun 2027 19:18:34.612            32.727                Norilsk          1022.719
       318   03 Jun 2027 19:19:14.530   03 Jun 2027 19:19:52.140            37.610               Magadan1          1175.313
       319   03 Jun 2027 19:19:52.140   03 Jun 2027 19:20:23.776            31.636               Magadan2           988.625
       320   03 Jun 2027 19:24:50.354   03 Jun 2027 19:25:39.226            48.872               Magadan1          1527.250
       321   03 Jun 2027 20:08:30.049   03 Jun 2027 20:11:23.199           173.150            RioGallegos          5410.938
       322   03 Jun 2027 20:13:16.899   03 Jun 2027 20:14:56.476            99.577            RioGallegos          3111.781
       323   03 Jun 2027 20:50:13.701   03 Jun 2027 20:51:21.401            67.700                Anadyr2          2115.625
       324   03 Jun 2027 20:51:32.647   03 Jun 2027 20:54:38.154           185.507                Norilsk          5797.094
       325   03 Jun 2027 20:54:51.709   03 Jun 2027 20:55:24.629            32.920                Norilsk          1028.750
       326   03 Jun 2027 20:56:44.770   03 Jun 2027 20:56:49.690             4.920                Irkutsk           153.750
       327   03 Jun 2027 20:57:01.349   03 Jun 2027 20:57:45.326            43.977                Irkutsk          1374.281
       328   03 Jun 2027 21:09:52.774   03 Jun 2027 21:11:43.359           110.585                Sumatra          3455.781
       329   03 Jun 2027 22:27:50.665   03 Jun 2027 22:27:56.278             5.613                Norilsk           175.406
       330   03 Jun 2027 22:28:04.293   03 Jun 2027 22:29:31.884            87.591               Magadan2          2737.219
       331   03 Jun 2027 22:30:29.136   03 Jun 2027 22:30:37.365             8.229               Magadan1           257.156
       332   03 Jun 2027 22:31:04.966   03 Jun 2027 22:31:48.171            43.205               Magadan1          1350.156
       333   03 Jun 2027 22:32:00.030   03 Jun 2027 22:32:14.228            14.198                Irkutsk           443.687
       334   03 Jun 2027 22:32:28.183   03 Jun 2027 22:32:46.104            17.921                Novosib           560.031
       335   03 Jun 2027 22:32:58.295   03 Jun 2027 22:33:22.633            24.338                Novosib           760.562
       336   03 Jun 2027 22:34:18.294   03 Jun 2027 22:35:05.380            47.086                Novosib          1471.437
       337   03 Jun 2027 22:39:48.264   03 Jun 2027 22:42:52.141           183.877                  Delhi          5746.156
       338   03 Jun 2027 22:45:14.898   03 Jun 2027 22:46:31.675            76.777                  Delhi          2399.281
       339   04 Jun 2027 00:03:26.701   04 Jun 2027 00:05:22.558           115.857                Norilsk          3620.531
       340   04 Jun 2027 00:05:56.172   04 Jun 2027 00:08:02.427           126.255              Murmansk1          3945.469
       341   04 Jun 2027 00:08:04.693   04 Jun 2027 00:08:57.786            53.093              Murmansk2          1659.156
       342   04 Jun 2027 00:11:53.048   04 Jun 2027 00:12:19.904            26.856                 Moscow           839.250
       343   04 Jun 2027 00:13:08.588   04 Jun 2027 00:13:45.854            37.266              Murmansk1          1164.562
       344   04 Jun 2027 00:15:13.015   04 Jun 2027 00:15:25.247            12.232                 Moscow           382.250
       345   04 Jun 2027 00:57:50.556   04 Jun 2027 00:58:05.623            15.067            RioGallegos           470.844
       346   04 Jun 2027 00:58:27.658   04 Jun 2027 00:59:30.578            62.920            RioGallegos          1966.250
       347   04 Jun 2027 01:31:21.088   04 Jun 2027 01:31:39.143            18.055                Anadyr1           564.219
       348   04 Jun 2027 01:32:50.157   04 Jun 2027 01:33:24.285            34.128                Anadyr1          1066.500
       349   04 Jun 2027 01:34:06.426   04 Jun 2027 01:34:36.426            30.000                Anadyr1           937.500
       350   04 Jun 2027 01:36:45.708   04 Jun 2027 01:36:47.601             1.893                Anadyr1            59.156
       351   04 Jun 2027 01:36:49.848   04 Jun 2027 01:37:43.693            53.845               Magadan2          1682.656
       352   04 Jun 2027 01:37:47.415   04 Jun 2027 01:38:53.203            65.788               Magadan1          2055.875
       353   04 Jun 2027 01:39:17.289   04 Jun 2027 01:39:30.549            13.260                Norilsk           414.375
       354   04 Jun 2027 01:41:22.775   04 Jun 2027 01:41:29.841             7.066               Magadan1           220.813
       355   04 Jun 2027 01:41:34.723   04 Jun 2027 01:42:28.756            54.033              Murmansk2          1688.531
       356   04 Jun 2027 01:42:48.581   04 Jun 2027 01:43:35.474            46.893              Murmansk1          1465.406
       357   04 Jun 2027 01:44:28.836   04 Jun 2027 01:46:44.521           135.685                Novosib          4240.156
       358   04 Jun 2027 02:11:20.552   04 Jun 2027 02:12:52.264            91.712               CapeTown          2866.000
       359   04 Jun 2027 03:08:01.678   04 Jun 2027 03:08:19.275            17.597                Anadyr1           549.906
       360   04 Jun 2027 03:09:38.688   04 Jun 2027 03:09:44.037             5.349               Magadan1           167.156
       361   04 Jun 2027 03:10:45.152   04 Jun 2027 03:11:08.875            23.723                Anadyr1           741.344
       362   04 Jun 2027 03:11:35.508   04 Jun 2027 03:11:56.419            20.911               Magadan1           653.469
       363   04 Jun 2027 03:27:49.221   04 Jun 2027 03:29:00.027            70.806              Murmansk1          2212.688
       364   04 Jun 2027 04:48:33.790   04 Jun 2027 04:49:10.941            37.151                Anadyr2          1160.969
       365   04 Jun 2027 04:49:13.586   04 Jun 2027 04:49:33.293            19.707               Magadan2           615.844
       366   04 Jun 2027 04:50:02.844   04 Jun 2027 04:53:56.468           233.624               Magadan1          7300.750
       367   04 Jun 2027 04:54:08.762   04 Jun 2027 04:54:16.714             7.952                Anadyr1           248.500
       368   04 Jun 2027 06:24:41.141   04 Jun 2027 06:25:07.225            26.084                Anadyr2           815.125
       369   04 Jun 2027 06:25:34.592   04 Jun 2027 06:25:41.750             7.158                Anadyr2           223.687
       370   04 Jun 2027 06:25:51.046   04 Jun 2027 06:26:12.467            21.421                Anadyr2           669.406
       371   04 Jun 2027 06:26:17.952   04 Jun 2027 06:26:47.303            29.351               Magadan2           917.219
       372   04 Jun 2027 06:27:10.604   04 Jun 2027 06:27:19.147             8.543                Anadyr2           266.969
       373   04 Jun 2027 06:28:23.834   04 Jun 2027 06:29:50.998            87.164                Anadyr1          2723.875
       374   04 Jun 2027 07:59:05.596   04 Jun 2027 07:59:07.635             2.039               Magadan1            63.719
       375   04 Jun 2027 07:59:56.350   04 Jun 2027 08:00:07.404            11.054                Irkutsk           345.437
       376   04 Jun 2027 08:00:18.234   04 Jun 2027 08:00:22.973             4.739               Magadan1           148.094
       377   04 Jun 2027 08:01:10.869   04 Jun 2027 08:01:12.110             1.241               Magadan1            38.781
       378   04 Jun 2027 08:01:28.383   04 Jun 2027 08:01:32.729             4.346                Irkutsk           135.813
       379   04 Jun 2027 08:01:38.948   04 Jun 2027 08:01:41.440             2.492               Magadan2            77.875
       380   04 Jun 2027 08:02:23.589   04 Jun 2027 08:02:50.731            27.142               Magadan1           848.187
       381   04 Jun 2027 08:02:54.044   04 Jun 2027 08:02:56.285             2.241                Irkutsk            70.031
       382   04 Jun 2027 08:03:07.528   04 Jun 2027 08:03:59.852            52.324                Irkutsk          1635.125
       383   04 Jun 2027 08:04:14.302   04 Jun 2027 08:04:53.003            38.701                Irkutsk          1209.406
       384   04 Jun 2027 08:05:04.620   04 Jun 2027 08:05:11.604             6.984               Magadan2           218.250
       385   04 Jun 2027 08:05:16.280   04 Jun 2027 08:05:31.604            15.324                Irkutsk           478.875
       386   04 Jun 2027 08:08:04.870   04 Jun 2027 08:08:24.473            19.603              Murmansk1           612.594
       387   04 Jun 2027 08:40:17.562   04 Jun 2027 08:41:28.539            70.977            RioGallegos          2218.031
       388   04 Jun 2027 09:15:42.772   04 Jun 2027 09:16:30.138            47.366                Sumatra          1480.187
       389   04 Jun 2027 09:17:54.604   04 Jun 2027 09:18:24.868            30.264                Sumatra           945.750
       390   04 Jun 2027 09:36:55.606   04 Jun 2027 09:37:28.376            32.770                Novosib          1024.062
       391   04 Jun 2027 09:38:10.544   04 Jun 2027 09:38:19.376             8.832                Irkutsk           276.000
       392   04 Jun 2027 09:39:10.094   04 Jun 2027 09:39:56.010            45.916                Novosib          1434.875
       393   04 Jun 2027 09:40:09.357   04 Jun 2027 09:40:20.439            11.082                Irkutsk           346.313
       394   04 Jun 2027 09:41:22.706   04 Jun 2027 09:41:33.661            10.955                Irkutsk           342.344
       395   04 Jun 2027 10:18:07.757   04 Jun 2027 10:18:33.718            25.961            RioGallegos           811.281
       396   04 Jun 2027 10:18:51.909   04 Jun 2027 10:19:44.143            52.234            RioGallegos          1632.312
       397   04 Jun 2027 10:52:20.035   04 Jun 2027 10:52:23.634             3.599                Sumatra           112.469
       398   04 Jun 2027 10:52:57.883   04 Jun 2027 10:53:05.315             7.432                Sumatra           232.250
       399   04 Jun 2027 10:56:13.316   04 Jun 2027 10:56:59.926            46.610                Sumatra          1456.563
       400   04 Jun 2027 10:59:30.223   04 Jun 2027 11:00:37.269            67.046                  Delhi          2095.188
       401   04 Jun 2027 11:14:07.031   04 Jun 2027 11:15:14.874            67.843                Novosib          2120.094
       402   04 Jun 2027 11:16:11.864   04 Jun 2027 11:16:14.099             2.235                Novosib            69.844
       403   04 Jun 2027 11:16:49.174   04 Jun 2027 11:16:51.303             2.129                Novosib            66.531
       404   04 Jun 2027 11:16:54.401   04 Jun 2027 11:16:58.433             4.032                Norilsk           126.000
       405   04 Jun 2027 11:16:58.476   04 Jun 2027 11:17:17.319            18.843                Novosib           588.844
       406   04 Jun 2027 12:37:39.472   04 Jun 2027 12:39:29.488           110.016                  Delhi          3438.000
       407   04 Jun 2027 12:40:19.030   04 Jun 2027 12:40:48.121            29.091                  Delhi           909.094
       408   04 Jun 2027 12:46:11.717   04 Jun 2027 12:47:44.617            92.900                Novosib          2903.125
       409   04 Jun 2027 12:48:47.597   04 Jun 2027 12:49:59.517            71.920              Murmansk2          2247.500
       410   04 Jun 2027 12:50:28.600   04 Jun 2027 12:50:36.209             7.609                Norilsk           237.781
       411   04 Jun 2027 12:51:53.258   04 Jun 2027 12:52:40.236            46.978                Norilsk          1468.063
       412   04 Jun 2027 14:04:03.709   04 Jun 2027 14:04:17.162            13.453               CapeTown           420.406
       413   04 Jun 2027 14:05:15.612   04 Jun 2027 14:05:38.178            22.566               CapeTown           705.188
       414   04 Jun 2027 14:20:10.283   04 Jun 2027 14:21:41.406            91.123                 Moscow          2847.594
       415   04 Jun 2027 14:23:38.569   04 Jun 2027 14:25:12.327            93.758              Murmansk2          2929.938
       416   04 Jun 2027 14:26:33.253   04 Jun 2027 14:27:30.560            57.307              Murmansk1          1790.844
       417   04 Jun 2027 14:38:53.314   04 Jun 2027 14:40:38.193           104.879                Anadyr1          3277.469
       418   04 Jun 2027 14:41:48.913   04 Jun 2027 14:42:06.039            17.126                Anadyr1           535.188
       419   04 Jun 2027 14:42:15.984   04 Jun 2027 14:43:02.210            46.226                Anadyr1          1444.563
       420   04 Jun 2027 14:44:26.880   04 Jun 2027 14:45:18.920            52.040                Anadyr1          1626.250
       421   04 Jun 2027 15:33:17.110   04 Jun 2027 15:33:24.943             7.833               CapeTown           244.781
       422   04 Jun 2027 16:01:17.625   04 Jun 2027 16:01:48.217            30.592                 Moscow           956.000
       423   04 Jun 2027 16:01:59.623   04 Jun 2027 16:03:30.349            90.726              Murmansk2          2835.188
       424   04 Jun 2027 16:04:47.724   04 Jun 2027 16:06:15.164            87.440              Murmansk1          2732.500
       425   04 Jun 2027 16:13:56.120   04 Jun 2027 16:15:53.574           117.454                Anadyr2          3670.437
       426   04 Jun 2027 16:16:06.189   04 Jun 2027 16:16:07.770             1.581                Anadyr1            49.406
       427   04 Jun 2027 17:10:18.455   04 Jun 2027 17:11:16.215            57.760               CapeTown          1805.000
       428   04 Jun 2027 17:43:48.149   04 Jun 2027 17:46:33.161           165.012              Murmansk2          5156.625
       429   04 Jun 2027 17:49:46.572   04 Jun 2027 17:51:44.991           118.419                Anadyr2          3700.594
       430   04 Jun 2027 17:52:13.696   04 Jun 2027 17:52:40.996            27.300                Anadyr2           853.125
       431   04 Jun 2027 17:52:43.538   04 Jun 2027 17:54:56.880           133.342               Magadan1          4166.937
       432   04 Jun 2027 18:00:04.245   04 Jun 2027 18:01:17.619            73.374               Magadan1          2292.937
       433   04 Jun 2027 19:25:41.382   04 Jun 2027 19:27:40.457           119.075                Anadyr1          3721.094
       434   04 Jun 2027 19:27:46.838   04 Jun 2027 19:29:32.960           106.122                Anadyr2          3316.313
       435   04 Jun 2027 19:29:38.286   04 Jun 2027 19:31:19.774           101.488                Norilsk          3171.500
       436   04 Jun 2027 20:20:14.863   04 Jun 2027 20:23:32.237           197.374            RioGallegos          6167.937
       437   04 Jun 2027 21:03:24.852   04 Jun 2027 21:03:30.295             5.443                Anadyr1           170.094
       438   04 Jun 2027 21:03:32.650   04 Jun 2027 21:06:29.609           176.959                Norilsk          5529.969
       439   04 Jun 2027 21:07:46.376   04 Jun 2027 21:08:33.912            47.536                Irkutsk          1485.500
       440   04 Jun 2027 21:08:51.956   04 Jun 2027 21:09:30.025            38.069                Irkutsk          1189.656
       441   04 Jun 2027 21:10:06.699   04 Jun 2027 21:11:55.374           108.675                Novosib          3396.094
       442   04 Jun 2027 21:21:34.544   04 Jun 2027 21:22:30.057            55.513                Sumatra          1734.781
       443   04 Jun 2027 21:23:24.272   04 Jun 2027 21:24:03.895            39.623                Sumatra          1238.219
       444   04 Jun 2027 22:36:56.324   04 Jun 2027 22:37:43.624            47.300                Anadyr1          1478.125
       445   04 Jun 2027 22:39:28.769   04 Jun 2027 22:39:54.493            25.724                Norilsk           803.875
       446   04 Jun 2027 22:40:06.543   04 Jun 2027 22:41:23.301            76.758               Magadan1          2398.687
       447   04 Jun 2027 22:41:32.375   04 Jun 2027 22:41:37.693             5.318               Magadan1           166.188
       448   04 Jun 2027 22:42:09.608   04 Jun 2027 22:42:31.817            22.209               Magadan2           694.031
       449   04 Jun 2027 22:43:02.264   04 Jun 2027 22:43:24.681            22.417                Norilsk           700.531
       450   04 Jun 2027 22:43:31.367   04 Jun 2027 22:44:36.570            65.203                Novosib          2037.594
       451   04 Jun 2027 22:46:49.579   04 Jun 2027 22:48:56.806           127.227                Novosib          3975.844
       452   04 Jun 2027 22:51:25.106   04 Jun 2027 22:52:42.086            76.980                  Delhi          2405.625
       453   05 Jun 2027 00:11:02.466   05 Jun 2027 00:11:45.484            43.018                Anadyr1          1344.313
       454   05 Jun 2027 00:12:32.355   05 Jun 2027 00:12:44.599            12.244                Anadyr2           382.625
       455   05 Jun 2027 00:14:02.041   05 Jun 2027 00:14:10.843             8.802                Anadyr1           275.062
       456   05 Jun 2027 00:15:14.703   05 Jun 2027 00:15:24.654             9.951                Anadyr1           310.969
       457   05 Jun 2027 00:15:28.236   05 Jun 2027 00:17:24.632           116.396                Norilsk          3637.375
       458   05 Jun 2027 00:17:39.680   05 Jun 2027 00:18:37.145            57.465               Magadan1          1795.781
       459   05 Jun 2027 00:18:57.676   05 Jun 2027 00:20:03.485            65.809              Murmansk2          2056.531
       460   05 Jun 2027 00:20:18.556   05 Jun 2027 00:20:30.360            11.804                Novosib           368.875
       461   05 Jun 2027 00:21:59.225   05 Jun 2027 00:22:25.971            26.746                Novosib           835.813
       462   05 Jun 2027 00:22:57.255   05 Jun 2027 00:23:30.075            32.820                 Moscow          1025.625
       463   05 Jun 2027 00:24:07.445   05 Jun 2027 00:24:54.314            46.869                 Moscow          1464.656
       464   05 Jun 2027 00:25:29.014   05 Jun 2027 00:25:45.737            16.723                 Moscow           522.594
       465   05 Jun 2027 00:26:36.821   05 Jun 2027 00:27:28.386            51.565                 Moscow          1611.406
       466   05 Jun 2027 01:43:05.634   05 Jun 2027 01:44:43.600            97.966                Anadyr2          3061.438
       467   05 Jun 2027 01:44:56.729   05 Jun 2027 01:45:24.119            27.390                Anadyr2           855.937
       468   05 Jun 2027 01:46:05.929   05 Jun 2027 01:46:40.797            34.868                Anadyr2          1089.625
       469   05 Jun 2027 01:48:17.997   05 Jun 2027 01:49:30.911            72.914               Magadan2          2278.562
       470   05 Jun 2027 01:49:31.783   05 Jun 2027 01:49:48.366            16.583               Magadan1           518.219
       471   05 Jun 2027 01:50:57.677   05 Jun 2027 01:51:28.396            30.719               Magadan1           959.969
       472   05 Jun 2027 01:53:36.053   05 Jun 2027 01:54:19.652            43.599              Murmansk2          1362.469
       473   05 Jun 2027 01:54:54.172   05 Jun 2027 01:55:35.505            41.333              Murmansk2          1291.656
       474   05 Jun 2027 01:55:36.210   05 Jun 2027 01:56:21.200            44.990                Novosib          1405.938
       475   05 Jun 2027 01:56:59.513   05 Jun 2027 01:58:14.889            75.376                 Moscow          2355.500
       476   05 Jun 2027 02:21:25.653   05 Jun 2027 02:22:14.621            48.968               CapeTown          1530.250
       477   05 Jun 2027 02:25:39.859   05 Jun 2027 02:25:48.339             8.480               CapeTown           265.000
       478   05 Jun 2027 02:28:40.196   05 Jun 2027 02:28:55.286            15.090               CapeTown           471.563
       479   05 Jun 2027 02:31:48.004   05 Jun 2027 02:33:19.381            91.377               CapeTown          2855.531
       480   05 Jun 2027 03:24:55.470   05 Jun 2027 03:26:21.642            86.172                Anadyr1          2692.875
       481   05 Jun 2027 03:26:21.642   05 Jun 2027 03:28:37.163           135.521                Anadyr2          4235.031
       482   05 Jun 2027 03:39:10.067   05 Jun 2027 03:39:25.775            15.708              Murmansk1           490.875
