uniorb/output/strategy_4/Drop/Drop_KinoSat_111110.txt

KinoSat_111110
-------------------------
    Access    *     Start Time (UTCG)     *     Stop Time (UTCG)  *   Duration (s)        *       Station  *  Data (Mbytes)
         1   01 Jun 2027 04:12:46.222   01 Jun 2027 04:13:05.682            19.460               Magadan2           608.125
         2   01 Jun 2027 04:13:07.901   01 Jun 2027 04:13:31.568            23.667               Magadan1           739.594
         3   01 Jun 2027 04:14:53.444   01 Jun 2027 04:15:45.680            52.236               Magadan2          1632.375
         4   01 Jun 2027 04:15:45.680   01 Jun 2027 04:16:12.013            26.333               Magadan1           822.906
         5   01 Jun 2027 04:16:53.893   01 Jun 2027 04:16:55.923             2.030                Anadyr1            63.437
         6   01 Jun 2027 05:49:56.971   01 Jun 2027 05:54:00.169           243.198                Anadyr1          7599.938
         7   01 Jun 2027 07:23:04.474   01 Jun 2027 07:23:17.047            12.573               Magadan2           392.906
         8   01 Jun 2027 07:23:17.047   01 Jun 2027 07:23:25.167             8.120               Magadan1           253.750
         9   01 Jun 2027 07:23:37.553   01 Jun 2027 07:24:06.043            28.490               Magadan2           890.313
        10   01 Jun 2027 07:24:06.969   01 Jun 2027 07:25:01.023            54.054                Norilsk          1689.187
        11   01 Jun 2027 07:25:14.175   01 Jun 2027 07:27:28.458           134.283                Anadyr2          4196.344
        12   01 Jun 2027 07:27:28.458   01 Jun 2027 07:28:29.929            61.471                Anadyr1          1920.969
        13   01 Jun 2027 07:28:34.620   01 Jun 2027 07:30:08.311            93.691                Novosib          2927.844
        14   01 Jun 2027 07:30:30.507   01 Jun 2027 07:30:46.145            15.638              Murmansk2           488.688
        15   01 Jun 2027 07:31:03.934   01 Jun 2027 07:32:00.126            56.192              Murmansk2          1756.000
        16   01 Jun 2027 08:04:30.706   01 Jun 2027 08:04:59.538            28.832            RioGallegos           901.000
        17   01 Jun 2027 08:41:18.041   01 Jun 2027 08:41:33.868            15.827                Sumatra           494.594
        18   01 Jun 2027 09:01:18.913   01 Jun 2027 09:01:46.496            27.583                Novosib           861.969
        19   01 Jun 2027 09:01:48.872   01 Jun 2027 09:05:03.913           195.041                Irkutsk          6095.031
        20   01 Jun 2027 09:40:48.256   01 Jun 2027 09:42:07.149            78.893            RioGallegos          2465.406
        21   01 Jun 2027 10:15:11.991   01 Jun 2027 10:15:44.683            32.692                Sumatra          1021.625
        22   01 Jun 2027 10:24:15.748   01 Jun 2027 10:25:24.437            68.689                  Delhi          2146.531
        23   01 Jun 2027 10:37:59.439   01 Jun 2027 10:39:13.959            74.520              Murmansk1          2328.750
        24   01 Jun 2027 10:39:23.277   01 Jun 2027 10:40:54.094            90.817                Irkutsk          2838.031
        25   01 Jun 2027 10:41:01.188   01 Jun 2027 10:41:38.915            37.727              Murmansk1          1178.969
        26   01 Jun 2027 10:41:52.689   01 Jun 2027 10:43:01.563            68.874                Novosib          2152.313
        27   01 Jun 2027 10:44:17.025   01 Jun 2027 10:45:10.108            53.083              Murmansk2          1658.844
        28   01 Jun 2027 11:59:49.358   01 Jun 2027 12:01:48.284           118.926                  Delhi          3716.438
        29   01 Jun 2027 12:04:25.564   01 Jun 2027 12:05:07.645            42.081                  Delhi          1315.031
        30   01 Jun 2027 12:08:00.426   01 Jun 2027 12:08:50.307            49.881                Novosib          1558.781
        31   01 Jun 2027 12:09:19.487   01 Jun 2027 12:09:52.273            32.786                 Moscow          1024.563
        32   01 Jun 2027 12:11:13.227   01 Jun 2027 12:12:59.861           106.634                Novosib          3332.313
        33   01 Jun 2027 12:13:05.953   01 Jun 2027 12:14:48.865           102.912                Norilsk          3216.000
        34   01 Jun 2027 13:43:41.402   01 Jun 2027 13:47:46.349           244.947                 Moscow          7654.594
        35   01 Jun 2027 13:48:22.358   01 Jun 2027 13:50:13.883           111.525              Murmansk1          3485.156
        36   01 Jun 2027 13:52:34.885   01 Jun 2027 13:53:46.700            71.815                Norilsk          2244.219
        37   01 Jun 2027 13:54:46.579   01 Jun 2027 13:54:55.785             9.206                Norilsk           287.688
        38   01 Jun 2027 13:56:34.328   01 Jun 2027 13:56:49.149            14.821                Norilsk           463.156
        39   01 Jun 2027 14:57:39.909   01 Jun 2027 14:58:41.886            61.977               CapeTown          1936.781
        40   01 Jun 2027 14:59:35.118   01 Jun 2027 15:00:27.979            52.861               CapeTown          1651.906
        41   01 Jun 2027 15:21:59.063   01 Jun 2027 15:22:32.236            33.173                 Moscow          1036.656
        42   01 Jun 2027 15:23:12.101   01 Jun 2027 15:23:40.213            28.112                 Moscow           878.500
        43   01 Jun 2027 15:24:44.219   01 Jun 2027 15:25:29.408            45.189              Murmansk1          1412.156
        44   01 Jun 2027 15:38:00.953   01 Jun 2027 15:40:10.415           129.462                Anadyr1          4045.687
        45   01 Jun 2027 15:42:32.743   01 Jun 2027 15:42:41.411             8.668                Anadyr1           270.875
        46   01 Jun 2027 15:43:12.140   01 Jun 2027 15:43:27.432            15.292                Anadyr1           477.875
        47   01 Jun 2027 16:34:25.647   01 Jun 2027 16:34:42.903            17.256               CapeTown           539.250
        48   01 Jun 2027 16:40:59.572   01 Jun 2027 16:41:33.345            33.773               CapeTown          1055.406
        49   01 Jun 2027 17:04:46.816   01 Jun 2027 17:09:22.296           275.480              Murmansk2          8608.750
        50   01 Jun 2027 17:13:42.667   01 Jun 2027 17:14:47.992            65.325                Anadyr1          2041.406
        51   01 Jun 2027 17:16:40.998   01 Jun 2027 17:18:24.846           103.848               Magadan2          3245.250
        52   01 Jun 2027 17:25:32.284   01 Jun 2027 17:25:50.876            18.592               Magadan2           581.000
        53   01 Jun 2027 18:49:38.276   01 Jun 2027 18:53:29.978           231.702                Anadyr1          7240.687
        54   01 Jun 2027 18:53:30.634   01 Jun 2027 18:55:48.695           138.061               Magadan1          4314.406
        55   01 Jun 2027 19:02:22.392   01 Jun 2027 19:02:55.288            32.896               Magadan1          1028.000
        56   01 Jun 2027 19:45:20.119   01 Jun 2027 19:48:11.904           171.785            RioGallegos          5368.281
        57   01 Jun 2027 19:51:39.823   01 Jun 2027 19:52:17.937            38.114            RioGallegos          1191.063
        58   01 Jun 2027 20:25:25.482   01 Jun 2027 20:25:52.658            27.176                Anadyr1           849.250
        59   01 Jun 2027 20:27:34.886   01 Jun 2027 20:29:50.474           135.588                Norilsk          4237.125
        60   01 Jun 2027 20:30:24.419   01 Jun 2027 20:30:52.737            28.318                Norilsk           884.937
        61   01 Jun 2027 20:31:10.131   01 Jun 2027 20:31:23.663            13.532                Norilsk           422.875
        62   01 Jun 2027 20:32:18.993   01 Jun 2027 20:34:41.444           142.451                Irkutsk          4451.594
        63   01 Jun 2027 20:41:10.715   01 Jun 2027 20:41:41.879            31.164                Irkutsk           973.875
        64   01 Jun 2027 20:46:54.963   01 Jun 2027 20:47:38.128            43.165                Sumatra          1348.906
        65   01 Jun 2027 20:49:32.407   01 Jun 2027 20:49:59.309            26.902                Sumatra           840.688
        66   01 Jun 2027 20:50:32.775   01 Jun 2027 20:51:46.911            74.136                Sumatra          2316.750
        67   01 Jun 2027 22:03:47.529   01 Jun 2027 22:05:20.501            92.972                Norilsk          2905.375
        68   01 Jun 2027 22:05:26.142   01 Jun 2027 22:05:51.256            25.114               Magadan2           784.812
        69   01 Jun 2027 22:07:16.335   01 Jun 2027 22:08:33.933            77.598                Irkutsk          2424.937
        70   01 Jun 2027 22:09:01.058   01 Jun 2027 22:11:29.068           148.010                Novosib          4625.313
        71   01 Jun 2027 22:17:07.267   01 Jun 2027 22:18:01.087            53.820                  Delhi          1681.875
        72   01 Jun 2027 22:22:36.600   01 Jun 2027 22:22:41.068             4.468                  Delhi           139.625
        73   01 Jun 2027 22:24:05.134   01 Jun 2027 22:24:29.146            24.012                  Delhi           750.375
        74   01 Jun 2027 23:35:30.064   01 Jun 2027 23:35:48.988            18.924                Anadyr2           591.375
        75   01 Jun 2027 23:36:50.452   01 Jun 2027 23:37:11.558            21.106                Anadyr1           659.563
        76   01 Jun 2027 23:39:23.217   01 Jun 2027 23:40:00.265            37.048                Norilsk          1157.750
        77   01 Jun 2027 23:40:11.293   01 Jun 2027 23:40:35.707            24.414               Magadan2           762.937
        78   01 Jun 2027 23:40:47.931   01 Jun 2027 23:41:18.296            30.365                Norilsk           948.906
        79   01 Jun 2027 23:42:10.472   01 Jun 2027 23:44:01.228           110.756              Murmansk2          3461.125
        80   01 Jun 2027 23:44:27.983   01 Jun 2027 23:44:37.153             9.170                Novosib           286.563
        81   01 Jun 2027 23:44:41.433   01 Jun 2027 23:44:57.811            16.378                Irkutsk           511.813
        82   01 Jun 2027 23:45:10.008   01 Jun 2027 23:46:47.865            97.857              Murmansk1          3058.031
        83   01 Jun 2027 23:51:02.011   01 Jun 2027 23:52:57.759           115.748                  Delhi          3617.125
        84   02 Jun 2027 00:34:26.756   02 Jun 2027 00:34:38.595            11.839            RioGallegos           369.969
        85   02 Jun 2027 00:36:54.869   02 Jun 2027 00:37:20.018            25.149            RioGallegos           785.906
        86   02 Jun 2027 01:07:54.737   02 Jun 2027 01:08:25.046            30.309                Anadyr1           947.156
        87   02 Jun 2027 01:08:58.371   02 Jun 2027 01:09:23.536            25.165                Anadyr2           786.406
        88   02 Jun 2027 01:09:23.536   02 Jun 2027 01:10:03.998            40.462                Anadyr1          1264.437
        89   02 Jun 2027 01:10:39.542   02 Jun 2027 01:11:02.907            23.365                Anadyr2           730.156
        90   02 Jun 2027 01:13:45.792   02 Jun 2027 01:13:55.310             9.518                Anadyr2           297.437
        91   02 Jun 2027 01:13:58.033   02 Jun 2027 01:15:56.726           118.693               Magadan2          3709.156
        92   02 Jun 2027 01:16:07.153   02 Jun 2027 01:16:22.152            14.999               Magadan2           468.719
        93   02 Jun 2027 01:17:32.816   02 Jun 2027 01:19:44.153           131.337              Murmansk2          4104.281
        94   02 Jun 2027 01:21:03.989   02 Jun 2027 01:21:26.867            22.878                Irkutsk           714.938
        95   02 Jun 2027 01:21:50.132   02 Jun 2027 01:22:11.251            21.119                 Moscow           659.969
        96   02 Jun 2027 01:26:33.323   02 Jun 2027 01:26:41.834             8.511                 Moscow           265.969
        97   02 Jun 2027 01:27:07.682   02 Jun 2027 01:27:13.971             6.289                 Moscow           196.531
        98   02 Jun 2027 01:28:55.651   02 Jun 2027 01:29:44.318            48.667                  Delhi          1520.844
        99   02 Jun 2027 01:46:54.059   02 Jun 2027 01:47:02.181             8.122               CapeTown           253.813
       100   02 Jun 2027 01:48:16.846   02 Jun 2027 01:49:25.477            68.631               CapeTown          2144.719
       101   02 Jun 2027 02:41:51.372   02 Jun 2027 02:44:24.804           153.432                Anadyr1          4794.750
       102   02 Jun 2027 02:45:27.605   02 Jun 2027 02:45:40.376            12.771               Magadan2           399.094
       103   02 Jun 2027 02:46:06.670   02 Jun 2027 02:46:41.188            34.518               Magadan2          1078.688
       104   02 Jun 2027 02:48:05.876   02 Jun 2027 02:48:28.780            22.904               Magadan2           715.750
       105   02 Jun 2027 02:51:45.481   02 Jun 2027 02:52:19.444            33.963                Norilsk          1061.344
       106   02 Jun 2027 02:53:29.034   02 Jun 2027 02:54:40.296            71.262              Murmansk2          2226.938
       107   02 Jun 2027 02:55:10.108   02 Jun 2027 02:55:25.053            14.945              Murmansk1           467.031
       108   02 Jun 2027 02:56:08.605   02 Jun 2027 02:56:45.388            36.783                Novosib          1149.469
       109   02 Jun 2027 02:59:06.926   02 Jun 2027 02:59:18.210            11.284                Novosib           352.625
       110   02 Jun 2027 03:00:23.434   02 Jun 2027 03:01:08.822            45.388                Norilsk          1418.375
       111   02 Jun 2027 03:01:13.768   02 Jun 2027 03:01:46.473            32.705                Norilsk          1022.031
       112   02 Jun 2027 03:02:01.732   02 Jun 2027 03:03:02.802            61.070              Murmansk1          1908.438
       113   02 Jun 2027 03:03:02.802   02 Jun 2027 03:03:12.605             9.803              Murmansk2           306.344
       114   02 Jun 2027 03:03:23.089   02 Jun 2027 03:05:00.826            97.737              Murmansk2          3054.281
       115   02 Jun 2027 03:20:36.688   02 Jun 2027 03:22:58.344           141.656               CapeTown          4426.750
       116   02 Jun 2027 04:21:32.214   02 Jun 2027 04:21:33.374             1.160               Magadan2            36.250
       117   02 Jun 2027 04:23:55.130   02 Jun 2027 04:24:06.044            10.914               Magadan1           341.063
       118   02 Jun 2027 04:24:06.044   02 Jun 2027 04:24:12.357             6.313               Magadan2           197.281
       119   02 Jun 2027 04:24:32.864   02 Jun 2027 04:26:49.720           136.856                Anadyr1          4276.750
       120   02 Jun 2027 04:26:49.720   02 Jun 2027 04:27:03.759            14.039                Anadyr2           438.719
       121   02 Jun 2027 04:27:14.575   02 Jun 2027 04:28:14.092            59.517               Magadan2          1859.906
       122   02 Jun 2027 06:01:47.930   02 Jun 2027 06:02:44.492            56.562                Anadyr1          1767.563
       123   02 Jun 2027 06:03:13.787   02 Jun 2027 06:03:15.108             1.321                Irkutsk            41.281
       124   02 Jun 2027 06:05:07.574   02 Jun 2027 06:05:38.784            31.210                Anadyr2           975.313
       125   02 Jun 2027 07:36:09.456   02 Jun 2027 07:38:18.714           129.258               Magadan2          4039.312
       126   02 Jun 2027 07:38:35.196   02 Jun 2027 07:39:43.787            68.591                Irkutsk          2143.469
       127   02 Jun 2027 07:39:59.324   02 Jun 2027 07:40:57.853            58.529               Magadan2          1829.031
       128   02 Jun 2027 07:40:57.853   02 Jun 2027 07:41:21.266            23.413               Magadan1           731.656
       129   02 Jun 2027 09:14:17.367   02 Jun 2027 09:14:38.716            21.349                Irkutsk           667.156
       130   02 Jun 2027 09:14:46.459   02 Jun 2027 09:14:57.982            11.523                Irkutsk           360.094
       131   02 Jun 2027 09:15:34.380   02 Jun 2027 09:17:15.350           100.970                Irkutsk          3155.312
       132   02 Jun 2027 09:53:40.420   02 Jun 2027 09:54:02.513            22.093            RioGallegos           690.406
       133   02 Jun 2027 09:56:22.217   02 Jun 2027 09:56:30.775             8.558            RioGallegos           267.437
       134   02 Jun 2027 09:57:14.818   02 Jun 2027 09:57:24.612             9.794            RioGallegos           306.062
       135   02 Jun 2027 09:58:03.067   02 Jun 2027 09:58:19.939            16.872            RioGallegos           527.250
       136   02 Jun 2027 09:59:20.635   02 Jun 2027 09:59:29.487             8.852            RioGallegos           276.625
       137   02 Jun 2027 10:01:19.955   02 Jun 2027 10:01:35.018            15.063            RioGallegos           470.719
       138   02 Jun 2027 10:27:26.625   02 Jun 2027 10:29:07.945           101.320                Sumatra          3166.250
       139   02 Jun 2027 10:49:19.177   02 Jun 2027 10:49:56.944            37.767                Irkutsk          1180.219
       140   02 Jun 2027 10:50:24.784   02 Jun 2027 10:50:35.466            10.682                Irkutsk           333.812
       141   02 Jun 2027 10:50:38.632   02 Jun 2027 10:50:48.391             9.759                Novosib           304.969
       142   02 Jun 2027 10:50:50.363   02 Jun 2027 10:51:02.325            11.962                Norilsk           373.813
       143   02 Jun 2027 10:51:06.629   02 Jun 2027 10:51:13.014             6.385                Novosib           199.531
       144   02 Jun 2027 10:51:13.590   02 Jun 2027 10:51:51.597            38.007                Novosib          1187.719
       145   02 Jun 2027 10:52:28.156   02 Jun 2027 10:53:03.193            35.037                Novosib          1094.906
       146   02 Jun 2027 12:12:15.557   02 Jun 2027 12:15:53.768           218.211                  Delhi          6819.094
       147   02 Jun 2027 12:20:36.353   02 Jun 2027 12:20:45.600             9.247                Novosib           288.969
       148   02 Jun 2027 12:21:41.978   02 Jun 2027 12:22:10.715            28.737                Novosib           898.031
       149   02 Jun 2027 12:26:46.528   02 Jun 2027 12:27:07.922            21.394                Norilsk           668.562
       150   02 Jun 2027 12:31:21.325   02 Jun 2027 12:31:38.464            17.139                Norilsk           535.594
       151   02 Jun 2027 12:34:54.795   02 Jun 2027 12:35:16.785            21.990              Murmansk2           687.187
       152   02 Jun 2027 13:55:47.814   02 Jun 2027 13:58:58.040           190.226                 Moscow          5944.562
       153   02 Jun 2027 13:59:19.367   02 Jun 2027 14:02:29.638           190.271              Murmansk2          5945.969
       154   02 Jun 2027 14:05:33.750   02 Jun 2027 14:06:57.947            84.197                Norilsk          2631.156
       155   02 Jun 2027 14:15:45.065   02 Jun 2027 14:16:28.841            43.776                Anadyr1          1368.000
       156   02 Jun 2027 14:17:00.400   02 Jun 2027 14:19:03.727           123.327                Anadyr2          3853.969
       157   02 Jun 2027 15:34:40.415   02 Jun 2027 15:35:14.114            33.699                 Moscow          1053.094
       158   02 Jun 2027 15:37:06.932   02 Jun 2027 15:37:51.283            44.351              Murmansk1          1385.969
       159   02 Jun 2027 15:46:08.803   02 Jun 2027 15:47:00.287            51.484              Murmansk1          1608.875
       160   02 Jun 2027 15:49:58.553   02 Jun 2027 15:52:19.319           140.766                Anadyr1          4398.937
       161   02 Jun 2027 16:46:18.986   02 Jun 2027 16:47:05.127            46.141               CapeTown          1441.906
       162   02 Jun 2027 16:55:02.927   02 Jun 2027 16:55:25.304            22.377               CapeTown           699.281
       163   02 Jun 2027 17:17:36.446   02 Jun 2027 17:19:51.712           135.266              Murmansk1          4227.063
       164   02 Jun 2027 17:20:31.654   02 Jun 2027 17:22:08.102            96.448              Murmansk1          3014.000
       165   02 Jun 2027 17:25:43.845   02 Jun 2027 17:26:12.154            28.309                Anadyr2           884.656
       166   02 Jun 2027 17:26:29.428   02 Jun 2027 17:26:54.296            24.868                Anadyr1           777.125
       167   02 Jun 2027 17:28:32.123   02 Jun 2027 17:30:40.681           128.558               Magadan1          4017.438
       168   02 Jun 2027 19:01:39.485   02 Jun 2027 19:03:37.357           117.872                Anadyr2          3683.500
       169   02 Jun 2027 19:03:37.574   02 Jun 2027 19:05:32.497           114.923                Anadyr1          3591.344
       170   02 Jun 2027 19:05:59.183   02 Jun 2027 19:07:36.015            96.832               Magadan2          3026.000
       171   02 Jun 2027 19:08:15.585   02 Jun 2027 19:08:30.141            14.556               Magadan1           454.875
       172   02 Jun 2027 19:14:23.977   02 Jun 2027 19:14:57.966            33.989               Magadan2          1062.156
       173   02 Jun 2027 19:56:50.706   02 Jun 2027 19:59:51.034           180.328            RioGallegos          5635.250
       174   02 Jun 2027 20:03:33.841   02 Jun 2027 20:03:35.855             2.014            RioGallegos            62.938
       175   02 Jun 2027 20:37:24.044   02 Jun 2027 20:37:54.365            30.321                Anadyr1           947.531
       176   02 Jun 2027 20:39:33.325   02 Jun 2027 20:43:23.920           230.595                Norilsk          7206.094
       177   02 Jun 2027 20:44:04.880   02 Jun 2027 20:44:26.668            21.788                Irkutsk           680.875
       178   02 Jun 2027 20:44:43.310   02 Jun 2027 20:45:44.673            61.363                Irkutsk          1917.594
       179   02 Jun 2027 20:46:50.742   02 Jun 2027 20:47:27.820            37.078                Irkutsk          1158.687
       180   02 Jun 2027 20:54:16.925   02 Jun 2027 20:54:29.284            12.359                Irkutsk           386.219
       181   02 Jun 2027 20:58:18.840   02 Jun 2027 20:59:51.322            92.482                Sumatra          2890.063
       182   02 Jun 2027 21:02:21.164   02 Jun 2027 21:03:39.212            78.048                Sumatra          2439.000
       183   02 Jun 2027 22:16:01.811   02 Jun 2027 22:16:15.347            13.536               Magadan2           423.000
       184   02 Jun 2027 22:16:45.197   02 Jun 2027 22:17:11.762            26.565                Norilsk           830.156
       185   02 Jun 2027 22:18:18.952   02 Jun 2027 22:18:24.545             5.593               Magadan1           174.781
       186   02 Jun 2027 22:18:26.528   02 Jun 2027 22:18:37.305            10.777               Magadan1           336.781
       187   02 Jun 2027 22:19:11.796   02 Jun 2027 22:19:58.212            46.416               Magadan2          1450.500
       188   02 Jun 2027 22:19:59.990   02 Jun 2027 22:21:25.289            85.299                Novosib          2665.594
       189   02 Jun 2027 22:25:26.775   02 Jun 2027 22:25:45.428            18.653                Novosib           582.906
       190   02 Jun 2027 22:28:20.475   02 Jun 2027 22:31:05.843           165.368                  Delhi          5167.750
       191   02 Jun 2027 22:32:50.561   02 Jun 2027 22:34:34.567           104.006                  Delhi          3250.187
       192   02 Jun 2027 23:51:25.023   02 Jun 2027 23:52:09.393            44.370                Norilsk          1386.562
       193   02 Jun 2027 23:52:48.656   02 Jun 2027 23:53:20.439            31.783                Norilsk           993.219
       194   02 Jun 2027 23:53:50.907   02 Jun 2027 23:53:58.689             7.782               Magadan1           243.188
       195   02 Jun 2027 23:54:01.886   02 Jun 2027 23:56:01.650           119.764              Murmansk1          3742.625
       196   02 Jun 2027 23:56:32.066   02 Jun 2027 23:58:46.898           134.832              Murmansk2          4213.500
       197   03 Jun 2027 00:11:39.088   03 Jun 2027 00:12:12.075            32.987                  Delhi          1030.844
       198   03 Jun 2027 00:45:04.992   03 Jun 2027 00:45:33.398            28.406            RioGallegos           887.688
       199   03 Jun 2027 00:49:07.520   03 Jun 2027 00:49:22.837            15.317            RioGallegos           478.656
       200   03 Jun 2027 01:19:37.502   03 Jun 2027 01:20:12.269            34.767                Anadyr2          1086.469
       201   03 Jun 2027 01:20:49.943   03 Jun 2027 01:21:24.066            34.123                Anadyr2          1066.344
       202   03 Jun 2027 01:22:05.340   03 Jun 2027 01:22:48.043            42.703                Anadyr2          1334.469
       203   03 Jun 2027 01:25:20.820   03 Jun 2027 01:27:24.151           123.331               Magadan1          3854.094
       204   03 Jun 2027 01:29:33.620   03 Jun 2027 01:30:43.327            69.707              Murmansk2          2178.344
       205   03 Jun 2027 01:31:23.924   03 Jun 2027 01:32:33.737            69.813                Novosib          2181.656
       206   03 Jun 2027 01:33:07.650   03 Jun 2027 01:33:21.987            14.337                 Moscow           448.031
       207   03 Jun 2027 01:33:42.835   03 Jun 2027 01:33:57.360            14.525                 Moscow           453.906
       208   03 Jun 2027 01:36:39.095   03 Jun 2027 01:36:49.026             9.931                 Moscow           310.344
       209   03 Jun 2027 01:38:26.513   03 Jun 2027 01:38:47.278            20.765                 Moscow           648.906
       210   03 Jun 2027 01:42:25.240   03 Jun 2027 01:42:52.651            27.411                 Moscow           856.594
       211   03 Jun 2027 01:58:17.382   03 Jun 2027 01:58:52.159            34.777               CapeTown          1086.781
       212   03 Jun 2027 02:02:14.491   03 Jun 2027 02:03:33.390            78.899               CapeTown          2465.594
       213   03 Jun 2027 02:53:43.779   03 Jun 2027 02:55:02.291            78.512                Anadyr1          2453.500
       214   03 Jun 2027 02:56:37.357   03 Jun 2027 02:56:53.297            15.940                Anadyr1           498.125
       215   03 Jun 2027 02:56:59.135   03 Jun 2027 02:57:42.326            43.191               Magadan1          1349.719
       216   03 Jun 2027 02:58:43.869   03 Jun 2027 02:59:36.489            52.620               Magadan2          1644.375
       217   03 Jun 2027 03:13:37.174   03 Jun 2027 03:14:13.550            36.376                Norilsk          1136.750
       218   03 Jun 2027 03:14:17.771   03 Jun 2027 03:15:23.595            65.824              Murmansk2          2057.000
       219   03 Jun 2027 03:15:32.678   03 Jun 2027 03:16:12.992            40.314              Murmansk2          1259.813
       220   03 Jun 2027 03:32:45.147   03 Jun 2027 03:34:46.163           121.016               CapeTown          3781.750
       221   03 Jun 2027 04:29:30.921   03 Jun 2027 04:31:18.170           107.249                Anadyr1          3351.531
       222   03 Jun 2027 04:31:26.067   03 Jun 2027 04:31:59.584            33.517               Magadan1          1047.406
       223   03 Jun 2027 04:35:52.639   03 Jun 2027 04:36:51.084            58.445               Magadan2          1826.406
       224   03 Jun 2027 04:36:51.084   03 Jun 2027 04:37:39.733            48.649               Magadan1          1520.281
       225   03 Jun 2027 04:38:10.921   03 Jun 2027 04:39:56.423           105.502               Magadan2          3296.938
       226   03 Jun 2027 06:14:03.395   03 Jun 2027 06:14:06.813             3.418               Magadan1           106.813
       227   03 Jun 2027 06:14:14.032   03 Jun 2027 06:15:13.002            58.970                Anadyr1          1842.812
       228   03 Jun 2027 06:15:30.476   03 Jun 2027 06:16:23.240            52.764                Anadyr1          1648.875
       229   03 Jun 2027 06:17:16.197   03 Jun 2027 06:17:38.180            21.983                Anadyr1           686.969
       230   03 Jun 2027 07:47:19.541   03 Jun 2027 07:47:57.328            37.787               Magadan2          1180.844
       231   03 Jun 2027 07:48:12.872   03 Jun 2027 07:48:17.260             4.388               Magadan2           137.125
       232   03 Jun 2027 07:48:22.341   03 Jun 2027 07:48:58.465            36.124               Magadan1          1128.875
       233   03 Jun 2027 07:49:45.274   03 Jun 2027 07:49:51.930             6.656               Magadan2           208.000
       234   03 Jun 2027 07:50:21.259   03 Jun 2027 07:50:22.625             1.366               Magadan2            42.687
       235   03 Jun 2027 07:50:22.625   03 Jun 2027 07:50:48.633            26.008               Magadan1           812.750
       236   03 Jun 2027 07:51:59.629   03 Jun 2027 07:52:12.457            12.828               Magadan1           400.875
       237   03 Jun 2027 07:52:55.595   03 Jun 2027 07:53:11.830            16.235               Magadan2           507.344
       238   03 Jun 2027 07:53:14.339   03 Jun 2027 07:53:19.771             5.432               Magadan1           169.750
       239   03 Jun 2027 07:55:34.133   03 Jun 2027 07:55:36.225             2.092                Norilsk            65.375
       240   03 Jun 2027 07:57:04.184   03 Jun 2027 07:57:26.406            22.222              Murmansk1           694.438
       241   03 Jun 2027 08:28:18.719   03 Jun 2027 08:29:20.381            61.662            RioGallegos          1926.938
       242   03 Jun 2027 09:04:04.725   03 Jun 2027 09:04:38.013            33.288                Sumatra          1040.250
       243   03 Jun 2027 09:08:12.949   03 Jun 2027 09:10:08.843           115.894                Sumatra          3621.687
       244   03 Jun 2027 09:23:49.038   03 Jun 2027 09:23:54.692             5.654                Irkutsk           176.688
       245   03 Jun 2027 09:26:30.127   03 Jun 2027 09:27:05.248            35.121                Novosib          1097.531
       246   03 Jun 2027 09:27:33.325   03 Jun 2027 09:27:39.973             6.648                Irkutsk           207.750
       247   03 Jun 2027 09:27:49.706   03 Jun 2027 09:28:25.017            35.311                Irkutsk          1103.469
       248   03 Jun 2027 09:28:33.403   03 Jun 2027 09:29:25.156            51.753                Irkutsk          1617.281
       249   03 Jun 2027 10:05:35.773   03 Jun 2027 10:06:21.165            45.392            RioGallegos          1418.500
       250   03 Jun 2027 10:39:48.629   03 Jun 2027 10:41:04.553            75.924                Sumatra          2372.625
       251   03 Jun 2027 10:50:26.514   03 Jun 2027 10:50:53.368            26.854                  Delhi           839.187
       252   03 Jun 2027 11:02:02.408   03 Jun 2027 11:02:33.297            30.889                Irkutsk           965.281
       253   03 Jun 2027 11:03:14.270   03 Jun 2027 11:03:40.184            25.914                Novosib           809.813
       254   03 Jun 2027 11:04:25.233   03 Jun 2027 11:04:40.701            15.468                Novosib           483.375
       255   03 Jun 2027 11:04:57.195   03 Jun 2027 11:05:14.309            17.114                Novosib           534.813
       256   03 Jun 2027 12:24:51.076   03 Jun 2027 12:27:38.045           166.969                  Delhi          5217.781
       257   03 Jun 2027 12:33:19.320   03 Jun 2027 12:34:17.899            58.579                Novosib          1830.594
       258   03 Jun 2027 12:35:48.483   03 Jun 2027 12:37:15.953            87.470                Novosib          2733.437
       259   03 Jun 2027 12:43:28.806   03 Jun 2027 12:43:29.517             0.711              Murmansk1            22.219
       260   03 Jun 2027 12:43:49.783   03 Jun 2027 12:44:03.599            13.816              Murmansk1           431.750
       261   03 Jun 2027 14:07:57.381   03 Jun 2027 14:09:41.115           103.734                 Moscow          3241.687
       262   03 Jun 2027 14:11:28.071   03 Jun 2027 14:15:42.703           254.632              Murmansk1          7957.250
       263   03 Jun 2027 14:18:52.084   03 Jun 2027 14:20:33.693           101.609                Norilsk          3175.281
       264   03 Jun 2027 14:27:12.545   03 Jun 2027 14:28:26.583            74.038                Anadyr2          2313.687
       265   03 Jun 2027 14:29:41.661   03 Jun 2027 14:30:05.368            23.707                Anadyr1           740.844
       266   03 Jun 2027 14:31:34.352   03 Jun 2027 14:32:43.102            68.750                Anadyr1          2148.437
       267   03 Jun 2027 15:47:30.553   03 Jun 2027 15:47:56.444            25.891                 Moscow           809.094
       268   03 Jun 2027 15:49:32.021   03 Jun 2027 15:50:07.399            35.378              Murmansk1          1105.563
       269   03 Jun 2027 15:52:17.379   03 Jun 2027 15:53:49.749            92.370              Murmansk1          2886.562
       270   03 Jun 2027 16:01:56.998   03 Jun 2027 16:04:12.473           135.475                Anadyr2          4233.594
       271   03 Jun 2027 16:57:54.887   03 Jun 2027 16:58:33.566            38.679               CapeTown          1208.719
       272   03 Jun 2027 16:59:09.253   03 Jun 2027 16:59:44.085            34.832               CapeTown          1088.500
       273   03 Jun 2027 17:30:34.117   03 Jun 2027 17:34:07.710           213.593              Murmansk1          6674.781
       274   03 Jun 2027 17:37:45.157   03 Jun 2027 17:38:45.838            60.681                Anadyr2          1896.281
       275   03 Jun 2027 17:39:16.409   03 Jun 2027 17:39:45.175            28.766                Anadyr2           898.937
       276   03 Jun 2027 17:40:25.481   03 Jun 2027 17:41:17.497            52.016               Magadan2          1625.500
       277   03 Jun 2027 17:42:09.164   03 Jun 2027 17:42:23.119            13.955               Magadan2           436.094
       278   03 Jun 2027 17:45:46.416   03 Jun 2027 17:46:06.113            19.697               Magadan2           615.531
       279   03 Jun 2027 17:46:14.033   03 Jun 2027 17:46:25.100            11.067               Magadan1           345.844
       280   03 Jun 2027 19:13:40.539   03 Jun 2027 19:17:32.890           232.351                Anadyr1          7260.969
       281   03 Jun 2027 19:18:01.885   03 Jun 2027 19:18:34.612            32.727                Norilsk          1022.719
       282   03 Jun 2027 19:19:14.530   03 Jun 2027 19:19:52.140            37.610               Magadan1          1175.313
       283   03 Jun 2027 19:19:52.140   03 Jun 2027 19:20:23.776            31.636               Magadan2           988.625
       284   03 Jun 2027 19:23:09.332   03 Jun 2027 19:23:50.358            41.026               Magadan1          1282.062
       285   03 Jun 2027 19:25:58.964   03 Jun 2027 19:26:17.589            18.625               Magadan2           582.031
       286   03 Jun 2027 19:26:52.321   03 Jun 2027 19:27:00.601             8.280               Magadan2           258.750
       287   03 Jun 2027 19:27:29.674   03 Jun 2027 19:28:51.973            82.299               Magadan1          2571.844
       288   03 Jun 2027 20:08:30.049   03 Jun 2027 20:09:52.316            82.267            RioGallegos          2570.844
       289   03 Jun 2027 20:11:23.199   03 Jun 2027 20:11:49.292            26.093            RioGallegos           815.406
       290   03 Jun 2027 20:13:01.638   03 Jun 2027 20:13:16.899            15.261            RioGallegos           476.906
       291   03 Jun 2027 20:13:25.558   03 Jun 2027 20:14:01.357            35.799            RioGallegos          1118.719
       292   03 Jun 2027 20:49:21.997   03 Jun 2027 20:49:27.646             5.649                Anadyr2           176.531
       293   03 Jun 2027 20:50:13.701   03 Jun 2027 20:51:31.750            78.049                Anadyr2          2439.031
       294   03 Jun 2027 20:51:32.647   03 Jun 2027 20:53:53.834           141.187                Norilsk          4412.094
       295   03 Jun 2027 20:54:51.709   03 Jun 2027 20:55:24.629            32.920                Norilsk          1028.750
       296   03 Jun 2027 20:55:54.303   03 Jun 2027 20:56:44.770            50.467                Irkutsk          1577.094
       297   03 Jun 2027 21:05:01.526   03 Jun 2027 21:05:09.019             7.493                Irkutsk           234.156
       298   03 Jun 2027 21:09:52.774   03 Jun 2027 21:11:43.359           110.585                Sumatra          3455.781
       299   03 Jun 2027 21:12:11.585   03 Jun 2027 21:13:09.798            58.213                Sumatra          1819.156
       300   03 Jun 2027 22:27:26.770   03 Jun 2027 22:27:56.278            29.508                Norilsk           922.125
       301   03 Jun 2027 22:28:04.293   03 Jun 2027 22:29:31.884            87.591               Magadan2          2737.219
       302   03 Jun 2027 22:31:18.212   03 Jun 2027 22:32:00.030            41.818                Irkutsk          1306.813
       303   03 Jun 2027 22:32:14.228   03 Jun 2027 22:32:40.913            26.685                Irkutsk           833.906
       304   03 Jun 2027 22:32:41.135   03 Jun 2027 22:32:46.104             4.969                Novosib           155.281
       305   03 Jun 2027 22:32:58.295   03 Jun 2027 22:33:22.633            24.338                Novosib           760.562
       306   03 Jun 2027 22:34:18.294   03 Jun 2027 22:35:05.380            47.086                Novosib          1471.437
       307   03 Jun 2027 22:39:48.264   03 Jun 2027 22:42:52.141           183.877                  Delhi          5746.156
       308   04 Jun 2027 00:00:23.344   04 Jun 2027 00:00:50.205            26.861                Anadyr1           839.406
       309   04 Jun 2027 00:03:26.701   04 Jun 2027 00:05:22.558           115.857                Norilsk          3620.531
       310   04 Jun 2027 00:05:29.210   04 Jun 2027 00:05:59.828            30.618               Magadan2           956.812
       311   04 Jun 2027 00:06:02.525   04 Jun 2027 00:08:02.427           119.902              Murmansk1          3746.938
       312   04 Jun 2027 00:08:04.693   04 Jun 2027 00:08:57.786            53.093              Murmansk2          1659.156
       313   04 Jun 2027 00:11:53.048   04 Jun 2027 00:12:01.929             8.881                 Moscow           277.531
       314   04 Jun 2027 00:12:19.904   04 Jun 2027 00:13:23.547            63.643                 Moscow          1988.844
       315   04 Jun 2027 00:57:50.556   04 Jun 2027 00:58:05.623            15.067            RioGallegos           470.844
       316   04 Jun 2027 00:58:19.617   04 Jun 2027 00:59:30.578            70.961            RioGallegos          2217.531
       317   04 Jun 2027 01:31:21.088   04 Jun 2027 01:31:39.143            18.055                Anadyr1           564.219
       318   04 Jun 2027 01:32:50.157   04 Jun 2027 01:33:24.285            34.128                Anadyr1          1066.500
       319   04 Jun 2027 01:34:06.426   04 Jun 2027 01:34:36.426            30.000                Anadyr1           937.500
       320   04 Jun 2027 01:36:45.708   04 Jun 2027 01:36:51.999             6.291                Anadyr1           196.594
       321   04 Jun 2027 01:37:13.771   04 Jun 2027 01:37:36.749            22.978                Anadyr2           718.062
       322   04 Jun 2027 01:37:43.693   04 Jun 2027 01:39:31.609           107.916               Magadan2          3372.375
       323   04 Jun 2027 01:40:37.742   04 Jun 2027 01:40:47.403             9.661               Magadan2           301.906
       324   04 Jun 2027 01:41:29.841   04 Jun 2027 01:41:49.981            20.140               Magadan1           629.375
       325   04 Jun 2027 01:41:56.618   04 Jun 2027 01:43:35.474            98.856              Murmansk1          3089.250
       326   04 Jun 2027 01:44:28.836   04 Jun 2027 01:44:31.513             2.677                Novosib            83.656
       327   04 Jun 2027 01:45:02.887   04 Jun 2027 01:46:05.528            62.641                 Moscow          1957.531
       328   04 Jun 2027 01:50:53.315   04 Jun 2027 01:50:59.175             5.860                 Moscow           183.125
       329   04 Jun 2027 01:52:17.154   04 Jun 2027 01:52:42.599            25.445                 Moscow           795.156
       330   04 Jun 2027 02:09:48.301   04 Jun 2027 02:10:13.515            25.214               CapeTown           787.938
       331   04 Jun 2027 02:13:03.013   04 Jun 2027 02:14:10.357            67.344               CapeTown          2104.500
       332   04 Jun 2027 03:08:15.622   04 Jun 2027 03:08:16.002             0.380                Anadyr1            11.875
       333   04 Jun 2027 03:09:38.688   04 Jun 2027 03:09:44.037             5.349               Magadan1           167.156
       334   04 Jun 2027 03:10:30.610   04 Jun 2027 03:10:45.152            14.542                Anadyr2           454.438
       335   04 Jun 2027 03:11:08.875   04 Jun 2027 03:11:36.314            27.439                Anadyr1           857.469
       336   04 Jun 2027 03:16:36.667   04 Jun 2027 03:16:40.037             3.370                Anadyr2           105.312
       337   04 Jun 2027 03:16:51.557   04 Jun 2027 03:17:34.495            42.938               Magadan2          1341.813
       338   04 Jun 2027 04:48:38.119   04 Jun 2027 04:49:33.293            55.174               Magadan2          1724.187
       339   04 Jun 2027 04:50:02.844   04 Jun 2027 04:53:15.792           192.948               Magadan2          6029.625
       340   04 Jun 2027 04:54:08.762   04 Jun 2027 04:54:16.714             7.952                Anadyr2           248.500
       341   04 Jun 2027 06:24:18.837   04 Jun 2027 06:24:53.341            34.504               Magadan2          1078.250
       342   04 Jun 2027 06:25:01.562   04 Jun 2027 06:25:03.181             1.619               Magadan1            50.594
       343   04 Jun 2027 06:25:07.225   04 Jun 2027 06:25:34.592            27.367                Anadyr1           855.219
       344   04 Jun 2027 06:25:34.592   04 Jun 2027 06:25:41.750             7.158                Anadyr2           223.687
       345   04 Jun 2027 06:25:51.046   04 Jun 2027 06:26:12.467            21.421                Anadyr1           669.406
       346   04 Jun 2027 06:26:17.952   04 Jun 2027 06:26:47.303            29.351               Magadan2           917.219
       347   04 Jun 2027 06:27:10.604   04 Jun 2027 06:27:19.147             8.543                Anadyr2           266.969
       348   04 Jun 2027 06:28:23.834   04 Jun 2027 06:28:42.215            18.381                Anadyr2           574.406
       349   04 Jun 2027 06:29:14.647   04 Jun 2027 06:29:50.998            36.351                Anadyr2          1135.969
       350   04 Jun 2027 07:59:07.635   04 Jun 2027 08:00:16.262            68.627               Magadan2          2144.594
       351   04 Jun 2027 08:00:22.973   04 Jun 2027 08:01:10.869            47.896               Magadan1          1496.750
       352   04 Jun 2027 08:01:28.383   04 Jun 2027 08:01:32.729             4.346                Irkutsk           135.813
       353   04 Jun 2027 08:01:38.948   04 Jun 2027 08:02:23.589            44.641               Magadan1          1395.031
       354   04 Jun 2027 08:02:50.731   04 Jun 2027 08:03:59.377            68.646               Magadan2          2145.187
       355   04 Jun 2027 08:04:15.592   04 Jun 2027 08:05:04.620            49.028               Magadan2          1532.125
       356   04 Jun 2027 08:08:24.473   04 Jun 2027 08:08:39.731            15.258              Murmansk2           476.812
       357   04 Jun 2027 08:40:17.562   04 Jun 2027 08:41:28.539            70.977            RioGallegos          2218.031
       358   04 Jun 2027 09:15:42.772   04 Jun 2027 09:16:30.138            47.366                Sumatra          1480.187
       359   04 Jun 2027 09:21:47.076   04 Jun 2027 09:22:11.881            24.805                Sumatra           775.156
       360   04 Jun 2027 09:36:55.606   04 Jun 2027 09:37:28.376            32.770                Novosib          1024.062
       361   04 Jun 2027 09:37:55.449   04 Jun 2027 09:38:00.773             5.324                Novosib           166.375
       362   04 Jun 2027 09:38:10.297   04 Jun 2027 09:38:11.492             1.195                Novosib            37.344
       363   04 Jun 2027 09:39:10.094   04 Jun 2027 09:39:56.010            45.916                Novosib          1434.875
       364   04 Jun 2027 09:40:09.357   04 Jun 2027 09:40:20.439            11.082                Irkutsk           346.313
       365   04 Jun 2027 09:41:22.706   04 Jun 2027 09:41:33.661            10.955                Irkutsk           342.344
       366   04 Jun 2027 10:18:07.757   04 Jun 2027 10:18:33.718            25.961            RioGallegos           811.281
       367   04 Jun 2027 10:18:51.909   04 Jun 2027 10:19:44.143            52.234            RioGallegos          1632.312
       368   04 Jun 2027 10:52:20.035   04 Jun 2027 10:52:23.634             3.599                Sumatra           112.469
       369   04 Jun 2027 10:52:57.883   04 Jun 2027 10:53:05.315             7.432                Sumatra           232.250
       370   04 Jun 2027 10:56:13.316   04 Jun 2027 10:56:59.926            46.610                Sumatra          1456.563
       371   04 Jun 2027 10:59:30.223   04 Jun 2027 11:00:37.269            67.046                  Delhi          2095.188
       372   04 Jun 2027 11:15:14.874   04 Jun 2027 11:15:20.211             5.337                Novosib           166.781
       373   04 Jun 2027 11:15:53.892   04 Jun 2027 11:16:54.401            60.509                Norilsk          1890.906
       374   04 Jun 2027 11:16:58.433   04 Jun 2027 11:17:03.092             4.659                Norilsk           145.594
       375   04 Jun 2027 11:17:14.906   04 Jun 2027 11:17:27.023            12.117                Norilsk           378.656
       376   04 Jun 2027 12:37:39.472   04 Jun 2027 12:39:29.488           110.016                  Delhi          3438.000
       377   04 Jun 2027 12:40:19.030   04 Jun 2027 12:40:48.121            29.091                  Delhi           909.094
       378   04 Jun 2027 12:46:11.717   04 Jun 2027 12:47:01.940            50.223                Novosib          1569.469
       379   04 Jun 2027 12:47:16.897   04 Jun 2027 12:48:47.597            90.700              Murmansk2          2834.375
       380   04 Jun 2027 12:48:54.113   04 Jun 2027 12:49:06.125            12.012              Murmansk1           375.375
       381   04 Jun 2027 12:49:22.753   04 Jun 2027 12:49:41.417            18.664                Norilsk           583.250
       382   04 Jun 2027 12:52:40.236   04 Jun 2027 12:52:58.799            18.563                Norilsk           580.094
       383   04 Jun 2027 14:00:57.018   04 Jun 2027 14:02:34.758            97.740               CapeTown          3054.375
       384   04 Jun 2027 14:04:03.709   04 Jun 2027 14:04:17.162            13.453               CapeTown           420.406
       385   04 Jun 2027 14:05:15.612   04 Jun 2027 14:05:38.178            22.566               CapeTown           705.188
       386   04 Jun 2027 14:20:10.283   04 Jun 2027 14:21:41.406            91.123                 Moscow          2847.594
       387   04 Jun 2027 14:23:38.569   04 Jun 2027 14:24:43.678            65.109              Murmansk2          2034.656
       388   04 Jun 2027 14:24:51.782   04 Jun 2027 14:25:12.327            20.545              Murmansk2           642.031
       389   04 Jun 2027 14:26:51.140   04 Jun 2027 14:28:08.454            77.314              Murmansk1          2416.062
       390   04 Jun 2027 14:38:53.314   04 Jun 2027 14:41:18.742           145.428                Anadyr1          4544.625
       391   04 Jun 2027 14:42:06.039   04 Jun 2027 14:42:15.984             9.945                Anadyr1           310.781
       392   04 Jun 2027 14:44:26.880   04 Jun 2027 14:45:18.920            52.040                Anadyr1          1626.250
       393   04 Jun 2027 15:33:17.110   04 Jun 2027 15:33:24.943             7.833               CapeTown           244.781
       394   04 Jun 2027 16:01:17.625   04 Jun 2027 16:01:48.217            30.592                 Moscow           956.000
       395   04 Jun 2027 16:01:59.623   04 Jun 2027 16:03:30.349            90.726              Murmansk2          2835.188
       396   04 Jun 2027 16:06:32.926   04 Jun 2027 16:06:37.600             4.674              Murmansk1           146.063
       397   04 Jun 2027 16:08:36.451   04 Jun 2027 16:09:15.519            39.068              Murmansk1          1220.875
       398   04 Jun 2027 16:13:56.120   04 Jun 2027 16:15:06.807            70.687                Anadyr2          2208.969
       399   04 Jun 2027 16:15:12.896   04 Jun 2027 16:16:07.770            54.874                Anadyr1          1714.813
       400   04 Jun 2027 16:24:54.508   04 Jun 2027 16:25:15.463            20.955                Anadyr2           654.844
       401   04 Jun 2027 17:10:18.455   04 Jun 2027 17:11:16.215            57.760               CapeTown          1805.000
       402   04 Jun 2027 17:43:48.149   04 Jun 2027 17:46:33.161           165.012              Murmansk2          5156.625
       403   04 Jun 2027 17:49:46.572   04 Jun 2027 17:51:44.991           118.419                Anadyr2          3700.594
       404   04 Jun 2027 17:52:20.545   04 Jun 2027 17:54:56.880           156.335               Magadan2          4885.469
       405   04 Jun 2027 18:03:31.604   04 Jun 2027 18:03:40.685             9.081               Magadan2           283.781
       406   04 Jun 2027 19:25:41.382   04 Jun 2027 19:27:40.457           119.075                Anadyr1          3721.094
       407   04 Jun 2027 19:27:46.838   04 Jun 2027 19:29:32.960           106.122                Anadyr2          3316.313
       408   04 Jun 2027 19:29:38.286   04 Jun 2027 19:32:08.331           150.045                Norilsk          4688.906
       409   04 Jun 2027 19:37:55.735   04 Jun 2027 19:38:05.434             9.699               Magadan2           303.094
       410   04 Jun 2027 20:20:14.863   04 Jun 2027 20:23:42.070           207.207            RioGallegos          6475.219
       411   04 Jun 2027 20:29:13.808   04 Jun 2027 20:29:38.808            25.000            RioGallegos           781.250
       412   04 Jun 2027 21:01:19.252   04 Jun 2027 21:02:02.402            43.150                Anadyr1          1348.438
       413   04 Jun 2027 21:04:00.551   04 Jun 2027 21:04:14.135            13.584               Magadan1           424.500
       414   04 Jun 2027 21:04:22.460   04 Jun 2027 21:05:53.710            91.250               Magadan2          2851.562
       415   04 Jun 2027 21:06:29.609   04 Jun 2027 21:07:25.702            56.093                Norilsk          1752.906
       416   04 Jun 2027 21:07:46.376   04 Jun 2027 21:08:33.912            47.536                Irkutsk          1485.500
       417   04 Jun 2027 21:10:06.699   04 Jun 2027 21:10:41.065            34.366                Novosib          1073.937
       418   04 Jun 2027 21:11:55.374   04 Jun 2027 21:12:54.573            59.199                Novosib          1849.969
       419   04 Jun 2027 21:21:34.544   04 Jun 2027 21:23:24.272           109.728                Sumatra          3429.000
       420   04 Jun 2027 21:24:03.895   04 Jun 2027 21:24:40.685            36.790                Sumatra          1149.687
       421   04 Jun 2027 22:39:22.626   04 Jun 2027 22:39:40.304            17.678                Anadyr1           552.438
       422   04 Jun 2027 22:39:49.943   04 Jun 2027 22:39:54.493             4.550                Norilsk           142.187
       423   04 Jun 2027 22:40:06.543   04 Jun 2027 22:41:32.375            85.832               Magadan1          2682.250
       424   04 Jun 2027 22:41:37.693   04 Jun 2027 22:42:09.608            31.915               Magadan2           997.344
       425   04 Jun 2027 22:43:20.402   04 Jun 2027 22:43:58.338            37.936                Irkutsk          1185.500
       426   04 Jun 2027 22:44:10.573   04 Jun 2027 22:44:25.773            15.200                Irkutsk           475.000
       427   04 Jun 2027 22:44:36.570   04 Jun 2027 22:45:45.122            68.552                Novosib          2142.250
       428   04 Jun 2027 22:48:56.806   04 Jun 2027 22:49:27.118            30.312                Novosib           947.250
       429   04 Jun 2027 22:51:25.106   04 Jun 2027 22:54:00.632           155.526                  Delhi          4860.188
       430   05 Jun 2027 00:11:02.466   05 Jun 2027 00:11:22.992            20.526                Anadyr1           641.438
       431   05 Jun 2027 00:11:25.470   05 Jun 2027 00:11:45.484            20.014                Anadyr1           625.438
       432   05 Jun 2027 00:12:11.711   05 Jun 2027 00:12:32.355            20.644                Anadyr2           645.125
       433   05 Jun 2027 00:14:36.674   05 Jun 2027 00:15:14.703            38.029                Anadyr1          1188.406
       434   05 Jun 2027 00:15:28.236   05 Jun 2027 00:15:41.566            13.330                Norilsk           416.562
       435   05 Jun 2027 00:16:10.800   05 Jun 2027 00:18:37.145           146.345               Magadan2          4573.281
       436   05 Jun 2027 00:18:57.676   05 Jun 2027 00:20:03.485            65.809              Murmansk2          2056.531
       437   05 Jun 2027 00:22:43.593   05 Jun 2027 00:23:23.307            39.714              Murmansk2          1241.063
       438   05 Jun 2027 00:23:37.177   05 Jun 2027 00:24:54.314            77.137                 Moscow          2410.531
       439   05 Jun 2027 00:25:45.737   05 Jun 2027 00:26:29.851            44.114                 Moscow          1378.563
       440   05 Jun 2027 01:43:05.634   05 Jun 2027 01:44:43.600            97.966                Anadyr2          3061.438
       441   05 Jun 2027 01:45:24.119   05 Jun 2027 01:45:49.478            25.359                Anadyr2           792.469
       442   05 Jun 2027 01:46:05.929   05 Jun 2027 01:46:21.828            15.899                Anadyr2           496.844
       443   05 Jun 2027 01:48:17.997   05 Jun 2027 01:50:11.561           113.564               Magadan2          3548.875
       444   05 Jun 2027 01:51:16.701   05 Jun 2027 01:51:22.718             6.017                Norilsk           188.031
       445   05 Jun 2027 01:51:32.307   05 Jun 2027 01:51:42.398            10.091                Norilsk           315.344
       446   05 Jun 2027 01:52:11.404   05 Jun 2027 01:53:06.840            55.436               Magadan2          1732.375
       447   05 Jun 2027 01:53:36.053   05 Jun 2027 01:54:19.652            43.599              Murmansk2          1362.469
       448   05 Jun 2027 01:54:54.172   05 Jun 2027 01:55:46.174            52.002              Murmansk1          1625.062
       449   05 Jun 2027 01:55:50.384   05 Jun 2027 01:56:06.664            16.280                Novosib           508.750
       450   05 Jun 2027 01:59:14.219   05 Jun 2027 01:59:31.038            16.819                 Moscow           525.594
       451   05 Jun 2027 02:02:24.346   05 Jun 2027 02:02:54.001            29.655                 Moscow           926.719
       452   05 Jun 2027 02:07:58.061   05 Jun 2027 02:07:58.830             0.769                 Moscow            24.031
       453   05 Jun 2027 02:21:25.653   05 Jun 2027 02:22:14.621            48.968               CapeTown          1530.250
       454   05 Jun 2027 02:23:58.307   05 Jun 2027 02:24:43.508            45.201               CapeTown          1412.531
       455   05 Jun 2027 03:17:33.486   05 Jun 2027 03:17:43.234             9.748                Anadyr2           304.625
       456   05 Jun 2027 03:19:05.791   05 Jun 2027 03:19:59.301            53.510                Anadyr2          1672.187
       457   05 Jun 2027 03:24:55.470   05 Jun 2027 03:26:21.642            86.172                Anadyr1          2692.875
       458   05 Jun 2027 03:26:30.784   05 Jun 2027 03:26:32.804             2.020                Anadyr2            63.125
       459   05 Jun 2027 03:27:02.667   05 Jun 2027 03:28:01.772            59.105               Magadan2          1847.031
       460   05 Jun 2027 03:28:17.191   05 Jun 2027 03:28:19.412             2.221               Magadan2            69.406
       461   05 Jun 2027 03:29:18.912   05 Jun 2027 03:29:21.645             2.733               Magadan2            85.406
       462   05 Jun 2027 03:29:41.410   05 Jun 2027 03:29:55.580            14.170                Anadyr2           442.813
       463   05 Jun 2027 03:38:39.215   05 Jun 2027 03:39:10.067            30.852              Murmansk2           964.125
       464   05 Jun 2027 03:40:18.655   05 Jun 2027 03:40:39.301            20.646              Murmansk2           645.187
       465   05 Jun 2027 04:59:05.792   05 Jun 2027 04:59:21.200            15.408                Anadyr2           481.500
       466   05 Jun 2027 04:59:38.158   05 Jun 2027 05:01:37.312           119.154               Magadan1          3723.563
       467   05 Jun 2027 05:01:37.312   05 Jun 2027 05:02:14.474            37.162               Magadan2          1161.312
       468   05 Jun 2027 05:02:28.505   05 Jun 2027 05:05:31.260           182.755                Anadyr1          5711.094
       469   05 Jun 2027 05:05:31.260   05 Jun 2027 05:06:17.293            46.033                Anadyr2          1438.531
       470   05 Jun 2027 06:36:48.557   05 Jun 2027 06:37:30.447            41.890                Anadyr2          1309.062
       471   05 Jun 2027 06:37:36.185   05 Jun 2027 06:38:48.404            72.219                Anadyr1          2256.844
       472   05 Jun 2027 06:38:58.059   05 Jun 2027 06:39:41.516            43.457               Magadan2          1358.031
       473   05 Jun 2027 06:39:55.284   05 Jun 2027 06:40:08.267            12.983               Magadan1           405.719
       474   05 Jun 2027 06:40:24.063   05 Jun 2027 06:40:44.042            19.979                Anadyr1           624.344
       475   05 Jun 2027 08:10:02.724   05 Jun 2027 08:10:09.012             6.288               Magadan2           196.500
       476   05 Jun 2027 08:10:36.118   05 Jun 2027 08:10:46.072             9.954               Magadan2           311.063
       477   05 Jun 2027 08:12:18.760   05 Jun 2027 08:12:52.820            34.060               Magadan2          1064.375
       478   05 Jun 2027 08:14:13.394   05 Jun 2027 08:14:25.664            12.270               Magadan2           383.437
       479   05 Jun 2027 08:14:55.368   05 Jun 2027 08:15:58.471            63.103               Magadan1          1971.969
       480   05 Jun 2027 08:16:18.596   05 Jun 2027 08:16:59.687            41.091               Magadan1          1284.094
       481   05 Jun 2027 08:22:18.746   05 Jun 2027 08:22:36.950            18.204              Murmansk2           568.875
       482   05 Jun 2027 08:52:19.708   05 Jun 2027 08:52:49.977            30.269            RioGallegos           945.906
