uniorb/output/strategy_4/Drop/Drop_KinoSat_111009.txt

KinoSat_111009
-------------------------
    Access    *     Start Time (UTCG)     *     Stop Time (UTCG)  *   Duration (s)        *       Station  *  Data (Mbytes)
         1   01 Jun 2027 03:01:48.909   01 Jun 2027 03:02:19.613            30.704              Murmansk2           959.500
         2   01 Jun 2027 03:02:19.613   01 Jun 2027 03:03:02.562            42.949              Murmansk1          1342.156
         3   01 Jun 2027 03:03:09.986   01 Jun 2027 03:03:53.053            43.067              Murmansk2          1345.844
         4   01 Jun 2027 03:04:28.110   01 Jun 2027 03:05:50.583            82.473              Murmansk1          2577.281
         5   01 Jun 2027 03:06:16.329   01 Jun 2027 03:06:21.741             5.412              Murmansk1           169.125
         6   01 Jun 2027 03:23:56.629   01 Jun 2027 03:24:36.533            39.904               CapeTown          1247.000
         7   01 Jun 2027 03:24:59.739   01 Jun 2027 03:26:59.895           120.156               CapeTown          3754.875
         8   01 Jun 2027 04:25:48.191   01 Jun 2027 04:26:34.203            46.012               Magadan1          1437.875
         9   01 Jun 2027 04:27:01.433   01 Jun 2027 04:27:17.176            15.743                Norilsk           491.969
        10   01 Jun 2027 04:27:23.924   01 Jun 2027 04:28:02.762            38.838               Magadan1          1213.687
        11   01 Jun 2027 04:28:02.762   01 Jun 2027 04:28:28.688            25.926               Magadan2           810.188
        12   01 Jun 2027 04:28:35.993   01 Jun 2027 04:29:46.529            70.536                Anadyr1          2204.250
        13   01 Jun 2027 04:30:43.718   01 Jun 2027 04:31:21.470            37.752                Anadyr2          1179.750
        14   01 Jun 2027 06:03:05.936   01 Jun 2027 06:03:55.751            49.815                Norilsk          1556.719
        15   01 Jun 2027 06:04:00.113   01 Jun 2027 06:05:18.531            78.418                Norilsk          2450.563
        16   01 Jun 2027 06:05:24.725   01 Jun 2027 06:06:32.974            68.249                Anadyr2          2132.781
        17   01 Jun 2027 06:43:27.791   01 Jun 2027 06:44:13.168            45.377            RioGallegos          1418.031
        18   01 Jun 2027 07:38:08.875   01 Jun 2027 07:38:57.762            48.887               Magadan1          1527.719
        19   01 Jun 2027 07:39:01.379   01 Jun 2027 07:41:37.861           156.482               Magadan2          4890.062
        20   01 Jun 2027 07:41:59.187   01 Jun 2027 07:42:33.051            33.864               Magadan2          1058.250
        21   01 Jun 2027 07:42:41.061   01 Jun 2027 07:44:15.322            94.261              Murmansk1          2945.656
        22   01 Jun 2027 07:44:15.322   01 Jun 2027 07:44:55.886            40.564              Murmansk2          1267.625
        23   01 Jun 2027 07:50:09.253   01 Jun 2027 07:50:45.215            35.962              Murmansk2          1123.813
        24   01 Jun 2027 08:17:43.292   01 Jun 2027 08:18:44.961            61.669            RioGallegos          1927.156
        25   01 Jun 2027 08:23:23.540   01 Jun 2027 08:24:25.409            61.869            RioGallegos          1933.406
        26   01 Jun 2027 08:53:01.922   01 Jun 2027 08:53:45.728            43.806                Sumatra          1368.937
        27   01 Jun 2027 08:55:26.967   01 Jun 2027 08:56:31.779            64.812                Sumatra          2025.375
        28   01 Jun 2027 09:05:38.427   01 Jun 2027 09:06:44.069            65.642                  Delhi          2051.313
        29   01 Jun 2027 09:15:08.923   01 Jun 2027 09:16:00.759            51.836                Irkutsk          1619.875
        30   01 Jun 2027 09:16:32.803   01 Jun 2027 09:17:33.888            61.085                Novosib          1908.906
        31   01 Jun 2027 09:17:38.248   01 Jun 2027 09:18:58.804            80.556                Irkutsk          2517.375
        32   01 Jun 2027 09:19:04.345   01 Jun 2027 09:19:49.452            45.107                Novosib          1409.594
        33   01 Jun 2027 09:20:16.885   01 Jun 2027 09:20:39.329            22.444              Murmansk2           701.375
        34   01 Jun 2027 09:55:46.599   01 Jun 2027 09:55:55.020             8.421            RioGallegos           263.156
        35   01 Jun 2027 09:56:12.693   01 Jun 2027 09:56:58.827            46.134            RioGallegos          1441.688
        36   01 Jun 2027 09:58:39.518   01 Jun 2027 10:00:04.973            85.455            RioGallegos          2670.469
        37   01 Jun 2027 10:29:59.904   01 Jun 2027 10:30:26.219            26.315                Sumatra           822.344
        38   01 Jun 2027 10:31:18.401   01 Jun 2027 10:32:55.051            96.650                Sumatra          3020.313
        39   01 Jun 2027 10:53:11.101   01 Jun 2027 10:53:21.375            10.274                Irkutsk           321.063
        40   01 Jun 2027 10:53:21.762   01 Jun 2027 10:53:28.817             7.055              Murmansk1           220.469
        41   01 Jun 2027 10:53:35.064   01 Jun 2027 10:55:32.413           117.349                Norilsk          3667.156
        42   01 Jun 2027 10:55:38.661   01 Jun 2027 10:56:47.043            68.382              Murmansk1          2136.937
        43   01 Jun 2027 10:57:36.188   01 Jun 2027 10:57:48.518            12.330              Murmansk1           385.313
        44   01 Jun 2027 10:59:27.498   01 Jun 2027 11:00:10.903            43.405              Murmansk2          1356.406
        45   01 Jun 2027 11:01:00.274   01 Jun 2027 11:01:18.557            18.283              Murmansk1           571.344
        46   01 Jun 2027 11:01:40.248   01 Jun 2027 11:01:48.688             8.440              Murmansk1           263.750
        47   01 Jun 2027 12:15:27.237   01 Jun 2027 12:19:44.258           257.021                  Delhi          8031.906
        48   01 Jun 2027 12:20:26.670   01 Jun 2027 12:20:47.300            20.630                  Delhi           644.688
        49   01 Jun 2027 12:21:10.703   01 Jun 2027 12:22:52.959           102.256                  Delhi          3195.500
        50   01 Jun 2027 12:24:41.763   01 Jun 2027 12:25:25.500            43.737              Murmansk2          1366.781
        51   01 Jun 2027 12:25:25.500   01 Jun 2027 12:27:19.403           113.903              Murmansk1          3559.469
        52   01 Jun 2027 12:27:42.281   01 Jun 2027 12:28:06.180            23.899                Novosib           746.844
        53   01 Jun 2027 12:28:12.721   01 Jun 2027 12:28:30.811            18.090                Norilsk           565.313
        54   01 Jun 2027 12:30:08.511   01 Jun 2027 12:30:56.042            47.531                Norilsk          1485.344
        55   01 Jun 2027 13:37:50.574   01 Jun 2027 13:39:52.006           121.432               CapeTown          3794.750
        56   01 Jun 2027 13:42:44.627   01 Jun 2027 13:43:42.564            57.937               CapeTown          1810.531
        57   01 Jun 2027 13:57:41.261   01 Jun 2027 13:59:00.147            78.886                 Moscow          2465.187
        58   01 Jun 2027 14:01:08.250   01 Jun 2027 14:03:33.233           144.983              Murmansk2          4530.719
        59   01 Jun 2027 14:03:33.233   01 Jun 2027 14:03:59.156            25.923              Murmansk1           810.094
        60   01 Jun 2027 14:08:24.794   01 Jun 2027 14:08:45.240            20.446              Murmansk2           638.937
        61   01 Jun 2027 14:16:13.699   01 Jun 2027 14:19:52.279           218.580                Anadyr2          6830.625
        62   01 Jun 2027 15:14:29.191   01 Jun 2027 15:14:42.865            13.674               CapeTown           427.312
        63   01 Jun 2027 15:38:28.244   01 Jun 2027 15:39:04.951            36.707                 Moscow          1147.094
        64   01 Jun 2027 15:39:35.898   01 Jun 2027 15:40:54.436            78.538              Murmansk2          2454.313
        65   01 Jun 2027 15:42:06.479   01 Jun 2027 15:43:43.880            97.401              Murmansk1          3043.781
        66   01 Jun 2027 15:51:21.375   01 Jun 2027 15:53:24.031           122.656                Anadyr2          3833.000
        67   01 Jun 2027 15:53:24.031   01 Jun 2027 15:53:25.597             1.566                Anadyr1            48.937
        68   01 Jun 2027 15:56:38.122   01 Jun 2027 15:58:44.682           126.560               Magadan2          3955.000
        69   01 Jun 2027 17:21:54.478   01 Jun 2027 17:23:33.977            99.499              Murmansk1          3109.344
        70   01 Jun 2027 17:27:12.429   01 Jun 2027 17:30:02.897           170.468                Anadyr2          5327.125
        71   01 Jun 2027 17:30:05.062   01 Jun 2027 17:34:01.740           236.678               Magadan1          7396.187
        72   01 Jun 2027 19:03:06.862   01 Jun 2027 19:04:59.036           112.174                Anadyr2          3505.437
        73   01 Jun 2027 19:05:21.501   01 Jun 2027 19:07:01.352            99.851                Anadyr1          3120.344
        74   01 Jun 2027 19:07:18.366   01 Jun 2027 19:09:16.241           117.875               Magadan2          3683.594
        75   01 Jun 2027 19:09:16.241   01 Jun 2027 19:09:39.730            23.489               Magadan1           734.031
        76   01 Jun 2027 19:09:43.393   01 Jun 2027 19:09:57.413            14.020                Norilsk           438.125
        77   01 Jun 2027 19:57:35.793   01 Jun 2027 20:01:09.495           213.702            RioGallegos          6678.188
        78   01 Jun 2027 20:40:42.022   01 Jun 2027 20:40:48.356             6.334                Anadyr1           197.937
        79   01 Jun 2027 20:40:58.301   01 Jun 2027 20:41:09.081            10.780                Norilsk           336.875
        80   01 Jun 2027 20:41:24.977   01 Jun 2027 20:42:58.730            93.753                Norilsk          2929.781
        81   01 Jun 2027 20:42:58.835   01 Jun 2027 20:44:11.475            72.640               Magadan2          2270.000
        82   01 Jun 2027 20:45:09.446   01 Jun 2027 20:45:40.722            31.276                Irkutsk           977.375
        83   01 Jun 2027 20:46:33.815   01 Jun 2027 20:46:55.468            21.653                Irkutsk           676.656
        84   01 Jun 2027 20:47:11.245   01 Jun 2027 20:49:53.652           162.407                Novosib          5075.219
        85   01 Jun 2027 20:58:54.897   01 Jun 2027 21:00:58.760           123.863                Sumatra          3870.719
        86   01 Jun 2027 21:01:34.925   01 Jun 2027 21:02:38.173            63.248                Sumatra          1976.500
        87   01 Jun 2027 22:16:54.901   01 Jun 2027 22:17:05.503            10.602                Norilsk           331.313
        88   01 Jun 2027 22:17:32.315   01 Jun 2027 22:18:38.408            66.093               Magadan1          2065.406
        89   01 Jun 2027 22:18:38.408   01 Jun 2027 22:19:00.137            21.729               Magadan2           679.031
        90   01 Jun 2027 22:20:46.684   01 Jun 2027 22:21:39.859            53.175                Irkutsk          1661.719
        91   01 Jun 2027 22:22:31.013   01 Jun 2027 22:22:58.998            27.985                Novosib           874.531
        92   01 Jun 2027 22:24:24.420   01 Jun 2027 22:26:35.390           130.970                Novosib          4092.812
        93   01 Jun 2027 22:28:43.738   01 Jun 2027 22:30:19.108            95.370                  Delhi          2980.313
        94   01 Jun 2027 23:49:06.729   01 Jun 2027 23:50:04.690            57.961                Anadyr1          1811.281
        95   01 Jun 2027 23:52:54.066   01 Jun 2027 23:53:18.212            24.146                Norilsk           754.563
        96   01 Jun 2027 23:53:23.356   01 Jun 2027 23:53:35.832            12.476               Magadan2           389.875
        97   01 Jun 2027 23:53:42.737   01 Jun 2027 23:54:18.444            35.707               Magadan2          1115.844
        98   01 Jun 2027 23:54:18.444   01 Jun 2027 23:54:52.945            34.501               Magadan1          1078.156
        99   01 Jun 2027 23:55:16.931   01 Jun 2027 23:57:43.118           146.187              Murmansk2          4568.344
       100   01 Jun 2027 23:58:28.583   01 Jun 2027 23:59:25.270            56.687              Murmansk1          1771.469
       101   02 Jun 2027 00:00:09.818   02 Jun 2027 00:01:09.264            59.446                 Moscow          1857.687
       102   02 Jun 2027 00:02:46.015   02 Jun 2027 00:03:24.797            38.782                 Moscow          1211.938
       103   02 Jun 2027 00:05:09.520   02 Jun 2027 00:06:45.958            96.438                 Moscow          3013.687
       104   02 Jun 2027 01:20:25.447   02 Jun 2027 01:20:35.323             9.876                Anadyr1           308.625
       105   02 Jun 2027 01:22:22.066   02 Jun 2027 01:22:47.075            25.009                Anadyr2           781.531
       106   02 Jun 2027 01:23:06.879   02 Jun 2027 01:23:31.401            24.522                Anadyr1           766.313
       107   02 Jun 2027 01:25:31.111   02 Jun 2027 01:27:34.078           122.967               Magadan1          3842.719
       108   02 Jun 2027 01:29:20.108   02 Jun 2027 01:29:36.158            16.050               Magadan1           501.562
       109   02 Jun 2027 01:31:02.006   02 Jun 2027 01:31:40.767            38.761              Murmansk1          1211.281
       110   02 Jun 2027 01:31:47.294   02 Jun 2027 01:32:13.447            26.153              Murmansk1           817.281
       111   02 Jun 2027 01:32:39.985   02 Jun 2027 01:33:17.922            37.937              Murmansk1          1185.531
       112   02 Jun 2027 01:33:40.094   02 Jun 2027 01:33:44.103             4.009              Murmansk1           125.281
       113   02 Jun 2027 01:34:23.966   02 Jun 2027 01:35:11.193            47.227                 Moscow          1475.844
       114   02 Jun 2027 01:36:39.391   02 Jun 2027 01:36:43.337             3.946                 Moscow           123.312
       115   02 Jun 2027 01:38:03.187   02 Jun 2027 01:38:19.794            16.607                Novosib           518.969
       116   02 Jun 2027 01:39:49.745   02 Jun 2027 01:41:50.895           121.150                Novosib          3785.937
       117   02 Jun 2027 02:54:57.625   02 Jun 2027 02:57:15.013           137.388                Anadyr1          4293.375
       118   02 Jun 2027 02:57:22.602   02 Jun 2027 02:58:47.262            84.660               Magadan1          2645.625
       119   02 Jun 2027 03:02:10.894   02 Jun 2027 03:05:53.667           222.773                Anadyr1          6961.656
       120   02 Jun 2027 03:15:07.190   02 Jun 2027 03:15:41.506            34.316              Murmansk2          1072.375
       121   02 Jun 2027 03:15:53.446   02 Jun 2027 03:15:54.631             1.185                 Moscow            37.031
       122   02 Jun 2027 03:15:56.897   02 Jun 2027 03:16:18.467            21.570              Murmansk2           674.063
       123   02 Jun 2027 03:16:39.009   02 Jun 2027 03:17:22.856            43.847                 Moscow          1370.219
       124   02 Jun 2027 03:34:53.978   02 Jun 2027 03:35:55.470            61.492               CapeTown          1921.625
       125   02 Jun 2027 04:30:53.624   02 Jun 2027 04:34:09.894           196.270               Magadan2          6133.438
       126   02 Jun 2027 04:36:00.075   02 Jun 2027 04:37:24.794            84.719                Anadyr1          2647.469
       127   02 Jun 2027 04:37:30.192   02 Jun 2027 04:38:24.308            54.116               Magadan1          1691.125
       128   02 Jun 2027 04:38:27.312   02 Jun 2027 04:39:50.097            82.785                Anadyr2          2587.031
       129   02 Jun 2027 04:40:07.261   02 Jun 2027 04:40:21.884            14.623               Magadan2           456.969
       130   02 Jun 2027 04:40:38.654   02 Jun 2027 04:41:34.052            55.398               Magadan1          1731.188
       131   02 Jun 2027 04:41:48.116   02 Jun 2027 04:42:13.701            25.585                Anadyr2           799.531
       132   02 Jun 2027 06:15:44.200   02 Jun 2027 06:17:44.466           120.266                Irkutsk          3758.312
       133   02 Jun 2027 07:50:23.151   02 Jun 2027 07:52:11.374           108.223               Magadan1          3381.969
       134   02 Jun 2027 07:52:11.374   02 Jun 2027 07:53:40.512            89.138               Magadan2          2785.562
       135   02 Jun 2027 07:54:17.391   02 Jun 2027 07:54:20.750             3.359               Magadan2           104.969
       136   02 Jun 2027 08:29:46.656   02 Jun 2027 08:32:19.302           152.646            RioGallegos          4770.187
       137   02 Jun 2027 08:32:30.418   02 Jun 2027 08:33:01.916            31.498            RioGallegos           984.312
       138   02 Jun 2027 08:33:30.975   02 Jun 2027 08:34:08.968            37.993            RioGallegos          1187.281
       139   02 Jun 2027 09:04:49.442   02 Jun 2027 09:08:40.357           230.915                Sumatra          7216.094
       140   02 Jun 2027 09:27:09.334   02 Jun 2027 09:28:11.866            62.532                Irkutsk          1954.125
       141   02 Jun 2027 09:28:16.251   02 Jun 2027 09:28:17.080             0.829                Norilsk            25.906
       142   02 Jun 2027 09:28:36.961   02 Jun 2027 09:29:15.133            38.172                Novosib          1192.875
       143   02 Jun 2027 09:29:27.112   02 Jun 2027 09:30:19.774            52.662                Novosib          1645.687
       144   02 Jun 2027 09:30:22.895   02 Jun 2027 09:30:27.245             4.350                Norilsk           135.937
       145   02 Jun 2027 09:30:36.795   02 Jun 2027 09:30:56.438            19.643                Irkutsk           613.844
       146   02 Jun 2027 09:31:04.366   02 Jun 2027 09:32:00.281            55.915                Novosib          1747.344
       147   02 Jun 2027 10:09:06.342   02 Jun 2027 10:09:34.896            28.554            RioGallegos           892.313
       148   02 Jun 2027 10:42:52.081   02 Jun 2027 10:44:41.163           109.082                Sumatra          3408.812
       149   02 Jun 2027 11:02:55.557   02 Jun 2027 11:03:22.085            26.528                Norilsk           829.000
       150   02 Jun 2027 11:03:56.305   02 Jun 2027 11:04:15.159            18.854                Norilsk           589.188
       151   02 Jun 2027 11:04:35.861   02 Jun 2027 11:04:43.305             7.444                Novosib           232.625
       152   02 Jun 2027 11:05:03.284   02 Jun 2027 11:05:08.930             5.646                Norilsk           176.438
       153   02 Jun 2027 11:05:32.386   02 Jun 2027 11:06:09.729            37.343                Norilsk          1166.969
       154   02 Jun 2027 11:06:15.766   02 Jun 2027 11:06:26.556            10.790                Norilsk           337.188
       155   02 Jun 2027 11:06:35.893   02 Jun 2027 11:06:36.404             0.511                Novosib            15.969
       156   02 Jun 2027 12:28:50.932   02 Jun 2027 12:31:36.264           165.332                  Delhi          5166.625
       157   02 Jun 2027 12:35:56.513   02 Jun 2027 12:37:05.734            69.221                 Moscow          2163.156
       158   02 Jun 2027 12:37:13.647   02 Jun 2027 12:37:14.438             0.791                 Moscow            24.719
       159   02 Jun 2027 12:37:15.776   02 Jun 2027 12:38:39.664            83.888                Novosib          2621.500
       160   02 Jun 2027 12:39:13.445   02 Jun 2027 12:40:01.455            48.010              Murmansk1          1500.313
       161   02 Jun 2027 13:48:52.727   02 Jun 2027 13:51:30.711           157.984               CapeTown          4937.000
       162   02 Jun 2027 13:53:53.122   02 Jun 2027 13:54:59.181            66.059               CapeTown          2064.344
       163   02 Jun 2027 13:56:35.049   02 Jun 2027 13:56:56.756            21.707               CapeTown           678.344
       164   02 Jun 2027 14:13:21.278   02 Jun 2027 14:15:25.228           123.950              Murmansk1          3873.438
       165   02 Jun 2027 14:16:00.843   02 Jun 2027 14:16:07.653             6.810              Murmansk1           212.813
       166   02 Jun 2027 14:22:41.575   02 Jun 2027 14:23:07.533            25.958              Murmansk2           811.187
       167   02 Jun 2027 14:28:02.249   02 Jun 2027 14:30:05.698           123.449                Anadyr1          3857.781
       168   02 Jun 2027 14:30:05.701   02 Jun 2027 14:31:40.748            95.047                Anadyr2          2970.219
       169   02 Jun 2027 15:52:07.189   02 Jun 2027 15:53:47.616           100.427              Murmansk2          3138.344
       170   02 Jun 2027 15:54:08.343   02 Jun 2027 15:55:40.489            92.146              Murmansk2          2879.562
       171   02 Jun 2027 16:03:21.172   02 Jun 2027 16:04:30.061            68.889                Anadyr2          2152.781
       172   02 Jun 2027 16:04:30.061   02 Jun 2027 16:04:48.267            18.206                Anadyr1           568.938
       173   02 Jun 2027 16:05:39.571   02 Jun 2027 16:05:56.299            16.728                Anadyr1           522.750
       174   02 Jun 2027 16:07:34.775   02 Jun 2027 16:11:46.980           252.205               Magadan2          7881.406
       175   02 Jun 2027 17:39:13.866   02 Jun 2027 17:40:45.973            92.107                Anadyr1          2878.344
       176   02 Jun 2027 17:41:00.323   02 Jun 2027 17:41:10.447            10.124                Anadyr1           316.375
       177   02 Jun 2027 17:41:41.323   02 Jun 2027 17:43:17.826            96.503               Magadan1          3015.719
       178   02 Jun 2027 17:43:17.826   02 Jun 2027 17:43:20.451             2.625               Magadan2            82.031
       179   02 Jun 2027 17:43:32.275   02 Jun 2027 17:43:44.246            11.971               Magadan2           374.094
       180   02 Jun 2027 17:47:28.604   02 Jun 2027 17:47:31.279             2.675               Magadan2            83.594
       181   02 Jun 2027 17:48:28.829   02 Jun 2027 17:48:44.006            15.177               Magadan1           474.281
       182   02 Jun 2027 17:49:20.782   02 Jun 2027 17:51:29.584           128.802               Magadan1          4025.063
       183   02 Jun 2027 19:15:07.315   02 Jun 2027 19:17:13.814           126.499                Anadyr2          3953.094
       184   02 Jun 2027 19:17:25.676   02 Jun 2027 19:18:51.914            86.238               Magadan1          2694.938
       185   02 Jun 2027 19:18:58.057   02 Jun 2027 19:19:26.465            28.408               Magadan1           887.750
       186   02 Jun 2027 19:20:12.915   02 Jun 2027 19:21:13.775            60.860                Norilsk          1901.875
       187   02 Jun 2027 19:24:27.876   02 Jun 2027 19:26:13.060           105.184                Irkutsk          3287.000
       188   02 Jun 2027 19:27:33.954   02 Jun 2027 19:27:39.243             5.289                Irkutsk           165.281
       189   02 Jun 2027 20:09:25.514   02 Jun 2027 20:10:34.460            68.946            RioGallegos          2154.563
       190   02 Jun 2027 20:10:58.701   02 Jun 2027 20:11:35.493            36.792            RioGallegos          1149.750
       191   02 Jun 2027 20:52:58.930   02 Jun 2027 20:54:56.224           117.294                Norilsk          3665.437
       192   02 Jun 2027 20:57:04.230   02 Jun 2027 20:58:37.687            93.457                Irkutsk          2920.531
       193   02 Jun 2027 20:59:04.596   02 Jun 2027 21:01:36.571           151.975                Novosib          4749.219
       194   02 Jun 2027 21:03:25.351   02 Jun 2027 21:03:32.997             7.646                Novosib           238.937
       195   02 Jun 2027 21:05:13.840   02 Jun 2027 21:05:28.331            14.491                Novosib           452.844
       196   02 Jun 2027 21:10:45.473   02 Jun 2027 21:11:41.740            56.267                Sumatra          1758.344
       197   02 Jun 2027 21:19:05.396   02 Jun 2027 21:20:16.597            71.201                Sumatra          2225.031
       198   02 Jun 2027 22:28:56.899   02 Jun 2027 22:29:04.967             8.068                Norilsk           252.125
       199   02 Jun 2027 22:29:34.025   02 Jun 2027 22:30:59.768            85.743               Magadan1          2679.469
       200   02 Jun 2027 22:32:49.887   02 Jun 2027 22:33:28.910            39.023                Irkutsk          1219.469
       201   02 Jun 2027 22:34:28.847   02 Jun 2027 22:34:38.249             9.402                Irkutsk           293.813
       202   02 Jun 2027 22:34:51.065   02 Jun 2027 22:36:03.136            72.071                Novosib          2252.219
       203   02 Jun 2027 22:38:28.954   02 Jun 2027 22:38:56.235            27.281                Novosib           852.531
       204   02 Jun 2027 22:40:29.008   02 Jun 2027 22:42:45.066           136.058                  Delhi          4251.813
       205   03 Jun 2027 00:00:09.719   03 Jun 2027 00:01:06.504            56.785                Anadyr1          1774.531
       206   03 Jun 2027 00:01:46.002   03 Jun 2027 00:01:47.118             1.116                Anadyr1            34.875
       207   03 Jun 2027 00:04:49.049   03 Jun 2027 00:05:30.038            40.989               Magadan2          1280.906
       208   03 Jun 2027 00:05:42.571   03 Jun 2027 00:06:37.691            55.120               Magadan1          1722.500
       209   03 Jun 2027 00:07:14.848   03 Jun 2027 00:09:30.655           135.807              Murmansk1          4243.969
       210   03 Jun 2027 00:09:32.475   03 Jun 2027 00:10:45.227            72.752              Murmansk2          2273.500
       211   03 Jun 2027 00:11:42.881   03 Jun 2027 00:11:57.702            14.821                 Moscow           463.156
       212   03 Jun 2027 00:12:08.439   03 Jun 2027 00:12:32.354            23.915                 Moscow           747.344
       213   03 Jun 2027 00:13:06.975   03 Jun 2027 00:15:22.730           135.755                 Moscow          4242.344
       214   03 Jun 2027 01:32:11.485   03 Jun 2027 01:32:14.656             3.171                Anadyr2            99.094
       215   03 Jun 2027 01:32:26.926   03 Jun 2027 01:33:00.855            33.929                Anadyr1          1060.281
       216   03 Jun 2027 01:33:00.855   03 Jun 2027 01:33:40.338            39.483                Anadyr2          1233.844
       217   03 Jun 2027 01:34:30.713   03 Jun 2027 01:34:51.157            20.444                Anadyr1           638.875
       218   03 Jun 2027 01:35:14.629   03 Jun 2027 01:35:29.909            15.280                Anadyr1           477.500
       219   03 Jun 2027 01:36:59.020   03 Jun 2027 01:38:26.047            87.027               Magadan1          2719.594
       220   03 Jun 2027 01:39:00.755   03 Jun 2027 01:39:30.548            29.793               Magadan2           931.031
       221   03 Jun 2027 01:40:18.004   03 Jun 2027 01:40:48.494            30.490               Magadan2           952.813
       222   03 Jun 2027 01:43:03.521   03 Jun 2027 01:44:47.474           103.953              Murmansk1          3248.531
       223   03 Jun 2027 01:45:34.260   03 Jun 2027 01:45:43.124             8.864              Murmansk2           277.000
       224   03 Jun 2027 01:46:06.786   03 Jun 2027 01:46:17.499            10.713              Murmansk2           334.781
       225   03 Jun 2027 01:48:03.066   03 Jun 2027 01:48:26.586            23.520                 Moscow           735.000
       226   03 Jun 2027 01:49:41.217   03 Jun 2027 01:49:45.556             4.339                 Moscow           135.594
       227   03 Jun 2027 01:52:00.590   03 Jun 2027 01:52:36.080            35.490                 Moscow          1109.062
       228   03 Jun 2027 01:54:32.536   03 Jun 2027 01:54:39.852             7.316                 Moscow           228.625
       229   03 Jun 2027 01:55:22.541   03 Jun 2027 01:55:55.753            33.212                 Moscow          1037.875
       230   03 Jun 2027 02:15:21.997   03 Jun 2027 02:16:43.043            81.046               CapeTown          2532.687
       231   03 Jun 2027 03:06:55.701   03 Jun 2027 03:07:30.638            34.937                Anadyr1          1091.781
       232   03 Jun 2027 03:07:56.113   03 Jun 2027 03:08:19.404            23.291                Anadyr2           727.844
       233   03 Jun 2027 03:08:58.448   03 Jun 2027 03:09:13.415            14.967                Anadyr1           467.719
       234   03 Jun 2027 03:13:32.848   03 Jun 2027 03:14:32.447            59.599               Magadan1          1862.469
       235   03 Jun 2027 03:15:10.629   03 Jun 2027 03:19:50.541           279.912                Anadyr2          8747.250
       236   03 Jun 2027 04:50:02.609   03 Jun 2027 04:50:26.613            24.004                Anadyr1           750.125
       237   03 Jun 2027 04:50:42.689   03 Jun 2027 04:50:45.602             2.913               Magadan1            91.031
       238   03 Jun 2027 04:50:54.822   03 Jun 2027 04:51:30.409            35.587               Magadan1          1112.094
       239   03 Jun 2027 04:51:30.409   03 Jun 2027 04:53:22.353           111.944               Magadan2          3498.250
       240   03 Jun 2027 04:53:24.734   03 Jun 2027 04:53:44.436            19.702                Anadyr2           615.687
       241   03 Jun 2027 04:54:14.051   03 Jun 2027 04:54:26.604            12.553                Anadyr2           392.281
       242   03 Jun 2027 06:23:40.691   03 Jun 2027 06:24:19.919            39.228               Magadan2          1225.875
       243   03 Jun 2027 06:24:20.573   03 Jun 2027 06:24:49.879            29.306                Anadyr1           915.812
       244   03 Jun 2027 06:25:04.644   03 Jun 2027 06:25:32.610            27.966               Magadan2           873.938
       245   03 Jun 2027 06:25:34.368   03 Jun 2027 06:25:39.820             5.452               Magadan2           170.375
       246   03 Jun 2027 06:25:40.902   03 Jun 2027 06:26:09.197            28.295               Magadan2           884.219
       247   03 Jun 2027 06:26:16.075   03 Jun 2027 06:27:26.426            70.351                Anadyr1          2198.469
       248   03 Jun 2027 06:27:27.933   03 Jun 2027 06:27:41.248            13.315               Magadan2           416.094
       249   03 Jun 2027 06:27:47.826   03 Jun 2027 06:28:06.542            18.716                Anadyr2           584.875
       250   03 Jun 2027 06:28:34.113   03 Jun 2027 06:29:13.361            39.248                Norilsk          1226.500
       251   03 Jun 2027 06:29:21.217   03 Jun 2027 06:29:26.891             5.674               Magadan2           177.313
       252   03 Jun 2027 06:29:36.234   03 Jun 2027 06:29:56.429            20.195               Magadan1           631.094
       253   03 Jun 2027 06:29:56.429   03 Jun 2027 06:31:17.459            81.030               Magadan2          2532.187
       254   03 Jun 2027 07:59:57.409   03 Jun 2027 08:00:24.405            26.996               Magadan1           843.625
       255   03 Jun 2027 08:03:43.961   03 Jun 2027 08:04:18.937            34.976               Magadan2          1093.000
       256   03 Jun 2027 08:05:12.568   03 Jun 2027 08:05:23.816            11.248               Magadan1           351.500
       257   03 Jun 2027 08:05:23.816   03 Jun 2027 08:05:43.539            19.723               Magadan2           616.344
       258   03 Jun 2027 08:05:49.259   03 Jun 2027 08:07:03.311            74.052                Irkutsk          2314.125
       259   03 Jun 2027 08:41:53.481   03 Jun 2027 08:43:44.395           110.914            RioGallegos          3466.062
       260   03 Jun 2027 09:16:42.946   03 Jun 2027 09:17:30.643            47.697                Sumatra          1490.531
       261   03 Jun 2027 09:25:14.345   03 Jun 2027 09:25:53.103            38.758                Sumatra          1211.188
       262   03 Jun 2027 09:37:48.367   03 Jun 2027 09:37:55.524             7.157                Irkutsk           223.656
       263   03 Jun 2027 09:39:06.305   03 Jun 2027 09:39:08.781             2.476                Irkutsk            77.375
       264   03 Jun 2027 09:40:01.253   03 Jun 2027 09:40:27.409            26.156                Irkutsk           817.375
       265   03 Jun 2027 09:40:29.436   03 Jun 2027 09:40:32.137             2.701                Irkutsk            84.406
       266   03 Jun 2027 09:40:44.469   03 Jun 2027 09:41:08.693            24.224                Irkutsk           757.000
       267   03 Jun 2027 09:41:26.227   03 Jun 2027 09:42:25.671            59.444                Novosib          1857.625
       268   03 Jun 2027 09:42:49.724   03 Jun 2027 09:42:52.713             2.989                Irkutsk            93.406
       269   03 Jun 2027 09:43:03.613   03 Jun 2027 09:43:55.619            52.006                Novosib          1625.187
       270   03 Jun 2027 10:21:20.611   03 Jun 2027 10:21:28.490             7.879            RioGallegos           246.219
       271   03 Jun 2027 10:23:05.558   03 Jun 2027 10:23:48.440            42.882            RioGallegos          1340.062
       272   03 Jun 2027 10:56:21.475   03 Jun 2027 10:57:10.016            48.541                Sumatra          1516.906
       273   03 Jun 2027 11:15:19.251   03 Jun 2027 11:15:35.426            16.175                Novosib           505.469
       274   03 Jun 2027 11:15:48.607   03 Jun 2027 11:16:17.248            28.641                Norilsk           895.031
       275   03 Jun 2027 11:16:34.617   03 Jun 2027 11:16:48.455            13.838                Novosib           432.437
       276   03 Jun 2027 11:17:25.764   03 Jun 2027 11:17:47.419            21.655                Novosib           676.719
       277   03 Jun 2027 11:18:17.719   03 Jun 2027 11:18:27.701             9.982                Norilsk           311.937
       278   03 Jun 2027 11:18:32.189   03 Jun 2027 11:18:38.204             6.015                Novosib           187.969
       279   03 Jun 2027 12:45:19.337   03 Jun 2027 12:46:21.911            62.574                 Moscow          1955.438
       280   03 Jun 2027 12:47:51.950   03 Jun 2027 12:48:57.988            66.038                 Moscow          2063.687
       281   03 Jun 2027 12:49:28.045   03 Jun 2027 12:50:34.109            66.064              Murmansk2          2064.500
       282   03 Jun 2027 12:50:44.020   03 Jun 2027 12:51:08.234            24.214              Murmansk2           756.687
       283   03 Jun 2027 12:52:04.174   03 Jun 2027 12:52:15.753            11.579              Murmansk1           361.844
       284   03 Jun 2027 12:52:21.053   03 Jun 2027 12:53:56.863            95.810                Norilsk          2994.062
       285   03 Jun 2027 12:56:22.700   03 Jun 2027 12:56:49.429            26.729                Norilsk           835.281
       286   03 Jun 2027 14:00:15.323   03 Jun 2027 14:01:33.205            77.882               CapeTown          2433.812
       287   03 Jun 2027 14:01:58.920   03 Jun 2027 14:03:15.223            76.303               CapeTown          2384.469
       288   03 Jun 2027 14:06:03.698   03 Jun 2027 14:06:54.567            50.869               CapeTown          1589.656
       289   03 Jun 2027 14:25:36.247   03 Jun 2027 14:28:33.310           177.063              Murmansk2          5533.219
       290   03 Jun 2027 14:39:54.045   03 Jun 2027 14:42:05.689           131.644                Anadyr1          4113.875
       291   03 Jun 2027 14:44:29.938   03 Jun 2027 14:44:40.217            10.279                Anadyr2           321.219
       292   03 Jun 2027 14:45:26.682   03 Jun 2027 14:46:21.264            54.582                Anadyr2          1705.688
       293   03 Jun 2027 16:04:41.483   03 Jun 2027 16:07:35.393           173.910              Murmansk1          5434.687
       294   03 Jun 2027 16:15:21.381   03 Jun 2027 16:17:04.579           103.198                Anadyr2          3224.938
       295   03 Jun 2027 16:18:25.596   03 Jun 2027 16:18:31.109             5.513                Anadyr2           172.281
       296   03 Jun 2027 16:19:03.550   03 Jun 2027 16:23:49.699           286.149               Magadan1          8942.156
       297   03 Jun 2027 17:51:15.306   03 Jun 2027 17:53:47.347           152.041                Anadyr2          4751.281
       298   03 Jun 2027 17:53:53.475   03 Jun 2027 17:54:59.042            65.567               Magadan1          2048.969
       299   03 Jun 2027 17:55:05.428   03 Jun 2027 17:55:17.565            12.137               Magadan1           379.281
       300   03 Jun 2027 17:55:23.008   03 Jun 2027 17:56:03.932            40.924               Magadan1          1278.875
       301   03 Jun 2027 19:27:07.455   03 Jun 2027 19:29:01.651           114.196                Anadyr1          3568.625
       302   03 Jun 2027 19:29:10.551   03 Jun 2027 19:31:04.625           114.074                Anadyr2          3564.813
       303   03 Jun 2027 19:31:15.011   03 Jun 2027 19:32:41.794            86.783               Magadan2          2711.969
       304   03 Jun 2027 19:33:18.006   03 Jun 2027 19:33:40.792            22.786               Magadan2           712.062
       305   03 Jun 2027 19:35:08.760   03 Jun 2027 19:37:54.305           165.545                Irkutsk          5173.281
       306   03 Jun 2027 19:39:00.462   03 Jun 2027 19:39:54.649            54.187                Irkutsk          1693.344
       307   03 Jun 2027 19:40:44.356   03 Jun 2027 19:41:14.383            30.027                Irkutsk           938.344
       308   03 Jun 2027 19:52:08.719   03 Jun 2027 19:55:04.531           175.812                Sumatra          5494.125
       309   03 Jun 2027 21:05:52.707   03 Jun 2027 21:05:59.226             6.519                Norilsk           203.719
       310   03 Jun 2027 21:06:03.557   03 Jun 2027 21:06:22.188            18.631                Norilsk           582.219
       311   03 Jun 2027 21:06:51.470   03 Jun 2027 21:06:54.852             3.382                Norilsk           105.687
       312   03 Jun 2027 21:07:04.379   03 Jun 2027 21:08:18.387            74.008               Magadan2          2312.750
       313   03 Jun 2027 21:09:32.154   03 Jun 2027 21:10:13.180            41.026                Norilsk          1282.062
       314   03 Jun 2027 21:10:28.015   03 Jun 2027 21:11:29.596            61.581                Novosib          1924.406
       315   03 Jun 2027 21:15:32.968   03 Jun 2027 21:15:48.506            15.538                Novosib           485.562
       316   03 Jun 2027 21:22:41.831   03 Jun 2027 21:23:41.684            59.853                Sumatra          1870.406
       317   03 Jun 2027 21:24:57.849   03 Jun 2027 21:25:37.169            39.320                Sumatra          1228.750
       318   03 Jun 2027 21:31:16.669   03 Jun 2027 21:32:12.641            55.972                Sumatra          1749.125
       319   03 Jun 2027 22:38:15.167   03 Jun 2027 22:38:54.456            39.289                Anadyr2          1227.781
       320   03 Jun 2027 22:40:58.891   03 Jun 2027 22:42:27.500            88.609                Norilsk          2769.031
       321   03 Jun 2027 22:44:51.093   03 Jun 2027 22:46:31.865           100.772                Novosib          3149.125
       322   03 Jun 2027 22:46:57.105   03 Jun 2027 22:47:27.113            30.008                Novosib           937.750
       323   03 Jun 2027 22:52:18.979   03 Jun 2027 22:54:37.969           138.990                  Delhi          4343.437
       324   03 Jun 2027 23:01:46.465   03 Jun 2027 23:01:48.341             1.876                  Delhi            58.625
       325   04 Jun 2027 00:10:22.887   04 Jun 2027 00:10:26.819             3.932                Anadyr1           122.875
       326   04 Jun 2027 00:11:36.899   04 Jun 2027 00:12:10.952            34.053                Anadyr1          1064.156
       327   04 Jun 2027 00:12:52.302   04 Jun 2027 00:12:59.773             7.471                Anadyr1           233.469
       328   04 Jun 2027 00:13:06.628   04 Jun 2027 00:13:29.247            22.619                Anadyr2           706.844
       329   04 Jun 2027 00:16:24.350   04 Jun 2027 00:16:27.560             3.210                Anadyr2           100.313
       330   04 Jun 2027 00:16:32.443   04 Jun 2027 00:17:41.256            68.813               Magadan2          2150.406
       331   04 Jun 2027 00:17:44.856   04 Jun 2027 00:18:59.635            74.779               Magadan1          2336.844
       332   04 Jun 2027 00:19:13.691   04 Jun 2027 00:21:49.017           155.326              Murmansk1          4853.938
       333   04 Jun 2027 00:22:34.381   04 Jun 2027 00:24:17.008           102.627              Murmansk2          3207.094
       334   04 Jun 2027 00:25:05.663   04 Jun 2027 00:25:13.597             7.934                 Moscow           247.938
       335   04 Jun 2027 00:26:15.039   04 Jun 2027 00:26:50.018            34.979                 Moscow          1093.094
       336   04 Jun 2027 00:51:09.225   04 Jun 2027 00:52:26.834            77.609               CapeTown          2425.281
       337   04 Jun 2027 00:53:16.139   04 Jun 2027 00:54:13.751            57.612               CapeTown          1800.375
       338   04 Jun 2027 01:46:36.574   04 Jun 2027 01:46:57.599            21.025                Anadyr1           657.031
       339   04 Jun 2027 01:48:27.228   04 Jun 2027 01:50:44.423           137.195               Magadan1          4287.344
       340   04 Jun 2027 01:55:05.157   04 Jun 2027 01:55:25.134            19.977              Murmansk2           624.281
       341   04 Jun 2027 01:55:27.707   04 Jun 2027 01:56:39.899            72.192              Murmansk1          2256.000
       342   04 Jun 2027 01:56:50.361   04 Jun 2027 01:57:48.592            58.231              Murmansk1          1819.719
       343   04 Jun 2027 02:00:33.155   04 Jun 2027 02:00:36.658             3.503                 Moscow           109.469
       344   04 Jun 2027 02:01:14.537   04 Jun 2027 02:01:27.644            13.107                 Moscow           409.594
       345   04 Jun 2027 02:05:30.302   04 Jun 2027 02:05:32.280             1.978                 Moscow            61.812
       346   04 Jun 2027 02:09:29.820   04 Jun 2027 02:09:43.128            13.308                 Moscow           415.875
       347   04 Jun 2027 02:22:19.357   04 Jun 2027 02:23:34.008            74.651               CapeTown          2332.844
       348   04 Jun 2027 03:18:55.605   04 Jun 2027 03:19:29.498            33.893                Anadyr1          1059.156
       349   04 Jun 2027 03:19:29.498   04 Jun 2027 03:20:20.227            50.729                Anadyr2          1585.281
       350   04 Jun 2027 03:25:27.380   04 Jun 2027 03:31:24.719           357.339               Magadan1         11166.844
       351   04 Jun 2027 05:03:10.624   04 Jun 2027 05:05:25.314           134.690               Magadan2          4209.063
       352   04 Jun 2027 05:05:44.131   04 Jun 2027 05:07:42.395           118.264                Anadyr1          3695.750
       353   04 Jun 2027 06:35:03.365   04 Jun 2027 06:35:40.138            36.773               Magadan1          1149.156
       354   04 Jun 2027 06:35:54.798   04 Jun 2027 06:36:05.296            10.498               Magadan2           328.063
       355   04 Jun 2027 06:36:20.007   04 Jun 2027 06:36:59.857            39.850                Anadyr1          1245.313
       356   04 Jun 2027 06:37:18.488   04 Jun 2027 06:37:30.685            12.197               Magadan1           381.156
       357   04 Jun 2027 06:37:42.180   04 Jun 2027 06:37:44.089             1.909               Magadan1            59.656
       358   04 Jun 2027 06:37:44.089   04 Jun 2027 06:38:08.862            24.773               Magadan2           774.156
       359   04 Jun 2027 06:38:17.886   04 Jun 2027 06:39:20.980            63.094                Anadyr2          1971.687
       360   04 Jun 2027 06:39:27.937   04 Jun 2027 06:39:44.283            16.346               Magadan1           510.812
       361   04 Jun 2027 06:40:17.695   04 Jun 2027 06:40:57.811            40.116                Anadyr2          1253.625
       362   04 Jun 2027 06:41:00.765   04 Jun 2027 06:41:12.667            11.902               Magadan1           371.937
       363   04 Jun 2027 06:41:28.624   04 Jun 2027 06:41:39.535            10.911               Magadan1           340.969
       364   04 Jun 2027 06:41:39.535   04 Jun 2027 06:42:02.091            22.556               Magadan2           704.875
       365   04 Jun 2027 06:42:09.622   04 Jun 2027 06:42:40.817            31.195                Anadyr1           974.844
       366   04 Jun 2027 06:43:39.865   04 Jun 2027 06:43:42.233             2.368              Murmansk1            74.000
       367   04 Jun 2027 08:11:34.194   04 Jun 2027 08:11:59.544            25.350               Magadan1           792.188
       368   04 Jun 2027 08:12:28.507   04 Jun 2027 08:13:33.091            64.584               Magadan2          2018.250
       369   04 Jun 2027 08:13:52.211   04 Jun 2027 08:14:34.781            42.570               Magadan1          1330.313
       370   04 Jun 2027 08:15:45.285   04 Jun 2027 08:16:29.258            43.973               Magadan1          1374.156
       371   04 Jun 2027 08:17:09.724   04 Jun 2027 08:17:39.208            29.484               Magadan1           921.375
       372   04 Jun 2027 08:18:09.549   04 Jun 2027 08:18:25.140            15.591                Irkutsk           487.219
       373   04 Jun 2027 08:18:43.990   04 Jun 2027 08:19:09.584            25.594                Irkutsk           799.813
       374   04 Jun 2027 08:54:03.945   04 Jun 2027 08:54:52.938            48.993            RioGallegos          1531.031
       375   04 Jun 2027 08:57:00.007   04 Jun 2027 08:57:41.660            41.653            RioGallegos          1301.656
       376   04 Jun 2027 09:29:02.004   04 Jun 2027 09:29:10.781             8.777                Sumatra           274.281
       377   04 Jun 2027 09:32:55.266   04 Jun 2027 09:33:04.163             8.897                Sumatra           278.031
       378   04 Jun 2027 09:35:24.770   04 Jun 2027 09:37:13.385           108.615                Sumatra          3394.219
       379   04 Jun 2027 09:48:51.054   04 Jun 2027 09:48:59.029             7.975                  Delhi           249.219
       380   04 Jun 2027 09:49:53.433   04 Jun 2027 09:51:07.149            73.716                Irkutsk          2303.625
       381   04 Jun 2027 09:51:13.939   04 Jun 2027 09:52:05.479            51.540                Irkutsk          1610.625
       382   04 Jun 2027 09:52:30.415   04 Jun 2027 09:52:43.652            13.237                Irkutsk           413.656
       383   04 Jun 2027 09:52:56.122   04 Jun 2027 09:53:10.986            14.864                Irkutsk           464.500
       384   04 Jun 2027 09:53:15.761   04 Jun 2027 09:53:21.811             6.050                Novosib           189.063
       385   04 Jun 2027 09:53:22.839   04 Jun 2027 09:53:48.562            25.723                Novosib           803.844
       386   04 Jun 2027 09:54:26.168   04 Jun 2027 09:54:47.385            21.217                Irkutsk           663.031
       387   04 Jun 2027 09:55:01.968   04 Jun 2027 09:55:42.836            40.868                Novosib          1277.125
       388   04 Jun 2027 10:34:28.982   04 Jun 2027 10:35:10.575            41.593            RioGallegos          1299.781
       389   04 Jun 2027 11:13:03.178   04 Jun 2027 11:13:47.706            44.528                  Delhi          1391.500
       390   04 Jun 2027 11:15:59.516   04 Jun 2027 11:17:10.257            70.741                  Delhi          2210.656
       391   04 Jun 2027 11:28:19.324   04 Jun 2027 11:28:39.184            19.860                Norilsk           620.625
       392   04 Jun 2027 11:28:53.093   04 Jun 2027 11:29:24.465            31.372                Novosib           980.375
       393   04 Jun 2027 11:29:39.189   04 Jun 2027 11:29:42.661             3.472                Novosib           108.500
       394   04 Jun 2027 11:30:00.454   04 Jun 2027 11:30:05.350             4.896                Norilsk           153.000
       395   04 Jun 2027 11:30:19.773   04 Jun 2027 11:30:28.527             8.754                Norilsk           273.563
       396   04 Jun 2027 11:30:38.800   04 Jun 2027 11:31:09.414            30.614                Norilsk           956.687
       397   04 Jun 2027 12:57:18.064   04 Jun 2027 12:57:18.867             0.803                 Moscow            25.094
       398   04 Jun 2027 12:58:27.251   04 Jun 2027 12:58:58.226            30.975                 Moscow           967.969
       399   04 Jun 2027 12:59:39.154   04 Jun 2027 13:00:36.742            57.588                 Moscow          1799.625
       400   04 Jun 2027 13:00:45.389   04 Jun 2027 13:01:27.408            42.019              Murmansk2          1313.094
       401   04 Jun 2027 13:01:48.206   04 Jun 2027 13:02:08.250            20.044              Murmansk1           626.375
       402   04 Jun 2027 13:02:35.797   04 Jun 2027 13:03:03.748            27.951              Murmansk2           873.469
       403   04 Jun 2027 13:04:17.355   04 Jun 2027 13:04:32.049            14.694              Murmansk2           459.188
       404   04 Jun 2027 13:04:57.638   04 Jun 2027 13:05:45.363            47.725                Norilsk          1491.406
       405   04 Jun 2027 13:06:20.130   04 Jun 2027 13:07:11.151            51.021                Norilsk          1594.406
       406   04 Jun 2027 13:08:49.784   04 Jun 2027 13:09:20.602            30.818                Norilsk           963.063
       407   04 Jun 2027 14:11:48.848   04 Jun 2027 14:14:01.603           132.755               CapeTown          4148.594
       408   04 Jun 2027 14:15:04.254   04 Jun 2027 14:16:27.735            83.481               CapeTown          2608.781
       409   04 Jun 2027 14:17:35.407   04 Jun 2027 14:18:17.870            42.463               CapeTown          1326.969
       410   04 Jun 2027 14:37:53.248   04 Jun 2027 14:40:03.916           130.668              Murmansk1          4083.375
       411   04 Jun 2027 14:51:48.083   04 Jun 2027 14:54:06.044           137.961                Anadyr1          4311.281
       412   04 Jun 2027 14:57:26.642   04 Jun 2027 14:59:25.779           119.137                Anadyr1          3723.031
       413   04 Jun 2027 16:17:19.109   04 Jun 2027 16:17:49.176            30.067              Murmansk1           939.594
       414   04 Jun 2027 16:18:12.366   04 Jun 2027 16:19:27.800            75.434              Murmansk1          2357.312
       415   04 Jun 2027 16:27:21.928   04 Jun 2027 16:29:21.544           119.616                Anadyr2          3738.000
       416   04 Jun 2027 16:30:43.166   04 Jun 2027 16:32:22.419            99.253               Magadan1          3101.656
       417   04 Jun 2027 16:33:27.418   04 Jun 2027 16:34:22.783            55.365               Magadan2          1730.156
       418   04 Jun 2027 16:34:22.783   04 Jun 2027 16:35:52.430            89.647               Magadan1          2801.469
       419   04 Jun 2027 18:03:16.720   04 Jun 2027 18:06:20.125           183.405                Anadyr1          5731.406
       420   04 Jun 2027 18:06:25.638   04 Jun 2027 18:07:46.606            80.968               Magadan2          2530.250
       421   04 Jun 2027 18:08:05.874   04 Jun 2027 18:08:06.463             0.589               Magadan1            18.406
       422   04 Jun 2027 18:09:13.847   04 Jun 2027 18:11:23.077           129.230               Magadan2          4038.437
       423   04 Jun 2027 19:00:41.522   04 Jun 2027 19:02:25.472           103.950            RioGallegos          3248.438
       424   04 Jun 2027 19:39:07.227   04 Jun 2027 19:41:02.731           115.504                Anadyr1          3609.500
       425   04 Jun 2027 19:41:21.167   04 Jun 2027 19:42:28.881            67.714                Norilsk          2116.063
       426   04 Jun 2027 19:42:33.362   04 Jun 2027 19:43:45.274            71.912                Norilsk          2247.250
       427   04 Jun 2027 19:46:15.514   04 Jun 2027 19:47:27.501            71.987                Norilsk          2249.594
       428   04 Jun 2027 19:47:43.170   04 Jun 2027 19:49:40.405           117.235                Irkutsk          3663.594
       429   04 Jun 2027 20:02:08.376   04 Jun 2027 20:03:52.673           104.297                Sumatra          3259.281
       430   04 Jun 2027 20:04:35.415   04 Jun 2027 20:04:52.848            17.433                Sumatra           544.781
       431   04 Jun 2027 20:08:15.124   04 Jun 2027 20:08:57.949            42.825                Sumatra          1338.281
       432   04 Jun 2027 21:17:46.301   04 Jun 2027 21:18:00.151            13.850                Norilsk           432.812
       433   04 Jun 2027 21:18:13.506   04 Jun 2027 21:18:21.881             8.375                Norilsk           261.719
       434   04 Jun 2027 21:18:27.128   04 Jun 2027 21:18:52.749            25.621                Norilsk           800.656
       435   04 Jun 2027 21:20:58.303   04 Jun 2027 21:22:35.779            97.476                Irkutsk          3046.125
       436   04 Jun 2027 21:23:32.227   04 Jun 2027 21:25:45.779           133.552                Novosib          4173.500
       437   04 Jun 2027 21:41:15.606   04 Jun 2027 21:42:17.734            62.128                Sumatra          1941.500
       438   04 Jun 2027 22:49:30.111   04 Jun 2027 22:50:04.742            34.631                Anadyr1          1082.219
       439   04 Jun 2027 22:53:00.848   04 Jun 2027 22:53:05.827             4.979                Norilsk           155.594
       440   04 Jun 2027 22:53:35.789   04 Jun 2027 22:54:32.632            56.843               Magadan1          1776.344
       441   04 Jun 2027 22:56:17.492   04 Jun 2027 22:57:57.880           100.388              Murmansk1          3137.125
       442   04 Jun 2027 22:58:13.646   04 Jun 2027 22:59:46.841            93.195              Murmansk2          2912.344
       443   04 Jun 2027 23:04:12.938   04 Jun 2027 23:07:06.909           173.971                  Delhi          5436.594
       444   05 Jun 2027 00:22:04.216   05 Jun 2027 00:22:20.928            16.712                Anadyr2           522.250
       445   05 Jun 2027 00:23:34.781   05 Jun 2027 00:23:46.096            11.315                Anadyr2           353.594
       446   05 Jun 2027 00:24:12.251   05 Jun 2027 00:24:36.907            24.656                Anadyr2           770.500
       447   05 Jun 2027 00:25:07.055   05 Jun 2027 00:25:12.065             5.010                Anadyr2           156.562
       448   05 Jun 2027 00:28:07.186   05 Jun 2027 00:28:23.881            16.695                Anadyr2           521.719
       449   05 Jun 2027 00:28:50.257   05 Jun 2027 00:30:53.452           123.195               Magadan1          3849.844
       450   05 Jun 2027 00:31:13.237   05 Jun 2027 00:34:22.921           189.684              Murmansk2          5927.625
       451   05 Jun 2027 00:35:10.246   05 Jun 2027 00:36:09.302            59.056                 Moscow          1845.500
       452   05 Jun 2027 00:36:49.501   05 Jun 2027 00:37:05.196            15.695                 Moscow           490.469
       453   05 Jun 2027 00:41:20.181   05 Jun 2027 00:41:21.373             1.192                 Moscow            37.250
       454   05 Jun 2027 00:44:38.310   05 Jun 2027 00:45:08.328            30.018                 Moscow           938.063
       455   05 Jun 2027 01:01:55.243   05 Jun 2027 01:03:50.855           115.612               CapeTown          3612.875
       456   05 Jun 2027 01:55:47.302   05 Jun 2027 01:56:04.986            17.684                Anadyr1           552.625
       457   05 Jun 2027 01:57:24.569   05 Jun 2027 01:57:40.776            16.207                Anadyr2           506.469
       458   05 Jun 2027 01:59:56.051   05 Jun 2027 02:01:37.583           101.532               Magadan1          3172.875
       459   05 Jun 2027 02:01:47.634   05 Jun 2027 02:02:26.959            39.325               Magadan2          1228.906
       460   05 Jun 2027 02:07:06.872   05 Jun 2027 02:08:56.727           109.855              Murmansk2          3432.969
       461   05 Jun 2027 02:09:40.555   05 Jun 2027 02:09:53.391            12.836                Novosib           401.125
       462   05 Jun 2027 02:10:09.335   05 Jun 2027 02:10:42.054            32.719                Novosib          1022.469
       463   05 Jun 2027 02:17:36.539   05 Jun 2027 02:17:37.913             1.374                 Moscow            42.937
       464   05 Jun 2027 02:18:22.680   05 Jun 2027 02:18:27.856             5.176                 Moscow           161.750
       465   05 Jun 2027 02:19:03.200   05 Jun 2027 02:19:22.837            19.637                 Moscow           613.656
       466   05 Jun 2027 02:21:29.675   05 Jun 2027 02:21:56.099            26.424                 Moscow           825.750
       467   05 Jun 2027 02:34:44.166   05 Jun 2027 02:35:28.966            44.800               CapeTown          1400.000
       468   05 Jun 2027 02:43:20.658   05 Jun 2027 02:43:46.685            26.027               CapeTown           813.344
       469   05 Jun 2027 03:34:29.850   05 Jun 2027 03:34:51.676            21.826                Anadyr2           682.062
       470   05 Jun 2027 03:37:28.035   05 Jun 2027 03:43:25.849           357.814               Magadan2         11181.687
       471   05 Jun 2027 05:15:35.166   05 Jun 2027 05:15:39.565             4.399               Magadan2           137.469
       472   05 Jun 2027 05:15:42.595   05 Jun 2027 05:16:13.352            30.757                Anadyr1           961.156
       473   05 Jun 2027 05:16:13.352   05 Jun 2027 05:16:38.599            25.247                Anadyr2           788.969
       474   05 Jun 2027 05:17:28.221   05 Jun 2027 05:19:30.826           122.605               Magadan2          3831.406
       475   05 Jun 2027 06:48:27.595   05 Jun 2027 06:48:50.414            22.819                Norilsk           713.094
       476   05 Jun 2027 06:49:09.911   05 Jun 2027 06:49:58.294            48.383                Anadyr1          1511.969
       477   05 Jun 2027 06:50:10.987   05 Jun 2027 06:51:09.399            58.412               Magadan1          1825.375
       478   05 Jun 2027 06:51:13.470   05 Jun 2027 06:52:09.253            55.783                Anadyr1          1743.219
       479   05 Jun 2027 06:52:09.253   05 Jun 2027 06:52:37.380            28.127                Anadyr2           878.969
       480   05 Jun 2027 06:52:52.012   05 Jun 2027 06:54:11.461            79.449                Anadyr2          2482.781
       481   05 Jun 2027 06:54:23.896   05 Jun 2027 06:55:13.025            49.129               Magadan1          1535.281
       482   05 Jun 2027 08:24:51.844   05 Jun 2027 08:25:31.573            39.729               Magadan1          1241.531
