uniorb/output/strategy_4/Drop/Drop_KinoSat_110709.txt

KinoSat_110709
-------------------------
    Access    *     Start Time (UTCG)     *     Stop Time (UTCG)  *   Duration (s)        *       Station  *  Data (Mbytes)
         1   01 Jun 2027 03:01:31.758   01 Jun 2027 03:01:43.860            12.102               Magadan1           378.188
         2   01 Jun 2027 03:02:01.530   01 Jun 2027 03:03:27.938            86.408                Anadyr1          2700.250
         3   01 Jun 2027 03:03:27.938   01 Jun 2027 03:03:51.803            23.865                Anadyr2           745.781
         4   01 Jun 2027 03:04:17.469   01 Jun 2027 03:04:28.931            11.462               Magadan1           358.188
         5   01 Jun 2027 03:04:28.931   01 Jun 2027 03:04:44.483            15.552               Magadan2           486.000
         6   01 Jun 2027 03:04:44.483   01 Jun 2027 03:04:53.043             8.560               Magadan1           267.500
         7   01 Jun 2027 03:05:15.437   01 Jun 2027 03:05:39.257            23.820                Anadyr1           744.375
         8   01 Jun 2027 03:05:39.257   01 Jun 2027 03:06:54.669            75.412                Anadyr2          2356.625
         9   01 Jun 2027 04:38:53.158   01 Jun 2027 04:38:58.187             5.029               Magadan1           157.156
        10   01 Jun 2027 04:39:08.451   01 Jun 2027 04:40:40.623            92.172               Magadan1          2880.375
        11   01 Jun 2027 04:40:59.121   01 Jun 2027 04:42:44.381           105.260               Magadan1          3289.375
        12   01 Jun 2027 04:42:50.717   01 Jun 2027 04:43:14.747            24.030                Norilsk           750.938
        13   01 Jun 2027 04:43:49.106   01 Jun 2027 04:44:20.712            31.606              Murmansk1           987.687
        14   01 Jun 2027 05:19:34.986   01 Jun 2027 05:22:54.240           199.254            RioGallegos          6226.687
        15   01 Jun 2027 06:13:43.715   01 Jun 2027 06:15:17.918            94.203                Irkutsk          2943.844
        16   01 Jun 2027 06:15:24.193   01 Jun 2027 06:16:23.576            59.383                Novosib          1855.719
        17   01 Jun 2027 06:16:30.910   01 Jun 2027 06:16:39.829             8.919                Irkutsk           278.719
        18   01 Jun 2027 06:16:40.330   01 Jun 2027 06:17:37.511            57.181                Norilsk          1786.906
        19   01 Jun 2027 06:17:48.633   01 Jun 2027 06:18:45.797            57.164               Magadan2          1786.375
        20   01 Jun 2027 06:19:07.149   01 Jun 2027 06:21:32.699           145.550                Norilsk          4548.438
        21   01 Jun 2027 06:21:51.031   01 Jun 2027 06:23:02.882            71.851              Murmansk2          2245.344
        22   01 Jun 2027 06:23:02.882   01 Jun 2027 06:24:26.627            83.745              Murmansk1          2617.031
        23   01 Jun 2027 06:54:03.373   01 Jun 2027 06:58:32.763           269.390            RioGallegos          8418.437
        24   01 Jun 2027 07:29:13.928   01 Jun 2027 07:33:00.758           226.830                Sumatra          7088.437
        25   01 Jun 2027 07:42:01.162   01 Jun 2027 07:42:56.365            55.203                  Delhi          1725.094
        26   01 Jun 2027 07:49:57.850   01 Jun 2027 07:50:31.349            33.499                Irkutsk          1046.844
        27   01 Jun 2027 07:52:02.438   01 Jun 2027 07:54:58.836           176.398                Novosib          5512.437
        28   01 Jun 2027 07:55:40.760   01 Jun 2027 07:56:17.008            36.248                 Moscow          1132.750
        29   01 Jun 2027 07:56:22.469   01 Jun 2027 07:56:53.852            31.383                Novosib           980.719
        30   01 Jun 2027 08:32:25.155   01 Jun 2027 08:32:39.020            13.865            RioGallegos           433.281
        31   01 Jun 2027 09:06:41.435   01 Jun 2027 09:08:38.591           117.156                Sumatra          3661.125
        32   01 Jun 2027 09:13:10.548   01 Jun 2027 09:14:09.111            58.563                  Delhi          1830.094
        33   01 Jun 2027 09:16:47.378   01 Jun 2027 09:17:43.575            56.197                  Delhi          1756.156
        34   01 Jun 2027 09:30:10.258   01 Jun 2027 09:30:59.537            49.279                Novosib          1539.969
        35   01 Jun 2027 09:31:50.475   01 Jun 2027 09:32:41.632            51.157                Novosib          1598.656
        36   01 Jun 2027 09:33:15.706   01 Jun 2027 09:33:36.702            20.996                Norilsk           656.125
        37   01 Jun 2027 10:52:21.830   01 Jun 2027 10:55:50.838           209.008                  Delhi          6531.500
        38   01 Jun 2027 11:03:04.229   01 Jun 2027 11:05:20.057           135.828              Murmansk1          4244.625
        39   01 Jun 2027 11:05:20.057   01 Jun 2027 11:06:31.606            71.549              Murmansk2          2235.906
        40   01 Jun 2027 11:06:40.416   01 Jun 2027 11:07:08.651            28.235                Norilsk           882.344
        41   01 Jun 2027 11:07:33.928   01 Jun 2027 11:11:22.635           228.707              Murmansk2          7147.094
        42   01 Jun 2027 11:11:25.259   01 Jun 2027 11:11:46.122            20.863                Norilsk           651.969
        43   01 Jun 2027 11:13:24.964   01 Jun 2027 11:13:56.441            31.477              Murmansk1           983.656
        44   01 Jun 2027 12:13:37.941   01 Jun 2027 12:16:09.020           151.079               CapeTown          4721.219
        45   01 Jun 2027 12:19:43.901   01 Jun 2027 12:20:41.498            57.597               CapeTown          1799.906
        46   01 Jun 2027 12:34:08.440   01 Jun 2027 12:34:48.570            40.130                 Moscow          1254.063
        47   01 Jun 2027 12:37:33.334   01 Jun 2027 12:41:15.513           222.179              Murmansk2          6943.094
        48   01 Jun 2027 12:41:56.362   01 Jun 2027 12:42:27.653            31.291              Murmansk2           977.844
        49   01 Jun 2027 12:49:52.839   01 Jun 2027 12:49:54.442             1.603              Murmansk1            50.094
        50   01 Jun 2027 12:52:27.148   01 Jun 2027 12:56:18.040           230.892                Anadyr1          7215.375
        51   01 Jun 2027 12:57:53.578   01 Jun 2027 12:58:33.682            40.104                Anadyr2          1253.250
        52   01 Jun 2027 12:59:57.382   01 Jun 2027 13:00:06.549             9.167                Anadyr1           286.469
        53   01 Jun 2027 13:52:35.013   01 Jun 2027 13:54:12.188            97.175               CapeTown          3036.719
        54   01 Jun 2027 14:16:10.050   01 Jun 2027 14:16:15.317             5.267              Murmansk2           164.594
        55   01 Jun 2027 14:17:25.843   01 Jun 2027 14:19:02.861            97.018              Murmansk1          3031.812
        56   01 Jun 2027 14:27:40.277   01 Jun 2027 14:31:47.369           247.092                Anadyr2          7721.625
        57   01 Jun 2027 14:32:19.738   01 Jun 2027 14:35:06.760           167.022               Magadan1          5219.438
        58   01 Jun 2027 14:35:55.107   01 Jun 2027 14:36:18.167            23.060               Magadan2           720.625
        59   01 Jun 2027 16:03:31.951   01 Jun 2027 16:04:52.437            80.486                Anadyr1          2515.187
        60   01 Jun 2027 16:05:28.663   01 Jun 2027 16:06:36.470            67.807                Anadyr2          2118.969
        61   01 Jun 2027 16:07:26.397   01 Jun 2027 16:09:20.948           114.551               Magadan1          3579.719
        62   01 Jun 2027 16:09:20.948   01 Jun 2027 16:10:09.622            48.674               Magadan2          1521.062
        63   01 Jun 2027 16:11:18.732   01 Jun 2027 16:12:19.174            60.442               Magadan2          1888.812
        64   01 Jun 2027 17:39:25.743   01 Jun 2027 17:42:36.208           190.465                Anadyr2          5952.031
        65   01 Jun 2027 17:42:44.635   01 Jun 2027 17:45:51.726           187.091                Norilsk          5846.594
        66   01 Jun 2027 18:33:49.545   01 Jun 2027 18:37:26.975           217.430            RioGallegos          6794.687
        67   01 Jun 2027 19:14:59.821   01 Jun 2027 19:16:37.020            97.199                Anadyr2          3037.469
        68   01 Jun 2027 19:17:17.789   01 Jun 2027 19:18:49.516            91.727                Norilsk          2866.469
        69   01 Jun 2027 19:19:03.728   01 Jun 2027 19:19:37.431            33.703               Magadan1          1053.219
        70   01 Jun 2027 19:20:52.961   01 Jun 2027 19:21:09.514            16.553               Magadan1           517.281
        71   01 Jun 2027 19:21:25.714   01 Jun 2027 19:22:09.003            43.289                Irkutsk          1352.781
        72   01 Jun 2027 19:23:09.551   01 Jun 2027 19:29:12.807           363.256                Novosib         11351.750
        73   01 Jun 2027 19:35:08.401   01 Jun 2027 19:37:59.957           171.556                Sumatra          5361.125
        74   01 Jun 2027 20:57:57.474   01 Jun 2027 20:58:49.989            52.515                Novosib          1641.094
        75   01 Jun 2027 20:59:28.550   01 Jun 2027 21:00:45.999            77.449                Novosib          2420.281
        76   01 Jun 2027 21:04:54.875   01 Jun 2027 21:09:53.240           298.365                  Delhi          9323.906
        77   01 Jun 2027 22:29:13.161   01 Jun 2027 22:29:34.505            21.344               Magadan1           667.000
        78   01 Jun 2027 22:30:01.249   01 Jun 2027 22:30:19.513            18.264               Magadan1           570.750
        79   01 Jun 2027 22:31:35.140   01 Jun 2027 22:37:10.267           335.127              Murmansk2         10472.719
        80   01 Jun 2027 22:38:08.888   01 Jun 2027 22:43:34.054           325.166                 Moscow         10161.437
        81   02 Jun 2027 00:09:19.071   02 Jun 2027 00:10:46.016            86.945              Murmansk2          2717.031
        82   02 Jun 2027 00:14:19.585   02 Jun 2027 00:14:35.022            15.437                 Moscow           482.406
        83   02 Jun 2027 00:14:53.541   02 Jun 2027 00:16:09.406            75.865                 Moscow          2370.781
        84   02 Jun 2027 00:34:54.888   02 Jun 2027 00:36:39.495           104.607               CapeTown          3268.969
        85   02 Jun 2027 00:38:04.290   02 Jun 2027 00:38:46.284            41.994               CapeTown          1312.312
        86   02 Jun 2027 01:38:24.996   02 Jun 2027 01:39:00.727            35.731               Magadan1          1116.594
        87   02 Jun 2027 01:43:19.820   02 Jun 2027 01:44:37.855            78.035              Murmansk2          2438.594
        88   02 Jun 2027 01:46:34.831   02 Jun 2027 01:47:13.741            38.910                 Moscow          1215.938
        89   02 Jun 2027 01:47:43.789   02 Jun 2027 01:47:51.328             7.539                 Moscow           235.594
        90   02 Jun 2027 01:50:52.677   02 Jun 2027 01:51:00.779             8.102                 Moscow           253.187
        91   02 Jun 2027 01:51:07.977   02 Jun 2027 01:51:50.456            42.479                 Moscow          1327.469
        92   02 Jun 2027 02:11:26.683   02 Jun 2027 02:11:44.126            17.443               CapeTown           545.094
        93   02 Jun 2027 02:14:57.774   02 Jun 2027 02:15:47.490            49.716               CapeTown          1553.625
        94   02 Jun 2027 03:07:47.733   02 Jun 2027 03:08:04.749            17.016                Anadyr2           531.750
        95   02 Jun 2027 03:08:35.208   02 Jun 2027 03:09:04.438            29.230               Magadan2           913.438
        96   02 Jun 2027 03:12:13.297   02 Jun 2027 03:13:31.562            78.265               Magadan1          2445.781
        97   02 Jun 2027 03:13:31.562   02 Jun 2027 03:16:11.104           159.542               Magadan2          4985.688
        98   02 Jun 2027 03:16:16.672   02 Jun 2027 03:17:24.732            68.060                Anadyr2          2126.875
        99   02 Jun 2027 03:18:06.177   02 Jun 2027 03:18:40.664            34.487               Magadan2          1077.719
       100   02 Jun 2027 04:50:18.382   02 Jun 2027 04:51:12.421            54.039                Anadyr1          1688.719
       101   02 Jun 2027 04:51:23.757   02 Jun 2027 04:53:45.871           142.114                Anadyr2          4441.063
       102   02 Jun 2027 04:54:13.806   02 Jun 2027 04:54:40.362            26.556               Magadan1           829.875
       103   02 Jun 2027 04:55:11.070   02 Jun 2027 04:55:21.640            10.570                Anadyr2           330.313
       104   02 Jun 2027 06:28:25.456   02 Jun 2027 06:28:29.128             3.672                Novosib           114.750
       105   02 Jun 2027 06:28:52.195   02 Jun 2027 06:30:31.324            99.129               Magadan2          3097.781
       106   02 Jun 2027 06:30:32.799   02 Jun 2027 06:31:24.538            51.739                Irkutsk          1616.844
       107   02 Jun 2027 06:31:41.139   02 Jun 2027 06:31:56.300            15.161                Novosib           473.781
       108   02 Jun 2027 06:35:32.288   02 Jun 2027 06:36:27.398            55.110                Norilsk          1722.188
       109   02 Jun 2027 08:03:11.961   02 Jun 2027 08:05:15.450           123.489                Irkutsk          3859.031
       110   02 Jun 2027 08:05:16.038   02 Jun 2027 08:06:04.261            48.223                 Moscow          1506.969
       111   02 Jun 2027 08:06:39.792   02 Jun 2027 08:07:13.408            33.616                Irkutsk          1050.500
       112   02 Jun 2027 09:19:46.600   02 Jun 2027 09:20:19.570            32.970                Sumatra          1030.313
       113   02 Jun 2027 09:39:33.416   02 Jun 2027 09:39:36.659             3.243              Murmansk1           101.344
       114   02 Jun 2027 09:39:58.915   02 Jun 2027 09:40:08.191             9.276                Novosib           289.875
       115   02 Jun 2027 09:40:38.349   02 Jun 2027 09:41:32.982            54.633                Novosib          1707.281
       116   02 Jun 2027 09:42:12.719   02 Jun 2027 09:42:26.066            13.347                Novosib           417.094
       117   02 Jun 2027 09:42:31.941   02 Jun 2027 09:42:35.898             3.957                Novosib           123.656
       118   02 Jun 2027 09:42:55.328   02 Jun 2027 09:43:02.381             7.053                Novosib           220.406
       119   02 Jun 2027 11:06:21.550   02 Jun 2027 11:08:07.908           106.358                  Delhi          3323.687
       120   02 Jun 2027 11:20:02.811   02 Jun 2027 11:20:05.529             2.718              Murmansk1            84.937
       121   02 Jun 2027 12:46:28.071   02 Jun 2027 12:46:51.555            23.484                 Moscow           733.875
       122   02 Jun 2027 12:47:51.364   02 Jun 2027 12:48:34.273            42.909                 Moscow          1340.906
       123   02 Jun 2027 12:48:48.070   02 Jun 2027 12:49:37.698            49.628                 Moscow          1550.875
       124   02 Jun 2027 12:49:47.243   02 Jun 2027 12:51:07.125            79.882              Murmansk2          2496.313
       125   02 Jun 2027 12:52:17.841   02 Jun 2027 12:53:25.602            67.761              Murmansk2          2117.531
       126   02 Jun 2027 12:53:37.230   02 Jun 2027 12:53:38.274             1.044              Murmansk2            32.625
       127   02 Jun 2027 12:53:44.693   02 Jun 2027 12:54:03.612            18.919              Murmansk2           591.219
       128   02 Jun 2027 12:54:39.822   02 Jun 2027 12:55:19.480            39.658              Murmansk2          1239.313
       129   02 Jun 2027 13:04:17.286   02 Jun 2027 13:10:27.995           370.709                Anadyr1         11584.656
       130   02 Jun 2027 14:29:35.709   02 Jun 2027 14:29:54.556            18.847              Murmansk2           588.969
       131   02 Jun 2027 14:39:40.186   02 Jun 2027 14:42:11.589           151.403                Anadyr2          4731.344
       132   02 Jun 2027 14:43:01.161   02 Jun 2027 14:44:21.191            80.030                Anadyr2          2500.937
       133   02 Jun 2027 14:45:19.832   02 Jun 2027 14:46:54.601            94.769               Magadan1          2961.531
       134   02 Jun 2027 14:48:12.899   02 Jun 2027 14:49:37.218            84.319               Magadan2          2634.969
       135   02 Jun 2027 16:15:33.306   02 Jun 2027 16:17:19.145           105.839                Anadyr2          3307.469
       136   02 Jun 2027 16:17:59.110   02 Jun 2027 16:19:53.421           114.311               Magadan2          3572.219
       137   02 Jun 2027 16:20:12.908   02 Jun 2027 16:21:23.665            70.757               Magadan1          2211.156
       138   02 Jun 2027 16:23:01.223   02 Jun 2027 16:23:52.393            51.170               Magadan2          1599.063
       139   02 Jun 2027 17:51:25.967   02 Jun 2027 17:52:48.721            82.754                Anadyr2          2586.063
       140   02 Jun 2027 17:53:06.327   02 Jun 2027 17:53:53.977            47.650                Anadyr1          1489.062
       141   02 Jun 2027 17:54:13.445   02 Jun 2027 17:59:38.349           324.904                Norilsk         10153.250
       142   02 Jun 2027 17:59:54.626   02 Jun 2027 18:02:32.558           157.932                Irkutsk          4935.375
       143   02 Jun 2027 18:47:38.852   02 Jun 2027 18:48:36.009            57.157            RioGallegos          1786.156
       144   02 Jun 2027 19:33:10.180   02 Jun 2027 19:33:36.192            26.012                Norilsk           812.875
       145   02 Jun 2027 19:33:36.744   02 Jun 2027 19:34:49.211            72.467                Irkutsk          2264.594
       146   02 Jun 2027 19:35:09.238   02 Jun 2027 19:42:03.472           414.234                Novosib         12944.812
       147   02 Jun 2027 19:48:01.693   02 Jun 2027 19:49:36.345            94.652                Sumatra          2957.875
       148   02 Jun 2027 21:12:00.715   02 Jun 2027 21:12:44.194            43.479                Novosib          1358.719
       149   02 Jun 2027 21:16:42.463   02 Jun 2027 21:19:13.683           151.220                  Delhi          4725.625
       150   02 Jun 2027 21:25:24.789   02 Jun 2027 21:26:10.199            45.410                  Delhi          1419.062
       151   02 Jun 2027 22:43:16.944   02 Jun 2027 22:43:30.937            13.993                Norilsk           437.281
       152   02 Jun 2027 22:43:33.418   02 Jun 2027 22:49:55.204           381.786              Murmansk2         11930.812
       153   02 Jun 2027 22:50:12.203   02 Jun 2027 22:54:23.341           251.138                 Moscow          7848.062
       154   02 Jun 2027 23:16:21.809   02 Jun 2027 23:19:05.805           163.996               CapeTown          5124.875
       155   02 Jun 2027 23:19:53.185   02 Jun 2027 23:20:10.112            16.927               CapeTown           528.969
       156   03 Jun 2027 00:26:43.222   03 Jun 2027 00:27:26.699            43.477                 Moscow          1358.656
       157   03 Jun 2027 00:46:42.458   03 Jun 2027 00:49:03.108           140.650               CapeTown          4395.312
       158   03 Jun 2027 01:45:06.978   03 Jun 2027 01:46:05.647            58.669               Magadan1          1833.406
       159   03 Jun 2027 01:46:52.068   03 Jun 2027 01:47:19.591            27.523               Magadan1           860.094
       160   03 Jun 2027 01:49:37.558   03 Jun 2027 01:49:54.018            16.460               Magadan2           514.375
       161   03 Jun 2027 01:54:16.562   03 Jun 2027 01:54:32.025            15.463                Norilsk           483.219
       162   03 Jun 2027 01:55:21.215   03 Jun 2027 01:56:39.587            78.372              Murmansk2          2449.125
       163   03 Jun 2027 01:58:10.573   03 Jun 2027 01:58:19.988             9.415              Murmansk2           294.219
       164   03 Jun 2027 01:58:38.297   03 Jun 2027 01:59:42.371            64.074                 Moscow          2002.312
       165   03 Jun 2027 02:00:54.263   03 Jun 2027 02:01:06.542            12.279                 Moscow           383.719
       166   03 Jun 2027 02:07:05.647   03 Jun 2027 02:07:23.714            18.067                 Moscow           564.594
       167   03 Jun 2027 02:09:35.175   03 Jun 2027 02:09:36.220             1.045                 Moscow            32.656
       168   03 Jun 2027 02:10:10.362   03 Jun 2027 02:10:15.983             5.621                 Moscow           175.656
       169   03 Jun 2027 02:24:01.670   03 Jun 2027 02:26:01.763           120.093               CapeTown          3752.906
       170   03 Jun 2027 03:23:45.662   03 Jun 2027 03:28:14.824           269.162                Anadyr2          8411.312
       171   03 Jun 2027 03:28:21.309   03 Jun 2027 03:30:00.360            99.051               Magadan2          3095.344
       172   03 Jun 2027 03:30:00.360   03 Jun 2027 03:30:43.150            42.790               Magadan1          1337.188
       173   03 Jun 2027 05:01:59.873   03 Jun 2027 05:02:59.107            59.234               Magadan1          1851.062
       174   03 Jun 2027 05:02:59.107   03 Jun 2027 05:04:16.556            77.449               Magadan2          2420.281
       175   03 Jun 2027 05:04:30.149   03 Jun 2027 05:07:10.748           160.599                Anadyr2          5018.719
       176   03 Jun 2027 06:38:10.818   03 Jun 2027 06:38:31.343            20.525               Magadan2           641.406
       177   03 Jun 2027 06:39:02.692   03 Jun 2027 06:39:06.126             3.434               Magadan1           107.312
       178   03 Jun 2027 06:39:13.098   03 Jun 2027 06:40:50.601            97.503               Magadan1          3046.969
       179   03 Jun 2027 06:41:05.659   03 Jun 2027 06:41:11.340             5.681               Magadan1           177.531
       180   03 Jun 2027 06:41:11.340   03 Jun 2027 06:41:37.908            26.568               Magadan2           830.250
       181   03 Jun 2027 06:41:55.098   03 Jun 2027 06:42:11.004            15.906               Magadan1           497.063
       182   03 Jun 2027 06:44:51.341   03 Jun 2027 06:45:39.942            48.601              Murmansk1          1518.781
       183   03 Jun 2027 08:15:12.870   03 Jun 2027 08:15:39.825            26.955                Novosib           842.344
       184   03 Jun 2027 08:16:08.269   03 Jun 2027 08:16:36.867            28.598              Murmansk2           893.687
       185   03 Jun 2027 08:16:41.302   03 Jun 2027 08:16:43.776             2.474                Novosib            77.313
       186   03 Jun 2027 08:16:44.600   03 Jun 2027 08:16:50.396             5.796                Irkutsk           181.125
       187   03 Jun 2027 08:17:01.150   03 Jun 2027 08:17:27.619            26.469                Irkutsk           827.156
       188   03 Jun 2027 08:17:50.961   03 Jun 2027 08:17:57.268             6.307              Murmansk2           197.094
       189   03 Jun 2027 08:18:21.496   03 Jun 2027 08:19:08.838            47.342                Irkutsk          1479.437
       190   03 Jun 2027 08:19:25.542   03 Jun 2027 08:19:47.644            22.102                Novosib           690.688
       191   03 Jun 2027 08:58:10.440   03 Jun 2027 08:59:14.889            64.449            RioGallegos          2014.031
       192   03 Jun 2027 09:01:00.258   03 Jun 2027 09:01:20.948            20.690            RioGallegos           646.562
       193   03 Jun 2027 09:51:55.698   03 Jun 2027 09:52:02.063             6.365              Murmansk1           198.906
       194   03 Jun 2027 09:52:04.361   03 Jun 2027 09:52:36.895            32.534                Novosib          1016.688
       195   03 Jun 2027 09:54:07.938   03 Jun 2027 09:54:14.653             6.715                Novosib           209.844
       196   03 Jun 2027 09:54:32.179   03 Jun 2027 09:54:34.907             2.728                Norilsk            85.250
       197   03 Jun 2027 09:54:49.346   03 Jun 2027 09:55:04.739            15.393                Norilsk           481.031
       198   03 Jun 2027 11:33:44.082   03 Jun 2027 11:33:56.439            12.357                Norilsk           386.156
       199   03 Jun 2027 12:58:51.857   03 Jun 2027 12:59:15.826            23.969                 Moscow           749.031
       200   03 Jun 2027 12:59:55.528   03 Jun 2027 13:00:29.235            33.707                 Moscow          1053.344
       201   03 Jun 2027 13:00:33.799   03 Jun 2027 13:00:41.360             7.561                 Moscow           236.281
       202   03 Jun 2027 13:01:44.145   03 Jun 2027 13:03:32.918           108.773                 Moscow          3399.156
       203   03 Jun 2027 13:04:14.768   03 Jun 2027 13:05:12.911            58.143              Murmansk2          1816.969
       204   03 Jun 2027 13:06:12.544   03 Jun 2027 13:06:33.984            21.440              Murmansk2           670.000
       205   03 Jun 2027 13:16:10.134   03 Jun 2027 13:19:03.301           173.167                Anadyr1          5411.469
       206   03 Jun 2027 14:14:09.345   03 Jun 2027 14:15:05.998            56.653               CapeTown          1770.406
       207   03 Jun 2027 14:41:18.546   03 Jun 2027 14:42:48.282            89.736              Murmansk1          2804.250
       208   03 Jun 2027 14:43:19.046   03 Jun 2027 14:43:35.596            16.550              Murmansk1           517.188
       209   03 Jun 2027 14:45:15.315   03 Jun 2027 14:45:37.906            22.591              Murmansk2           705.969
       210   03 Jun 2027 14:51:40.474   03 Jun 2027 14:54:06.287           145.813                Anadyr1          4556.656
       211   03 Jun 2027 14:55:01.195   03 Jun 2027 14:55:17.090            15.895                Anadyr1           496.719
       212   03 Jun 2027 14:55:24.379   03 Jun 2027 15:01:57.461           393.082               Magadan2         12283.812
       213   03 Jun 2027 16:29:57.230   03 Jun 2027 16:31:49.997           112.767               Magadan1          3523.969
       214   03 Jun 2027 16:32:16.988   03 Jun 2027 16:33:26.396            69.408               Magadan1          2169.000
       215   03 Jun 2027 18:03:25.846   03 Jun 2027 18:05:46.778           140.932                Anadyr1          4404.125
       216   03 Jun 2027 18:05:47.066   03 Jun 2027 18:08:58.581           191.515               Magadan2          5984.844
       217   03 Jun 2027 18:09:02.061   03 Jun 2027 18:11:57.292           175.231                Norilsk          5475.969
       218   03 Jun 2027 18:12:48.191   03 Jun 2027 18:15:34.012           165.821                Irkutsk          5181.906
       219   03 Jun 2027 18:17:33.007   03 Jun 2027 18:18:06.022            33.015                Irkutsk          1031.719
       220   03 Jun 2027 18:27:15.401   03 Jun 2027 18:31:53.525           278.124                Sumatra          8691.375
       221   03 Jun 2027 19:46:17.700   03 Jun 2027 19:49:55.123           217.423                Novosib          6794.469
       222   03 Jun 2027 19:52:02.607   03 Jun 2027 19:52:43.366            40.759                Novosib          1273.719
       223   03 Jun 2027 19:59:23.668   03 Jun 2027 20:00:00.027            36.359                Sumatra          1136.219
       224   03 Jun 2027 21:20:53.507   03 Jun 2027 21:24:02.593           189.086              Murmansk2          5908.938
       225   03 Jun 2027 21:28:34.353   03 Jun 2027 21:30:09.789            95.436                  Delhi          2982.375
       226   03 Jun 2027 21:30:10.731   03 Jun 2027 21:31:28.921            78.190                  Delhi          2443.437
       227   03 Jun 2027 22:55:32.505   03 Jun 2027 22:57:14.175           101.670              Murmansk2          3177.188
       228   03 Jun 2027 22:57:22.250   03 Jun 2027 23:01:02.782           220.532              Murmansk1          6891.625
       229   03 Jun 2027 23:02:16.000   03 Jun 2027 23:05:37.832           201.832                 Moscow          6307.250
       230   03 Jun 2027 23:26:48.074   03 Jun 2027 23:29:13.973           145.899               CapeTown          4559.344
       231   03 Jun 2027 23:31:22.965   03 Jun 2027 23:33:18.664           115.699               CapeTown          3615.594
       232   04 Jun 2027 00:34:39.755   04 Jun 2027 00:34:48.999             9.244                 Moscow           288.875
       233   04 Jun 2027 00:44:44.582   04 Jun 2027 00:45:39.733            55.151                 Moscow          1723.469
       234   04 Jun 2027 00:58:35.087   04 Jun 2027 00:59:42.651            67.564               CapeTown          2111.375
       235   04 Jun 2027 01:06:48.289   04 Jun 2027 01:06:55.486             7.197               CapeTown           224.906
       236   04 Jun 2027 01:55:14.917   04 Jun 2027 01:55:57.287            42.370                Anadyr1          1324.063
       237   04 Jun 2027 01:56:46.254   04 Jun 2027 01:57:36.784            50.530               Magadan1          1579.062
       238   04 Jun 2027 01:58:08.351   04 Jun 2027 01:58:57.383            49.032               Magadan2          1532.250
       239   04 Jun 2027 01:59:07.787   04 Jun 2027 01:59:21.674            13.887               Magadan2           433.969
       240   04 Jun 2027 02:00:04.842   04 Jun 2027 02:00:12.795             7.953               Magadan1           248.531
       241   04 Jun 2027 02:04:05.856   04 Jun 2027 02:04:13.819             7.963                Norilsk           248.844
       242   04 Jun 2027 02:06:05.187   04 Jun 2027 02:06:34.476            29.289                Norilsk           915.281
       243   04 Jun 2027 02:07:22.465   04 Jun 2027 02:08:21.772            59.307              Murmansk1          1853.344
       244   04 Jun 2027 02:10:05.340   04 Jun 2027 02:10:21.558            16.218              Murmansk1           506.813
       245   04 Jun 2027 02:10:42.245   04 Jun 2027 02:12:06.313            84.068                 Moscow          2627.125
       246   04 Jun 2027 02:21:28.467   04 Jun 2027 02:21:56.810            28.343                 Moscow           885.719
       247   04 Jun 2027 02:36:48.379   04 Jun 2027 02:37:46.941            58.562               CapeTown          1830.063
       248   04 Jun 2027 02:44:02.449   04 Jun 2027 02:44:36.795            34.346               CapeTown          1073.313
       249   04 Jun 2027 03:32:22.150   04 Jun 2027 03:32:40.594            18.444                Anadyr2           576.375
       250   04 Jun 2027 03:35:08.609   04 Jun 2027 03:35:09.061             0.452               Magadan2            14.125
       251   04 Jun 2027 03:35:13.050   04 Jun 2027 03:35:27.771            14.721               Magadan2           460.031
       252   04 Jun 2027 03:35:41.657   04 Jun 2027 03:41:00.087           318.430               Magadan2          9950.937
       253   04 Jun 2027 03:41:27.551   04 Jun 2027 03:42:13.413            45.862                Anadyr2          1433.187
       254   04 Jun 2027 03:42:31.082   04 Jun 2027 03:42:44.692            13.610               Magadan2           425.313
       255   04 Jun 2027 04:28:18.210   04 Jun 2027 04:29:18.128            59.918            RioGallegos          1872.438
       256   04 Jun 2027 05:13:45.925   04 Jun 2027 05:15:02.032            76.107               Magadan2          2378.344
       257   04 Jun 2027 05:15:08.006   04 Jun 2027 05:19:01.142           233.136                Irkutsk          7285.500
       258   04 Jun 2027 05:19:48.740   04 Jun 2027 05:19:52.450             3.710                Novosib           115.937
       259   04 Jun 2027 06:50:38.339   04 Jun 2027 06:50:51.972            13.633               Magadan2           426.031
       260   04 Jun 2027 06:51:04.181   04 Jun 2027 06:51:16.414            12.233               Magadan1           382.281
       261   04 Jun 2027 06:51:38.529   04 Jun 2027 06:52:14.973            36.444                Novosib          1138.875
       262   04 Jun 2027 06:52:23.421   04 Jun 2027 06:52:31.763             8.342                Novosib           260.687
       263   04 Jun 2027 06:52:48.130   04 Jun 2027 06:52:55.665             7.535               Magadan1           235.469
       264   04 Jun 2027 06:52:58.200   04 Jun 2027 06:53:08.219            10.019               Magadan2           313.094
       265   04 Jun 2027 06:53:27.508   04 Jun 2027 06:53:35.788             8.280               Magadan2           258.750
       266   04 Jun 2027 06:53:35.788   04 Jun 2027 06:53:40.015             4.227               Magadan1           132.094
       267   04 Jun 2027 06:55:39.320   04 Jun 2027 06:55:45.063             5.743                Novosib           179.469
       268   04 Jun 2027 07:02:09.624   04 Jun 2027 07:02:20.032            10.408              Murmansk2           325.250
       269   04 Jun 2027 07:40:47.274   04 Jun 2027 07:41:02.635            15.361            RioGallegos           480.031
       270   04 Jun 2027 08:05:02.363   04 Jun 2027 08:05:20.727            18.364                Sumatra           573.875
       271   04 Jun 2027 08:14:42.395   04 Jun 2027 08:16:34.237           111.842                Sumatra          3495.062
       272   04 Jun 2027 08:26:30.281   04 Jun 2027 08:27:09.323            39.042                Irkutsk          1220.062
       273   04 Jun 2027 08:27:39.741   04 Jun 2027 08:27:48.677             8.936                Novosib           279.250
       274   04 Jun 2027 08:27:56.752   04 Jun 2027 08:27:59.206             2.454                Irkutsk            76.687
       275   04 Jun 2027 08:28:04.553   04 Jun 2027 08:28:56.282            51.729              Murmansk2          1616.531
       276   04 Jun 2027 08:29:14.427   04 Jun 2027 08:29:25.469            11.042                Irkutsk           345.062
       277   04 Jun 2027 08:29:32.412   04 Jun 2027 08:30:27.475            55.063                Irkutsk          1720.719
       278   04 Jun 2027 08:30:42.315   04 Jun 2027 08:31:09.315            27.000                Norilsk           843.750
       279   04 Jun 2027 08:31:53.536   04 Jun 2027 08:32:03.707            10.171                Novosib           317.844
       280   04 Jun 2027 08:32:56.118   04 Jun 2027 08:33:03.285             7.167              Murmansk1           223.969
       281   04 Jun 2027 09:11:32.639   04 Jun 2027 09:12:11.179            38.540            RioGallegos          1204.375
       282   04 Jun 2027 09:13:24.095   04 Jun 2027 09:13:37.720            13.625            RioGallegos           425.781
       283   04 Jun 2027 09:14:18.465   04 Jun 2027 09:14:30.482            12.017            RioGallegos           375.531
       284   04 Jun 2027 09:50:51.798   04 Jun 2027 09:52:14.842            83.044                  Delhi          2595.125
       285   04 Jun 2027 10:02:55.753   04 Jun 2027 10:03:09.016            13.263                Novosib           414.469
       286   04 Jun 2027 10:03:13.560   04 Jun 2027 10:03:16.958             3.398                Norilsk           106.187
       287   04 Jun 2027 10:05:08.999   04 Jun 2027 10:05:22.053            13.054                Novosib           407.937
       288   04 Jun 2027 10:05:28.024   04 Jun 2027 10:05:58.051            30.027                Novosib           938.344
       289   04 Jun 2027 10:06:16.010   04 Jun 2027 10:07:10.470            54.460                Novosib          1701.875
       290   04 Jun 2027 11:46:28.479   04 Jun 2027 11:47:31.411            62.932                Norilsk          1966.625
       291   04 Jun 2027 13:11:59.213   04 Jun 2027 13:12:22.444            23.231                 Moscow           725.969
       292   04 Jun 2027 13:14:08.095   04 Jun 2027 13:15:14.273            66.178                 Moscow          2068.062
       293   04 Jun 2027 13:19:39.803   04 Jun 2027 13:19:44.893             5.090              Murmansk1           159.063
       294   04 Jun 2027 13:21:47.412   04 Jun 2027 13:22:06.540            19.128              Murmansk1           597.750
       295   04 Jun 2027 13:30:27.267   04 Jun 2027 13:31:10.719            43.452                Anadyr2          1357.875
       296   04 Jun 2027 13:33:43.301   04 Jun 2027 13:33:45.964             2.663                Anadyr2            83.219
       297   04 Jun 2027 13:34:23.571   04 Jun 2027 13:38:00.525           216.954                Anadyr1          6779.813
       298   04 Jun 2027 14:32:24.431   04 Jun 2027 14:32:53.268            28.837               CapeTown           901.156
       299   04 Jun 2027 14:34:25.759   04 Jun 2027 14:34:31.962             6.203               CapeTown           193.844
       300   04 Jun 2027 14:53:57.937   04 Jun 2027 14:55:20.689            82.752              Murmansk1          2586.000
       301   04 Jun 2027 14:55:20.689   04 Jun 2027 14:55:36.957            16.268              Murmansk2           508.375
       302   04 Jun 2027 14:55:53.117   04 Jun 2027 14:57:17.215            84.098              Murmansk2          2628.062
       303   04 Jun 2027 15:03:41.065   04 Jun 2027 15:06:04.262           143.197                Anadyr1          4474.906
       304   04 Jun 2027 15:06:54.808   04 Jun 2027 15:14:12.774           437.966               Magadan1         13686.437
       305   04 Jun 2027 16:41:56.103   04 Jun 2027 16:43:37.127           101.024               Magadan1          3157.000
       306   04 Jun 2027 16:44:45.717   04 Jun 2027 16:45:29.110            43.393               Magadan2          1356.031
       307   04 Jun 2027 16:50:34.500   04 Jun 2027 16:51:30.201            55.701               Magadan2          1740.656
       308   04 Jun 2027 17:36:16.134   04 Jun 2027 17:38:43.504           147.370            RioGallegos          4605.313
       309   04 Jun 2027 18:16:36.292   04 Jun 2027 18:16:50.866            14.574                Anadyr1           455.437
       310   04 Jun 2027 18:17:37.033   04 Jun 2027 18:17:50.283            13.250                Anadyr2           414.062
       311   04 Jun 2027 18:18:03.383   04 Jun 2027 18:18:16.860            13.477                Anadyr2           421.156
       312   04 Jun 2027 18:18:23.069   04 Jun 2027 18:19:57.271            94.202               Magadan2          2943.812
       313   04 Jun 2027 18:20:55.012   04 Jun 2027 18:22:59.203           124.191                Norilsk          3880.969
       314   04 Jun 2027 18:23:00.920   04 Jun 2027 18:26:07.454           186.534                Irkutsk          5829.188
       315   04 Jun 2027 18:28:10.329   04 Jun 2027 18:29:32.412            82.083                Irkutsk          2565.094
       316   04 Jun 2027 18:37:52.543   04 Jun 2027 18:40:05.630           133.087                Sumatra          4158.969
       317   04 Jun 2027 18:41:38.121   04 Jun 2027 18:43:49.224           131.103                Sumatra          4096.969
       318   04 Jun 2027 19:59:06.437   04 Jun 2027 20:00:46.085            99.648                Novosib          3114.000
       319   04 Jun 2027 20:01:08.390   04 Jun 2027 20:01:48.844            40.454                Novosib          1264.187
       320   04 Jun 2027 20:03:11.820   04 Jun 2027 20:05:30.286           138.466                Novosib          4327.062
       321   04 Jun 2027 20:08:42.096   04 Jun 2027 20:10:01.483            79.387                  Delhi          2480.844
       322   04 Jun 2027 21:32:27.209   04 Jun 2027 21:37:11.888           284.679              Murmansk2          8896.219
       323   04 Jun 2027 23:06:21.149   04 Jun 2027 23:06:28.534             7.385               Magadan1           230.781
       324   04 Jun 2027 23:06:28.534   04 Jun 2027 23:06:41.553            13.019               Magadan2           406.844
       325   04 Jun 2027 23:06:53.912   04 Jun 2027 23:06:57.616             3.704               Magadan1           115.750
       326   04 Jun 2027 23:07:00.919   04 Jun 2027 23:07:40.054            39.135               Magadan2          1222.969
       327   04 Jun 2027 23:08:11.110   04 Jun 2027 23:09:08.006            56.896              Murmansk2          1778.000
       328   04 Jun 2027 23:09:08.423   04 Jun 2027 23:13:39.015           270.592              Murmansk1          8456.000
       329   04 Jun 2027 23:14:20.275   04 Jun 2027 23:15:15.835            55.560                 Moscow          1736.250
       330   04 Jun 2027 23:17:23.805   04 Jun 2027 23:18:18.294            54.489                 Moscow          1702.781
       331   04 Jun 2027 23:37:45.658   04 Jun 2027 23:40:00.919           135.261               CapeTown          4226.906
       332   04 Jun 2027 23:43:27.348   04 Jun 2027 23:45:34.299           126.951               CapeTown          3967.219
       333   05 Jun 2027 00:46:39.890   05 Jun 2027 00:47:56.493            76.603                 Moscow          2393.844
       334   05 Jun 2027 00:55:06.745   05 Jun 2027 00:55:09.074             2.329                 Moscow            72.781
       335   05 Jun 2027 00:55:28.371   05 Jun 2027 00:55:29.583             1.212                 Moscow            37.875
       336   05 Jun 2027 01:11:01.010   05 Jun 2027 01:12:02.997            61.987               CapeTown          1937.094
       337   05 Jun 2027 01:14:29.249   05 Jun 2027 01:15:11.635            42.386               CapeTown          1324.562
       338   05 Jun 2027 02:07:17.621   05 Jun 2027 02:08:03.446            45.825                Anadyr2          1432.031
       339   05 Jun 2027 02:08:27.376   05 Jun 2027 02:10:11.054           103.678               Magadan2          3239.938
       340   05 Jun 2027 02:10:37.226   05 Jun 2027 02:10:49.193            11.967               Magadan2           373.969
       341   05 Jun 2027 02:15:58.509   05 Jun 2027 02:16:04.153             5.644                Norilsk           176.375
       342   05 Jun 2027 02:16:23.275   05 Jun 2027 02:16:43.331            20.056                Norilsk           626.750
       343   05 Jun 2027 02:19:23.543   05 Jun 2027 02:20:36.587            73.044              Murmansk1          2282.625
       344   05 Jun 2027 02:20:41.216   05 Jun 2027 02:21:09.350            28.134              Murmansk2           879.187
       345   05 Jun 2027 02:22:46.665   05 Jun 2027 02:23:44.971            58.306                 Moscow          1822.063
       346   05 Jun 2027 02:27:53.171   05 Jun 2027 02:28:05.133            11.962                 Moscow           373.813
       347   05 Jun 2027 02:29:31.228   05 Jun 2027 02:29:39.322             8.094                 Moscow           252.938
       348   05 Jun 2027 02:30:39.497   05 Jun 2027 02:30:47.820             8.323                 Moscow           260.094
       349   05 Jun 2027 02:32:41.832   05 Jun 2027 02:32:50.182             8.350                 Moscow           260.937
       350   05 Jun 2027 02:49:53.722   05 Jun 2027 02:50:47.747            54.025               CapeTown          1688.281
       351   05 Jun 2027 02:52:56.543   05 Jun 2027 02:53:22.579            26.036               CapeTown           813.625
       352   05 Jun 2027 03:49:28.228   05 Jun 2027 03:49:57.362            29.134                Anadyr1           910.438
       353   05 Jun 2027 03:50:13.342   05 Jun 2027 03:53:28.845           195.503                Anadyr2          6109.469
       354   05 Jun 2027 03:53:42.315   05 Jun 2027 03:54:19.830            37.515               Magadan2          1172.344
       355   05 Jun 2027 05:26:31.786   05 Jun 2027 05:30:08.604           216.818                Irkutsk          6775.562
       356   05 Jun 2027 05:30:11.814   05 Jun 2027 05:31:10.023            58.209                Irkutsk          1819.031
       357   05 Jun 2027 07:02:23.737   05 Jun 2027 07:03:05.312            41.575               Magadan2          1299.219
       358   05 Jun 2027 07:03:16.262   05 Jun 2027 07:03:19.707             3.445               Magadan1           107.656
       359   05 Jun 2027 07:03:48.319   05 Jun 2027 07:04:55.535            67.216                Novosib          2100.500
       360   05 Jun 2027 07:05:40.780   05 Jun 2027 07:06:19.878            39.098                Irkutsk          1221.813
       361   05 Jun 2027 07:06:24.759   05 Jun 2027 07:07:28.454            63.695                Irkutsk          1990.469
       362   05 Jun 2027 08:25:44.015   05 Jun 2027 08:26:54.752            70.737                Sumatra          2210.531
       363   05 Jun 2027 08:38:20.838   05 Jun 2027 08:39:37.377            76.539                Novosib          2391.844
       364   05 Jun 2027 08:40:00.170   05 Jun 2027 08:40:41.259            41.089              Murmansk2          1284.031
       365   05 Jun 2027 08:40:48.885   05 Jun 2027 08:41:40.623            51.738                Irkutsk          1616.813
       366   05 Jun 2027 08:41:55.039   05 Jun 2027 08:42:32.624            37.585                Irkutsk          1174.531
       367   05 Jun 2027 08:43:23.395   05 Jun 2027 08:43:34.262            10.867                Novosib           339.594
       368   05 Jun 2027 10:01:45.994   05 Jun 2027 10:04:05.132           139.138                  Delhi          4348.062
       369   05 Jun 2027 10:06:23.025   05 Jun 2027 10:06:42.784            19.759                  Delhi           617.469
       370   05 Jun 2027 10:09:48.662   05 Jun 2027 10:11:04.879            76.217                  Delhi          2381.781
       371   05 Jun 2027 10:19:44.320   05 Jun 2027 10:19:56.885            12.565                Novosib           392.656
       372   05 Jun 2027 11:58:37.415   05 Jun 2027 11:58:38.993             1.578                Norilsk            49.313
       373   05 Jun 2027 13:23:54.173   05 Jun 2027 13:25:03.395            69.222                 Moscow          2163.187
       374   05 Jun 2027 13:25:55.249   05 Jun 2027 13:26:06.691            11.442                 Moscow           357.562
       375   05 Jun 2027 13:27:02.004   05 Jun 2027 13:27:54.910            52.906                 Moscow          1653.313
       376   05 Jun 2027 13:28:10.383   05 Jun 2027 13:28:18.408             8.025              Murmansk1           250.781
       377   05 Jun 2027 13:28:24.059   05 Jun 2027 13:28:47.454            23.395              Murmansk2           731.094
       378   05 Jun 2027 13:30:24.523   05 Jun 2027 13:31:23.932            59.409              Murmansk2          1856.531
       379   05 Jun 2027 13:33:48.905   05 Jun 2027 13:34:03.753            14.848              Murmansk2           464.000
       380   05 Jun 2027 13:35:14.607   05 Jun 2027 13:35:30.510            15.903              Murmansk2           496.969
       381   05 Jun 2027 13:36:03.038   05 Jun 2027 13:36:15.879            12.841              Murmansk2           401.281
       382   05 Jun 2027 13:36:33.351   05 Jun 2027 13:36:54.408            21.057              Murmansk2           658.031
       383   05 Jun 2027 13:37:08.855   05 Jun 2027 13:37:43.522            34.667              Murmansk1          1083.344
       384   05 Jun 2027 13:40:01.123   05 Jun 2027 13:41:34.872            93.749                Anadyr2          2929.656
       385   05 Jun 2027 13:46:05.586   05 Jun 2027 13:46:37.796            32.210                Anadyr1          1006.562
       386   05 Jun 2027 13:48:01.843   05 Jun 2027 13:50:30.214           148.371                Anadyr2          4636.594
       387   05 Jun 2027 15:06:41.539   05 Jun 2027 15:07:22.202            40.663              Murmansk1          1270.719
       388   05 Jun 2027 15:07:22.202   05 Jun 2027 15:07:34.674            12.472              Murmansk2           389.750
       389   05 Jun 2027 15:08:03.042   05 Jun 2027 15:09:19.130            76.088              Murmansk2          2377.750
       390   05 Jun 2027 15:15:41.899   05 Jun 2027 15:16:46.055            64.156                Anadyr2          2004.875
       391   05 Jun 2027 15:16:46.055   05 Jun 2027 15:17:06.975            20.920                Anadyr1           653.750
       392   05 Jun 2027 15:18:05.540   05 Jun 2027 15:18:43.270            37.730                Anadyr1          1179.062
       393   05 Jun 2027 15:18:58.920   05 Jun 2027 15:24:42.859           343.939               Magadan2         10748.094
       394   05 Jun 2027 16:51:37.170   05 Jun 2027 16:52:07.220            30.050                Anadyr1           939.062
       395   05 Jun 2027 16:52:34.482   05 Jun 2027 16:52:56.943            22.461                Anadyr2           701.906
       396   05 Jun 2027 16:53:55.623   05 Jun 2027 16:55:31.902            96.279               Magadan2          3008.719
       397   05 Jun 2027 16:56:53.231   05 Jun 2027 16:56:57.556             4.325               Magadan1           135.156
       398   05 Jun 2027 16:57:31.782   05 Jun 2027 16:59:38.910           127.128               Magadan2          3972.750
       399   05 Jun 2027 17:47:24.953   05 Jun 2027 17:50:28.081           183.128            RioGallegos          5722.750
       400   05 Jun 2027 18:29:35.338   05 Jun 2027 18:32:56.840           201.502                Norilsk          6296.937
       401   05 Jun 2027 18:34:20.917   05 Jun 2027 18:37:59.336           218.419                Irkutsk          6825.594
       402   05 Jun 2027 18:40:14.728   05 Jun 2027 18:42:05.820           111.092                Irkutsk          3471.625
       403   05 Jun 2027 18:48:59.565   05 Jun 2027 18:51:47.251           167.686                Sumatra          5240.188
       404   05 Jun 2027 18:53:22.439   05 Jun 2027 18:55:41.616           139.177                Sumatra          4349.281
       405   05 Jun 2027 20:12:50.457   05 Jun 2027 20:13:44.217            53.760                Novosib          1680.000
       406   05 Jun 2027 20:19:14.423   05 Jun 2027 20:21:38.123           143.700                  Delhi          4490.625
       407   05 Jun 2027 20:25:20.663   05 Jun 2027 20:26:19.348            58.685                  Delhi          1833.906
       408   05 Jun 2027 21:44:12.530   05 Jun 2027 21:50:07.517           354.987              Murmansk1         11093.344
       409   05 Jun 2027 23:18:29.260   05 Jun 2027 23:18:43.955            14.695               Magadan1           459.219
       410   05 Jun 2027 23:18:54.703   05 Jun 2027 23:19:16.255            21.552               Magadan1           673.500
       411   05 Jun 2027 23:19:32.446   05 Jun 2027 23:22:59.378           206.932              Murmansk1          6466.625
       412   05 Jun 2027 23:23:14.747   05 Jun 2027 23:25:01.203           106.456                 Moscow          3326.750
       413   05 Jun 2027 23:31:56.341   05 Jun 2027 23:33:51.789           115.448                 Moscow          3607.750
       414   05 Jun 2027 23:48:58.043   05 Jun 2027 23:50:24.552            86.509               CapeTown          2703.406
       415   05 Jun 2027 23:53:48.261   05 Jun 2027 23:54:29.536            41.275               CapeTown          1289.844
       416   05 Jun 2027 23:55:22.008   05 Jun 2027 23:56:18.734            56.726               CapeTown          1772.687
       417   06 Jun 2027 00:55:28.153   06 Jun 2027 00:55:35.592             7.439              Murmansk1           232.469
       418   06 Jun 2027 00:56:56.396   06 Jun 2027 00:57:56.749            60.353              Murmansk2          1886.031
       419   06 Jun 2027 00:58:35.256   06 Jun 2027 00:58:45.516            10.260                Novosib           320.625
       420   06 Jun 2027 00:59:13.621   06 Jun 2027 00:59:57.356            43.735                 Moscow          1366.719
       421   06 Jun 2027 01:03:17.148   06 Jun 2027 01:03:49.074            31.926                 Moscow           997.687
       422   06 Jun 2027 01:07:37.271   06 Jun 2027 01:08:40.660            63.389                 Moscow          1980.906
       423   06 Jun 2027 01:25:46.264   06 Jun 2027 01:26:28.979            42.715               CapeTown          1334.844
       424   06 Jun 2027 02:19:22.318   06 Jun 2027 02:19:48.986            26.668                Anadyr1           833.375
       425   06 Jun 2027 02:19:59.087   06 Jun 2027 02:20:25.988            26.901                Anadyr2           840.656
       426   06 Jun 2027 02:20:28.849   06 Jun 2027 02:22:13.732           104.883               Magadan2          3277.594
       427   06 Jun 2027 02:22:13.732   06 Jun 2027 02:22:18.753             5.021               Magadan1           156.906
       428   06 Jun 2027 02:22:40.260   06 Jun 2027 02:23:19.776            39.516               Magadan2          1234.875
       429   06 Jun 2027 02:29:55.957   06 Jun 2027 02:30:39.389            43.432                Norilsk          1357.250
       430   06 Jun 2027 02:31:24.432   06 Jun 2027 02:31:53.152            28.720              Murmansk1           897.500
       431   06 Jun 2027 02:33:18.363   06 Jun 2027 02:33:46.320            27.957              Murmansk1           873.656
       432   06 Jun 2027 02:33:46.320   06 Jun 2027 02:34:03.045            16.725              Murmansk2           522.656
       433   06 Jun 2027 02:34:51.594   06 Jun 2027 02:35:15.919            24.325                 Moscow           760.156
       434   06 Jun 2027 02:36:42.062   06 Jun 2027 02:37:24.147            42.085                 Moscow          1315.156
       435   06 Jun 2027 02:42:34.910   06 Jun 2027 02:43:48.158            73.248                 Moscow          2289.000
       436   06 Jun 2027 03:05:34.577   06 Jun 2027 03:05:47.718            13.141               CapeTown           410.656
       437   06 Jun 2027 04:01:46.309   06 Jun 2027 04:05:30.016           223.707                Anadyr1          6990.844
       438   06 Jun 2027 04:45:13.179   06 Jun 2027 04:45:58.985            45.806            RioGallegos          1431.437
       439   06 Jun 2027 05:38:41.778   06 Jun 2027 05:41:45.306           183.528                Irkutsk          5735.250
       440   06 Jun 2027 05:42:07.113   06 Jun 2027 05:43:25.165            78.052               Magadan1          2439.125
       441   06 Jun 2027 07:15:20.972   06 Jun 2027 07:15:39.154            18.182                Irkutsk           568.188
       442   06 Jun 2027 07:16:16.114   06 Jun 2027 07:16:29.504            13.390                Irkutsk           418.438
       443   06 Jun 2027 07:16:48.435   06 Jun 2027 07:17:48.207            59.772              Murmansk1          1867.875
       444   06 Jun 2027 07:18:14.096   06 Jun 2027 07:18:19.135             5.039                Irkutsk           157.469
       445   06 Jun 2027 07:18:50.300   06 Jun 2027 07:19:33.641            43.341                Irkutsk          1354.406
       446   06 Jun 2027 07:57:08.532   06 Jun 2027 07:57:35.343            26.811            RioGallegos           837.844
       447   06 Jun 2027 08:29:23.511   06 Jun 2027 08:30:40.020            76.509                Sumatra          2390.906
       448   06 Jun 2027 08:51:37.087   06 Jun 2027 08:51:46.862             9.775                Novosib           305.469
       449   06 Jun 2027 08:51:47.596   06 Jun 2027 08:52:32.577            44.981                Novosib          1405.656
       450   06 Jun 2027 08:54:36.984   06 Jun 2027 08:54:42.711             5.727                Irkutsk           178.969
       451   06 Jun 2027 10:14:11.080   06 Jun 2027 10:17:29.749           198.669                  Delhi          6208.406
       452   06 Jun 2027 10:30:10.890   06 Jun 2027 10:30:16.763             5.873                Novosib           183.531
       453   06 Jun 2027 10:30:36.822   06 Jun 2027 10:30:51.077            14.255                Norilsk           445.469
       454   06 Jun 2027 10:31:04.135   06 Jun 2027 10:31:04.598             0.463                Norilsk            14.469
       455   06 Jun 2027 10:31:38.870   06 Jun 2027 10:31:41.044             2.174                Novosib            67.938
       456   06 Jun 2027 12:03:04.374   06 Jun 2027 12:03:33.516            29.142              Murmansk2           910.688
       457   06 Jun 2027 12:04:02.622   06 Jun 2027 12:04:28.413            25.791              Murmansk1           805.969
       458   06 Jun 2027 12:05:47.249   06 Jun 2027 12:05:58.321            11.072              Murmansk1           346.000
       459   06 Jun 2027 12:07:27.216   06 Jun 2027 12:09:40.373           133.157                Norilsk          4161.156
       460   06 Jun 2027 12:10:34.463   06 Jun 2027 12:10:51.264            16.801                Norilsk           525.031
       461   06 Jun 2027 12:17:52.875   06 Jun 2027 12:20:54.022           181.147                Anadyr2          5660.844
       462   06 Jun 2027 13:43:21.493   06 Jun 2027 13:43:49.516            28.023              Murmansk2           875.719
       463   06 Jun 2027 13:44:38.379   06 Jun 2027 13:44:42.536             4.157              Murmansk2           129.906
       464   06 Jun 2027 13:47:11.150   06 Jun 2027 13:47:30.900            19.750              Murmansk2           617.187
       465   06 Jun 2027 13:48:10.989   06 Jun 2027 13:48:50.593            39.604              Murmansk1          1237.625
       466   06 Jun 2027 13:51:58.445   06 Jun 2027 13:53:52.902           114.457                Anadyr1          3576.781
       467   06 Jun 2027 13:55:01.863   06 Jun 2027 13:56:08.539            66.676                Anadyr2          2083.625
       468   06 Jun 2027 13:57:21.383   06 Jun 2027 13:58:12.276            50.893                Anadyr1          1590.406
       469   06 Jun 2027 14:02:18.716   06 Jun 2027 14:02:56.533            37.817                Anadyr2          1181.781
       470   06 Jun 2027 15:19:30.490   06 Jun 2027 15:21:21.022           110.532              Murmansk1          3454.125
       471   06 Jun 2027 15:27:42.926   06 Jun 2027 15:29:06.492            83.566                Anadyr1          2611.437
       472   06 Jun 2027 15:30:32.841   06 Jun 2027 15:33:44.247           191.406               Magadan2          5981.437
       473   06 Jun 2027 15:36:13.887   06 Jun 2027 15:38:15.989           122.102               Magadan2          3815.688
       474   06 Jun 2027 15:38:44.374   06 Jun 2027 15:40:03.623            79.249               Magadan2          2476.531
       475   06 Jun 2027 17:05:55.687   06 Jun 2027 17:08:09.317           133.630               Magadan2          4175.938
       476   06 Jun 2027 17:17:38.346   06 Jun 2027 17:18:46.359            68.013               Magadan1          2125.406
       477   06 Jun 2027 17:58:53.767   06 Jun 2027 18:02:16.506           202.739            RioGallegos          6335.594
       478   06 Jun 2027 18:04:17.941   06 Jun 2027 18:05:43.220            85.279            RioGallegos          2664.969
       479   06 Jun 2027 18:41:33.443   06 Jun 2027 18:42:01.942            28.499                Norilsk           890.594
       480   06 Jun 2027 18:43:09.633   06 Jun 2027 18:45:46.186           156.553                Norilsk          4892.281
       481   06 Jun 2027 18:46:06.104   06 Jun 2027 18:47:01.625            55.521                Irkutsk          1735.031
       482   06 Jun 2027 18:47:30.870   06 Jun 2027 18:48:58.121            87.251                Irkutsk          2726.594
