uniorb/output/strategy_4/Drop/Drop_KinoSat_110505.txt

KinoSat_110505
-------------------------
    Access    *     Start Time (UTCG)     *     Stop Time (UTCG)  *   Duration (s)        *       Station  *  Data (Mbytes)
         1   01 Jun 2027 03:47:39.106   01 Jun 2027 03:49:20.654           101.548                Anadyr2         12693.500
         2   01 Jun 2027 03:49:48.915   01 Jun 2027 03:51:08.349            79.434                Anadyr2          9929.250
         3   01 Jun 2027 03:51:24.088   01 Jun 2027 03:52:00.395            36.307                Anadyr1          4538.375
         4   01 Jun 2027 03:52:00.395   01 Jun 2027 03:53:21.228            80.833                Anadyr2         10104.125
         5   01 Jun 2027 03:54:12.533   01 Jun 2027 03:54:22.028             9.495                Anadyr1          1186.875
         6   01 Jun 2027 05:25:24.651   01 Jun 2027 05:25:32.118             7.467                Irkutsk           933.375
         7   01 Jun 2027 05:25:33.401   01 Jun 2027 05:26:28.945            55.544               Magadan2          6943.000
         8   01 Jun 2027 05:26:52.894   01 Jun 2027 05:28:20.883            87.989                Novosib         10998.625
         9   01 Jun 2027 05:28:37.598   01 Jun 2027 05:29:16.148            38.550                Novosib          4818.750
        10   01 Jun 2027 05:29:25.874   01 Jun 2027 05:29:41.158            15.284              Murmansk2          1910.500
        11   01 Jun 2027 05:29:44.935   01 Jun 2027 05:30:28.346            43.411              Murmansk2          5426.375
        12   01 Jun 2027 05:32:45.712   01 Jun 2027 05:32:55.166             9.454                Norilsk          1181.750
        13   01 Jun 2027 05:33:17.075   01 Jun 2027 05:33:39.190            22.115                Norilsk          2764.375
        14   01 Jun 2027 06:05:19.814   01 Jun 2027 06:05:44.827            25.013            RioGallegos          3126.625
        15   01 Jun 2027 06:40:08.092   01 Jun 2027 06:41:07.818            59.726                Sumatra          7465.750
        16   01 Jun 2027 06:43:15.133   01 Jun 2027 06:43:16.646             1.513                Sumatra           189.125
        17   01 Jun 2027 06:51:09.078   01 Jun 2027 06:53:06.379           117.301                  Delhi         14662.625
        18   01 Jun 2027 07:02:46.881   01 Jun 2027 07:03:34.756            47.875                Norilsk          5984.375
        19   01 Jun 2027 07:03:34.982   01 Jun 2027 07:03:41.125             6.143                Novosib           767.875
        20   01 Jun 2027 07:03:45.937   01 Jun 2027 07:04:11.886            25.949              Murmansk1          3243.625
        21   01 Jun 2027 07:04:19.346   01 Jun 2027 07:04:37.219            17.873              Murmansk1          2234.125
        22   01 Jun 2027 07:04:43.844   01 Jun 2027 07:04:44.148             0.304              Murmansk2            38.000
        23   01 Jun 2027 07:04:48.240   01 Jun 2027 07:05:18.531            30.291                Novosib          3786.375
        24   01 Jun 2027 07:05:27.386   01 Jun 2027 07:06:17.479            50.093                Irkutsk          6261.625
        25   01 Jun 2027 07:06:27.467   01 Jun 2027 07:06:37.331             9.864                Norilsk          1233.000
        26   01 Jun 2027 07:06:44.926   01 Jun 2027 07:07:50.265            65.339                Novosib          8167.375
        27   01 Jun 2027 08:24:20.479   01 Jun 2027 08:25:03.624            43.145                  Delhi          5393.125
        28   01 Jun 2027 08:40:55.592   01 Jun 2027 08:45:22.554           266.962              Murmansk1         33370.250
        29   01 Jun 2027 08:45:22.554   01 Jun 2027 08:47:48.655           146.101              Murmansk2         18262.625
        30   01 Jun 2027 10:15:08.609   01 Jun 2027 10:16:30.784            82.175                 Moscow         10271.875
        31   01 Jun 2027 10:16:52.659   01 Jun 2027 10:17:08.440            15.781                 Moscow          1972.625
        32   01 Jun 2027 10:17:22.047   01 Jun 2027 10:17:53.442            31.395              Murmansk2          3924.375
        33   01 Jun 2027 10:18:01.104   01 Jun 2027 10:18:21.856            20.752                Norilsk          2594.000
        34   01 Jun 2027 10:18:44.290   01 Jun 2027 10:23:11.436           267.146                Norilsk         33393.250
        35   01 Jun 2027 10:23:35.729   01 Jun 2027 10:25:05.445            89.716              Murmansk2         11214.500
        36   01 Jun 2027 11:23:38.273   01 Jun 2027 11:33:17.575           579.302               CapeTown         72412.750
        37   01 Jun 2027 11:45:48.722   01 Jun 2027 11:47:12.296            83.574                 Moscow         10446.750
        38   01 Jun 2027 12:03:19.473   01 Jun 2027 12:08:36.319           316.846                Anadyr1         39605.750
        39   01 Jun 2027 13:42:27.645   01 Jun 2027 13:46:06.224           218.579               Magadan1         27322.375
        40   01 Jun 2027 13:46:13.816   01 Jun 2027 13:48:21.313           127.497               Magadan2         15937.125
        41   01 Jun 2027 16:58:31.184   01 Jun 2027 17:03:54.174           322.990                Irkutsk         40373.750
        42   01 Jun 2027 17:15:15.916   01 Jun 2027 17:17:29.657           133.741                Sumatra         16717.625
        43   01 Jun 2027 18:33:31.906   01 Jun 2027 18:38:25.795           293.889                Novosib         36736.125
        44   01 Jun 2027 18:39:52.753   01 Jun 2027 18:41:29.145            96.392                Novosib          5766.749
        45   02 Jun 2027 04:03:46.665   02 Jun 2027 04:05:22.402            95.737                Anadyr2         11967.125
        46   02 Jun 2027 04:05:59.441   02 Jun 2027 04:06:08.522             9.081                Anadyr1          1135.125
        47   02 Jun 2027 04:06:38.230   02 Jun 2027 04:06:40.600             2.370               Magadan1           296.250
        48   02 Jun 2027 04:06:43.911   02 Jun 2027 04:09:14.213           150.302              Murmansk1         18787.750
        49   02 Jun 2027 05:20:10.602   02 Jun 2027 05:20:45.493            34.891                Sumatra          4361.375
        50   02 Jun 2027 05:23:00.668   02 Jun 2027 05:25:23.395           142.727                Sumatra         17840.875
        51   02 Jun 2027 05:38:59.562   02 Jun 2027 05:40:28.057            88.495               Magadan2         11061.875
        52   02 Jun 2027 05:40:54.326   02 Jun 2027 05:41:00.520             6.194               Magadan2           774.250
        53   02 Jun 2027 05:42:01.551   02 Jun 2027 05:42:36.390            34.839                Irkutsk          4354.875
        54   02 Jun 2027 05:42:53.321   02 Jun 2027 05:43:53.981            60.660                Norilsk          7582.500
        55   02 Jun 2027 05:44:22.093   02 Jun 2027 05:45:04.386            42.293              Murmansk2          5286.625
        56   02 Jun 2027 05:45:14.125   02 Jun 2027 05:47:23.480           129.355              Murmansk1         16169.375
        57   02 Jun 2027 05:49:01.611   02 Jun 2027 05:50:42.968           101.357              Murmansk2         12669.625
        58   02 Jun 2027 06:24:34.647   02 Jun 2027 06:29:57.245           322.598            RioGallegos         40324.750
        59   02 Jun 2027 06:52:18.773   02 Jun 2027 06:57:19.311           300.538                Sumatra         37567.250
        60   02 Jun 2027 07:17:44.070   02 Jun 2027 07:17:59.918            15.848                Novosib          1981.000
        61   02 Jun 2027 07:18:28.808   02 Jun 2027 07:20:06.009            97.201                Novosib         12150.125
        62   02 Jun 2027 07:20:13.346   02 Jun 2027 07:23:31.813           198.467                Norilsk         24808.375
        63   02 Jun 2027 07:24:50.289   02 Jun 2027 07:25:39.291            49.002              Murmansk1          6125.250
        64   02 Jun 2027 07:58:02.888   02 Jun 2027 08:03:31.875           328.987            RioGallegos         41123.375
        65   02 Jun 2027 08:43:03.289   02 Jun 2027 08:48:52.595           349.306                  Delhi         43663.250
        66   02 Jun 2027 08:49:00.359   02 Jun 2027 08:49:26.259            25.900                Novosib          3237.500
        67   02 Jun 2027 08:49:55.272   02 Jun 2027 08:50:29.502            34.230                Norilsk          4278.750
        68   02 Jun 2027 08:54:14.161   02 Jun 2027 08:54:31.953            17.792              Murmansk2          2224.000
        69   02 Jun 2027 08:55:00.275   02 Jun 2027 08:55:35.688            35.413                Novosib          4426.625
        70   02 Jun 2027 08:55:37.409   02 Jun 2027 08:59:30.812           233.403                Norilsk         29175.375
        71   02 Jun 2027 09:00:45.313   02 Jun 2027 09:01:13.393            28.080              Murmansk2          3510.000
        72   02 Jun 2027 10:23:22.480   02 Jun 2027 10:24:02.245            39.765                 Moscow          4970.625
        73   02 Jun 2027 10:30:19.188   02 Jun 2027 10:33:37.685           198.497                 Moscow         24812.125
        74   02 Jun 2027 10:33:38.800   02 Jun 2027 10:35:06.293            87.493                Norilsk         10936.625
        75   02 Jun 2027 10:35:16.421   02 Jun 2027 10:37:06.990           110.569              Murmansk2         13821.125
        76   02 Jun 2027 11:58:15.261   02 Jun 2027 12:09:00.230           644.969                 Moscow         80621.125
        77   02 Jun 2027 12:09:28.499   02 Jun 2027 12:13:04.600           216.101              Murmansk1         27012.625
        78   02 Jun 2027 12:15:13.536   02 Jun 2027 12:24:54.499           580.963                Anadyr1         72620.375
        79   02 Jun 2027 13:13:10.980   02 Jun 2027 13:16:32.085           201.105               CapeTown         25138.125
        80   02 Jun 2027 13:54:07.718   02 Jun 2027 14:00:31.377           383.659               Magadan1         47957.375
        81   02 Jun 2027 16:23:57.748   02 Jun 2027 16:26:04.897           127.149            RioGallegos         15893.625
        82   02 Jun 2027 17:09:57.702   02 Jun 2027 17:14:31.386           273.684                Irkutsk         34210.500
        83   02 Jun 2027 17:16:00.023   02 Jun 2027 17:17:37.477            97.454                Irkutsk         12181.750
        84   02 Jun 2027 17:25:26.602   02 Jun 2027 17:27:27.324           120.722                Sumatra         15090.250
        85   02 Jun 2027 17:31:22.670   02 Jun 2027 17:31:49.166            26.496                Sumatra          3312.000
        86   02 Jun 2027 18:47:04.707   02 Jun 2027 18:49:09.378           124.671                Novosib         15583.875
        87   02 Jun 2027 18:57:27.074   02 Jun 2027 18:58:00.681            33.607                  Delhi          4200.875
        88   02 Jun 2027 20:21:00.368   02 Jun 2027 20:21:35.235            34.867              Murmansk1          4358.375
        89   02 Jun 2027 21:55:50.841   02 Jun 2027 21:56:45.880            55.039              Murmansk1          6879.875
        90   02 Jun 2027 21:58:34.983   02 Jun 2027 22:00:25.625           110.642                 Moscow         13830.250
        91   02 Jun 2027 22:01:38.339   02 Jun 2027 22:04:42.493           184.154                 Moscow         10360.251
        92   03 Jun 2027 04:17:32.923   03 Jun 2027 04:17:44.539            11.616                Anadyr2          1452.000
        93   03 Jun 2027 04:18:41.591   03 Jun 2027 04:23:51.980           310.389                Norilsk         38798.625
        94   03 Jun 2027 04:23:55.547   03 Jun 2027 04:26:30.751           155.204              Murmansk2         19400.500
        95   03 Jun 2027 05:30:52.546   03 Jun 2027 05:33:03.520           130.974                Sumatra         16371.750
        96   03 Jun 2027 05:37:13.960   03 Jun 2027 05:37:23.328             9.368                Sumatra          1171.000
        97   03 Jun 2027 05:55:33.387   03 Jun 2027 05:55:58.537            25.150                Novosib          3143.750
        98   03 Jun 2027 05:56:19.707   03 Jun 2027 05:59:31.600           191.893              Murmansk2         23986.625
        99   03 Jun 2027 06:01:01.037   03 Jun 2027 06:02:34.273            93.236              Murmansk1         11654.500
       100   03 Jun 2027 06:36:24.895   03 Jun 2027 06:41:53.005           328.110            RioGallegos         41013.750
       101   03 Jun 2027 07:10:37.715   03 Jun 2027 07:16:40.057           362.342                Sumatra         45292.750
       102   03 Jun 2027 07:18:52.602   03 Jun 2027 07:20:10.862            78.260                Irkutsk          9782.500
       103   03 Jun 2027 07:20:35.233   03 Jun 2027 07:24:33.327           238.094                Novosib         29761.750
       104   03 Jun 2027 07:30:31.208   03 Jun 2027 07:35:33.688           302.480                Norilsk         37810.000
       105   03 Jun 2027 07:36:51.710   03 Jun 2027 07:37:36.185            44.475              Murmansk1          5559.375
       106   03 Jun 2027 08:12:06.721   03 Jun 2027 08:14:00.631           113.910            RioGallegos         14238.750
       107   03 Jun 2027 08:54:35.147   03 Jun 2027 09:00:41.091           365.944                  Delhi         45743.000
       108   03 Jun 2027 09:01:04.710   03 Jun 2027 09:01:26.428            21.718                Novosib          2714.750
       109   03 Jun 2027 09:06:08.270   03 Jun 2027 09:06:26.698            18.428              Murmansk1          2303.500
       110   03 Jun 2027 09:06:36.324   03 Jun 2027 09:07:27.580            51.256                Novosib          6407.000
       111   03 Jun 2027 09:07:47.364   03 Jun 2027 09:11:31.817           224.453                Norilsk         28056.625
       112   03 Jun 2027 09:11:51.404   03 Jun 2027 09:13:13.698            82.294              Murmansk1         10286.750
       113   03 Jun 2027 10:35:17.647   03 Jun 2027 10:38:00.236           162.589                 Moscow         20323.625
       114   03 Jun 2027 10:41:13.831   03 Jun 2027 10:45:38.240           264.409                 Moscow         33051.125
       115   03 Jun 2027 10:45:40.756   03 Jun 2027 10:46:58.370            77.614                Norilsk          9701.750
       116   03 Jun 2027 10:47:32.068   03 Jun 2027 10:49:08.605            96.537              Murmansk1         12067.125
       117   03 Jun 2027 12:11:23.872   03 Jun 2027 12:20:50.105           566.233                 Moscow         70779.125
       118   03 Jun 2027 12:21:27.529   03 Jun 2027 12:25:05.577           218.048              Murmansk2         27256.000
       119   03 Jun 2027 12:27:26.517   03 Jun 2027 12:37:25.592           599.075                Anadyr2         74884.375
       120   03 Jun 2027 13:24:58.588   03 Jun 2027 13:30:34.332           335.744               CapeTown         41968.000
       121   03 Jun 2027 14:05:53.479   03 Jun 2027 14:07:33.825           100.346               Magadan1         12543.250
       122   03 Jun 2027 14:07:33.825   03 Jun 2027 14:09:54.020           140.195               Magadan2         17524.375
       123   03 Jun 2027 14:11:16.503   03 Jun 2027 14:12:38.701            82.198               Magadan1         10274.750
       124   03 Jun 2027 16:34:48.340   03 Jun 2027 16:37:49.160           180.820            RioGallegos         22602.500
       125   03 Jun 2027 16:40:01.954   03 Jun 2027 16:40:46.720            44.766            RioGallegos          5595.750
       126   03 Jun 2027 17:22:15.318   03 Jun 2027 17:25:19.979           184.661                Irkutsk         23082.625
       127   03 Jun 2027 17:27:00.380   03 Jun 2027 17:28:08.433            68.053                Irkutsk          8506.625
       128   03 Jun 2027 17:36:24.800   03 Jun 2027 17:39:08.456           163.656                Sumatra         20457.000
       129   03 Jun 2027 17:40:57.129   03 Jun 2027 17:42:27.892            90.763                Sumatra         11345.375
       130   03 Jun 2027 19:00:21.295   03 Jun 2027 19:02:56.674           155.379                Novosib         19422.375
       131   03 Jun 2027 19:06:48.205   03 Jun 2027 19:08:02.436            74.231                  Delhi          9278.875
       132   03 Jun 2027 20:32:40.049   03 Jun 2027 20:33:48.130            68.081              Murmansk2          8510.125
       133   03 Jun 2027 22:08:59.407   03 Jun 2027 22:10:58.691           119.284              Murmansk1         14910.500
       134   03 Jun 2027 22:11:35.368   03 Jun 2027 22:11:54.262            18.894              Murmansk1          2361.750
       135   03 Jun 2027 22:17:02.106   03 Jun 2027 22:17:26.329            24.223                 Moscow            44.751
       136   04 Jun 2027 04:30:12.323   04 Jun 2027 04:30:21.533             9.210                Irkutsk          1151.250
       137   04 Jun 2027 04:30:38.671   04 Jun 2027 04:37:17.550           398.879              Murmansk2         49859.875
       138   04 Jun 2027 05:42:01.611   04 Jun 2027 05:44:11.827           130.216                Sumatra         16277.000
       139   04 Jun 2027 06:06:33.156   04 Jun 2027 06:08:08.956            95.800                Norilsk         11975.000
       140   04 Jun 2027 06:08:17.832   04 Jun 2027 06:09:24.118            66.286              Murmansk1          8285.750
       141   04 Jun 2027 06:09:24.118   04 Jun 2027 06:11:22.181           118.063              Murmansk2         14757.875
       142   04 Jun 2027 06:11:35.692   04 Jun 2027 06:11:36.913             1.221                Norilsk           152.625
       143   04 Jun 2027 06:13:00.824   04 Jun 2027 06:14:26.319            85.495              Murmansk1         10686.875
       144   04 Jun 2027 06:48:11.944   04 Jun 2027 06:53:47.031           335.087            RioGallegos         41885.875
       145   04 Jun 2027 07:22:00.307   04 Jun 2027 07:28:25.363           385.056                Sumatra         48132.000
       146   04 Jun 2027 07:31:21.089   04 Jun 2027 07:32:11.457            50.368                Irkutsk          6296.000
       147   04 Jun 2027 07:32:38.404   04 Jun 2027 07:36:56.202           257.798                Novosib         32224.750
       148   04 Jun 2027 07:42:05.529   04 Jun 2027 07:43:12.506            66.977                 Moscow          8372.125
       149   04 Jun 2027 07:43:12.618   04 Jun 2027 07:47:35.581           262.963                Norilsk         32870.375
       150   04 Jun 2027 07:48:53.242   04 Jun 2027 07:49:33.644            40.402              Murmansk2          5050.250
       151   04 Jun 2027 09:05:55.367   04 Jun 2027 09:12:24.605           389.238                  Delhi         48654.750
       152   04 Jun 2027 09:12:41.192   04 Jun 2027 09:12:55.049            13.857                Novosib          1732.125
       153   04 Jun 2027 09:13:10.676   04 Jun 2027 09:13:29.500            18.824                Novosib          2353.000
       154   04 Jun 2027 09:18:00.199   04 Jun 2027 09:19:11.782            71.583              Murmansk1          8947.875
       155   04 Jun 2027 09:19:19.024   04 Jun 2027 09:23:32.488           253.464                Norilsk         31683.000
       156   04 Jun 2027 09:23:41.306   04 Jun 2027 09:25:14.277            92.971              Murmansk1         11621.375
       157   04 Jun 2027 10:48:03.729   04 Jun 2027 10:49:57.834           114.105                 Moscow         14263.125
       158   04 Jun 2027 10:51:10.471   04 Jun 2027 10:51:56.732            46.261              Murmansk2          5782.625
       159   04 Jun 2027 10:52:44.584   04 Jun 2027 10:57:38.088           293.504                 Moscow         36688.000
       160   04 Jun 2027 10:57:42.648   04 Jun 2027 10:58:45.710            63.062                Norilsk          7882.750
       161   04 Jun 2027 10:58:56.419   04 Jun 2027 11:01:10.263           133.844              Murmansk1         16730.500
       162   04 Jun 2027 11:05:26.947   04 Jun 2027 11:07:39.759           132.812                Anadyr1         16601.500
       163   04 Jun 2027 12:10:13.177   04 Jun 2027 12:10:43.192            30.015               CapeTown          3751.875
       164   04 Jun 2027 12:23:24.507   04 Jun 2027 12:32:30.334           545.827                 Moscow         68228.375
       165   04 Jun 2027 14:17:42.948   04 Jun 2027 14:23:30.629           347.681               Magadan2         43460.125
       166   04 Jun 2027 16:46:11.348   04 Jun 2027 16:49:37.357           206.009            RioGallegos         25751.125
       167   04 Jun 2027 16:52:07.504   04 Jun 2027 16:53:45.582            98.078            RioGallegos         12259.750
       168   04 Jun 2027 17:36:04.446   04 Jun 2027 17:37:13.831            69.385                Irkutsk          8673.125
       169   04 Jun 2027 17:39:24.200   04 Jun 2027 17:39:26.265             2.065                Irkutsk           258.125
       170   04 Jun 2027 17:47:41.981   04 Jun 2027 17:48:14.218            32.237                Sumatra          4029.625
       171   04 Jun 2027 17:49:11.170   04 Jun 2027 17:53:49.071           277.901                Sumatra         34737.625
       172   04 Jun 2027 19:17:48.685   04 Jun 2027 19:20:42.391           173.706                  Delhi         21713.250
       173   04 Jun 2027 19:22:53.777   04 Jun 2027 19:24:51.183           117.406                  Delhi         14675.750
       174   04 Jun 2027 20:44:36.750   04 Jun 2027 20:46:26.162           109.412              Murmansk2         13676.500
       175   04 Jun 2027 22:21:54.734   04 Jun 2027 22:23:00.326            65.592              Murmansk1          8199.000
       176   04 Jun 2027 22:52:59.805   04 Jun 2027 22:53:18.879            19.074               CapeTown           280.000
       177   05 Jun 2027 04:42:41.132   05 Jun 2027 04:47:49.496           308.364                Norilsk         38545.500
       178   05 Jun 2027 04:49:26.219   05 Jun 2027 04:51:50.914           144.695              Murmansk1         18086.875
       179   05 Jun 2027 05:17:26.282   05 Jun 2027 05:26:06.773           520.491            RioGallegos         65061.375
       180   05 Jun 2027 06:18:33.524   05 Jun 2027 06:19:10.270            36.746                Novosib          4593.250
       181   05 Jun 2027 06:19:14.477   05 Jun 2027 06:20:04.952            50.475                Norilsk          6309.375
       182   05 Jun 2027 06:20:16.429   05 Jun 2027 06:23:19.955           183.526              Murmansk1         22940.750
       183   05 Jun 2027 06:23:24.268   05 Jun 2027 06:23:38.176            13.908                Norilsk          1738.500
       184   05 Jun 2027 06:25:00.939   05 Jun 2027 06:26:19.120            78.181              Murmansk2          9772.625
       185   05 Jun 2027 06:59:54.605   05 Jun 2027 07:05:38.927           344.322            RioGallegos         43040.250
       186   05 Jun 2027 07:33:07.678   05 Jun 2027 07:40:03.618           415.940                Sumatra         51992.500
       187   05 Jun 2027 07:44:17.185   05 Jun 2027 07:44:33.167            15.982                Irkutsk          1997.750
       188   05 Jun 2027 07:45:38.736   05 Jun 2027 07:49:24.740           226.004                Novosib         28250.500
       189   05 Jun 2027 07:54:34.693   05 Jun 2027 07:59:37.455           302.762                Norilsk         37845.250
       190   05 Jun 2027 08:00:54.792   05 Jun 2027 08:01:31.627            36.835              Murmansk1          4604.375
       191   05 Jun 2027 09:16:53.889   05 Jun 2027 09:24:01.755           427.866                  Delhi         53483.250
       192   05 Jun 2027 09:24:02.019   05 Jun 2027 09:25:50.935           108.916                Novosib         13614.500
       193   05 Jun 2027 09:29:55.606   05 Jun 2027 09:33:41.009           225.403                 Moscow         28175.375
       194   05 Jun 2027 09:33:44.327   05 Jun 2027 09:35:32.719           108.392                Norilsk         13549.000
       195   05 Jun 2027 09:36:00.051   05 Jun 2027 09:37:15.082            75.031              Murmansk2          9378.875
       196   05 Jun 2027 11:00:03.432   05 Jun 2027 11:01:53.929           110.497                 Moscow         13812.125
       197   05 Jun 2027 11:03:11.595   05 Jun 2027 11:04:28.264            76.669              Murmansk2          9583.625
       198   05 Jun 2027 11:04:28.264   05 Jun 2027 11:13:11.927           523.663              Murmansk1         65457.875
       199   05 Jun 2027 11:18:32.287   05 Jun 2027 11:21:13.314           161.027                Anadyr1         20128.375
       200   05 Jun 2027 12:18:01.963   05 Jun 2027 12:19:51.351           109.388               CapeTown         13673.500
       201   05 Jun 2027 14:29:35.033   05 Jun 2027 14:33:25.777           230.744               Magadan2         28843.000
       202   05 Jun 2027 14:33:39.290   05 Jun 2027 14:33:47.408             8.118               Magadan2          1014.750
       203   05 Jun 2027 16:57:49.848   05 Jun 2027 17:03:08.035           318.187            RioGallegos         39773.375
       204   05 Jun 2027 17:04:09.653   05 Jun 2027 17:04:28.753            19.100            RioGallegos          2387.500
       205   05 Jun 2027 17:49:12.311   05 Jun 2027 17:50:59.090           106.779                Irkutsk         13347.375
       206   05 Jun 2027 18:03:48.689   05 Jun 2027 18:06:05.664           136.975                Sumatra         17121.875
       207   05 Jun 2027 19:29:09.815   05 Jun 2027 19:32:30.261           200.446                  Delhi         25055.750
       208   05 Jun 2027 19:34:37.800   05 Jun 2027 19:36:47.438           129.638                  Delhi         16204.750
       209   05 Jun 2027 20:56:31.530   05 Jun 2027 20:57:16.551            45.021              Murmansk1          5627.625
       210   05 Jun 2027 20:59:00.799   05 Jun 2027 20:59:03.772             2.973              Murmansk1           371.625
       211   05 Jun 2027 23:04:20.142   05 Jun 2027 23:05:59.886            99.744               CapeTown         12468.000
       212   06 Jun 2027 04:58:02.944   06 Jun 2027 04:59:18.330            75.386              Murmansk1          9423.250
       213   06 Jun 2027 04:59:21.711   06 Jun 2027 04:59:48.862            27.151                Norilsk          3393.875
       214   06 Jun 2027 05:01:23.250   06 Jun 2027 05:03:39.076           135.826              Murmansk2         16978.250
       215   06 Jun 2027 05:37:07.850   06 Jun 2027 05:42:15.930           308.080            RioGallegos         38510.000
       216   06 Jun 2027 06:16:01.405   06 Jun 2027 06:16:40.201            38.796                Sumatra          4849.500
       217   06 Jun 2027 06:19:46.228   06 Jun 2027 06:20:06.449            20.221                Irkutsk          2527.625
       218   06 Jun 2027 06:21:05.967   06 Jun 2027 06:25:10.245           244.278                Irkutsk         30534.750
       219   06 Jun 2027 06:30:36.547   06 Jun 2027 06:35:39.607           303.060                Norilsk         37882.500
       220   06 Jun 2027 06:37:01.349   06 Jun 2027 06:38:12.664            71.315              Murmansk1          8914.375
       221   06 Jun 2027 07:11:30.746   06 Jun 2027 07:17:28.131           357.385            RioGallegos         44673.125
       222   06 Jun 2027 07:43:45.693   06 Jun 2027 07:51:33.220           467.527                Sumatra         58440.875
       223   06 Jun 2027 07:55:29.062   06 Jun 2027 07:56:20.482            51.420                Novosib          6427.500
       224   06 Jun 2027 07:56:20.524   06 Jun 2027 08:00:00.350           219.826                  Delhi         27478.250
       225   06 Jun 2027 08:06:36.243   06 Jun 2027 08:11:39.285           303.042                Norilsk         37880.250
       226   06 Jun 2027 08:12:55.450   06 Jun 2027 08:13:30.089            34.639              Murmansk2          4329.875
       227   06 Jun 2027 09:26:21.664   06 Jun 2027 09:35:30.084           548.420                  Delhi         68552.500
       228   06 Jun 2027 09:35:32.143   06 Jun 2027 09:38:21.083           168.940                Novosib         21117.500
       229   06 Jun 2027 09:43:03.729   06 Jun 2027 09:47:32.385           268.656                Norilsk         33582.000
       230   06 Jun 2027 09:47:56.135   06 Jun 2027 09:49:16.094            79.959              Murmansk2          9994.875
       231   06 Jun 2027 11:10:50.918   06 Jun 2027 11:11:16.474            25.556                 Moscow          3194.500
       232   06 Jun 2027 11:15:37.722   06 Jun 2027 11:16:29.555            51.833              Murmansk1          6479.125
       233   06 Jun 2027 11:16:48.700   06 Jun 2027 11:21:35.286           286.586                 Moscow         35823.250
       234   06 Jun 2027 11:21:52.690   06 Jun 2027 11:25:13.570           200.880              Murmansk1         25110.000
       235   06 Jun 2027 11:28:09.506   06 Jun 2027 11:31:22.715           193.209                Anadyr2         24151.125
       236   06 Jun 2027 14:41:29.079   06 Jun 2027 14:43:53.200           144.121               Magadan1         18015.125
       237   06 Jun 2027 17:12:03.603   06 Jun 2027 17:15:41.307           217.704            RioGallegos         27213.000
       238   06 Jun 2027 18:00:06.695   06 Jun 2027 18:02:10.279           123.584                Novosib         15448.000
       239   06 Jun 2027 18:16:52.386   06 Jun 2027 18:17:15.070            22.684                Sumatra          2835.500
       240   06 Jun 2027 19:44:05.810   06 Jun 2027 19:47:27.914           202.104                  Delhi         25263.000
       241   06 Jun 2027 21:08:17.321   06 Jun 2027 21:09:05.107            47.786              Murmansk1          5973.250
       242   06 Jun 2027 21:09:26.649   06 Jun 2027 21:12:32.170           185.521              Murmansk2         23190.125
       243   06 Jun 2027 21:12:53.449   06 Jun 2027 21:15:23.578           150.129                 Moscow         18766.125
       244   07 Jun 2027 05:08:47.507   07 Jun 2027 05:08:50.752             3.245              Murmansk1           405.625
       245   07 Jun 2027 05:09:53.283   07 Jun 2027 05:11:46.372           113.089              Murmansk2         14136.125
       246   07 Jun 2027 05:13:20.841   07 Jun 2027 05:15:27.747           126.906              Murmansk1         15863.250
       247   07 Jun 2027 05:49:05.537   07 Jun 2027 05:54:16.536           310.999            RioGallegos         38874.875
       248   07 Jun 2027 06:27:37.593   07 Jun 2027 06:28:54.926            77.333                Sumatra          9666.625
       249   07 Jun 2027 06:31:10.210   07 Jun 2027 06:36:20.744           310.534                Irkutsk         38816.750
       250   07 Jun 2027 06:42:22.423   07 Jun 2027 06:42:51.524            29.101              Murmansk2          3637.625
       251   07 Jun 2027 06:43:15.837   07 Jun 2027 06:47:41.168           265.331                Norilsk         33166.375
       252   07 Jun 2027 06:49:02.021   07 Jun 2027 06:50:06.933            64.912              Murmansk1          8114.000
       253   07 Jun 2027 07:22:55.683   07 Jun 2027 07:29:13.786           378.103            RioGallegos         47262.875
       254   07 Jun 2027 07:53:51.297   07 Jun 2027 08:02:51.193           539.896                Sumatra         67487.000
       255   07 Jun 2027 08:07:40.802   07 Jun 2027 08:08:03.567            22.765                Novosib          2845.625
       256   07 Jun 2027 08:08:35.684   07 Jun 2027 08:13:18.518           282.834                  Delhi         35354.250
       257   07 Jun 2027 08:13:36.979   07 Jun 2027 08:14:27.239            50.260                Irkutsk          6282.500
       258   07 Jun 2027 08:18:18.457   07 Jun 2027 08:19:03.496            45.039              Murmansk1          5629.875
       259   07 Jun 2027 08:19:14.763   07 Jun 2027 08:23:41.041           266.278                Norilsk         33284.750
       260   07 Jun 2027 08:24:56.327   07 Jun 2027 08:25:28.998            32.671              Murmansk2          4083.875
       261   07 Jun 2027 09:39:14.991   07 Jun 2027 09:46:44.379           449.388                  Delhi         56173.500
       262   07 Jun 2027 09:47:47.941   07 Jun 2027 09:49:56.510           128.569                Novosib         16071.125
       263   07 Jun 2027 09:53:58.763   07 Jun 2027 09:54:25.201            26.438                 Moscow          3304.750
       264   07 Jun 2027 09:55:12.061   07 Jun 2027 09:59:31.329           259.268                Norilsk         32408.500
       265   07 Jun 2027 09:59:45.514   07 Jun 2027 10:01:17.288            91.774              Murmansk2         11471.750
       266   07 Jun 2027 11:24:00.249   07 Jun 2027 11:24:39.678            39.429                 Moscow          4928.625
       267   07 Jun 2027 11:27:39.356   07 Jun 2027 11:28:30.982            51.626              Murmansk1          6453.250
       268   07 Jun 2027 11:29:02.683   07 Jun 2027 11:33:32.355           269.672                 Moscow         33709.000
       269   07 Jun 2027 11:33:49.817   07 Jun 2027 11:37:15.159           205.342              Murmansk1         25667.750
       270   07 Jun 2027 11:43:50.160   07 Jun 2027 11:47:09.902           199.742                Anadyr2         24967.750
       271   07 Jun 2027 12:41:47.689   07 Jun 2027 12:47:09.782           322.093               CapeTown         40261.625
       272   07 Jun 2027 13:02:19.020   07 Jun 2027 13:03:35.200            76.180                 Moscow          9522.500
       273   07 Jun 2027 13:20:09.661   07 Jun 2027 13:22:56.262           166.601               Magadan2         20825.125
       274   07 Jun 2027 17:25:15.613   07 Jun 2027 17:27:11.608           115.995            RioGallegos         14499.375
       275   07 Jun 2027 18:06:17.268   07 Jun 2027 18:08:45.390           148.122                Norilsk         18515.250
       276   07 Jun 2027 18:10:47.321   07 Jun 2027 18:16:05.108           317.787                Novosib         39723.375
       277   07 Jun 2027 19:57:28.262   07 Jun 2027 19:58:40.996            72.734                  Delhi          9091.750
       278   07 Jun 2027 21:20:10.484   07 Jun 2027 21:24:23.221           252.737              Murmansk1         31592.125
       279   07 Jun 2027 21:24:54.387   07 Jun 2027 21:27:11.665           137.278                 Moscow         17159.750
       280   07 Jun 2027 21:27:31.566   07 Jun 2027 21:29:30.110           118.544                 Moscow         14818.000
       281   08 Jun 2027 05:17:56.920   08 Jun 2027 05:18:20.870            23.950                Irkutsk          2993.750
       282   08 Jun 2027 05:18:48.361   08 Jun 2027 05:19:27.410            39.049                Novosib          4881.125
       283   08 Jun 2027 05:19:54.891   08 Jun 2027 05:19:56.090             1.199                Novosib           149.875
       284   08 Jun 2027 05:20:43.336   08 Jun 2027 05:21:33.715            50.379              Murmansk1          6297.375
       285   08 Jun 2027 05:21:44.338   08 Jun 2027 05:23:34.014           109.676              Murmansk2         13709.500
       286   08 Jun 2027 05:25:18.952   08 Jun 2027 05:27:16.996           118.044              Murmansk1         14755.500
       287   08 Jun 2027 06:01:01.838   08 Jun 2027 06:06:16.127           314.289            RioGallegos         39286.125
       288   08 Jun 2027 06:35:50.839   08 Jun 2027 06:41:03.351           312.512                Sumatra         39064.000
       289   08 Jun 2027 06:43:30.389   08 Jun 2027 06:48:39.582           309.193                Irkutsk         38649.125
       290   08 Jun 2027 06:54:40.235   08 Jun 2027 06:59:42.850           302.615                Norilsk         37826.875
       291   08 Jun 2027 07:01:02.919   08 Jun 2027 07:02:01.917            58.998              Murmansk1          7374.750
       292   08 Jun 2027 07:33:53.205   08 Jun 2027 07:40:54.445           421.240            RioGallegos         52655.000
       293   08 Jun 2027 08:06:39.185   08 Jun 2027 08:13:50.797           431.612                Sumatra         53951.500
       294   08 Jun 2027 08:19:52.745   08 Jun 2027 08:25:18.192           325.447                  Delhi         40680.875
       295   08 Jun 2027 08:25:24.571   08 Jun 2027 08:26:35.653            71.082                Irkutsk          8885.250
       296   08 Jun 2027 08:30:12.183   08 Jun 2027 08:35:42.684           330.501                Norilsk         41312.625
       297   08 Jun 2027 08:36:57.410   08 Jun 2027 08:37:28.317            30.907              Murmansk1          3863.375
       298   08 Jun 2027 09:52:44.158   08 Jun 2027 09:57:28.351           284.193                  Delhi         35524.125
       299   08 Jun 2027 10:05:57.019   08 Jun 2027 10:06:10.078            13.059              Murmansk2          1632.375
       300   08 Jun 2027 10:06:17.498   08 Jun 2027 10:06:49.002            31.504                Norilsk          3938.000
       301   08 Jun 2027 10:07:51.509   08 Jun 2027 10:11:29.316           217.807                Norilsk         27225.875
       302   08 Jun 2027 10:11:53.494   08 Jun 2027 10:13:18.620            85.126              Murmansk2         10640.750
       303   08 Jun 2027 11:35:57.085   08 Jun 2027 11:37:00.614            63.529                 Moscow          7941.125
       304   08 Jun 2027 11:39:40.931   08 Jun 2027 11:40:10.724            29.793              Murmansk2          3724.125
       305   08 Jun 2027 11:41:14.126   08 Jun 2027 11:45:28.159           254.033                 Moscow         31754.125
       306   08 Jun 2027 11:45:47.510   08 Jun 2027 11:49:16.657           209.147              Murmansk2         26143.375
       307   08 Jun 2027 11:56:22.544   08 Jun 2027 11:59:54.995           212.451                Anadyr1         26556.375
       308   08 Jun 2027 12:53:32.921   08 Jun 2027 12:59:08.316           335.395               CapeTown         41924.375
       309   08 Jun 2027 13:15:51.360   08 Jun 2027 13:25:04.190           552.830              Murmansk1         69103.750
       310   08 Jun 2027 13:27:01.538   08 Jun 2027 13:29:22.291           140.753                Anadyr1         17594.125
       311   08 Jun 2027 13:31:11.982   08 Jun 2027 13:33:39.000           147.018               Magadan2         18377.250
       312   08 Jun 2027 13:33:49.755   08 Jun 2027 13:36:23.445           153.690               Magadan1         19211.250
       313   08 Jun 2027 16:47:43.382   08 Jun 2027 16:50:08.289           144.907                Irkutsk         18113.375
       314   08 Jun 2027 18:18:47.782   08 Jun 2027 18:21:02.438           134.656                Norilsk         16832.000
       315   08 Jun 2027 18:22:10.392   08 Jun 2027 18:28:01.095           350.703                Novosib         43837.875
       316   08 Jun 2027 21:31:47.498   08 Jun 2027 21:33:41.563           114.065              Murmansk1         14258.125
       317   08 Jun 2027 21:33:56.608   08 Jun 2027 21:35:20.894            84.286              Murmansk1         10535.750
       318   08 Jun 2027 21:35:21.369   08 Jun 2027 21:38:22.372           181.003                 Moscow         22625.375
       319   08 Jun 2027 21:43:14.391   08 Jun 2027 21:43:19.449             5.058                 Moscow           632.250
       320   08 Jun 2027 22:04:48.437   08 Jun 2027 22:06:36.581           108.144               CapeTown         13518.000
       321   09 Jun 2027 03:53:27.414   09 Jun 2027 03:54:57.156            89.742               Magadan2         11217.750
       322   09 Jun 2027 03:54:58.152   09 Jun 2027 03:55:46.075            47.923                Norilsk          5990.375
       323   09 Jun 2027 03:56:03.790   09 Jun 2027 03:57:58.704           114.914              Murmansk2         14364.250
       324   09 Jun 2027 05:30:54.847   09 Jun 2027 05:32:02.405            67.558                Novosib          8444.750
       325   09 Jun 2027 05:32:39.806   09 Jun 2027 05:33:27.284            47.478              Murmansk2          5934.750
       326   09 Jun 2027 05:33:36.129   09 Jun 2027 05:35:28.208           112.079              Murmansk1         14009.875
       327   09 Jun 2027 05:37:17.540   09 Jun 2027 05:39:06.892           109.352              Murmansk2         13669.000
       328   09 Jun 2027 06:12:56.497   09 Jun 2027 06:18:14.608           318.111            RioGallegos         39763.875
       329   09 Jun 2027 06:47:38.333   09 Jun 2027 06:53:06.036           327.703                Sumatra         40962.875
       330   09 Jun 2027 06:55:54.642   09 Jun 2027 07:00:17.716           263.074                Irkutsk         32884.250
       331   09 Jun 2027 07:06:52.776   09 Jun 2027 07:11:44.617           291.841                Norilsk         36480.125
       332   09 Jun 2027 07:13:04.028   09 Jun 2027 07:13:57.570            53.542              Murmansk2          6692.750
       333   09 Jun 2027 07:45:07.582   09 Jun 2027 07:52:27.362           439.780            RioGallegos         54972.500
       334   09 Jun 2027 08:20:16.409   09 Jun 2027 08:24:06.610           230.201                Sumatra         28775.125
       335   09 Jun 2027 08:31:38.090   09 Jun 2027 08:37:14.478           336.388                  Delhi         42048.500
       336   09 Jun 2027 08:37:38.258   09 Jun 2027 08:38:17.080            38.822                Irkutsk          4852.750
       337   09 Jun 2027 08:42:39.514   09 Jun 2027 08:47:44.166           304.652                Norilsk         38081.500
       338   09 Jun 2027 08:48:58.652   09 Jun 2027 08:49:27.999            29.347              Murmansk2          3668.375
       339   09 Jun 2027 10:11:40.608   09 Jun 2027 10:12:00.850            20.242                 Moscow          2530.250
       340   09 Jun 2027 10:17:58.052   09 Jun 2027 10:23:25.999           327.947                Norilsk         40993.375
       341   09 Jun 2027 10:23:50.887   09 Jun 2027 10:25:20.076            89.189              Murmansk2         11148.625
       342   09 Jun 2027 11:47:52.595   09 Jun 2027 11:49:04.262            71.667                 Moscow          8958.375
       343   09 Jun 2027 11:50:24.541   09 Jun 2027 11:51:53.256            88.715              Murmansk2         11089.375
       344   09 Jun 2027 11:51:53.256   09 Jun 2027 12:01:18.033           564.777              Murmansk1         70597.125
       345   09 Jun 2027 12:07:24.184   09 Jun 2027 12:12:34.533           310.349                Anadyr1         38793.625
       346   09 Jun 2027 13:05:12.663   09 Jun 2027 13:11:01.908           349.245               CapeTown         43655.625
       347   09 Jun 2027 13:28:25.935   09 Jun 2027 13:37:01.694           515.759              Murmansk1         64469.875
       348   09 Jun 2027 13:39:01.669   09 Jun 2027 13:46:13.037           431.368                Anadyr1         53921.000
       349   09 Jun 2027 13:46:20.759   09 Jun 2027 13:49:36.518           195.759               Magadan1         24469.875
       350   09 Jun 2027 16:58:45.311   09 Jun 2027 17:05:01.490           376.179                Irkutsk         47022.375
       351   09 Jun 2027 17:15:28.455   09 Jun 2027 17:19:04.516           216.061                Sumatra         27007.625
       352   09 Jun 2027 18:33:46.287   09 Jun 2027 18:37:30.330           224.043                Novosib         28005.375
       353   09 Jun 2027 18:38:40.811   09 Jun 2027 18:40:07.664            86.853                Novosib         10856.625
       354   09 Jun 2027 21:42:54.165   09 Jun 2027 21:44:19.824            85.659              Murmansk2         10707.375
       355   09 Jun 2027 21:46:38.255   09 Jun 2027 21:48:51.207           132.952              Murmansk1         16619.000
       356   09 Jun 2027 21:50:15.231   09 Jun 2027 21:51:59.635           104.404              Murmansk1         13050.500
       357   09 Jun 2027 21:52:33.690   09 Jun 2027 21:53:41.485            67.795                 Moscow          8474.375
       358   09 Jun 2027 21:55:17.226   09 Jun 2027 21:56:13.850            56.624                 Moscow          1975.499
       359   10 Jun 2027 04:05:35.646   10 Jun 2027 04:06:04.874            29.228               Magadan2          3653.500
       360   10 Jun 2027 04:06:53.763   10 Jun 2027 04:06:55.189             1.426               Magadan2           178.250
       361   10 Jun 2027 04:06:56.984   10 Jun 2027 04:07:39.740            42.756                Norilsk          5344.500
       362   10 Jun 2027 04:07:43.958   10 Jun 2027 04:16:36.769           532.811              Murmansk2         66601.375
       363   10 Jun 2027 05:20:23.991   10 Jun 2027 05:21:00.567            36.576                Sumatra          4572.000
       364   10 Jun 2027 05:23:15.678   10 Jun 2027 05:25:38.064           142.386                Sumatra         17798.250
       365   10 Jun 2027 05:43:08.560   10 Jun 2027 05:44:08.773            60.213                Norilsk          7526.625
       366   10 Jun 2027 05:44:36.866   10 Jun 2027 05:45:19.788            42.922              Murmansk1          5365.250
       367   10 Jun 2027 05:45:28.676   10 Jun 2027 05:47:42.326           133.650              Murmansk2         16706.250
       368   10 Jun 2027 05:49:16.571   10 Jun 2027 05:50:57.479           100.908              Murmansk1         12613.500
       369   10 Jun 2027 06:24:49.183   10 Jun 2027 06:30:11.819           322.636            RioGallegos         40329.500
       370   10 Jun 2027 06:59:19.142   10 Jun 2027 07:05:03.141           343.999                Sumatra         42999.875
       371   10 Jun 2027 07:07:27.861   10 Jun 2027 07:08:25.561            57.700                Novosib          7212.500
       372   10 Jun 2027 07:08:49.668   10 Jun 2027 07:12:15.282           205.614                Irkutsk         25701.750
       373   10 Jun 2027 07:17:58.333   10 Jun 2027 07:18:17.825            19.492                Novosib          2436.500
       374   10 Jun 2027 07:19:08.311   10 Jun 2027 07:23:46.452           278.141                Norilsk         34767.625
       375   10 Jun 2027 07:25:05.300   10 Jun 2027 07:25:53.870            48.570              Murmansk1          6071.250
       376   10 Jun 2027 07:58:18.525   10 Jun 2027 08:03:45.839           327.314            RioGallegos         40914.250
       377   10 Jun 2027 08:43:17.631   10 Jun 2027 08:49:07.099           349.468                  Delhi         43683.500
       378   10 Jun 2027 08:49:16.725   10 Jun 2027 08:49:41.071            24.346                Novosib          3043.250
       379   10 Jun 2027 08:50:09.902   10 Jun 2027 08:50:44.855            34.953                Norilsk          4369.125
       380   10 Jun 2027 08:54:31.791   10 Jun 2027 08:54:46.848            15.057              Murmansk2          1882.125
       381   10 Jun 2027 08:55:14.983   10 Jun 2027 08:55:50.218            35.235                Novosib          4404.375
       382   10 Jun 2027 08:56:03.399   10 Jun 2027 08:59:45.440           222.041                Norilsk         27755.125
       383   10 Jun 2027 09:01:00.044   10 Jun 2027 09:01:28.014            27.970              Murmansk2          3496.250
       384   10 Jun 2027 10:23:37.135   10 Jun 2027 10:24:16.879            39.744                 Moscow          4968.000
       385   10 Jun 2027 10:30:33.836   10 Jun 2027 10:33:52.312           198.476                 Moscow         24809.500
       386   10 Jun 2027 10:33:54.047   10 Jun 2027 10:35:20.826            86.779                Norilsk         10847.375
       387   10 Jun 2027 10:35:48.819   10 Jun 2027 10:37:21.625            92.806              Murmansk1         11600.750
       388   10 Jun 2027 11:59:46.500   10 Jun 2027 12:01:04.422            77.922                 Moscow          9740.250
       389   10 Jun 2027 12:02:03.945   10 Jun 2027 12:09:14.739           430.794                 Moscow         53849.250
       390   10 Jun 2027 12:09:44.447   10 Jun 2027 12:13:19.228           214.781              Murmansk1         26847.625
       391   10 Jun 2027 12:15:28.098   10 Jun 2027 12:25:09.508           581.410                Anadyr2         72676.250
       392   10 Jun 2027 13:13:25.479   10 Jun 2027 13:22:50.485           565.006               CapeTown         70625.750
       393   10 Jun 2027 13:41:03.896   10 Jun 2027 13:43:28.727           144.831              Murmansk1         18103.875
       394   10 Jun 2027 13:54:22.142   10 Jun 2027 13:58:13.812           231.670               Magadan2         28958.750
       395   10 Jun 2027 13:59:02.536   10 Jun 2027 14:00:46.351           103.815               Magadan1         12976.875
       396   10 Jun 2027 16:24:11.034   10 Jun 2027 16:26:19.308           128.274            RioGallegos         16034.250
       397   10 Jun 2027 17:10:12.001   10 Jun 2027 17:13:42.779           210.778                Irkutsk         26347.250
       398   10 Jun 2027 17:14:46.420   10 Jun 2027 17:16:14.920            88.500                Irkutsk         11062.500
       399   10 Jun 2027 17:17:52.537   10 Jun 2027 17:17:55.869             3.332                Irkutsk           416.500
       400   10 Jun 2027 17:25:40.308   10 Jun 2027 17:27:41.681           121.373                Sumatra         15171.625
       401   10 Jun 2027 17:29:29.319   10 Jun 2027 17:31:37.376           128.057                Sumatra         16007.125
       402   10 Jun 2027 18:48:52.412   10 Jun 2027 18:51:08.171           135.759                Novosib         16969.875
       403   10 Jun 2027 18:57:31.975   10 Jun 2027 18:57:37.830             5.855                  Delhi           731.875
       404   10 Jun 2027 20:21:10.302   10 Jun 2027 20:21:56.635            46.333              Murmansk1          5791.625
       405   10 Jun 2027 21:56:06.990   10 Jun 2027 21:56:10.461             3.471              Murmansk1           433.875
       406   10 Jun 2027 21:58:49.464   10 Jun 2027 22:00:40.423           110.959                 Moscow         13869.875
       407   10 Jun 2027 22:01:53.833   10 Jun 2027 22:04:57.403           183.570                 Moscow         17842.875
       408   11 Jun 2027 04:17:43.917   11 Jun 2027 04:18:02.862            18.945               Magadan1          2368.125
       409   11 Jun 2027 04:18:56.222   11 Jun 2027 04:19:54.454            58.232                Norilsk          7279.000
       410   11 Jun 2027 04:19:56.022   11 Jun 2027 04:26:23.762           387.740              Murmansk2         48467.500
       411   11 Jun 2027 05:31:06.434   11 Jun 2027 05:33:18.718           132.284                Sumatra         16535.500
       412   11 Jun 2027 05:55:02.113   11 Jun 2027 05:56:31.586            89.473                Norilsk         11184.125
       413   11 Jun 2027 05:56:34.488   11 Jun 2027 05:59:47.636           193.148              Murmansk1         24143.500
       414   11 Jun 2027 06:01:16.006   11 Jun 2027 06:02:48.792            92.786              Murmansk2         11598.250
       415   11 Jun 2027 06:36:39.394   11 Jun 2027 06:42:07.559           328.165            RioGallegos         41020.625
       416   11 Jun 2027 07:10:51.954   11 Jun 2027 07:16:54.539           362.585                Sumatra         45323.125
       417   11 Jun 2027 07:19:07.530   11 Jun 2027 07:20:27.106            79.576                Irkutsk          9947.000
       418   11 Jun 2027 07:20:50.500   11 Jun 2027 07:25:39.954           289.454                Irkutsk         36181.750
       419   11 Jun 2027 07:30:40.389   11 Jun 2027 07:32:03.939            83.550                 Moscow         10443.750
       420   11 Jun 2027 07:32:15.898   11 Jun 2027 07:33:42.965            87.067              Murmansk1         10883.375
       421   11 Jun 2027 07:33:42.965   11 Jun 2027 07:35:32.595           109.630              Murmansk2         13703.750
       422   11 Jun 2027 07:37:06.725   11 Jun 2027 07:37:50.766            44.041              Murmansk1          5505.125
       423   11 Jun 2027 08:12:24.266   11 Jun 2027 08:14:12.726           108.460            RioGallegos         13557.500
       424   11 Jun 2027 08:54:49.373   11 Jun 2027 09:00:55.540           366.167                  Delhi         45770.875
       425   11 Jun 2027 09:01:00.315   11 Jun 2027 09:01:41.295            40.980                Novosib          5122.500
       426   11 Jun 2027 09:06:22.802   11 Jun 2027 09:06:41.609            18.807              Murmansk2          2350.875
       427   11 Jun 2027 09:06:49.827   11 Jun 2027 09:07:42.080            52.253                Novosib          6531.625
       428   11 Jun 2027 09:07:43.888   11 Jun 2027 09:11:46.440           242.552                Norilsk         30319.000
       429   11 Jun 2027 09:12:05.964   11 Jun 2027 09:13:28.321            82.357              Murmansk2         10294.625
       430   11 Jun 2027 10:35:32.281   11 Jun 2027 10:36:17.937            45.656                 Moscow          5707.000
       431   11 Jun 2027 10:37:25.962   11 Jun 2027 10:38:14.831            48.869                 Moscow          6108.625
       432   11 Jun 2027 10:41:28.503   11 Jun 2027 10:45:52.859           264.356                 Moscow         33044.500
       433   11 Jun 2027 10:45:55.996   11 Jun 2027 10:47:12.857            76.861                Norilsk          9607.625
       434   11 Jun 2027 10:47:47.247   11 Jun 2027 10:49:23.241            95.994              Murmansk1         11999.250
       435   11 Jun 2027 12:11:38.373   11 Jun 2027 12:21:04.577           566.204                 Moscow         70775.500
       436   11 Jun 2027 12:21:43.599   11 Jun 2027 12:25:20.201           216.602              Murmansk1         27075.250
       437   11 Jun 2027 12:27:41.516   11 Jun 2027 12:37:40.557           599.041                Anadyr2         74880.125
       438   11 Jun 2027 13:24:57.035   11 Jun 2027 13:26:18.709            81.674               CapeTown         10209.250
       439   11 Jun 2027 14:06:07.957   11 Jun 2027 14:10:08.602           240.645               Magadan2         30080.625
       440   11 Jun 2027 14:11:31.479   11 Jun 2027 14:12:53.628            82.149               Magadan1         10268.625
       441   11 Jun 2027 14:14:30.025   11 Jun 2027 14:15:11.762            41.737               Magadan2          5217.125
       442   11 Jun 2027 16:35:02.409   11 Jun 2027 16:38:03.628           181.219            RioGallegos         22652.375
       443   11 Jun 2027 17:22:32.066   11 Jun 2027 17:25:34.528           182.462                Irkutsk         22807.750
       444   11 Jun 2027 17:27:15.348   11 Jun 2027 17:28:22.405            67.057                Irkutsk          8382.125
       445   11 Jun 2027 17:36:38.812   11 Jun 2027 17:41:11.557           272.745                Sumatra         34093.125
       446   11 Jun 2027 17:43:40.184   11 Jun 2027 17:45:38.193           118.009                Sumatra         14751.125
       447   11 Jun 2027 19:07:01.906   11 Jun 2027 19:09:14.045           132.139                  Delhi         16517.375
       448   11 Jun 2027 20:32:57.666   11 Jun 2027 20:34:03.269            65.603              Murmansk1          8200.375
       449   11 Jun 2027 22:10:39.276   11 Jun 2027 22:12:30.347           111.071                 Moscow         13883.875
       450   11 Jun 2027 22:17:41.102   11 Jun 2027 22:19:16.660            95.558                 Moscow          2197.875
       451   12 Jun 2027 04:30:53.139   12 Jun 2027 04:31:50.524            57.385              Murmansk1          7173.125
       452   12 Jun 2027 04:31:50.524   12 Jun 2027 04:38:23.914           393.390              Murmansk2         49173.750
       453   12 Jun 2027 05:42:15.723   12 Jun 2027 05:44:31.027           135.304                Sumatra         16913.000
       454   12 Jun 2027 06:06:47.815   12 Jun 2027 06:08:23.793            95.978                Norilsk         11997.250
       455   12 Jun 2027 06:08:32.624   12 Jun 2027 06:11:36.720           184.096              Murmansk1         23012.000
       456   12 Jun 2027 06:13:15.801   12 Jun 2027 06:14:40.848            85.047              Murmansk2         10630.875
       457   12 Jun 2027 06:48:26.396   12 Jun 2027 06:54:01.561           335.165            RioGallegos         41895.625
       458   12 Jun 2027 07:22:14.396   12 Jun 2027 07:28:39.762           385.366                Sumatra         48170.750
       459   12 Jun 2027 07:31:36.084   12 Jun 2027 07:32:26.268            50.184                Irkutsk          6273.000
       460   12 Jun 2027 07:32:52.949   12 Jun 2027 07:33:11.100            18.151                Novosib          2268.875
       461   12 Jun 2027 07:33:39.905   12 Jun 2027 07:37:30.019           230.114                Irkutsk         28764.250
       462   12 Jun 2027 07:42:20.518   12 Jun 2027 07:43:41.316            80.798                 Moscow         10099.750
       463   12 Jun 2027 07:44:16.790   12 Jun 2027 07:47:35.041           198.251              Murmansk2         24781.375
       464   12 Jun 2027 07:49:08.260   12 Jun 2027 07:49:48.236            39.976              Murmansk1          4997.000
       465   12 Jun 2027 09:06:09.404   12 Jun 2027 09:12:38.985           389.581                  Delhi         48697.625
       466   12 Jun 2027 09:12:56.238   12 Jun 2027 09:13:09.546            13.308                Novosib          1663.500
       467   12 Jun 2027 09:13:29.187   12 Jun 2027 09:13:44.418            15.231                Novosib          1903.875
       468   12 Jun 2027 09:18:14.743   12 Jun 2027 09:19:28.866            74.123              Murmansk1          9265.375
       469   12 Jun 2027 09:19:35.086   12 Jun 2027 09:23:47.105           252.019                Norilsk         31502.375
       470   12 Jun 2027 09:23:55.877   12 Jun 2027 09:25:28.903            93.026              Murmansk1         11628.250
       471   12 Jun 2027 10:48:18.345   12 Jun 2027 10:50:12.879           114.534                 Moscow         14316.750
       472   12 Jun 2027 10:51:25.197   12 Jun 2027 10:52:18.949            53.752              Murmansk1          6719.000
       473   12 Jun 2027 10:52:58.852   12 Jun 2027 10:57:52.697           293.845                 Moscow         36730.625
       474   12 Jun 2027 10:57:57.882   12 Jun 2027 10:59:00.116            62.234                Norilsk          7779.250
       475   12 Jun 2027 10:59:11.416   12 Jun 2027 11:01:24.898           133.482              Murmansk2         16685.250
       476   12 Jun 2027 11:05:40.496   12 Jun 2027 11:07:55.955           135.459                Anadyr1         16932.375
       477   12 Jun 2027 12:10:27.668   12 Jun 2027 12:10:58.018            30.350               CapeTown          3793.750
       478   12 Jun 2027 12:23:39.621   12 Jun 2027 12:31:26.832           467.211                 Moscow         58401.375
       479   12 Jun 2027 12:40:11.830   12 Jun 2027 12:41:39.614            87.784                Anadyr1         10973.000
       480   12 Jun 2027 14:17:57.462   12 Jun 2027 14:22:04.760           247.298               Magadan2         30912.250
       481   12 Jun 2027 14:24:58.286   12 Jun 2027 14:26:32.027            93.741               Magadan1         11717.625
       482   12 Jun 2027 16:46:25.623   12 Jun 2027 16:49:51.868           206.245            RioGallegos         25780.625
