uniorb/output/strategy_4/Drop/Drop_KinoSat_111703.txt

KinoSat_111703
-------------------------
    Access    *     Start Time (UTCG)     *     Stop Time (UTCG)  *   Duration (s)        *       Station  *  Data (Mbytes)
         1   01 Jun 2027 03:32:06.175   01 Jun 2027 03:35:27.622           201.447                 Moscow          6295.219
         2   01 Jun 2027 03:35:28.146   01 Jun 2027 03:35:55.241            27.095                Novosib           846.719
         3   01 Jun 2027 03:36:07.368   01 Jun 2027 03:37:32.954            85.586                  Delhi          2674.563
         4   01 Jun 2027 03:39:03.334   01 Jun 2027 03:39:27.647            24.313                Novosib           759.781
         5   01 Jun 2027 03:44:48.185   01 Jun 2027 03:45:02.945            14.760                  Delhi           461.250
         6   01 Jun 2027 05:09:04.734   01 Jun 2027 05:10:43.715            98.981                 Moscow          3093.156
         7   01 Jun 2027 05:11:05.331   01 Jun 2027 05:11:10.040             4.709                Norilsk           147.156
         8   01 Jun 2027 05:11:18.015   01 Jun 2027 05:11:40.632            22.617                Novosib           706.781
         9   01 Jun 2027 05:11:44.526   01 Jun 2027 05:14:29.664           165.138              Murmansk2          5160.562
        10   01 Jun 2027 05:14:38.962   01 Jun 2027 05:16:29.061           110.099                 Moscow          3440.594
        11   01 Jun 2027 06:32:37.375   01 Jun 2027 06:33:42.349            64.974                Anadyr1          2030.437
        12   01 Jun 2027 08:09:54.802   01 Jun 2027 08:13:17.708           202.906               Magadan2          6340.812
        13   01 Jun 2027 08:13:38.579   01 Jun 2027 08:14:29.263            50.684                Anadyr2          1583.875
        14   01 Jun 2027 09:43:15.036   01 Jun 2027 09:43:35.876            20.840               Magadan2           651.250
        15   01 Jun 2027 09:43:55.723   01 Jun 2027 09:49:01.971           306.248               Magadan2          9570.250
        16   01 Jun 2027 09:49:54.681   01 Jun 2027 09:50:07.534            12.853                Novosib           401.656
        17   01 Jun 2027 09:52:48.355   01 Jun 2027 09:52:57.906             9.551              Murmansk1           298.469
        18   01 Jun 2027 10:25:05.422   01 Jun 2027 10:26:27.404            81.982            RioGallegos          2561.938
        19   01 Jun 2027 11:02:25.776   01 Jun 2027 11:04:05.910           100.134                Sumatra          3129.188
        20   01 Jun 2027 11:04:17.384   01 Jun 2027 11:04:22.578             5.194                Sumatra           162.312
        21   01 Jun 2027 11:19:23.426   01 Jun 2027 11:23:56.460           273.034               Magadan2          8532.312
        22   01 Jun 2027 11:25:02.824   01 Jun 2027 11:25:19.191            16.367                Irkutsk           511.469
        23   01 Jun 2027 11:27:06.911   01 Jun 2027 11:27:17.246            10.335                Novosib           322.969
        24   01 Jun 2027 12:01:50.407   01 Jun 2027 12:02:16.421            26.014            RioGallegos           812.937
        25   01 Jun 2027 12:35:32.648   01 Jun 2027 12:36:50.190            77.542                Sumatra          2423.188
        26   01 Jun 2027 12:37:53.141   01 Jun 2027 12:38:35.351            42.210                Sumatra          1319.062
        27   01 Jun 2027 12:50:07.943   01 Jun 2027 12:51:04.204            56.261                Irkutsk          1758.156
        28   01 Jun 2027 12:51:28.979   01 Jun 2027 12:51:59.841            30.862                Irkutsk           964.438
        29   01 Jun 2027 12:52:40.001   01 Jun 2027 12:53:02.252            22.251                Novosib           695.344
        30   01 Jun 2027 12:54:11.893   01 Jun 2027 12:55:51.318            99.425                Norilsk          3107.031
        31   01 Jun 2027 12:59:59.515   01 Jun 2027 13:00:03.787             4.272                Irkutsk           133.500
        32   01 Jun 2027 13:42:42.948   01 Jun 2027 13:46:01.558           198.610            RioGallegos          6206.563
        33   01 Jun 2027 14:20:02.419   01 Jun 2027 14:20:06.673             4.254                  Delhi           132.938
        34   01 Jun 2027 14:22:39.889   01 Jun 2027 14:24:46.920           127.031                  Delhi          3969.719
        35   01 Jun 2027 14:28:04.831   01 Jun 2027 14:28:38.022            33.191                Novosib          1037.219
        36   01 Jun 2027 14:31:40.507   01 Jun 2027 14:33:11.953            91.446                Novosib          2857.687
        37   01 Jun 2027 14:33:19.248   01 Jun 2027 14:33:44.312            25.064                Norilsk           783.250
        38   01 Jun 2027 14:34:49.181   01 Jun 2027 14:35:13.815            24.634                Norilsk           769.812
        39   01 Jun 2027 14:35:44.707   01 Jun 2027 14:36:52.414            67.707                Norilsk          2115.844
        40   01 Jun 2027 14:37:23.838   01 Jun 2027 14:38:04.002            40.164                Novosib          1255.125
        41   01 Jun 2027 16:04:05.801   01 Jun 2027 16:05:12.801            67.000                 Moscow          2093.750
        42   01 Jun 2027 16:05:14.200   01 Jun 2027 16:06:56.817           102.617                 Moscow          3206.781
        43   01 Jun 2027 16:07:35.485   01 Jun 2027 16:08:32.681            57.196              Murmansk2          1787.375
        44   01 Jun 2027 16:12:22.125   01 Jun 2027 16:18:23.590           361.465                Norilsk         11295.781
        45   01 Jun 2027 17:42:00.143   01 Jun 2027 17:43:02.559            62.416                 Moscow          1950.500
        46   01 Jun 2027 17:44:55.897   01 Jun 2027 17:46:24.126            88.229              Murmansk1          2757.156
        47   01 Jun 2027 17:47:03.059   01 Jun 2027 17:47:20.162            17.103                 Moscow           534.469
        48   01 Jun 2027 17:48:41.255   01 Jun 2027 17:50:16.195            94.940              Murmansk1          2966.875
        49   01 Jun 2027 18:53:43.450   01 Jun 2027 18:56:22.505           159.055               CapeTown          4970.469
        50   01 Jun 2027 19:02:28.017   01 Jun 2027 19:02:42.071            14.054               CapeTown           439.187
        51   01 Jun 2027 19:24:39.759   01 Jun 2027 19:26:16.220            96.461              Murmansk2          3014.406
        52   01 Jun 2027 19:27:53.414   01 Jun 2027 19:32:04.433           251.019              Murmansk2          7844.344
        53   01 Jun 2027 19:41:38.053   01 Jun 2027 19:42:48.851            70.798               Magadan2          2212.437
        54   01 Jun 2027 21:10:04.839   01 Jun 2027 21:11:40.768            95.929                Anadyr1          2997.781
        55   01 Jun 2027 21:11:48.057   01 Jun 2027 21:13:50.414           122.357                Anadyr2          3823.656
        56   01 Jun 2027 21:14:19.085   01 Jun 2027 21:17:02.981           163.896               Magadan1          5121.750
        57   01 Jun 2027 21:17:02.981   01 Jun 2027 21:18:07.049            64.068               Magadan2          2002.125
        58   01 Jun 2027 21:20:40.870   01 Jun 2027 21:20:42.883             2.013               Magadan2            62.906
        59   01 Jun 2027 21:20:45.562   01 Jun 2027 21:20:48.015             2.453               Magadan2            76.656
        60   01 Jun 2027 21:20:54.928   01 Jun 2027 21:21:10.380            15.452               Magadan2           482.875
        61   01 Jun 2027 21:22:37.171   01 Jun 2027 21:23:10.194            33.023               Magadan2          1031.969
        62   01 Jun 2027 22:06:14.083   01 Jun 2027 22:08:44.775           150.692            RioGallegos          4709.125
        63   01 Jun 2027 22:45:54.447   01 Jun 2027 22:47:46.834           112.387                Anadyr1          3512.094
        64   01 Jun 2027 22:47:53.589   01 Jun 2027 22:49:33.668           100.079                Anadyr2          3127.469
        65   01 Jun 2027 22:49:37.204   01 Jun 2027 22:50:12.235            35.031               Magadan1          1094.719
        66   01 Jun 2027 22:50:13.343   01 Jun 2027 22:52:00.748           107.405               Magadan2          3356.406
        67   01 Jun 2027 22:52:57.107   01 Jun 2027 22:54:40.940           103.833                Irkutsk          3244.781
        68   01 Jun 2027 22:58:20.680   01 Jun 2027 22:59:29.742            69.062                Irkutsk          2158.188
        69   01 Jun 2027 23:07:55.726   01 Jun 2027 23:09:52.927           117.201                Sumatra          3662.531
        70   01 Jun 2027 23:43:08.288   01 Jun 2027 23:43:33.465            25.177            RioGallegos           786.781
        71   01 Jun 2027 23:48:35.584   01 Jun 2027 23:48:48.545            12.961            RioGallegos           405.031
        72   01 Jun 2027 23:50:33.968   01 Jun 2027 23:50:56.856            22.888            RioGallegos           715.250
        73   02 Jun 2027 00:21:11.345   02 Jun 2027 00:21:31.877            20.532                Anadyr1           641.625
        74   02 Jun 2027 00:22:06.345   02 Jun 2027 00:23:04.538            58.193                Anadyr1          1818.531
        75   02 Jun 2027 00:23:04.538   02 Jun 2027 00:23:34.280            29.742                Anadyr2           929.438
        76   02 Jun 2027 00:23:47.961   02 Jun 2027 00:25:31.700           103.739                Norilsk          3241.844
        77   02 Jun 2027 00:25:43.390   02 Jun 2027 00:26:00.723            17.333               Magadan2           541.656
        78   02 Jun 2027 00:26:15.789   02 Jun 2027 00:26:28.245            12.456               Magadan1           389.250
        79   02 Jun 2027 00:26:49.603   02 Jun 2027 00:27:36.671            47.068               Magadan2          1470.875
        80   02 Jun 2027 00:27:43.456   02 Jun 2027 00:28:54.401            70.945                Irkutsk          2217.031
        81   02 Jun 2027 00:29:44.235   02 Jun 2027 00:30:35.400            51.165                Novosib          1598.906
        82   02 Jun 2027 00:32:04.155   02 Jun 2027 00:32:23.215            19.060                Novosib           595.625
        83   02 Jun 2027 00:34:19.932   02 Jun 2027 00:36:23.198           123.266                Novosib          3852.063
        84   02 Jun 2027 00:46:19.826   02 Jun 2027 00:47:18.033            58.207                Sumatra          1818.969
        85   02 Jun 2027 00:50:27.710   02 Jun 2027 00:51:21.676            53.966                Sumatra          1686.437
        86   02 Jun 2027 01:26:30.612   02 Jun 2027 01:26:54.035            23.423            RioGallegos           731.969
        87   02 Jun 2027 01:27:49.165   02 Jun 2027 01:27:56.573             7.408            RioGallegos           231.500
        88   02 Jun 2027 01:55:18.726   02 Jun 2027 01:55:25.896             7.170                Anadyr1           224.062
        89   02 Jun 2027 01:56:27.249   02 Jun 2027 01:56:48.881            21.632                Anadyr2           676.000
        90   02 Jun 2027 01:57:25.308   02 Jun 2027 01:57:51.684            26.376                Anadyr1           824.250
        91   02 Jun 2027 01:59:48.835   02 Jun 2027 02:01:09.564            80.729                Norilsk          2522.781
        92   02 Jun 2027 02:01:18.865   02 Jun 2027 02:01:41.909            23.044                Norilsk           720.125
        93   02 Jun 2027 02:02:42.131   02 Jun 2027 02:03:45.321            63.190              Murmansk2          1974.687
        94   02 Jun 2027 02:03:47.047   02 Jun 2027 02:03:49.621             2.574              Murmansk1            80.437
        95   02 Jun 2027 02:03:50.985   02 Jun 2027 02:04:41.666            50.681                Irkutsk          1583.781
        96   02 Jun 2027 02:08:46.424   02 Jun 2027 02:08:53.216             6.792                Irkutsk           212.250
        97   02 Jun 2027 02:10:39.772   02 Jun 2027 02:10:56.725            16.953                Novosib           529.781
        98   02 Jun 2027 02:10:57.023   02 Jun 2027 02:10:57.508             0.485                  Delhi            15.156
        99   02 Jun 2027 02:11:13.529   02 Jun 2027 02:11:29.919            16.390                Irkutsk           512.187
       100   02 Jun 2027 02:12:28.279   02 Jun 2027 02:13:03.521            35.242                Novosib          1101.312
       101   02 Jun 2027 02:17:45.857   02 Jun 2027 02:18:45.793            59.936                  Delhi          1873.000
       102   02 Jun 2027 02:52:53.254   02 Jun 2027 02:55:21.433           148.179            RioGallegos          4630.594
       103   02 Jun 2027 02:56:46.535   02 Jun 2027 02:57:18.015            31.480            RioGallegos           983.750
       104   02 Jun 2027 03:42:17.358   02 Jun 2027 03:43:52.169            94.811                Irkutsk          2962.844
       105   02 Jun 2027 03:45:33.519   02 Jun 2027 03:46:55.158            81.639                Norilsk          2551.219
       106   02 Jun 2027 05:25:37.955   02 Jun 2027 05:30:02.436           264.481                 Moscow          8265.031
       107   02 Jun 2027 05:41:01.123   02 Jun 2027 05:43:36.454           155.331               CapeTown          4854.094
       108   02 Jun 2027 05:46:53.862   02 Jun 2027 05:47:50.403            56.541               CapeTown          1766.906
       109   02 Jun 2027 05:49:37.546   02 Jun 2027 05:52:57.628           200.082               CapeTown          6252.563
       110   02 Jun 2027 06:44:11.152   02 Jun 2027 06:45:09.281            58.129               Magadan1          1816.531
       111   02 Jun 2027 06:45:09.281   02 Jun 2027 06:45:52.108            42.827               Magadan2          1338.344
       112   02 Jun 2027 06:46:12.416   02 Jun 2027 06:50:15.659           243.243               Magadan1          7601.344
       113   02 Jun 2027 06:50:19.701   02 Jun 2027 06:50:41.415            21.714                Anadyr1           678.563
       114   02 Jun 2027 08:24:02.113   02 Jun 2027 08:26:28.193           146.080                Anadyr1          4565.000
       115   02 Jun 2027 09:54:33.374   02 Jun 2027 09:54:36.864             3.490               Magadan1           109.063
       116   02 Jun 2027 09:55:52.420   02 Jun 2027 09:56:15.353            22.933               Magadan2           716.656
       117   02 Jun 2027 09:56:58.593   02 Jun 2027 09:58:19.534            80.941               Magadan2          2529.406
       118   02 Jun 2027 09:59:16.463   02 Jun 2027 10:00:30.262            73.799               Magadan1          2306.219
       119   02 Jun 2027 10:00:40.939   02 Jun 2027 10:01:13.451            32.512               Magadan1          1016.000
       120   02 Jun 2027 10:01:46.340   02 Jun 2027 10:01:54.791             8.451                Norilsk           264.094
       121   02 Jun 2027 10:02:01.058   02 Jun 2027 10:02:14.087            13.029                Norilsk           407.156
       122   02 Jun 2027 10:36:55.665   02 Jun 2027 10:37:53.511            57.846            RioGallegos          1807.687
       123   02 Jun 2027 11:13:30.895   02 Jun 2027 11:15:23.447           112.552                Sumatra          3517.250
       124   02 Jun 2027 11:33:14.634   02 Jun 2027 11:33:54.692            40.058                Irkutsk          1251.813
       125   02 Jun 2027 11:34:10.669   02 Jun 2027 11:34:42.969            32.300                Irkutsk          1009.375
       126   02 Jun 2027 11:34:55.200   02 Jun 2027 11:34:56.060             0.860                Norilsk            26.875
       127   02 Jun 2027 11:35:12.248   02 Jun 2027 11:35:21.602             9.354                Norilsk           292.313
       128   02 Jun 2027 11:35:24.493   02 Jun 2027 11:35:45.937            21.444                Novosib           670.125
       129   02 Jun 2027 11:35:48.929   02 Jun 2027 11:37:06.284            77.355                Irkutsk          2417.344
       130   02 Jun 2027 11:37:14.000   02 Jun 2027 11:37:27.127            13.127                Novosib           410.219
       131   02 Jun 2027 11:37:30.493   02 Jun 2027 11:37:52.682            22.189                Irkutsk           693.406
       132   02 Jun 2027 12:13:20.971   02 Jun 2027 12:14:34.079            73.108            RioGallegos          2284.625
       133   02 Jun 2027 12:22:14.187   02 Jun 2027 12:23:13.007            58.820            RioGallegos          1838.125
       134   02 Jun 2027 12:47:43.120   02 Jun 2027 12:49:39.669           116.549                Sumatra          3642.156
       135   02 Jun 2027 13:02:35.708   02 Jun 2027 13:03:14.460            38.752                Irkutsk          1211.000
       136   02 Jun 2027 13:06:13.433   02 Jun 2027 13:07:43.651            90.218                Irkutsk          2819.313
       137   02 Jun 2027 13:13:08.799   02 Jun 2027 13:13:32.896            24.097                Norilsk           753.031
       138   02 Jun 2027 14:32:23.489   02 Jun 2027 14:33:22.980            59.491                  Delhi          1859.094
       139   02 Jun 2027 14:36:52.123   02 Jun 2027 14:37:30.481            38.358                  Delhi          1198.687
       140   02 Jun 2027 14:39:09.836   02 Jun 2027 14:39:31.961            22.125                  Delhi           691.406
       141   02 Jun 2027 14:40:34.609   02 Jun 2027 14:42:20.042           105.433                  Delhi          3294.781
       142   02 Jun 2027 14:43:39.180   02 Jun 2027 14:45:38.015           118.835                Novosib          3713.594
       143   02 Jun 2027 14:46:37.734   02 Jun 2027 14:47:00.166            22.432              Murmansk1           701.000
       144   02 Jun 2027 14:47:16.178   02 Jun 2027 14:48:24.515            68.337                Norilsk          2135.531
       145   02 Jun 2027 14:49:04.751   02 Jun 2027 14:49:35.558            30.807                Norilsk           962.719
       146   02 Jun 2027 16:16:10.235   02 Jun 2027 16:19:23.838           193.603                 Moscow          6050.094
       147   02 Jun 2027 16:19:41.448   02 Jun 2027 16:20:29.750            48.302              Murmansk1          1509.437
       148   02 Jun 2027 16:21:30.022   02 Jun 2027 16:22:28.485            58.463              Murmansk2          1826.969
       149   02 Jun 2027 16:25:14.199   02 Jun 2027 16:29:43.185           268.986                Norilsk          8405.813
       150   02 Jun 2027 17:54:36.783   02 Jun 2027 17:56:43.417           126.634                 Moscow          3957.312
       151   02 Jun 2027 17:57:17.223   02 Jun 2027 17:57:40.491            23.268              Murmansk2           727.125
       152   02 Jun 2027 17:58:06.412   02 Jun 2027 17:58:54.193            47.781              Murmansk2          1493.156
       153   02 Jun 2027 18:00:49.963   02 Jun 2027 18:01:56.742            66.779              Murmansk2          2086.844
       154   02 Jun 2027 18:13:06.756   02 Jun 2027 18:13:10.979             4.223                Anadyr2           131.969
       155   02 Jun 2027 18:13:29.108   02 Jun 2027 18:13:41.783            12.675                Anadyr2           396.094
       156   02 Jun 2027 18:15:39.320   02 Jun 2027 18:15:56.647            17.327                Anadyr1           541.469
       157   02 Jun 2027 18:17:00.603   02 Jun 2027 18:17:27.362            26.759                Anadyr1           836.219
       158   02 Jun 2027 19:05:55.018   02 Jun 2027 19:07:29.748            94.730               CapeTown          2960.313
       159   02 Jun 2027 19:15:29.574   02 Jun 2027 19:15:41.103            11.529               CapeTown           360.281
       160   02 Jun 2027 19:37:25.284   02 Jun 2027 19:43:23.941           358.657              Murmansk1         11208.031
       161   02 Jun 2027 19:56:59.750   02 Jun 2027 19:57:22.430            22.680               Magadan1           708.750
       162   02 Jun 2027 19:58:46.686   02 Jun 2027 19:58:50.314             3.628               Magadan1           113.375
       163   02 Jun 2027 21:22:06.462   02 Jun 2027 21:25:51.602           225.140                Anadyr1          7035.625
       164   02 Jun 2027 21:25:52.920   02 Jun 2027 21:27:58.457           125.537               Magadan2          3923.031
       165   02 Jun 2027 21:28:29.304   02 Jun 2027 21:29:35.300            65.996               Magadan1          2062.375
       166   02 Jun 2027 21:30:28.597   02 Jun 2027 21:30:59.040            30.443               Magadan1           951.344
       167   02 Jun 2027 21:35:14.818   02 Jun 2027 21:35:18.495             3.677               Magadan1           114.906
       168   02 Jun 2027 22:17:35.021   02 Jun 2027 22:20:28.309           173.288            RioGallegos          5415.250
       169   02 Jun 2027 22:22:47.155   02 Jun 2027 22:23:21.240            34.085            RioGallegos          1065.156
       170   02 Jun 2027 22:57:53.711   02 Jun 2027 22:58:55.753            62.042                Anadyr2          1938.812
       171   02 Jun 2027 22:59:09.783   02 Jun 2027 23:00:21.155            71.372                Anadyr2          2230.375
       172   02 Jun 2027 23:00:57.263   02 Jun 2027 23:01:33.645            36.382                Norilsk          1136.938
       173   02 Jun 2027 23:02:48.533   02 Jun 2027 23:03:13.394            24.861                Norilsk           776.906
       174   02 Jun 2027 23:03:28.527   02 Jun 2027 23:04:10.243            41.716               Magadan1          1303.625
       175   02 Jun 2027 23:04:40.160   02 Jun 2027 23:06:40.333           120.173                Irkutsk          3755.406
       176   02 Jun 2027 23:19:10.022   02 Jun 2027 23:20:46.784            96.762                Sumatra          3023.813
       177   02 Jun 2027 23:24:07.394   02 Jun 2027 23:25:05.627            58.233                Sumatra          1819.781
       178   03 Jun 2027 00:33:03.723   03 Jun 2027 00:35:11.762           128.039                Anadyr1          4001.219
       179   03 Jun 2027 00:36:20.444   03 Jun 2027 00:37:33.849            73.405                Norilsk          2293.906
       180   03 Jun 2027 00:37:45.774   03 Jun 2027 00:37:56.220            10.446               Magadan1           326.437
       181   03 Jun 2027 00:38:03.357   03 Jun 2027 00:38:50.980            47.623               Magadan2          1488.219
       182   03 Jun 2027 00:39:43.647   03 Jun 2027 00:40:43.730            60.083                Irkutsk          1877.594
       183   03 Jun 2027 00:40:57.242   03 Jun 2027 00:41:14.741            17.499                Novosib           546.844
       184   03 Jun 2027 00:42:33.311   03 Jun 2027 00:43:03.325            30.014                Novosib           937.937
       185   03 Jun 2027 00:45:48.312   03 Jun 2027 00:45:51.572             3.260                Novosib           101.875
       186   03 Jun 2027 00:45:57.048   03 Jun 2027 00:46:03.252             6.204                Novosib           193.875
       187   03 Jun 2027 00:49:17.085   03 Jun 2027 00:51:13.522           116.437                  Delhi          3638.656
       188   03 Jun 2027 00:56:32.618   03 Jun 2027 00:57:16.642            44.024                  Delhi          1375.750
       189   03 Jun 2027 01:27:54.685   03 Jun 2027 01:28:41.848            47.163            RioGallegos          1473.844
       190   03 Jun 2027 01:32:31.896   03 Jun 2027 01:32:55.917            24.021            RioGallegos           750.656
       191   03 Jun 2027 01:35:57.895   03 Jun 2027 01:36:29.975            32.080            RioGallegos          1002.500
       192   03 Jun 2027 02:07:01.542   03 Jun 2027 02:07:16.195            14.653                Anadyr2           457.906
       193   03 Jun 2027 02:07:49.019   03 Jun 2027 02:07:50.980             1.961                Anadyr2            61.281
       194   03 Jun 2027 02:08:14.649   03 Jun 2027 02:08:49.111            34.462                Anadyr1          1076.938
       195   03 Jun 2027 02:09:14.932   03 Jun 2027 02:09:44.866            29.934                Anadyr1           935.437
       196   03 Jun 2027 02:11:51.021   03 Jun 2027 02:13:05.734            74.713                Norilsk          2334.781
       197   03 Jun 2027 02:13:06.776   03 Jun 2027 02:13:07.369             0.593                Norilsk            18.531
       198   03 Jun 2027 02:14:31.502   03 Jun 2027 02:15:45.211            73.709              Murmansk1          2303.406
       199   03 Jun 2027 02:15:57.765   03 Jun 2027 02:17:13.063            75.298                Irkutsk          2353.062
       200   03 Jun 2027 02:17:32.295   03 Jun 2027 02:17:38.334             6.039                Irkutsk           188.719
       201   03 Jun 2027 02:20:40.782   03 Jun 2027 02:22:06.631            85.849                Irkutsk          2682.781
       202   03 Jun 2027 02:32:27.032   03 Jun 2027 02:32:35.419             8.387                  Delhi           262.094
       203   03 Jun 2027 03:05:15.759   03 Jun 2027 03:09:09.403           233.644            RioGallegos          7301.375
       204   03 Jun 2027 03:09:43.078   03 Jun 2027 03:10:23.326            40.248            RioGallegos          1257.750
       205   03 Jun 2027 03:56:47.320   03 Jun 2027 04:00:47.204           239.884                 Moscow          7496.375
       206   03 Jun 2027 04:01:17.973   03 Jun 2027 04:01:27.484             9.511                Novosib           297.219
       207   03 Jun 2027 04:01:47.572   03 Jun 2027 04:03:10.744            83.172                  Delhi          2599.125
       208   03 Jun 2027 04:03:50.174   03 Jun 2027 04:04:21.728            31.554                 Moscow           986.062
       209   03 Jun 2027 04:05:37.148   03 Jun 2027 04:06:43.382            66.234                  Delhi          2069.813
       210   03 Jun 2027 05:34:12.704   03 Jun 2027 05:34:30.569            17.865              Murmansk2           558.281
       211   03 Jun 2027 05:37:45.679   03 Jun 2027 05:38:13.622            27.943                 Moscow           873.219
       212   03 Jun 2027 05:39:16.863   03 Jun 2027 05:39:23.867             7.004                 Moscow           218.875
       213   03 Jun 2027 05:53:06.095   03 Jun 2027 05:55:20.519           134.424               CapeTown          4200.750
       214   03 Jun 2027 05:59:42.184   03 Jun 2027 06:01:35.865           113.681               CapeTown          3552.531
       215   03 Jun 2027 06:55:53.189   03 Jun 2027 06:56:52.614            59.425                Anadyr2          1857.031
       216   03 Jun 2027 06:56:52.614   03 Jun 2027 06:57:31.627            39.013                Anadyr1          1219.156
       217   03 Jun 2027 06:57:32.911   03 Jun 2027 06:58:02.601            29.690                Anadyr1           927.813
       218   03 Jun 2027 06:58:12.826   03 Jun 2027 06:58:54.907            42.081                Anadyr1          1315.031
       219   03 Jun 2027 06:58:54.907   03 Jun 2027 06:59:33.436            38.529                Anadyr2          1204.031
       220   03 Jun 2027 08:32:28.732   03 Jun 2027 08:32:41.946            13.214                Anadyr1           412.937
       221   03 Jun 2027 08:32:47.793   03 Jun 2027 08:33:14.233            26.440               Magadan2           826.250
       222   03 Jun 2027 08:33:31.375   03 Jun 2027 08:33:35.146             3.771               Magadan2           117.844
       223   03 Jun 2027 08:33:37.037   03 Jun 2027 08:33:46.980             9.943               Magadan1           310.719
       224   03 Jun 2027 08:34:32.018   03 Jun 2027 08:35:02.735            30.717               Magadan1           959.906
       225   03 Jun 2027 08:35:53.946   03 Jun 2027 08:36:39.339            45.393                Anadyr1          1418.531
       226   03 Jun 2027 08:36:39.339   03 Jun 2027 08:37:42.778            63.439                Anadyr2          1982.469
       227   03 Jun 2027 10:07:49.921   03 Jun 2027 10:08:01.750            11.829               Magadan2           369.656
       228   03 Jun 2027 10:08:12.275   03 Jun 2027 10:09:05.736            53.461               Magadan1          1670.656
       229   03 Jun 2027 10:09:36.969   03 Jun 2027 10:11:00.991            84.022               Magadan1          2625.688
       230   03 Jun 2027 10:11:08.138   03 Jun 2027 10:11:17.351             9.213                Norilsk           287.906
       231   03 Jun 2027 10:11:20.052   03 Jun 2027 10:11:58.290            38.238                Irkutsk          1194.938
       232   03 Jun 2027 10:12:05.683   03 Jun 2027 10:12:29.227            23.544                Irkutsk           735.750
       233   03 Jun 2027 10:12:56.704   03 Jun 2027 10:13:02.128             5.424                Norilsk           169.500
       234   03 Jun 2027 10:13:11.506   03 Jun 2027 10:13:38.664            27.158                Irkutsk           848.687
       235   03 Jun 2027 10:18:29.312   03 Jun 2027 10:18:41.101            11.789                Norilsk           368.406
       236   03 Jun 2027 10:48:49.128   03 Jun 2027 10:49:53.592            64.464            RioGallegos          2014.500
       237   03 Jun 2027 11:00:14.054   03 Jun 2027 11:00:39.881            25.827            RioGallegos           807.094
       238   03 Jun 2027 11:25:58.003   03 Jun 2027 11:27:42.194           104.191                Sumatra          3255.969
       239   03 Jun 2027 11:45:02.881   03 Jun 2027 11:45:20.128            17.247                Irkutsk           538.969
       240   03 Jun 2027 11:45:24.069   03 Jun 2027 11:45:33.054             8.985                Norilsk           280.781
       241   03 Jun 2027 11:45:36.858   03 Jun 2027 11:46:13.928            37.070                Irkutsk          1158.438
       242   03 Jun 2027 11:46:23.738   03 Jun 2027 11:47:05.847            42.109                Norilsk          1315.906
       243   03 Jun 2027 11:47:25.541   03 Jun 2027 11:47:55.205            29.664                Norilsk           927.000
       244   03 Jun 2027 11:47:57.919   03 Jun 2027 11:48:56.498            58.579                Irkutsk          1830.594
       245   03 Jun 2027 11:49:10.337   03 Jun 2027 11:49:17.428             7.091                Norilsk           221.594
       246   03 Jun 2027 11:49:29.861   03 Jun 2027 11:49:56.876            27.015                Novosib           844.219
       247   03 Jun 2027 11:49:58.438   03 Jun 2027 11:50:02.481             4.043                Irkutsk           126.344
       248   03 Jun 2027 12:25:43.886   03 Jun 2027 12:26:01.050            17.164            RioGallegos           536.375
       249   03 Jun 2027 12:27:35.514   03 Jun 2027 12:29:50.883           135.369            RioGallegos          4230.281
       250   03 Jun 2027 13:00:07.375   03 Jun 2027 13:00:52.824            45.449                Sumatra          1420.281
       251   03 Jun 2027 13:14:40.997   03 Jun 2027 13:15:39.093            58.096                Novosib          1815.500
       252   03 Jun 2027 13:17:29.241   03 Jun 2027 13:18:47.466            78.225                Novosib          2444.531
       253   03 Jun 2027 13:23:57.315   03 Jun 2027 13:25:07.574            70.259                Irkutsk          2195.594
       254   03 Jun 2027 14:44:52.529   03 Jun 2027 14:50:00.022           307.493                  Delhi          9609.156
       255   03 Jun 2027 14:53:16.802   03 Jun 2027 14:55:36.763           139.961                Novosib          4373.781
       256   03 Jun 2027 14:57:36.519   03 Jun 2027 14:58:30.373            53.854                Novosib          1682.937
       257   03 Jun 2027 16:28:17.753   03 Jun 2027 16:30:08.894           111.141                 Moscow          3473.156
       258   03 Jun 2027 16:31:25.874   03 Jun 2027 16:32:30.486            64.612                 Moscow          2019.125
       259   03 Jun 2027 16:32:54.492   03 Jun 2027 16:33:31.157            36.665              Murmansk1          1145.781
       260   03 Jun 2027 16:34:32.566   03 Jun 2027 16:34:48.063            15.497              Murmansk1           484.281
       261   03 Jun 2027 16:38:15.368   03 Jun 2027 16:42:00.184           224.816                Norilsk          7025.500
       262   03 Jun 2027 17:42:38.981   03 Jun 2027 17:42:45.717             6.736               CapeTown           210.500
       263   03 Jun 2027 17:43:23.981   03 Jun 2027 17:43:32.289             8.308               CapeTown           259.625
       264   03 Jun 2027 17:44:12.603   03 Jun 2027 17:44:30.964            18.361               CapeTown           573.781
       265   03 Jun 2027 17:48:55.420   03 Jun 2027 17:49:04.338             8.918               CapeTown           278.688
       266   03 Jun 2027 17:51:14.600   03 Jun 2027 17:51:22.401             7.801               CapeTown           243.781
       267   03 Jun 2027 18:07:20.593   03 Jun 2027 18:09:04.485           103.892                 Moscow          3246.625
       268   03 Jun 2027 18:09:40.853   03 Jun 2027 18:10:02.391            21.538              Murmansk1           673.062
       269   03 Jun 2027 18:12:17.727   03 Jun 2027 18:14:38.418           140.691              Murmansk2          4396.594
       270   03 Jun 2027 18:27:00.163   03 Jun 2027 18:27:03.879             3.716                Anadyr1           116.125
       271   03 Jun 2027 18:27:26.569   03 Jun 2027 18:27:40.722            14.153                Anadyr1           442.281
       272   03 Jun 2027 18:33:28.557   03 Jun 2027 18:33:35.408             6.851                Anadyr1           214.094
       273   03 Jun 2027 19:18:10.347   03 Jun 2027 19:19:32.297            81.950               CapeTown          2560.937
       274   03 Jun 2027 19:22:05.776   03 Jun 2027 19:22:42.890            37.114               CapeTown          1159.812
       275   03 Jun 2027 19:27:54.725   03 Jun 2027 19:28:00.062             5.337               CapeTown           166.781
       276   03 Jun 2027 19:50:16.600   03 Jun 2027 19:54:46.973           270.373              Murmansk2          8449.156
       277   03 Jun 2027 20:00:56.046   03 Jun 2027 20:02:55.876           119.830               Magadan2          3744.688
       278   03 Jun 2027 20:10:41.055   03 Jun 2027 20:10:47.405             6.350               Magadan1           198.438
       279   03 Jun 2027 21:34:07.950   03 Jun 2027 21:39:22.077           314.127                Anadyr2          9816.469
       280   03 Jun 2027 21:39:38.313   03 Jun 2027 21:41:53.528           135.215               Magadan1          4225.469
       281   03 Jun 2027 21:42:27.125   03 Jun 2027 21:42:29.753             2.628               Magadan2            82.125
       282   03 Jun 2027 21:43:29.079   03 Jun 2027 21:43:47.596            18.517               Magadan2           578.656
       283   03 Jun 2027 21:47:18.213   03 Jun 2027 21:47:22.338             4.125               Magadan1           128.906
       284   03 Jun 2027 21:47:24.758   03 Jun 2027 21:47:32.667             7.909               Magadan2           247.156
       285   03 Jun 2027 22:29:09.383   03 Jun 2027 22:31:23.695           134.312            RioGallegos          4197.250
       286   03 Jun 2027 22:31:36.713   03 Jun 2027 22:32:16.112            39.399            RioGallegos          1231.219
       287   03 Jun 2027 22:35:39.750   03 Jun 2027 22:35:45.886             6.136            RioGallegos           191.750
       288   03 Jun 2027 22:37:53.295   03 Jun 2027 22:37:58.174             4.879            RioGallegos           152.469
       289   03 Jun 2027 23:09:52.402   03 Jun 2027 23:11:43.814           111.412                Anadyr2          3481.625
       290   03 Jun 2027 23:11:58.626   03 Jun 2027 23:13:35.420            96.794                Norilsk          3024.813
       291   03 Jun 2027 23:13:39.417   03 Jun 2027 23:14:34.971            55.554               Magadan1          1736.062
       292   03 Jun 2027 23:15:18.262   03 Jun 2027 23:15:40.315            22.053               Magadan1           689.156
       293   03 Jun 2027 23:16:27.652   03 Jun 2027 23:17:06.276            38.624                Irkutsk          1207.000
       294   03 Jun 2027 23:18:36.583   03 Jun 2027 23:18:44.436             7.853                Irkutsk           245.406
       295   03 Jun 2027 23:22:01.006   03 Jun 2027 23:22:39.576            38.570                Irkutsk          1205.312
       296   03 Jun 2027 23:25:08.539   03 Jun 2027 23:25:52.243            43.704                Irkutsk          1365.750
       297   03 Jun 2027 23:30:37.336   03 Jun 2027 23:31:26.348            49.012                Sumatra          1531.625
       298   03 Jun 2027 23:31:51.068   03 Jun 2027 23:33:36.202           105.134                Sumatra          3285.437
       299   04 Jun 2027 00:15:36.480   04 Jun 2027 00:16:31.163            54.683            RioGallegos          1708.844
       300   04 Jun 2027 00:45:12.663   04 Jun 2027 00:45:29.092            16.429                Anadyr2           513.406
       301   04 Jun 2027 00:46:08.687   04 Jun 2027 00:47:12.544            63.857                Anadyr1          1995.531
       302   04 Jun 2027 00:47:52.242   04 Jun 2027 00:48:01.251             9.009                Norilsk           281.531
       303   04 Jun 2027 00:48:08.876   04 Jun 2027 00:49:35.940            87.064                Norilsk          2720.750
       304   04 Jun 2027 00:49:48.011   04 Jun 2027 00:50:06.039            18.028               Magadan2           563.375
       305   04 Jun 2027 00:51:44.779   04 Jun 2027 00:53:49.243           124.464                Irkutsk          3889.500
       306   04 Jun 2027 00:56:30.058   04 Jun 2027 00:57:33.501            63.443                Irkutsk          1982.594
       307   04 Jun 2027 01:03:38.532   04 Jun 2027 01:03:55.265            16.733                  Delhi           522.906
       308   04 Jun 2027 01:04:34.291   04 Jun 2027 01:05:12.499            38.208                  Delhi          1194.000
       309   04 Jun 2027 01:10:27.584   04 Jun 2027 01:11:24.871            57.287                Sumatra          1790.219
       310   04 Jun 2027 01:41:03.589   04 Jun 2027 01:41:31.011            27.422            RioGallegos           856.937
       311   04 Jun 2027 01:44:54.632   04 Jun 2027 01:45:06.232            11.600            RioGallegos           362.500
       312   04 Jun 2027 01:47:21.752   04 Jun 2027 01:47:42.419            20.667            RioGallegos           645.844
       313   04 Jun 2027 01:50:39.752   04 Jun 2027 01:51:20.486            40.734            RioGallegos          1272.938
       314   04 Jun 2027 02:20:15.214   04 Jun 2027 02:20:49.651            34.437                Anadyr2          1076.156
       315   04 Jun 2027 02:21:39.173   04 Jun 2027 02:21:54.714            15.541                Anadyr1           485.656
       316   04 Jun 2027 02:23:53.097   04 Jun 2027 02:25:01.290            68.193                Norilsk          2131.031
       317   04 Jun 2027 02:26:24.650   04 Jun 2027 02:27:45.621            80.971              Murmansk1          2530.344
       318   04 Jun 2027 02:27:58.109   04 Jun 2027 02:29:30.569            92.460                Novosib          2889.375
       319   04 Jun 2027 02:34:29.243   04 Jun 2027 02:34:48.929            19.686                Novosib           615.188
       320   04 Jun 2027 02:35:02.306   04 Jun 2027 02:36:50.908           108.602                  Delhi          3393.812
       321   04 Jun 2027 03:17:48.223   04 Jun 2027 03:21:55.822           247.599            RioGallegos          7737.469
       322   04 Jun 2027 04:08:08.354   04 Jun 2027 04:08:50.796            42.442              Murmansk1          1326.312
       323   04 Jun 2027 04:08:52.567   04 Jun 2027 04:09:45.129            52.562              Murmansk1          1642.562
       324   04 Jun 2027 04:10:24.422   04 Jun 2027 04:10:45.552            21.130              Murmansk1           660.313
       325   04 Jun 2027 04:10:45.552   04 Jun 2027 04:12:23.163            97.611              Murmansk2          3050.344
       326   04 Jun 2027 04:15:59.187   04 Jun 2027 04:16:30.331            31.144                 Moscow           973.250
       327   04 Jun 2027 05:50:01.304   04 Jun 2027 05:50:15.767            14.463                 Moscow           451.969
       328   04 Jun 2027 05:50:48.129   04 Jun 2027 05:51:35.080            46.951                 Moscow          1467.219
       329   04 Jun 2027 05:52:44.071   04 Jun 2027 05:53:29.953            45.882                 Moscow          1433.813
       330   04 Jun 2027 06:05:16.420   04 Jun 2027 06:05:51.524            35.104               CapeTown          1097.000
       331   04 Jun 2027 06:08:10.415   04 Jun 2027 06:09:46.770            96.355               CapeTown          3011.094
       332   04 Jun 2027 07:08:08.751   04 Jun 2027 07:08:32.722            23.971               Magadan2           749.094
       333   04 Jun 2027 07:08:53.534   04 Jun 2027 07:10:02.688            69.154                Anadyr2          2161.063
       334   04 Jun 2027 07:10:14.599   04 Jun 2027 07:10:30.118            15.519               Magadan2           484.969
       335   04 Jun 2027 07:10:31.934   04 Jun 2027 07:10:56.661            24.727                Anadyr1           772.719
       336   04 Jun 2027 07:10:56.661   04 Jun 2027 07:11:43.137            46.476                Anadyr2          1452.375
       337   04 Jun 2027 08:45:04.088   04 Jun 2027 08:45:53.421            49.333                Anadyr2          1541.656
       338   04 Jun 2027 08:46:33.988   04 Jun 2027 08:46:45.386            11.398               Magadan1           356.188
       339   04 Jun 2027 08:47:09.033   04 Jun 2027 08:48:08.536            59.503               Magadan2          1859.469
       340   04 Jun 2027 09:28:24.328   04 Jun 2027 09:28:39.377            15.049            RioGallegos           470.281
       341   04 Jun 2027 09:32:43.939   04 Jun 2027 09:32:48.405             4.466            RioGallegos           139.562
       342   04 Jun 2027 10:19:39.811   04 Jun 2027 10:20:35.710            55.899               Magadan2          1746.844
       343   04 Jun 2027 10:20:44.413   04 Jun 2027 10:21:15.631            31.218               Magadan1           975.562
       344   04 Jun 2027 10:21:56.238   04 Jun 2027 10:22:51.951            55.713                Irkutsk          1741.031
       345   04 Jun 2027 10:23:09.151   04 Jun 2027 10:23:46.937            37.786                Irkutsk          1180.813
       346   04 Jun 2027 10:24:16.750   04 Jun 2027 10:25:32.943            76.193               Magadan2          2381.031
       347   04 Jun 2027 10:25:45.539   04 Jun 2027 10:25:46.829             1.290               Magadan1            40.312
       348   04 Jun 2027 10:30:24.982   04 Jun 2027 10:30:42.978            17.996                Norilsk           562.375
       349   04 Jun 2027 11:00:45.834   04 Jun 2027 11:01:36.542            50.708            RioGallegos          1584.625
       350   04 Jun 2027 11:02:36.170   04 Jun 2027 11:03:12.995            36.825            RioGallegos          1150.781
       351   04 Jun 2027 11:36:24.634   04 Jun 2027 11:36:43.368            18.734                Sumatra           585.438
       352   04 Jun 2027 11:42:06.166   04 Jun 2027 11:42:12.544             6.378                Sumatra           199.313
       353   04 Jun 2027 11:56:08.764   04 Jun 2027 11:56:47.111            38.347                Irkutsk          1198.344
       354   04 Jun 2027 11:57:25.774   04 Jun 2027 11:57:53.318            27.544                Norilsk           860.750
       355   04 Jun 2027 11:58:52.513   04 Jun 2027 11:59:20.122            27.609                Irkutsk           862.781
       356   04 Jun 2027 11:59:22.972   04 Jun 2027 11:59:38.621            15.649                Norilsk           489.031
       357   04 Jun 2027 11:59:41.004   04 Jun 2027 11:59:56.427            15.423                Irkutsk           481.969
       358   04 Jun 2027 12:00:31.751   04 Jun 2027 12:00:45.727            13.976                Novosib           436.750
       359   04 Jun 2027 12:01:03.802   04 Jun 2027 12:01:11.023             7.221                Novosib           225.656
       360   04 Jun 2027 12:01:32.059   04 Jun 2027 12:02:02.024            29.965                Novosib           936.406
       361   04 Jun 2027 12:03:01.102   04 Jun 2027 12:03:31.647            30.545                Novosib           954.531
       362   04 Jun 2027 12:06:43.267   04 Jun 2027 12:07:01.536            18.269                Norilsk           570.906
       363   04 Jun 2027 12:38:11.987   04 Jun 2027 12:38:50.525            38.538            RioGallegos          1204.313
       364   04 Jun 2027 12:42:39.605   04 Jun 2027 12:43:19.586            39.981            RioGallegos          1249.406
       365   04 Jun 2027 12:43:26.399   04 Jun 2027 12:44:18.477            52.078            RioGallegos          1627.437
       366   04 Jun 2027 12:48:35.435   04 Jun 2027 12:48:54.293            18.858            RioGallegos           589.312
       367   04 Jun 2027 13:13:30.927   04 Jun 2027 13:13:51.051            20.124                Sumatra           628.875
       368   04 Jun 2027 13:16:01.508   04 Jun 2027 13:16:40.605            39.097                Sumatra          1221.781
       369   04 Jun 2027 13:17:39.248   04 Jun 2027 13:17:58.350            19.102                Sumatra           596.937
       370   04 Jun 2027 13:22:13.080   04 Jun 2027 13:23:02.000            48.920                Sumatra          1528.750
       371   04 Jun 2027 13:27:49.951   04 Jun 2027 13:30:08.346           138.395                Irkutsk          4324.844
       372   04 Jun 2027 13:39:37.464   04 Jun 2027 13:39:52.844            15.380                Norilsk           480.625
       373   04 Jun 2027 13:40:58.329   04 Jun 2027 13:41:40.220            41.891                Norilsk          1309.094
       374   04 Jun 2027 14:57:31.769   04 Jun 2027 14:59:53.299           141.530                  Delhi          4422.812
       375   04 Jun 2027 15:00:50.066   04 Jun 2027 15:02:24.119            94.053                  Delhi          2939.156
       376   04 Jun 2027 15:06:00.425   04 Jun 2027 15:07:33.046            92.621                Novosib          2894.406
       377   04 Jun 2027 15:09:26.734   04 Jun 2027 15:09:39.844            13.110                Norilsk           409.688
       378   04 Jun 2027 15:10:45.690   04 Jun 2027 15:13:22.050           156.360                Novosib          4886.250
       379   04 Jun 2027 16:40:28.514   04 Jun 2027 16:42:07.299            98.785                 Moscow          3087.031
       380   04 Jun 2027 16:43:58.570   04 Jun 2027 16:44:07.529             8.959              Murmansk1           279.969
       381   04 Jun 2027 16:44:18.597   04 Jun 2027 16:44:56.256            37.659              Murmansk2          1176.844
       382   04 Jun 2027 16:49:15.945   04 Jun 2027 16:49:31.671            15.726                 Moscow           491.437
       383   04 Jun 2027 16:50:46.995   04 Jun 2027 16:51:13.405            26.410              Murmansk2           825.312
       384   04 Jun 2027 16:51:41.318   04 Jun 2027 16:53:20.294            98.976                Norilsk          3093.000
       385   04 Jun 2027 16:59:29.805   04 Jun 2027 17:00:12.617            42.812                Anadyr2          1337.875
       386   04 Jun 2027 17:05:30.142   04 Jun 2027 17:05:33.856             3.714                Anadyr2           116.063
       387   04 Jun 2027 17:53:47.138   04 Jun 2027 17:54:39.867            52.729               CapeTown          1647.781
       388   04 Jun 2027 17:57:26.947   04 Jun 2027 17:57:47.205            20.258               CapeTown           633.063
       389   04 Jun 2027 18:00:22.279   04 Jun 2027 18:01:02.011            39.732               CapeTown          1241.625
       390   04 Jun 2027 18:05:37.928   04 Jun 2027 18:05:58.631            20.703               CapeTown           646.969
       391   04 Jun 2027 18:20:14.058   04 Jun 2027 18:24:25.043           250.985                 Moscow          7843.281
       392   04 Jun 2027 18:36:30.939   04 Jun 2027 18:36:35.559             4.620                Anadyr1           144.375
       393   04 Jun 2027 18:37:11.379   04 Jun 2027 18:37:44.675            33.296                Anadyr1          1040.500
       394   04 Jun 2027 18:43:02.734   04 Jun 2027 18:43:57.390            54.656                Anadyr2          1708.000
       395   04 Jun 2027 19:30:30.389   04 Jun 2027 19:31:37.640            67.251               CapeTown          2101.594
       396   04 Jun 2027 19:33:23.981   04 Jun 2027 19:34:37.215            73.234               CapeTown          2288.563
       397   04 Jun 2027 20:03:16.747   04 Jun 2027 20:07:30.170           253.423              Murmansk1          7919.469
       398   04 Jun 2027 20:13:00.558   04 Jun 2027 20:13:03.455             2.897               Magadan2            90.531
       399   04 Jun 2027 20:13:07.792   04 Jun 2027 20:13:09.974             2.182               Magadan2            68.188
       400   04 Jun 2027 20:16:37.116   04 Jun 2027 20:17:14.209            37.093               Magadan1          1159.156
       401   04 Jun 2027 20:18:35.964   04 Jun 2027 20:18:48.358            12.394               Magadan1           387.313
       402   04 Jun 2027 20:21:12.826   04 Jun 2027 20:21:50.883            38.057               Magadan2          1189.281
       403   04 Jun 2027 21:46:09.265   04 Jun 2027 21:49:53.228           223.963                Anadyr2          6998.844
       404   04 Jun 2027 21:50:26.409   04 Jun 2027 21:51:30.834            64.425               Magadan1          2013.281
       405   04 Jun 2027 21:51:30.834   04 Jun 2027 21:52:31.493            60.659               Magadan2          1895.594
       406   04 Jun 2027 21:52:42.163   04 Jun 2027 21:54:03.841            81.678               Magadan2          2552.438
       407   04 Jun 2027 21:58:27.936   04 Jun 2027 21:58:59.364            31.428               Magadan2           982.125
       408   04 Jun 2027 21:59:25.049   04 Jun 2027 22:00:02.230            37.181               Magadan2          1161.906
       409   04 Jun 2027 22:40:51.124   04 Jun 2027 22:41:56.314            65.190            RioGallegos          2037.188
       410   04 Jun 2027 22:42:08.903   04 Jun 2027 22:42:47.132            38.229            RioGallegos          1194.656
       411   04 Jun 2027 22:49:30.313   04 Jun 2027 22:50:12.566            42.253            RioGallegos          1320.406
       412   04 Jun 2027 23:21:50.459   04 Jun 2027 23:23:35.146           104.687                Anadyr1          3271.469
       413   04 Jun 2027 23:23:58.622   04 Jun 2027 23:25:37.357            98.735                Norilsk          3085.469
       414   04 Jun 2027 23:25:41.647   04 Jun 2027 23:25:53.815            12.168               Magadan1           380.250
       415   04 Jun 2027 23:25:54.315   04 Jun 2027 23:26:10.181            15.866               Magadan2           495.813
       416   04 Jun 2027 23:28:18.357   04 Jun 2027 23:29:30.213            71.856                Irkutsk          2245.500
       417   04 Jun 2027 23:30:29.744   04 Jun 2027 23:31:24.985            55.241                Irkutsk          1726.281
       418   04 Jun 2027 23:33:01.090   04 Jun 2027 23:33:06.645             5.555                Novosib           173.594
       419   04 Jun 2027 23:42:13.987   04 Jun 2027 23:42:42.995            29.008                Sumatra           906.500
       420   04 Jun 2027 23:43:41.541   04 Jun 2027 23:44:18.038            36.497                Sumatra          1140.531
       421   04 Jun 2027 23:46:02.990   04 Jun 2027 23:47:12.431            69.441                Sumatra          2170.031
       422   05 Jun 2027 00:20:03.107   05 Jun 2027 00:20:20.564            17.457            RioGallegos           545.531
       423   05 Jun 2027 00:21:40.965   05 Jun 2027 00:22:51.589            70.624            RioGallegos          2207.000
       424   05 Jun 2027 00:56:44.665   05 Jun 2027 00:57:08.179            23.514                Anadyr2           734.813
       425   05 Jun 2027 00:57:30.078   05 Jun 2027 00:58:09.988            39.910                Anadyr2          1247.187
       426   05 Jun 2027 00:59:00.717   05 Jun 2027 00:59:18.143            17.426                Anadyr1           544.562
       427   05 Jun 2027 00:59:54.532   05 Jun 2027 01:01:37.938           103.406                Norilsk          3231.438
       428   05 Jun 2027 01:01:48.019   05 Jun 2027 01:02:24.292            36.273               Magadan1          1133.531
       429   05 Jun 2027 01:03:46.767   05 Jun 2027 01:05:47.225           120.458                Irkutsk          3764.312
       430   05 Jun 2027 01:06:13.809   05 Jun 2027 01:06:20.845             7.036                Novosib           219.875
       431   05 Jun 2027 01:08:43.601   05 Jun 2027 01:09:34.132            50.531                Irkutsk          1579.094
       432   05 Jun 2027 01:16:12.930   05 Jun 2027 01:16:43.903            30.973                  Delhi           967.906
       433   05 Jun 2027 01:18:41.459   05 Jun 2027 01:19:32.322            50.863                Sumatra          1589.469
       434   05 Jun 2027 01:22:40.370   05 Jun 2027 01:23:48.342            67.972                Sumatra          2124.125
       435   05 Jun 2027 01:57:47.455   05 Jun 2027 01:58:35.394            47.939            RioGallegos          1498.094
       436   05 Jun 2027 02:02:11.497   05 Jun 2027 02:02:39.205            27.708            RioGallegos           865.875
       437   05 Jun 2027 02:31:25.535   05 Jun 2027 02:31:52.304            26.769                Anadyr1           836.531
       438   05 Jun 2027 02:35:12.755   05 Jun 2027 02:36:06.714            53.959                Anadyr2          1686.219
       439   05 Jun 2027 02:36:17.476   05 Jun 2027 02:36:41.122            23.646                Norilsk           738.937
       440   05 Jun 2027 02:36:44.125   05 Jun 2027 02:36:56.208            12.083                Norilsk           377.594
       441   05 Jun 2027 02:38:20.200   05 Jun 2027 02:40:03.576           103.376              Murmansk1          3230.500
       442   05 Jun 2027 02:40:13.545   05 Jun 2027 02:40:20.316             6.771                Novosib           211.594
       443   05 Jun 2027 02:40:24.667   05 Jun 2027 02:40:53.344            28.677                Irkutsk           896.156
       444   05 Jun 2027 02:42:03.555   05 Jun 2027 02:43:25.468            81.913                Irkutsk          2559.781
       445   05 Jun 2027 02:52:54.924   05 Jun 2027 02:54:59.665           124.741                  Delhi          3898.156
       446   05 Jun 2027 03:31:54.398   05 Jun 2027 03:32:13.593            19.195            RioGallegos           599.844
       447   05 Jun 2027 04:20:24.308   05 Jun 2027 04:21:11.116            46.808              Murmansk1          1462.750
       448   05 Jun 2027 04:21:16.527   05 Jun 2027 04:21:38.288            21.761                Norilsk           680.031
       449   05 Jun 2027 04:21:43.803   05 Jun 2027 04:21:51.009             7.206              Murmansk2           225.187
       450   05 Jun 2027 04:22:19.198   05 Jun 2027 04:22:50.146            30.948              Murmansk2           967.125
       451   05 Jun 2027 04:22:50.146   05 Jun 2027 04:23:37.204            47.058              Murmansk1          1470.563
       452   05 Jun 2027 04:24:05.106   05 Jun 2027 04:25:40.802            95.696                Novosib          2990.500
       453   05 Jun 2027 04:25:48.401   05 Jun 2027 04:28:05.061           136.660                 Moscow          4270.625
       454   05 Jun 2027 04:48:12.936   05 Jun 2027 04:48:40.577            27.641               CapeTown           863.781
       455   05 Jun 2027 06:01:55.841   05 Jun 2027 06:02:22.788            26.947              Murmansk2           842.094
       456   05 Jun 2027 06:02:29.329   05 Jun 2027 06:02:51.254            21.925                 Moscow           685.156
       457   05 Jun 2027 06:03:49.603   05 Jun 2027 06:04:42.593            52.990                 Moscow          1655.937
       458   05 Jun 2027 06:17:32.548   05 Jun 2027 06:19:04.445            91.897               CapeTown          2871.781
       459   05 Jun 2027 06:22:15.301   05 Jun 2027 06:22:59.707            44.406               CapeTown          1387.687
       460   05 Jun 2027 07:20:54.135   05 Jun 2027 07:22:37.657           103.522                Anadyr2          3235.062
       461   05 Jun 2027 07:22:53.818   05 Jun 2027 07:24:00.053            66.235                Anadyr2          2069.844
       462   05 Jun 2027 07:37:58.452   05 Jun 2027 07:38:14.268            15.816                 Moscow           494.250
       463   05 Jun 2027 08:56:16.312   05 Jun 2027 08:57:46.938            90.626                Anadyr1          2832.062
       464   05 Jun 2027 08:57:58.266   05 Jun 2027 08:58:09.829            11.563               Magadan1           361.344
       465   05 Jun 2027 08:58:09.829   05 Jun 2027 08:58:35.634            25.805               Magadan2           806.406
       466   05 Jun 2027 08:58:43.252   05 Jun 2027 09:00:41.436           118.184                Anadyr1          3693.250
       467   05 Jun 2027 09:00:41.436   05 Jun 2027 09:01:08.434            26.998                Anadyr2           843.688
       468   05 Jun 2027 10:31:25.985   05 Jun 2027 10:33:03.085            97.100               Magadan2          3034.375
       469   05 Jun 2027 10:33:28.431   05 Jun 2027 10:33:35.034             6.603               Magadan2           206.344
       470   05 Jun 2027 10:34:00.399   05 Jun 2027 10:34:54.624            54.225                Irkutsk          1694.531
       471   05 Jun 2027 10:36:04.679   05 Jun 2027 10:36:30.084            25.405                Irkutsk           793.906
       472   05 Jun 2027 10:36:33.659   05 Jun 2027 10:37:32.378            58.719                Irkutsk          1834.969
       473   05 Jun 2027 10:37:44.290   05 Jun 2027 10:38:12.310            28.020                Norilsk           875.625
       474   05 Jun 2027 11:13:45.058   05 Jun 2027 11:15:09.293            84.235            RioGallegos          2632.344
       475   05 Jun 2027 11:48:05.195   05 Jun 2027 11:48:41.217            36.022                Sumatra          1125.688
       476   05 Jun 2027 12:04:28.424   05 Jun 2027 12:05:05.650            37.226                Irkutsk          1163.313
       477   05 Jun 2027 12:06:25.363   05 Jun 2027 12:07:00.331            34.968                Irkutsk          1092.750
       478   05 Jun 2027 12:12:37.279   05 Jun 2027 12:12:43.354             6.075                Novosib           189.844
       479   05 Jun 2027 12:13:58.933   05 Jun 2027 12:14:56.894            57.961                Norilsk          1811.281
       480   05 Jun 2027 12:53:48.059   05 Jun 2027 12:54:18.378            30.319            RioGallegos           947.469
       481   05 Jun 2027 12:59:34.117   05 Jun 2027 13:00:41.254            67.137            RioGallegos          2098.031
       482   05 Jun 2027 13:25:00.789   05 Jun 2027 13:25:20.536            19.747                Sumatra           617.094
