uniorb/output/strategy_4/Drop/Drop_KinoSat_111206.txt

KinoSat_111206
-------------------------
    Access    *     Start Time (UTCG)     *     Stop Time (UTCG)  *   Duration (s)        *       Station  *  Data (Mbytes)
         1   01 Jun 2027 03:24:25.654   01 Jun 2027 03:24:58.820            33.166                Norilsk          1036.437
         2   01 Jun 2027 03:25:08.315   01 Jun 2027 03:25:57.846            49.531              Murmansk2          1547.844
         3   01 Jun 2027 03:25:57.846   01 Jun 2027 03:26:23.589            25.743              Murmansk1           804.469
         4   01 Jun 2027 03:26:41.913   01 Jun 2027 03:30:16.614           214.701                 Moscow          6709.406
         5   01 Jun 2027 03:43:06.008   01 Jun 2027 03:45:36.524           150.516               CapeTown          4703.625
         6   01 Jun 2027 04:46:11.351   01 Jun 2027 04:47:18.040            66.689               Magadan2          2084.031
         7   01 Jun 2027 04:47:18.315   01 Jun 2027 04:50:35.429           197.114                Anadyr2          6159.812
         8   01 Jun 2027 06:23:45.434   01 Jun 2027 06:24:14.210            28.776               Magadan2           899.250
         9   01 Jun 2027 06:24:33.069   01 Jun 2027 06:24:43.372            10.303               Magadan2           321.969
        10   01 Jun 2027 06:24:43.372   01 Jun 2027 06:27:07.214           143.842               Magadan1          4495.062
        11   01 Jun 2027 07:57:51.624   01 Jun 2027 07:58:00.238             8.614               Magadan2           269.188
        12   01 Jun 2027 07:58:11.506   01 Jun 2027 07:59:15.178            63.672                Irkutsk          1989.750
        13   01 Jun 2027 07:59:17.149   01 Jun 2027 07:59:37.498            20.349                Novosib           635.906
        14   01 Jun 2027 07:59:54.365   01 Jun 2027 08:02:31.093           156.728                Anadyr1          4897.750
        15   01 Jun 2027 08:02:45.864   01 Jun 2027 08:03:30.888            45.024               Magadan1          1407.000
        16   01 Jun 2027 08:03:40.565   01 Jun 2027 08:03:54.391            13.826               Magadan1           432.062
        17   01 Jun 2027 08:04:08.216   01 Jun 2027 08:04:27.474            19.258                Norilsk           601.813
        18   01 Jun 2027 08:04:43.996   01 Jun 2027 08:06:05.877            81.881              Murmansk2          2558.781
        19   01 Jun 2027 08:38:55.801   01 Jun 2027 08:40:10.771            74.970            RioGallegos          2342.812
        20   01 Jun 2027 08:40:55.243   01 Jun 2027 08:41:27.661            32.418            RioGallegos          1013.062
        21   01 Jun 2027 09:15:17.065   01 Jun 2027 09:15:53.839            36.774                Sumatra          1149.188
        22   01 Jun 2027 09:35:55.767   01 Jun 2027 09:39:08.323           192.556                Norilsk          6017.375
        23   01 Jun 2027 09:39:09.905   01 Jun 2027 09:40:05.194            55.289                Irkutsk          1727.781
        24   01 Jun 2027 10:15:33.634   01 Jun 2027 10:16:06.960            33.326            RioGallegos          1041.438
        25   01 Jun 2027 10:16:43.852   01 Jun 2027 10:16:46.810             2.958            RioGallegos            92.437
        26   01 Jun 2027 10:18:59.425   01 Jun 2027 10:19:09.002             9.577            RioGallegos           299.281
        27   01 Jun 2027 10:19:41.189   01 Jun 2027 10:20:00.258            19.069            RioGallegos           595.906
        28   01 Jun 2027 10:25:01.575   01 Jun 2027 10:25:05.422             3.847            RioGallegos           120.219
        29   01 Jun 2027 10:49:52.530   01 Jun 2027 10:50:46.368            53.838                Sumatra          1682.438
        30   01 Jun 2027 10:53:56.561   01 Jun 2027 10:54:42.842            46.281                Sumatra          1446.281
        31   01 Jun 2027 10:58:30.222   01 Jun 2027 10:59:34.814            64.592                Sumatra          2018.500
        32   01 Jun 2027 11:10:20.446   01 Jun 2027 11:10:26.696             6.250                  Delhi           195.313
        33   01 Jun 2027 11:11:54.350   01 Jun 2027 11:12:28.626            34.276                Irkutsk          1071.125
        34   01 Jun 2027 11:13:24.326   01 Jun 2027 11:14:20.199            55.873                Novosib          1746.031
        35   01 Jun 2027 11:14:26.988   01 Jun 2027 11:17:33.435           186.447              Murmansk2          5826.469
        36   01 Jun 2027 11:17:37.067   01 Jun 2027 11:17:46.722             9.655              Murmansk2           301.719
        37   01 Jun 2027 11:18:14.729   01 Jun 2027 11:19:19.824            65.095              Murmansk2          2034.219
        38   01 Jun 2027 12:34:37.914   01 Jun 2027 12:37:36.714           178.800                  Delhi          5587.500
        39   01 Jun 2027 12:39:41.153   01 Jun 2027 12:40:08.320            27.167                  Delhi           848.969
        40   01 Jun 2027 12:42:55.668   01 Jun 2027 12:44:37.495           101.827                  Delhi          3182.094
        41   01 Jun 2027 12:44:46.170   01 Jun 2027 12:45:46.988            60.818                Novosib          1900.563
        42   01 Jun 2027 12:46:05.315   01 Jun 2027 12:46:56.350            51.035                Novosib          1594.844
        43   01 Jun 2027 12:49:09.112   01 Jun 2027 12:49:38.660            29.548                Norilsk           923.375
        44   01 Jun 2027 12:50:10.797   01 Jun 2027 12:51:11.050            60.253                Norilsk          1882.906
        45   01 Jun 2027 14:18:16.426   01 Jun 2027 14:21:28.891           192.465                 Moscow          6014.531
        46   01 Jun 2027 14:21:47.946   01 Jun 2027 14:24:59.964           192.018              Murmansk1          6000.563
        47   01 Jun 2027 14:27:45.611   01 Jun 2027 14:28:50.517            64.906                Norilsk          2028.312
        48   01 Jun 2027 14:31:11.193   01 Jun 2027 14:31:44.477            33.284                Norilsk          1040.125
        49   01 Jun 2027 14:38:29.794   01 Jun 2027 14:38:51.707            21.913                Anadyr1           684.781
        50   01 Jun 2027 14:39:37.621   01 Jun 2027 14:40:35.631            58.010                Anadyr1          1812.813
        51   01 Jun 2027 15:32:02.232   01 Jun 2027 15:33:03.637            61.405               CapeTown          1918.906
        52   01 Jun 2027 15:56:58.303   01 Jun 2027 15:57:48.873            50.570                 Moscow          1580.313
        53   01 Jun 2027 15:59:30.801   01 Jun 2027 15:59:36.158             5.357              Murmansk2           167.406
        54   01 Jun 2027 16:00:57.084   01 Jun 2027 16:01:28.483            31.399              Murmansk1           981.219
        55   01 Jun 2027 16:03:00.103   01 Jun 2027 16:03:13.723            13.620              Murmansk2           425.625
        56   01 Jun 2027 16:03:43.545   01 Jun 2027 16:04:22.898            39.353              Murmansk1          1229.781
        57   01 Jun 2027 16:08:50.650   01 Jun 2027 16:09:30.355            39.705              Murmansk2          1240.781
        58   01 Jun 2027 16:12:29.756   01 Jun 2027 16:14:55.711           145.955                Anadyr2          4561.094
        59   01 Jun 2027 17:08:03.553   01 Jun 2027 17:09:40.295            96.742               CapeTown          3023.188
        60   01 Jun 2027 17:12:33.684   01 Jun 2027 17:12:41.506             7.822               CapeTown           244.437
        61   01 Jun 2027 17:39:51.756   01 Jun 2027 17:44:44.838           293.082              Murmansk1          9158.813
        62   01 Jun 2027 17:48:14.244   01 Jun 2027 17:48:22.945             8.701                Anadyr1           271.906
        63   01 Jun 2027 17:48:41.146   01 Jun 2027 17:48:57.600            16.454                Anadyr1           514.188
        64   01 Jun 2027 17:51:04.982   01 Jun 2027 17:54:36.992           212.010               Magadan1          6625.312
        65   01 Jun 2027 19:24:10.028   01 Jun 2027 19:26:12.698           122.670                Anadyr2          3833.437
        66   01 Jun 2027 19:26:27.138   01 Jun 2027 19:29:37.036           189.898               Magadan2          5934.312
        67   01 Jun 2027 19:29:37.036   01 Jun 2027 19:29:51.024            13.988               Magadan1           437.125
        68   01 Jun 2027 19:30:50.151   01 Jun 2027 19:31:07.256            17.105               Magadan1           534.531
        69   01 Jun 2027 20:19:28.535   01 Jun 2027 20:22:30.294           181.759            RioGallegos          5679.969
        70   01 Jun 2027 20:25:47.869   01 Jun 2027 20:26:20.659            32.790            RioGallegos          1024.687
        71   01 Jun 2027 20:59:55.514   01 Jun 2027 21:02:06.197           130.683                Anadyr1          4083.844
        72   01 Jun 2027 21:02:25.295   01 Jun 2027 21:04:16.703           111.408               Magadan1          3481.500
        73   01 Jun 2027 21:04:34.145   01 Jun 2027 21:05:21.638            47.493                Norilsk          1484.156
        74   01 Jun 2027 21:05:33.456   01 Jun 2027 21:05:48.330            14.874                Norilsk           464.813
        75   01 Jun 2027 21:06:39.121   01 Jun 2027 21:07:03.199            24.078                Irkutsk           752.438
        76   01 Jun 2027 21:07:38.166   01 Jun 2027 21:09:37.125           118.959                Irkutsk          3717.469
        77   01 Jun 2027 21:20:58.846   01 Jun 2027 21:21:34.014            35.168                Sumatra          1099.000
        78   01 Jun 2027 21:21:59.247   01 Jun 2027 21:23:49.272           110.025                Sumatra          3438.281
        79   01 Jun 2027 22:38:32.132   01 Jun 2027 22:40:10.361            98.229               Magadan1          3069.656
        80   01 Jun 2027 22:40:10.361   01 Jun 2027 22:40:29.847            19.486               Magadan2           608.937
        81   01 Jun 2027 22:41:47.392   01 Jun 2027 22:42:07.105            19.713                Irkutsk           616.031
        82   01 Jun 2027 22:42:14.656   01 Jun 2027 22:43:46.676            92.020                Novosib          2875.625
        83   01 Jun 2027 22:47:53.954   01 Jun 2027 22:48:10.546            16.592                Novosib           518.500
        84   01 Jun 2027 22:49:04.336   01 Jun 2027 22:51:14.245           129.909                Novosib          4059.656
        85   01 Jun 2027 22:51:14.957   01 Jun 2027 22:54:11.138           176.181                  Delhi          5505.656
        86   02 Jun 2027 00:11:39.710   02 Jun 2027 00:11:50.861            11.151                Anadyr1           348.469
        87   02 Jun 2027 00:13:55.303   02 Jun 2027 00:14:12.149            16.846                Norilsk           526.438
        88   02 Jun 2027 00:14:24.446   02 Jun 2027 00:14:43.114            18.668               Magadan2           583.375
        89   02 Jun 2027 00:15:23.228   02 Jun 2027 00:15:54.017            30.789                Norilsk           962.156
        90   02 Jun 2027 00:16:06.869   02 Jun 2027 00:16:24.133            17.264               Magadan1           539.500
        91   02 Jun 2027 00:16:34.330   02 Jun 2027 00:21:16.138           281.808              Murmansk2          8806.500
        92   02 Jun 2027 00:25:10.768   02 Jun 2027 00:27:15.929           125.161                  Delhi          3911.281
        93   02 Jun 2027 01:07:27.473   02 Jun 2027 01:08:02.888            35.415            RioGallegos          1106.719
        94   02 Jun 2027 01:42:13.357   02 Jun 2027 01:42:37.508            24.151                Anadyr2           754.719
        95   02 Jun 2027 01:42:37.711   02 Jun 2027 01:42:48.511            10.800                Anadyr1           337.500
        96   02 Jun 2027 01:43:29.316   02 Jun 2027 01:44:08.620            39.304                Anadyr2          1228.250
        97   02 Jun 2027 01:44:57.060   02 Jun 2027 01:45:20.686            23.626                Anadyr1           738.313
        98   02 Jun 2027 01:48:01.008   02 Jun 2027 01:49:38.153            97.145               Magadan2          3035.781
        99   02 Jun 2027 01:50:04.872   02 Jun 2027 01:50:27.776            22.904               Magadan2           715.750
       100   02 Jun 2027 01:52:03.992   02 Jun 2027 01:52:55.473            51.481              Murmansk1          1608.781
       101   02 Jun 2027 01:53:53.327   02 Jun 2027 01:54:53.760            60.433                Novosib          1888.531
       102   02 Jun 2027 01:55:30.270   02 Jun 2027 01:55:50.258            19.988                Novosib           624.625
       103   02 Jun 2027 01:56:05.439   02 Jun 2027 01:56:32.590            27.151                 Moscow           848.469
       104   02 Jun 2027 02:03:04.410   02 Jun 2027 02:03:32.264            27.854                Novosib           870.437
       105   02 Jun 2027 02:04:57.903   02 Jun 2027 02:05:07.733             9.830                  Delhi           307.188
       106   02 Jun 2027 02:07:21.961   02 Jun 2027 02:07:57.161            35.200                  Delhi          1100.000
       107   02 Jun 2027 02:20:57.994   02 Jun 2027 02:21:20.273            22.279               CapeTown           696.219
       108   02 Jun 2027 02:28:19.220   02 Jun 2027 02:29:20.763            61.543               CapeTown          1923.219
       109   02 Jun 2027 03:17:24.732   02 Jun 2027 03:17:34.771            10.039                Anadyr2           313.719
       110   02 Jun 2027 03:18:44.378   02 Jun 2027 03:18:50.972             6.594                Anadyr2           206.063
       111   02 Jun 2027 03:18:52.958   02 Jun 2027 03:19:05.532            12.574                Anadyr2           392.938
       112   02 Jun 2027 03:36:49.357   02 Jun 2027 03:37:36.983            47.626              Murmansk2          1488.312
       113   02 Jun 2027 03:38:06.682   02 Jun 2027 03:40:52.777           166.095              Murmansk2          5190.469
       114   02 Jun 2027 03:41:51.214   02 Jun 2027 03:42:24.898            33.684                 Moscow          1052.625
       115   02 Jun 2027 04:58:09.149   02 Jun 2027 04:59:22.677            73.528               Magadan2          2297.750
       116   02 Jun 2027 04:59:39.976   02 Jun 2027 05:01:53.516           133.540               Magadan1          4173.125
       117   02 Jun 2027 05:03:28.564   02 Jun 2027 05:04:46.432            77.868                Anadyr2          2433.375
       118   02 Jun 2027 06:37:07.158   02 Jun 2027 06:37:41.760            34.602                Irkutsk          1081.313
       119   02 Jun 2027 08:12:59.401   02 Jun 2027 08:13:23.630            24.229               Magadan2           757.156
       120   02 Jun 2027 08:14:00.058   02 Jun 2027 08:15:01.552            61.494                Irkutsk          1921.687
       121   02 Jun 2027 08:15:16.545   02 Jun 2027 08:15:52.761            36.216               Magadan2          1131.750
       122   02 Jun 2027 08:18:05.723   02 Jun 2027 08:18:29.130            23.407              Murmansk1           731.469
       123   02 Jun 2027 08:18:41.722   02 Jun 2027 08:18:53.317            11.595              Murmansk1           362.344
       124   02 Jun 2027 08:50:50.497   02 Jun 2027 08:53:47.391           176.894            RioGallegos          5527.938
       125   02 Jun 2027 09:26:43.352   02 Jun 2027 09:28:06.249            82.897                Sumatra          2590.531
       126   02 Jun 2027 09:30:39.933   02 Jun 2027 09:31:02.190            22.257                Sumatra           695.531
       127   02 Jun 2027 09:47:53.664   02 Jun 2027 09:48:18.950            25.286                Irkutsk           790.188
       128   02 Jun 2027 09:48:30.938   02 Jun 2027 09:49:12.147            41.209                Novosib          1287.781
       129   02 Jun 2027 09:49:22.928   02 Jun 2027 09:49:38.737            15.809              Murmansk2           494.031
       130   02 Jun 2027 09:49:58.720   02 Jun 2027 09:50:15.578            16.858                Irkutsk           526.812
       131   02 Jun 2027 09:51:01.740   02 Jun 2027 09:51:13.210            11.470                Irkutsk           358.437
       132   02 Jun 2027 09:51:35.992   02 Jun 2027 09:51:48.783            12.791                Novosib           399.719
       133   02 Jun 2027 09:51:58.413   02 Jun 2027 09:52:05.741             7.328                Irkutsk           229.000
       134   02 Jun 2027 10:27:58.406   02 Jun 2027 10:28:55.019            56.613            RioGallegos          1769.156
       135   02 Jun 2027 10:32:53.782   02 Jun 2027 10:33:11.382            17.600            RioGallegos           550.000
       136   02 Jun 2027 11:02:12.320   02 Jun 2027 11:03:40.342            88.022                Sumatra          2750.687
       137   02 Jun 2027 11:23:47.427   02 Jun 2027 11:24:33.281            45.854                Irkutsk          1432.938
       138   02 Jun 2027 11:24:36.876   02 Jun 2027 11:25:08.564            31.688                Irkutsk           990.250
       139   02 Jun 2027 11:25:44.913   02 Jun 2027 11:25:47.788             2.875                Novosib            89.844
       140   02 Jun 2027 11:26:03.406   02 Jun 2027 11:26:16.159            12.753                Irkutsk           398.531
       141   02 Jun 2027 11:26:28.886   02 Jun 2027 11:27:01.515            32.629                Novosib          1019.656
       142   02 Jun 2027 11:27:19.121   02 Jun 2027 11:27:32.766            13.645                Norilsk           426.406
       143   02 Jun 2027 12:47:10.534   02 Jun 2027 12:50:16.972           186.438                  Delhi          5826.188
       144   02 Jun 2027 12:55:36.751   02 Jun 2027 12:56:52.927            76.176                Novosib          2380.500
       145   02 Jun 2027 12:59:12.939   02 Jun 2027 12:59:41.710            28.771                Norilsk           899.094
       146   02 Jun 2027 13:01:28.145   02 Jun 2027 13:03:10.274           102.129                Norilsk          3191.531
       147   02 Jun 2027 14:30:25.097   02 Jun 2027 14:32:16.984           111.887                 Moscow          3496.469
       148   02 Jun 2027 14:33:56.171   02 Jun 2027 14:36:58.406           182.235              Murmansk2          5694.844
       149   02 Jun 2027 14:40:55.158   02 Jun 2027 14:41:32.630            37.472                Norilsk          1171.000
       150   02 Jun 2027 14:49:50.125   02 Jun 2027 14:50:44.714            54.589                Anadyr2          1705.906
       151   02 Jun 2027 14:51:40.488   02 Jun 2027 14:52:51.373            70.885                Anadyr2          2215.156
       152   02 Jun 2027 14:52:51.373   02 Jun 2027 14:52:56.215             4.842                Anadyr1           151.312
       153   02 Jun 2027 15:43:53.823   02 Jun 2027 15:44:58.821            64.998               CapeTown          2031.187
       154   02 Jun 2027 15:51:59.134   02 Jun 2027 15:53:24.009            84.875               CapeTown          2652.344
       155   02 Jun 2027 16:11:55.225   02 Jun 2027 16:12:40.077            44.852              Murmansk2          1401.625
       156   02 Jun 2027 16:12:57.840   02 Jun 2027 16:13:20.075            22.235              Murmansk2           694.844
       157   02 Jun 2027 16:21:30.022   02 Jun 2027 16:22:28.485            58.463              Murmansk2          1826.969
       158   02 Jun 2027 16:24:28.031   02 Jun 2027 16:25:55.178            87.147                Anadyr1          2723.344
       159   02 Jun 2027 16:26:45.045   02 Jun 2027 16:26:48.868             3.823                Anadyr2           119.469
       160   02 Jun 2027 16:29:26.281   02 Jun 2027 16:29:41.003            14.722                Anadyr2           460.063
       161   02 Jun 2027 17:20:20.207   02 Jun 2027 17:21:44.029            83.822               CapeTown          2619.437
       162   02 Jun 2027 17:23:49.105   02 Jun 2027 17:23:57.258             8.153               CapeTown           254.781
       163   02 Jun 2027 17:26:47.509   02 Jun 2027 17:27:01.687            14.178               CapeTown           443.062
       164   02 Jun 2027 17:52:46.597   02 Jun 2027 17:56:44.612           238.015              Murmansk2          7437.969
       165   02 Jun 2027 18:00:15.578   02 Jun 2027 18:00:25.154             9.576                Anadyr2           299.250
       166   02 Jun 2027 18:00:25.154   02 Jun 2027 18:00:53.911            28.757                Anadyr1           898.656
       167   02 Jun 2027 18:01:15.563   02 Jun 2027 18:01:37.916            22.353                Anadyr1           698.531
       168   02 Jun 2027 18:02:57.826   02 Jun 2027 18:04:35.535            97.709               Magadan2          3053.406
       169   02 Jun 2027 18:07:41.583   02 Jun 2027 18:07:51.017             9.434               Magadan2           294.813
       170   02 Jun 2027 18:07:56.144   02 Jun 2027 18:08:31.292            35.148               Magadan2          1098.375
       171   02 Jun 2027 19:36:11.173   02 Jun 2027 19:38:14.330           123.157                Anadyr2          3848.656
       172   02 Jun 2027 19:38:27.786   02 Jun 2027 19:42:01.227           213.441               Magadan1          6670.031
       173   02 Jun 2027 19:42:01.227   02 Jun 2027 19:42:37.148            35.921               Magadan2          1122.531
       174   02 Jun 2027 19:47:22.055   02 Jun 2027 19:47:31.804             9.749               Magadan1           304.656
       175   02 Jun 2027 19:48:32.388   02 Jun 2027 19:48:46.016            13.628               Magadan2           425.875
       176   02 Jun 2027 19:51:19.633   02 Jun 2027 19:51:21.931             2.298               Magadan2            71.812
       177   02 Jun 2027 20:31:05.895   02 Jun 2027 20:33:55.082           169.187            RioGallegos          5287.094
       178   02 Jun 2027 20:34:15.354   02 Jun 2027 20:34:19.527             4.173            RioGallegos           130.406
       179   02 Jun 2027 20:36:11.019   02 Jun 2027 20:37:33.092            82.073            RioGallegos          2564.781
       180   02 Jun 2027 21:11:53.690   02 Jun 2027 21:12:30.901            37.211                Anadyr1          1162.844
       181   02 Jun 2027 21:14:03.311   02 Jun 2027 21:14:52.790            49.479                Norilsk          1546.219
       182   02 Jun 2027 21:15:23.495   02 Jun 2027 21:16:39.419            75.924               Magadan2          2372.625
       183   02 Jun 2027 21:18:27.692   02 Jun 2027 21:20:01.747            94.055                Irkutsk          2939.219
       184   02 Jun 2027 21:21:31.457   02 Jun 2027 21:21:51.235            19.778                Irkutsk           618.063
       185   02 Jun 2027 21:27:17.475   02 Jun 2027 21:27:44.429            26.954                Irkutsk           842.313
       186   02 Jun 2027 21:32:30.193   02 Jun 2027 21:34:14.973           104.780                Sumatra          3274.375
       187   02 Jun 2027 22:17:17.177   02 Jun 2027 22:17:35.021            17.844            RioGallegos           557.625
       188   02 Jun 2027 22:48:46.281   02 Jun 2027 22:49:16.558            30.277                Anadyr2           946.156
       189   02 Jun 2027 22:49:22.917   02 Jun 2027 22:49:27.719             4.802                Anadyr2           150.063
       190   02 Jun 2027 22:49:32.079   02 Jun 2027 22:50:09.667            37.588                Anadyr2          1174.625
       191   02 Jun 2027 22:50:34.742   02 Jun 2027 22:51:54.750            80.008               Magadan2          2500.250
       192   02 Jun 2027 22:52:28.557   02 Jun 2027 22:52:32.750             4.193               Magadan1           131.031
       193   02 Jun 2027 22:52:37.175   02 Jun 2027 22:53:12.239            35.064               Magadan1          1095.750
       194   02 Jun 2027 22:53:58.260   02 Jun 2027 22:54:14.293            16.033                Irkutsk           501.031
       195   02 Jun 2027 22:54:32.675   02 Jun 2027 22:55:03.977            31.302                Novosib           978.188
       196   02 Jun 2027 22:55:25.357   02 Jun 2027 22:55:46.239            20.882                Novosib           652.562
       197   02 Jun 2027 22:57:22.170   02 Jun 2027 22:59:01.868            99.698                Novosib          3115.563
       198   02 Jun 2027 23:02:27.117   02 Jun 2027 23:03:16.715            49.598                  Delhi          1549.938
       199   02 Jun 2027 23:03:33.474   02 Jun 2027 23:04:59.757            86.283                  Delhi          2696.344
       200   03 Jun 2027 00:20:37.810   03 Jun 2027 00:20:45.871             8.061                Anadyr1           251.906
       201   03 Jun 2027 00:21:21.031   03 Jun 2027 00:21:44.162            23.131                Anadyr2           722.844
       202   03 Jun 2027 00:23:00.721   03 Jun 2027 00:23:35.577            34.856                Anadyr2          1089.250
       203   03 Jun 2027 00:25:32.191   03 Jun 2027 00:26:09.396            37.205                Anadyr2          1162.656
       204   03 Jun 2027 00:26:20.670   03 Jun 2027 00:27:14.648            53.978               Magadan2          1686.813
       205   03 Jun 2027 00:27:20.886   03 Jun 2027 00:27:57.774            36.888                Norilsk          1152.750
       206   03 Jun 2027 00:28:26.711   03 Jun 2027 00:28:35.860             9.149               Magadan2           285.906
       207   03 Jun 2027 00:28:59.020   03 Jun 2027 00:30:18.747            79.727              Murmansk2          2491.469
       208   03 Jun 2027 00:30:27.236   03 Jun 2027 00:31:31.252            64.016              Murmansk1          2000.500
       209   03 Jun 2027 00:32:19.523   03 Jun 2027 00:32:39.003            19.480              Murmansk2           608.750
       210   03 Jun 2027 00:34:53.092   03 Jun 2027 00:36:01.577            68.485                 Moscow          2140.156
       211   03 Jun 2027 00:36:25.121   03 Jun 2027 00:36:39.182            14.061                 Moscow           439.406
       212   03 Jun 2027 00:38:07.520   03 Jun 2027 00:39:14.607            67.087                  Delhi          2096.469
       213   03 Jun 2027 01:20:05.510   03 Jun 2027 01:20:31.866            26.356            RioGallegos           823.625
       214   03 Jun 2027 01:53:56.699   03 Jun 2027 01:55:15.016            78.317                Anadyr2          2447.406
       215   03 Jun 2027 01:55:28.192   03 Jun 2027 01:56:09.977            41.785                Anadyr2          1305.781
       216   03 Jun 2027 01:56:53.645   03 Jun 2027 01:57:15.422            21.777                Anadyr1           680.531
       217   03 Jun 2027 01:59:30.347   03 Jun 2027 02:00:22.718            52.371               Magadan2          1636.594
       218   03 Jun 2027 02:00:36.704   03 Jun 2027 02:00:40.158             3.454               Magadan1           107.938
       219   03 Jun 2027 02:01:29.883   03 Jun 2027 02:02:30.784            60.901               Magadan2          1903.156
       220   03 Jun 2027 02:04:05.073   03 Jun 2027 02:04:56.753            51.680              Murmansk2          1615.000
       221   03 Jun 2027 02:05:05.160   03 Jun 2027 02:05:05.229             0.069              Murmansk1             2.156
       222   03 Jun 2027 02:05:59.050   03 Jun 2027 02:06:16.780            17.730                Novosib           554.062
       223   03 Jun 2027 02:06:41.450   03 Jun 2027 02:08:51.377           129.927                Novosib          4060.219
       224   03 Jun 2027 02:33:18.722   03 Jun 2027 02:33:46.198            27.476               CapeTown           858.625
       225   03 Jun 2027 02:37:39.009   03 Jun 2027 02:38:06.513            27.504               CapeTown           859.500
       226   03 Jun 2027 02:41:41.355   03 Jun 2027 02:42:10.989            29.634               CapeTown           926.062
       227   03 Jun 2027 03:35:13.846   03 Jun 2027 03:35:16.004             2.158               Magadan2            67.437
       228   03 Jun 2027 03:35:32.027   03 Jun 2027 03:35:42.087            10.060                Anadyr2           314.375
       229   03 Jun 2027 03:36:10.294   03 Jun 2027 03:37:04.938            54.644                Anadyr2          1707.625
       230   03 Jun 2027 03:48:58.717   03 Jun 2027 03:49:05.157             6.440              Murmansk2           201.250
       231   03 Jun 2027 03:49:38.772   03 Jun 2027 03:51:39.752           120.980              Murmansk2          3780.625
       232   03 Jun 2027 03:54:06.320   03 Jun 2027 03:54:36.828            30.508                 Moscow           953.375
       233   03 Jun 2027 05:10:04.012   03 Jun 2027 05:10:55.708            51.696                Anadyr1          1615.500
       234   03 Jun 2027 05:11:00.833   03 Jun 2027 05:11:47.631            46.798                Anadyr1          1462.438
       235   03 Jun 2027 05:12:35.840   03 Jun 2027 05:16:26.507           230.667               Magadan2          7208.344
       236   03 Jun 2027 05:16:33.327   03 Jun 2027 05:16:47.413            14.086                Anadyr1           440.187
       237   03 Jun 2027 06:47:17.383   03 Jun 2027 06:47:35.026            17.643                Anadyr2           551.344
       238   03 Jun 2027 06:47:39.077   03 Jun 2027 06:48:15.297            36.220               Magadan2          1131.875
       239   03 Jun 2027 06:48:21.985   03 Jun 2027 06:48:38.306            16.321               Magadan2           510.031
       240   03 Jun 2027 06:48:38.306   03 Jun 2027 06:48:49.977            11.671               Magadan1           364.719
       241   03 Jun 2027 06:49:14.197   03 Jun 2027 06:50:23.190            68.993               Magadan1          2156.031
       242   03 Jun 2027 08:21:41.208   03 Jun 2027 08:22:50.736            69.528               Magadan2          2172.750
       243   03 Jun 2027 08:23:18.818   03 Jun 2027 08:23:45.361            26.543               Magadan2           829.469
       244   03 Jun 2027 08:24:16.317   03 Jun 2027 08:24:27.013            10.696               Magadan1           334.250
       245   03 Jun 2027 08:24:56.006   03 Jun 2027 08:25:25.320            29.314               Magadan2           916.062
       246   03 Jun 2027 08:25:27.964   03 Jun 2027 08:25:42.890            14.926                Irkutsk           466.438
       247   03 Jun 2027 08:25:56.386   03 Jun 2027 08:26:21.168            24.782                Irkutsk           774.438
       248   03 Jun 2027 08:26:36.069   03 Jun 2027 08:26:40.173             4.104               Magadan2           128.250
       249   03 Jun 2027 08:26:54.699   03 Jun 2027 08:26:56.587             1.888                Irkutsk            59.000
       250   03 Jun 2027 08:27:05.672   03 Jun 2027 08:28:00.754            55.082                Irkutsk          1721.312
       251   03 Jun 2027 09:02:48.425   03 Jun 2027 09:03:30.760            42.335            RioGallegos          1322.969
       252   03 Jun 2027 09:38:19.110   03 Jun 2027 09:38:39.243            20.133                Sumatra           629.156
       253   03 Jun 2027 09:40:19.200   03 Jun 2027 09:40:25.587             6.387                Sumatra           199.594
       254   03 Jun 2027 09:42:22.645   03 Jun 2027 09:43:18.493            55.848                Sumatra          1745.250
       255   03 Jun 2027 10:00:20.762   03 Jun 2027 10:00:31.303            10.541                Irkutsk           329.406
       256   03 Jun 2027 10:00:36.946   03 Jun 2027 10:00:38.148             1.202                Novosib            37.563
       257   03 Jun 2027 10:00:52.751   03 Jun 2027 10:01:32.983            40.232                Norilsk          1257.250
       258   03 Jun 2027 10:01:41.306   03 Jun 2027 10:01:57.152            15.846                Norilsk           495.188
       259   03 Jun 2027 10:02:09.540   03 Jun 2027 10:02:45.384            35.844                Novosib          1120.125
       260   03 Jun 2027 10:02:48.556   03 Jun 2027 10:02:56.661             8.105                Irkutsk           253.281
       261   03 Jun 2027 10:03:08.352   03 Jun 2027 10:03:30.911            22.559                Novosib           704.969
       262   03 Jun 2027 10:03:40.730   03 Jun 2027 10:03:43.886             3.156                Norilsk            98.625
       263   03 Jun 2027 10:03:50.264   03 Jun 2027 10:04:42.866            52.602                Novosib          1643.812
       264   03 Jun 2027 10:40:28.675   03 Jun 2027 10:41:06.954            38.279            RioGallegos          1196.219
       265   03 Jun 2027 11:14:40.791   03 Jun 2027 11:15:01.342            20.551                Sumatra           642.219
       266   03 Jun 2027 11:15:24.334   03 Jun 2027 11:15:41.682            17.348                Sumatra           542.125
       267   03 Jun 2027 11:19:03.985   03 Jun 2027 11:19:49.971            45.986                Sumatra          1437.063
       268   03 Jun 2027 11:35:31.852   03 Jun 2027 11:35:38.093             6.241                Irkutsk           195.031
       269   03 Jun 2027 11:37:26.630   03 Jun 2027 11:37:29.764             3.134                Norilsk            97.937
       270   03 Jun 2027 11:37:37.830   03 Jun 2027 11:37:47.455             9.625                Norilsk           300.781
       271   03 Jun 2027 11:37:48.595   03 Jun 2027 11:37:51.575             2.980                Novosib            93.125
       272   03 Jun 2027 11:38:14.045   03 Jun 2027 11:38:44.079            30.034                Irkutsk           938.563
       273   03 Jun 2027 11:39:04.475   03 Jun 2027 11:39:20.925            16.450                Norilsk           514.063
       274   03 Jun 2027 11:39:34.523   03 Jun 2027 11:39:42.982             8.459                Norilsk           264.344
       275   03 Jun 2027 11:39:53.392   03 Jun 2027 11:40:20.553            27.161                Novosib           848.781
       276   03 Jun 2027 12:59:54.730   03 Jun 2027 13:02:06.868           132.138                  Delhi          4129.313
       277   03 Jun 2027 13:03:36.425   03 Jun 2027 13:04:40.128            63.703                  Delhi          1990.719
       278   03 Jun 2027 13:09:02.872   03 Jun 2027 13:09:14.260            11.388                Novosib           355.875
       279   03 Jun 2027 13:09:38.763   03 Jun 2027 13:10:13.384            34.621                Novosib          1081.906
       280   03 Jun 2027 13:11:43.984   03 Jun 2027 13:12:33.974            49.990                Norilsk          1562.187
       281   03 Jun 2027 13:13:01.141   03 Jun 2027 13:13:01.552             0.411                Novosib            12.844
       282   03 Jun 2027 13:13:29.874   03 Jun 2027 13:13:41.244            11.370                Norilsk           355.313
       283   03 Jun 2027 13:15:08.577   03 Jun 2027 13:15:34.955            26.378                Norilsk           824.313
       284   03 Jun 2027 14:24:54.420   03 Jun 2027 14:25:13.410            18.990               CapeTown           593.438
       285   03 Jun 2027 14:42:37.048   03 Jun 2027 14:43:49.655            72.607                 Moscow          2268.969
       286   03 Jun 2027 14:45:45.578   03 Jun 2027 14:46:35.453            49.875                 Moscow          1558.594
       287   03 Jun 2027 14:46:48.150   03 Jun 2027 14:49:03.680           135.530              Murmansk1          4235.313
       288   03 Jun 2027 15:01:28.377   03 Jun 2027 15:03:30.177           121.800                Anadyr1          3806.250
       289   03 Jun 2027 15:04:35.473   03 Jun 2027 15:04:52.592            17.119                Anadyr1           534.969
       290   03 Jun 2027 15:55:48.813   03 Jun 2027 15:56:07.347            18.534               CapeTown           579.188
       291   03 Jun 2027 15:56:49.008   03 Jun 2027 15:58:33.365           104.357               CapeTown          3261.156
       292   03 Jun 2027 16:23:46.540   03 Jun 2027 16:24:20.709            34.169                 Moscow          1067.781
       293   03 Jun 2027 16:24:22.120   03 Jun 2027 16:24:52.220            30.100              Murmansk2           940.625
       294   03 Jun 2027 16:25:22.160   03 Jun 2027 16:26:30.546            68.386              Murmansk1          2137.063
       295   03 Jun 2027 16:29:09.077   03 Jun 2027 16:29:30.522            21.445              Murmansk2           670.156
       296   03 Jun 2027 16:32:54.492   03 Jun 2027 16:32:57.264             2.772              Murmansk1            86.625
       297   03 Jun 2027 16:33:31.157   03 Jun 2027 16:34:32.566            61.409              Murmansk2          1919.031
       298   03 Jun 2027 16:36:27.028   03 Jun 2027 16:37:10.224            43.196                Anadyr1          1349.875
       299   03 Jun 2027 16:37:52.308   03 Jun 2027 16:38:18.417            26.109                Anadyr1           815.906
       300   03 Jun 2027 16:40:40.101   03 Jun 2027 16:41:27.226            47.125                Anadyr2          1472.656
       301   03 Jun 2027 16:47:57.033   03 Jun 2027 16:48:09.295            12.262                Anadyr2           383.187
       302   03 Jun 2027 17:32:42.050   03 Jun 2027 17:33:04.427            22.377               CapeTown           699.281
       303   03 Jun 2027 17:34:40.678   03 Jun 2027 17:34:51.442            10.764               CapeTown           336.375
       304   03 Jun 2027 17:36:41.301   03 Jun 2027 17:38:00.231            78.930               CapeTown          2466.562
       305   03 Jun 2027 18:05:53.821   03 Jun 2027 18:08:43.669           169.848              Murmansk1          5307.750
       306   03 Jun 2027 18:08:43.669   03 Jun 2027 18:09:16.540            32.871              Murmansk2          1027.219
       307   03 Jun 2027 18:13:18.324   03 Jun 2027 18:13:25.382             7.058                Anadyr2           220.563
       308   03 Jun 2027 18:13:46.158   03 Jun 2027 18:14:14.036            27.878                Anadyr2           871.188
       309   03 Jun 2027 18:14:52.502   03 Jun 2027 18:15:37.564            45.062               Magadan2          1408.188
       310   03 Jun 2027 18:15:37.564   03 Jun 2027 18:16:04.011            26.447               Magadan1           826.469
       311   03 Jun 2027 18:18:28.702   03 Jun 2027 18:18:46.637            17.935               Magadan1           560.469
       312   03 Jun 2027 18:19:12.560   03 Jun 2027 18:19:32.778            20.218               Magadan1           631.812
       313   03 Jun 2027 18:22:29.489   03 Jun 2027 18:23:39.961            70.472               Magadan1          2202.250
       314   03 Jun 2027 19:48:12.130   03 Jun 2027 19:50:15.924           123.794                Anadyr2          3868.562
       315   03 Jun 2027 19:50:28.849   03 Jun 2027 19:54:08.507           219.658               Magadan2          6864.312
       316   03 Jun 2027 19:54:42.679   03 Jun 2027 19:55:08.087            25.408               Magadan2           794.000
       317   03 Jun 2027 20:01:05.398   03 Jun 2027 20:01:23.309            17.911               Magadan2           559.719
       318   03 Jun 2027 20:42:49.424   03 Jun 2027 20:45:26.241           156.817            RioGallegos          4900.531
       319   03 Jun 2027 20:45:47.034   03 Jun 2027 20:46:11.486            24.452            RioGallegos           764.125
       320   03 Jun 2027 20:52:12.306   03 Jun 2027 20:52:13.794             1.488            RioGallegos            46.500
       321   03 Jun 2027 21:23:51.202   03 Jun 2027 21:24:32.499            41.297                Anadyr2          1290.531
       322   03 Jun 2027 21:26:03.199   03 Jun 2027 21:28:16.394           133.195                Norilsk          4162.344
       323   03 Jun 2027 21:29:44.990   03 Jun 2027 21:30:33.790            48.800               Magadan1          1525.000
       324   03 Jun 2027 21:30:37.650   03 Jun 2027 21:31:21.318            43.668                Irkutsk          1364.625
       325   03 Jun 2027 21:32:59.204   03 Jun 2027 21:34:31.755            92.551                Novosib          2892.219
       326   03 Jun 2027 21:34:56.422   03 Jun 2027 21:35:14.505            18.083                Novosib           565.094
       327   03 Jun 2027 21:44:09.895   03 Jun 2027 21:45:44.249            94.354                Sumatra          2948.563
       328   03 Jun 2027 21:46:29.622   03 Jun 2027 21:47:34.624            65.002                Sumatra          2031.312
       329   03 Jun 2027 22:59:46.027   03 Jun 2027 22:59:58.444            12.417                Anadyr2           388.031
       330   03 Jun 2027 23:00:45.010   03 Jun 2027 23:01:37.416            52.406                Anadyr1          1637.688
       331   03 Jun 2027 23:01:58.964   03 Jun 2027 23:02:24.902            25.938                Norilsk           810.562
       332   03 Jun 2027 23:02:37.133   03 Jun 2027 23:03:46.093            68.960               Magadan1          2155.000
       333   03 Jun 2027 23:05:48.325   03 Jun 2027 23:05:51.041             2.716                Norilsk            84.875
       334   03 Jun 2027 23:05:51.637   03 Jun 2027 23:06:28.015            36.378               Magadan1          1136.812
       335   03 Jun 2027 23:06:28.906   03 Jun 2027 23:07:02.974            34.068                Irkutsk          1064.625
       336   03 Jun 2027 23:07:12.264   03 Jun 2027 23:08:10.159            57.895                Novosib          1809.219
       337   03 Jun 2027 23:14:01.746   03 Jun 2027 23:17:12.966           191.220                  Delhi          5975.625
       338   04 Jun 2027 00:32:19.148   04 Jun 2027 00:32:32.892            13.744                Anadyr2           429.500
       339   04 Jun 2027 00:32:37.116   04 Jun 2027 00:33:25.896            48.780                Anadyr1          1524.375
       340   04 Jun 2027 00:33:40.705   04 Jun 2027 00:34:48.902            68.197                Anadyr2          2131.156
       341   04 Jun 2027 00:37:58.693   04 Jun 2027 00:38:16.205            17.512                Norilsk           547.250
       342   04 Jun 2027 00:38:43.566   04 Jun 2027 00:39:09.918            26.352                Norilsk           823.500
       343   04 Jun 2027 00:39:25.482   04 Jun 2027 00:40:11.712            46.230               Magadan1          1444.687
       344   04 Jun 2027 00:40:23.821   04 Jun 2027 00:42:19.672           115.851              Murmansk2          3620.344
       345   04 Jun 2027 00:42:39.640   04 Jun 2027 00:43:19.025            39.385              Murmansk1          1230.781
       346   04 Jun 2027 00:45:39.733   04 Jun 2027 00:47:02.919            83.186                 Moscow          2599.562
       347   04 Jun 2027 00:49:49.010   04 Jun 2027 00:51:05.297            76.287                 Moscow          2383.969
       348   04 Jun 2027 02:05:40.960   04 Jun 2027 02:08:11.293           150.333                Anadyr2          4697.906
       349   04 Jun 2027 02:08:44.218   04 Jun 2027 02:08:53.558             9.340                Anadyr2           291.875
       350   04 Jun 2027 02:10:58.615   04 Jun 2027 02:12:06.795            68.180               Magadan2          2130.625
       351   04 Jun 2027 02:12:06.795   04 Jun 2027 02:12:09.862             3.067               Magadan1            95.844
       352   04 Jun 2027 02:13:23.825   04 Jun 2027 02:14:32.538            68.713               Magadan2          2147.281
       353   04 Jun 2027 02:16:06.394   04 Jun 2027 02:16:57.868            51.474              Murmansk2          1608.562
       354   04 Jun 2027 02:18:05.386   04 Jun 2027 02:18:44.808            39.422                Novosib          1231.938
       355   04 Jun 2027 02:21:08.808   04 Jun 2027 02:21:20.433            11.625                Novosib           363.281
       356   04 Jun 2027 02:22:27.106   04 Jun 2027 02:24:43.995           136.889                 Moscow          4277.781
       357   04 Jun 2027 02:54:18.810   04 Jun 2027 02:55:27.458            68.648               CapeTown          2145.250
       358   04 Jun 2027 03:47:31.685   04 Jun 2027 03:48:07.158            35.473                Anadyr2          1108.531
       359   04 Jun 2027 03:48:53.110   04 Jun 2027 03:49:06.235            13.125                Anadyr1           410.156
       360   04 Jun 2027 03:49:12.081   04 Jun 2027 03:49:24.345            12.264               Magadan1           383.250
       361   04 Jun 2027 03:49:28.790   04 Jun 2027 03:49:37.314             8.524                Anadyr2           266.375
       362   04 Jun 2027 03:50:04.655   04 Jun 2027 03:50:13.512             8.857               Magadan1           276.781
       363   04 Jun 2027 04:01:40.479   04 Jun 2027 04:02:25.850            45.371              Murmansk1          1417.844
       364   04 Jun 2027 04:03:03.449   04 Jun 2027 04:03:32.977            29.528              Murmansk2           922.750
       365   04 Jun 2027 05:22:45.075   04 Jun 2027 05:28:11.429           326.354                Anadyr2         10198.562
       366   04 Jun 2027 05:28:11.429   04 Jun 2027 05:28:48.150            36.721                Anadyr1          1147.531
       367   04 Jun 2027 06:59:11.997   04 Jun 2027 06:59:16.078             4.081               Magadan1           127.531
       368   04 Jun 2027 06:59:18.514   04 Jun 2027 06:59:57.839            39.325                Anadyr1          1228.906
       369   04 Jun 2027 07:00:01.590   04 Jun 2027 07:00:45.502            43.912               Magadan2          1372.250
       370   04 Jun 2027 07:00:53.276   04 Jun 2027 07:01:25.532            32.256               Magadan1          1008.000
       371   04 Jun 2027 07:02:00.982   04 Jun 2027 07:03:00.755            59.773                Anadyr2          1867.906
       372   04 Jun 2027 08:33:05.163   04 Jun 2027 08:33:13.617             8.454               Magadan2           264.188
       373   04 Jun 2027 08:33:21.775   04 Jun 2027 08:33:39.511            17.736               Magadan2           554.250
       374   04 Jun 2027 08:34:55.160   04 Jun 2027 08:35:17.738            22.578               Magadan2           705.563
       375   04 Jun 2027 08:35:19.670   04 Jun 2027 08:35:58.751            39.081               Magadan2          1221.281
       376   04 Jun 2027 08:36:11.227   04 Jun 2027 08:36:41.453            30.226                Irkutsk           944.562
       377   04 Jun 2027 08:36:55.019   04 Jun 2027 08:37:28.540            33.521                Irkutsk          1047.531
       378   04 Jun 2027 08:37:40.745   04 Jun 2027 08:38:11.170            30.425                Novosib           950.781
       379   04 Jun 2027 08:38:20.417   04 Jun 2027 08:38:23.077             2.660                Irkutsk            83.125
       380   04 Jun 2027 08:38:23.372   04 Jun 2027 08:39:17.558            54.186                Novosib          1693.313
       381   04 Jun 2027 08:39:23.147   04 Jun 2027 08:40:06.064            42.917                Irkutsk          1341.156
       382   04 Jun 2027 08:41:48.324   04 Jun 2027 08:42:07.212            18.888              Murmansk1           590.250
       383   04 Jun 2027 09:14:49.639   04 Jun 2027 09:15:32.792            43.153            RioGallegos          1348.531
       384   04 Jun 2027 09:16:01.226   04 Jun 2027 09:17:12.413            71.187            RioGallegos          2224.594
       385   04 Jun 2027 09:50:02.397   04 Jun 2027 09:50:52.406            50.009                Sumatra          1562.781
       386   04 Jun 2027 10:12:10.214   04 Jun 2027 10:12:21.730            11.516                Irkutsk           359.875
       387   04 Jun 2027 10:12:48.853   04 Jun 2027 10:13:01.231            12.378                Irkutsk           386.813
       388   04 Jun 2027 10:13:19.082   04 Jun 2027 10:13:33.994            14.912                Norilsk           466.000
       389   04 Jun 2027 10:13:43.236   04 Jun 2027 10:13:57.465            14.229                Norilsk           444.656
       390   04 Jun 2027 10:14:06.144   04 Jun 2027 10:14:36.867            30.723                Novosib           960.094
       391   04 Jun 2027 10:14:42.453   04 Jun 2027 10:15:37.799            55.346                Novosib          1729.563
       392   04 Jun 2027 10:15:43.829   04 Jun 2027 10:15:59.868            16.039                Norilsk           501.219
       393   04 Jun 2027 10:53:05.479   04 Jun 2027 10:53:22.883            17.404            RioGallegos           543.875
       394   04 Jun 2027 10:54:01.042   04 Jun 2027 10:54:25.303            24.261            RioGallegos           758.156
       395   04 Jun 2027 10:55:54.881   04 Jun 2027 10:56:07.625            12.744            RioGallegos           398.250
       396   04 Jun 2027 11:27:21.369   04 Jun 2027 11:27:48.750            27.381                Sumatra           855.656
       397   04 Jun 2027 11:30:05.213   04 Jun 2027 11:30:44.261            39.048                Sumatra          1220.250
       398   04 Jun 2027 11:34:43.003   04 Jun 2027 11:34:54.310            11.307                  Delhi           353.344
       399   04 Jun 2027 11:48:16.904   04 Jun 2027 11:48:40.449            23.545                Novosib           735.781
       400   04 Jun 2027 11:49:57.609   04 Jun 2027 11:50:52.369            54.760                Novosib          1711.250
       401   04 Jun 2027 11:50:56.317   04 Jun 2027 11:51:06.728            10.411                Novosib           325.344
       402   04 Jun 2027 11:51:22.017   04 Jun 2027 11:51:22.698             0.681                Novosib            21.281
       403   04 Jun 2027 11:51:23.415   04 Jun 2027 11:51:35.734            12.319              Murmansk1           384.969
       404   04 Jun 2027 11:51:56.015   04 Jun 2027 11:52:23.312            27.297                Novosib           853.031
       405   04 Jun 2027 13:12:57.001   04 Jun 2027 13:13:43.400            46.399                  Delhi          1449.969
       406   04 Jun 2027 13:14:14.347   04 Jun 2027 13:14:41.287            26.940                  Delhi           841.875
       407   04 Jun 2027 13:17:01.589   04 Jun 2027 13:17:16.930            15.341                  Delhi           479.406
       408   04 Jun 2027 13:18:40.266   04 Jun 2027 13:19:56.869            76.603                  Delhi          2393.844
       409   04 Jun 2027 13:21:28.089   04 Jun 2027 13:24:01.498           153.409                Novosib          4794.031
       410   04 Jun 2027 13:29:15.153   04 Jun 2027 13:29:41.997            26.844                Norilsk           838.875
       411   04 Jun 2027 14:34:31.962   04 Jun 2027 14:36:45.391           133.429               CapeTown          4169.656
       412   04 Jun 2027 14:39:54.871   04 Jun 2027 14:41:13.428            78.557               CapeTown          2454.906
       413   04 Jun 2027 14:58:18.025   04 Jun 2027 14:59:14.829            56.804              Murmansk1          1775.125
       414   04 Jun 2027 15:03:11.797   04 Jun 2027 15:03:27.348            15.551              Murmansk2           485.969
       415   04 Jun 2027 15:06:53.143   04 Jun 2027 15:07:46.185            53.042              Murmansk2          1657.563
       416   04 Jun 2027 15:09:11.035   04 Jun 2027 15:09:29.696            18.661              Murmansk1           583.156
       417   04 Jun 2027 15:13:14.092   04 Jun 2027 15:15:40.485           146.393                Anadyr2          4574.781
       418   04 Jun 2027 16:10:54.721   04 Jun 2027 16:10:59.317             4.596               CapeTown           143.625
       419   04 Jun 2027 16:11:20.205   04 Jun 2027 16:11:40.718            20.513               CapeTown           641.031
       420   04 Jun 2027 16:12:59.103   04 Jun 2027 16:13:41.908            42.805               CapeTown          1337.656
       421   04 Jun 2027 16:17:52.597   04 Jun 2027 16:19:46.631           114.034               CapeTown          3563.562
       422   04 Jun 2027 16:36:51.649   04 Jun 2027 16:37:17.983            26.334              Murmansk2           822.938
       423   04 Jun 2027 16:39:04.922   04 Jun 2027 16:39:18.929            14.007              Murmansk1           437.719
       424   04 Jun 2027 16:41:11.115   04 Jun 2027 16:42:04.481            53.366              Murmansk1          1667.688
       425   04 Jun 2027 16:48:26.606   04 Jun 2027 16:49:11.461            44.855                Anadyr1          1401.719
       426   04 Jun 2027 16:49:39.982   04 Jun 2027 16:50:14.507            34.525                Anadyr1          1078.906
       427   04 Jun 2027 16:50:38.794   04 Jun 2027 16:50:40.265             1.471                Anadyr2            45.969
       428   04 Jun 2027 16:52:17.129   04 Jun 2027 16:52:38.676            21.547                Anadyr2           673.344
       429   04 Jun 2027 16:53:12.211   04 Jun 2027 16:53:49.440            37.229               Magadan2          1163.406
       430   04 Jun 2027 16:53:49.440   04 Jun 2027 16:55:05.767            76.327               Magadan1          2385.219
       431   04 Jun 2027 16:55:36.844   04 Jun 2027 16:55:38.519             1.675               Magadan2            52.344
       432   04 Jun 2027 18:24:18.518   04 Jun 2027 18:26:26.014           127.496                Anadyr1          3984.250
       433   04 Jun 2027 18:26:29.434   04 Jun 2027 18:28:09.092            99.658                Anadyr2          3114.313
       434   04 Jun 2027 18:28:34.840   04 Jun 2027 18:30:30.424           115.584               Magadan1          3612.000
       435   04 Jun 2027 18:31:03.151   04 Jun 2027 18:31:46.626            43.475               Magadan2          1358.594
       436   04 Jun 2027 18:35:56.146   04 Jun 2027 18:36:02.042             5.896               Magadan2           184.250
       437   04 Jun 2027 18:37:30.834   04 Jun 2027 18:38:27.523            56.689               Magadan1          1771.531
       438   04 Jun 2027 20:00:12.855   04 Jun 2027 20:02:17.438           124.583                Anadyr2          3893.219
       439   04 Jun 2027 20:02:30.259   04 Jun 2027 20:05:49.890           199.631               Magadan1          6238.469
       440   04 Jun 2027 20:06:13.417   04 Jun 2027 20:06:44.026            30.609               Magadan1           956.531
       441   04 Jun 2027 20:09:23.076   04 Jun 2027 20:09:30.734             7.658               Magadan1           239.313
       442   04 Jun 2027 20:11:10.954   04 Jun 2027 20:11:36.432            25.478               Magadan2           796.188
       443   04 Jun 2027 20:54:37.145   04 Jun 2027 20:57:35.819           178.674            RioGallegos          5583.563
       444   04 Jun 2027 20:58:05.585   04 Jun 2027 20:58:07.151             1.566            RioGallegos            48.937
       445   04 Jun 2027 21:03:38.870   04 Jun 2027 21:04:04.042            25.172            RioGallegos           786.625
       446   04 Jun 2027 21:04:52.907   04 Jun 2027 21:05:29.051            36.144            RioGallegos          1129.500
       447   04 Jun 2027 21:36:13.858   04 Jun 2027 21:38:05.592           111.734                Anadyr1          3491.688
       448   04 Jun 2027 21:38:33.608   04 Jun 2027 21:39:27.222            53.614               Magadan1          1675.438
       449   04 Jun 2027 21:40:09.199   04 Jun 2027 21:40:26.289            17.090               Magadan1           534.062
       450   04 Jun 2027 21:41:20.992   04 Jun 2027 21:41:53.420            32.428                Norilsk          1013.375
       451   04 Jun 2027 21:42:12.804   04 Jun 2027 21:42:22.231             9.427                Irkutsk           294.594
       452   04 Jun 2027 21:42:50.925   04 Jun 2027 21:43:06.432            15.507                Irkutsk           484.594
       453   04 Jun 2027 21:44:00.030   04 Jun 2027 21:45:42.573           102.543                Novosib          3204.469
       454   04 Jun 2027 21:47:07.481   04 Jun 2027 21:48:11.693            64.212                Novosib          2006.625
       455   04 Jun 2027 21:58:57.907   04 Jun 2027 21:59:11.553            13.646                Sumatra           426.437
       456   04 Jun 2027 22:06:09.098   04 Jun 2027 22:07:14.242            65.144                Sumatra          2035.750
       457   04 Jun 2027 23:10:29.253   04 Jun 2027 23:11:47.324            78.071                Anadyr2          2439.719
       458   04 Jun 2027 23:13:16.341   04 Jun 2027 23:13:40.383            24.042                Anadyr1           751.313
       459   04 Jun 2027 23:14:01.040   04 Jun 2027 23:14:24.292            23.252                Norilsk           726.625
       460   04 Jun 2027 23:14:39.239   04 Jun 2027 23:15:22.688            43.449               Magadan2          1357.781
       461   04 Jun 2027 23:16:17.985   04 Jun 2027 23:16:29.029            11.044               Magadan2           345.125
       462   04 Jun 2027 23:17:20.940   04 Jun 2027 23:17:42.098            21.158               Magadan1           661.187
       463   04 Jun 2027 23:17:53.398   04 Jun 2027 23:19:01.896            68.498                Irkutsk          2140.562
       464   04 Jun 2027 23:19:29.357   04 Jun 2027 23:19:48.486            19.129                Novosib           597.781
       465   04 Jun 2027 23:20:52.810   04 Jun 2027 23:23:12.475           139.665                Novosib          4364.531
       466   04 Jun 2027 23:36:05.352   04 Jun 2027 23:36:50.835            45.483                  Delhi          1421.344
       467   05 Jun 2027 00:15:02.023   05 Jun 2027 00:15:19.520            17.497            RioGallegos           546.781
       468   05 Jun 2027 00:44:00.228   05 Jun 2027 00:44:43.566            43.338                Anadyr2          1354.313
       469   05 Jun 2027 00:45:21.170   05 Jun 2027 00:45:42.124            20.954                Anadyr1           654.813
       470   05 Jun 2027 00:45:42.124   05 Jun 2027 00:46:03.204            21.080                Anadyr2           658.750
       471   05 Jun 2027 00:46:38.391   05 Jun 2027 00:46:47.100             8.709                Anadyr1           272.156
       472   05 Jun 2027 00:49:37.723   05 Jun 2027 00:50:00.852            23.129                Anadyr2           722.781
       473   05 Jun 2027 00:50:04.731   05 Jun 2027 00:50:58.436            53.705               Magadan2          1678.281
       474   05 Jun 2027 00:51:05.139   05 Jun 2027 00:51:43.587            38.448               Magadan1          1201.500
       475   05 Jun 2027 00:52:13.814   05 Jun 2027 00:52:32.038            18.224               Magadan2           569.500
       476   05 Jun 2027 00:52:58.810   05 Jun 2027 00:53:18.666            19.856               Magadan1           620.500
       477   05 Jun 2027 00:53:48.221   05 Jun 2027 00:55:00.989            72.768                Novosib          2274.000
       478   05 Jun 2027 00:55:24.576   05 Jun 2027 00:55:36.596            12.020                Novosib           375.625
       479   05 Jun 2027 00:56:03.977   05 Jun 2027 00:56:52.682            48.705                Novosib          1522.031
       480   05 Jun 2027 00:57:04.055   05 Jun 2027 00:59:33.746           149.691                 Moscow          4677.844
       481   05 Jun 2027 02:17:26.269   05 Jun 2027 02:19:27.380           121.111                Anadyr1          3784.719
       482   05 Jun 2027 02:20:05.407   05 Jun 2027 02:20:38.843            33.436                Anadyr1          1044.875
