uniorb/output/strategy_4/Drop/Drop_KinoSat_111806.txt

KinoSat_111806
-------------------------
    Access    *     Start Time (UTCG)     *     Stop Time (UTCG)  *   Duration (s)        *       Station  *  Data (Mbytes)
         1   01 Jun 2027 03:00:12.057   01 Jun 2027 03:00:44.932            32.875                Norilsk          1027.344
         2   01 Jun 2027 03:00:47.489   01 Jun 2027 03:01:08.841            21.352                 Moscow           667.250
         3   01 Jun 2027 03:01:21.229   01 Jun 2027 03:01:36.061            14.832                 Moscow           463.500
         4   01 Jun 2027 03:01:48.740   01 Jun 2027 03:02:21.974            33.234                Novosib          1038.562
         5   01 Jun 2027 03:03:23.219   01 Jun 2027 03:03:31.576             8.357                Norilsk           261.156
         6   01 Jun 2027 03:03:56.531   01 Jun 2027 03:04:17.559            21.028                  Delhi           657.125
         7   01 Jun 2027 03:45:23.211   01 Jun 2027 03:45:32.661             9.450            RioGallegos           295.313
         8   01 Jun 2027 04:35:10.012   01 Jun 2027 04:37:36.696           146.684                Novosib          4583.875
         9   01 Jun 2027 04:37:58.037   01 Jun 2027 04:38:55.919            57.882                Norilsk          1808.813
        10   01 Jun 2027 04:38:58.142   01 Jun 2027 04:39:23.027            24.885                Norilsk           777.656
        11   01 Jun 2027 04:39:44.796   01 Jun 2027 04:40:27.388            42.592                Novosib          1331.000
        12   01 Jun 2027 06:13:22.027   01 Jun 2027 06:13:50.802            28.775                Norilsk           899.219
        13   01 Jun 2027 06:14:04.801   01 Jun 2027 06:16:33.877           149.076              Murmansk2          4658.625
        14   01 Jun 2027 06:16:33.877   01 Jun 2027 06:17:07.646            33.769              Murmansk1          1055.281
        15   01 Jun 2027 06:17:12.582   01 Jun 2027 06:19:18.240           125.658                 Moscow          3926.813
        16   01 Jun 2027 06:32:34.169   01 Jun 2027 06:34:18.673           104.504               CapeTown          3265.750
        17   01 Jun 2027 07:37:22.756   01 Jun 2027 07:39:19.110           116.354                Norilsk          3636.063
        18   01 Jun 2027 07:39:26.061   01 Jun 2027 07:40:35.179            69.118                Norilsk          2159.937
        19   01 Jun 2027 07:41:03.075   01 Jun 2027 07:42:00.297            57.222                Anadyr1          1788.188
        20   01 Jun 2027 07:44:00.167   01 Jun 2027 07:44:18.532            18.365                Norilsk           573.906
        21   01 Jun 2027 07:44:37.627   01 Jun 2027 07:44:44.984             7.357                Norilsk           229.906
        22   01 Jun 2027 07:45:18.032   01 Jun 2027 07:46:19.429            61.397                 Moscow          1918.656
        23   01 Jun 2027 07:47:29.561   01 Jun 2027 07:48:17.014            47.453                 Moscow          1482.906
        24   01 Jun 2027 09:13:12.688   01 Jun 2027 09:14:25.916            73.228               Magadan1          2288.375
        25   01 Jun 2027 09:14:58.932   01 Jun 2027 09:17:38.893           159.961                Anadyr2          4998.781
        26   01 Jun 2027 09:23:37.352   01 Jun 2027 09:23:56.173            18.821                 Moscow           588.156
        27   01 Jun 2027 09:24:59.392   01 Jun 2027 09:25:07.459             8.067                 Moscow           252.094
        28   01 Jun 2027 10:43:32.758   01 Jun 2027 10:43:46.827            14.069               Magadan1           439.656
        29   01 Jun 2027 10:48:11.727   01 Jun 2027 10:53:01.719           289.992               Magadan2          9062.250
        30   01 Jun 2027 13:47:23.959   01 Jun 2027 13:49:48.516           144.557                Sumatra          4517.406
        31   01 Jun 2027 13:59:53.218   01 Jun 2027 14:01:28.977            95.759                Irkutsk          2992.469
        32   01 Jun 2027 15:26:56.977   01 Jun 2027 15:29:38.748           161.771                  Delhi          5055.344
        33   01 Jun 2027 15:31:24.893   01 Jun 2027 15:34:11.060           166.167                  Delhi          5192.719
        34   01 Jun 2027 15:37:06.919   01 Jun 2027 15:40:06.935           180.016                Novosib          5625.500
        35   01 Jun 2027 18:47:38.609   01 Jun 2027 18:51:35.518           236.909                 Moscow          7403.406
        36   01 Jun 2027 18:51:36.956   01 Jun 2027 18:54:08.989           152.033                 Moscow          4751.031
        37   01 Jun 2027 19:58:25.543   01 Jun 2027 20:00:21.108           115.565               CapeTown          3611.406
        38   01 Jun 2027 20:30:41.797   01 Jun 2027 20:34:43.358           241.561              Murmansk2          7548.781
        39   01 Jun 2027 22:13:25.297   01 Jun 2027 22:17:43.353           258.056                Anadyr2          8064.250
        40   01 Jun 2027 22:17:59.498   01 Jun 2027 22:18:43.254            43.756                Norilsk          1367.375
        41   01 Jun 2027 22:19:00.137   01 Jun 2027 22:20:48.476           108.339               Magadan1          3385.594
        42   01 Jun 2027 22:21:09.857   01 Jun 2027 22:21:26.198            16.341               Magadan2           510.656
        43   01 Jun 2027 22:25:13.385   01 Jun 2027 22:25:28.168            14.783               Magadan1           461.969
        44   01 Jun 2027 23:08:04.321   01 Jun 2027 23:10:03.592           119.271            RioGallegos          3727.219
        45   01 Jun 2027 23:12:14.372   01 Jun 2027 23:12:39.123            24.751            RioGallegos           773.469
        46   01 Jun 2027 23:13:30.467   01 Jun 2027 23:13:39.589             9.122            RioGallegos           285.062
        47   01 Jun 2027 23:16:40.484   01 Jun 2027 23:17:28.148            47.664            RioGallegos          1489.500
        48   01 Jun 2027 23:49:06.092   01 Jun 2027 23:51:06.620           120.528                Anadyr2          3766.500
        49   01 Jun 2027 23:51:14.131   01 Jun 2027 23:52:54.066            99.935                Norilsk          3122.969
        50   01 Jun 2027 23:53:23.356   01 Jun 2027 23:53:35.832            12.476               Magadan1           389.875
        51   01 Jun 2027 23:54:52.945   01 Jun 2027 23:56:00.296            67.351               Magadan2          2104.719
        52   01 Jun 2027 23:56:09.413   01 Jun 2027 23:56:49.979            40.566                Irkutsk          1267.687
        53   01 Jun 2027 23:58:32.077   01 Jun 2027 23:59:41.387            69.310                Novosib          2165.937
        54   02 Jun 2027 00:09:26.859   02 Jun 2027 00:10:01.668            34.809                Sumatra          1087.781
        55   02 Jun 2027 00:13:18.542   02 Jun 2027 00:14:23.134            64.592                Sumatra          2018.500
        56   02 Jun 2027 00:49:01.887   02 Jun 2027 00:50:08.884            66.997            RioGallegos          2093.656
        57   02 Jun 2027 01:23:59.105   02 Jun 2027 01:24:23.473            24.368                Anadyr1           761.500
        58   02 Jun 2027 01:24:57.422   02 Jun 2027 01:25:49.196            51.774                Anadyr1          1617.938
        59   02 Jun 2027 01:26:18.413   02 Jun 2027 01:26:47.245            28.832                Anadyr1           901.000
        60   02 Jun 2027 01:27:10.522   02 Jun 2027 01:28:41.617            91.095                Norilsk          2846.719
        61   02 Jun 2027 01:28:48.316   02 Jun 2027 01:29:20.108            31.792               Magadan2           993.500
        62   02 Jun 2027 01:31:02.913   02 Jun 2027 01:32:42.146            99.233                Irkutsk          3101.031
        63   02 Jun 2027 01:32:48.420   02 Jun 2027 01:33:03.119            14.699                Novosib           459.344
        64   02 Jun 2027 01:34:38.456   02 Jun 2027 01:35:52.827            74.371                Irkutsk          2324.094
        65   02 Jun 2027 01:46:02.769   02 Jun 2027 01:46:40.786            38.017                Sumatra          1188.031
        66   02 Jun 2027 01:48:32.637   02 Jun 2027 01:49:48.983            76.346                Sumatra          2385.812
        67   02 Jun 2027 02:20:55.646   02 Jun 2027 02:22:34.515            98.869            RioGallegos          3089.656
        68   02 Jun 2027 02:58:31.186   02 Jun 2027 02:58:54.055            22.869                Anadyr2           714.656
        69   02 Jun 2027 03:07:19.124   02 Jun 2027 03:07:32.391            13.267               Magadan2           414.594
        70   02 Jun 2027 03:08:28.812   02 Jun 2027 03:08:41.088            12.276              Murmansk2           383.625
        71   02 Jun 2027 03:08:53.423   02 Jun 2027 03:09:11.273            17.850                Norilsk           557.812
        72   02 Jun 2027 03:09:13.810   02 Jun 2027 03:10:00.573            46.763                Novosib          1461.344
        73   02 Jun 2027 03:10:21.119   02 Jun 2027 03:11:50.156            89.037              Murmansk2          2782.406
        74   02 Jun 2027 03:11:55.017   02 Jun 2027 03:12:52.482            57.465                Novosib          1795.781
        75   02 Jun 2027 03:12:53.939   02 Jun 2027 03:13:40.814            46.875                Norilsk          1464.844
        76   02 Jun 2027 03:13:47.806   02 Jun 2027 03:13:49.960             2.154              Murmansk1            67.312
        77   02 Jun 2027 03:14:27.357   02 Jun 2027 03:17:11.111           163.754                  Delhi          5117.312
        78   02 Jun 2027 03:19:11.574   02 Jun 2027 03:19:46.282            34.708                  Delhi          1084.625
        79   02 Jun 2027 04:48:59.062   02 Jun 2027 04:49:56.350            57.288                Novosib          1790.250
        80   02 Jun 2027 04:50:45.421   02 Jun 2027 04:53:16.768           151.347                Novosib          4729.594
        81   02 Jun 2027 04:54:16.238   02 Jun 2027 04:55:25.327            69.089                 Moscow          2159.031
        82   02 Jun 2027 05:09:21.113   02 Jun 2027 05:12:26.852           185.739               CapeTown          5804.344
        83   02 Jun 2027 06:05:19.547   02 Jun 2027 06:08:58.672           219.125                Anadyr1          6847.656
        84   02 Jun 2027 06:08:58.792   02 Jun 2027 06:09:39.978            41.186               Magadan1          1287.062
        85   02 Jun 2027 06:09:39.978   02 Jun 2027 06:10:45.351            65.373               Magadan2          2042.906
        86   02 Jun 2027 06:25:37.065   02 Jun 2027 06:25:39.362             2.297                Norilsk            71.781
        87   02 Jun 2027 06:27:34.012   02 Jun 2027 06:28:07.256            33.244              Murmansk2          1038.875
        88   02 Jun 2027 06:28:16.894   02 Jun 2027 06:31:00.919           164.025                 Moscow          5125.781
        89   02 Jun 2027 06:44:51.276   02 Jun 2027 06:50:13.016           321.740               CapeTown         10054.375
        90   02 Jun 2027 07:41:21.266   02 Jun 2027 07:42:06.419            45.153               Magadan1          1411.031
        91   02 Jun 2027 07:42:06.419   02 Jun 2027 07:42:32.928            26.509               Magadan2           828.406
        92   02 Jun 2027 07:43:26.913   02 Jun 2027 07:44:26.299            59.386                Anadyr1          1855.812
        93   02 Jun 2027 07:44:26.299   02 Jun 2027 07:45:17.712            51.413                Anadyr2          1606.656
        94   02 Jun 2027 07:47:29.057   02 Jun 2027 07:47:55.029            25.972               Magadan1           811.625
        95   02 Jun 2027 07:48:03.261   02 Jun 2027 07:50:23.151           139.890               Magadan1          4371.563
        96   02 Jun 2027 09:23:32.977   02 Jun 2027 09:25:01.501            88.524                Anadyr1          2766.375
        97   02 Jun 2027 09:27:25.162   02 Jun 2027 09:27:55.510            30.348               Magadan1           948.375
        98   02 Jun 2027 09:27:55.510   02 Jun 2027 09:28:08.834            13.324               Magadan2           416.375
        99   02 Jun 2027 10:05:44.867   02 Jun 2027 10:05:52.868             8.001            RioGallegos           250.031
       100   02 Jun 2027 10:06:56.797   02 Jun 2027 10:07:55.203            58.406            RioGallegos          1825.188
       101   02 Jun 2027 10:58:41.032   02 Jun 2027 11:00:17.734            96.702               Magadan2          3021.938
       102   02 Jun 2027 11:01:04.313   02 Jun 2027 11:01:11.262             6.949               Magadan1           217.156
       103   02 Jun 2027 11:01:11.262   02 Jun 2027 11:04:52.915           221.653               Magadan2          6926.656
       104   02 Jun 2027 11:05:08.930   02 Jun 2027 11:05:32.386            23.456                Norilsk           733.000
       105   02 Jun 2027 11:40:01.893   02 Jun 2027 11:40:12.847            10.954            RioGallegos           342.312
       106   02 Jun 2027 11:41:08.982   02 Jun 2027 11:42:18.186            69.204            RioGallegos          2162.625
       107   02 Jun 2027 12:15:18.613   02 Jun 2027 12:15:59.243            40.630                Sumatra          1269.687
       108   02 Jun 2027 12:16:36.405   02 Jun 2027 12:17:17.160            40.755                Sumatra          1273.594
       109   02 Jun 2027 12:28:37.146   02 Jun 2027 12:30:23.291           106.145                Irkutsk          3317.031
       110   02 Jun 2027 12:33:22.397   02 Jun 2027 12:34:19.298            56.901                Norilsk          1778.156
       111   02 Jun 2027 13:18:07.563   02 Jun 2027 13:20:37.156           149.593            RioGallegos          4674.781
       112   02 Jun 2027 13:52:23.227   02 Jun 2027 13:55:47.421           204.194                Sumatra          6381.062
       113   02 Jun 2027 13:59:06.310   02 Jun 2027 14:01:30.974           144.664                Sumatra          4520.750
       114   02 Jun 2027 14:09:12.347   02 Jun 2027 14:12:30.001           197.654                Irkutsk          6176.688
       115   02 Jun 2027 15:37:51.410   02 Jun 2027 15:39:52.461           121.051                  Delhi          3782.844
       116   02 Jun 2027 15:46:21.590   02 Jun 2027 15:50:03.672           222.082                Novosib          6940.062
       117   02 Jun 2027 17:20:00.878   02 Jun 2027 17:20:12.016            11.138                 Moscow           348.063
       118   02 Jun 2027 17:22:39.640   02 Jun 2027 17:23:23.572            43.932                 Moscow          1372.875
       119   02 Jun 2027 17:23:27.422   02 Jun 2027 17:24:17.723            50.301              Murmansk1          1571.906
       120   02 Jun 2027 17:31:42.221   02 Jun 2027 17:32:02.043            19.822              Murmansk1           619.438
       121   02 Jun 2027 17:38:27.209   02 Jun 2027 17:39:14.795            47.586                Anadyr2          1487.063
       122   02 Jun 2027 17:39:32.771   02 Jun 2027 17:39:41.581             8.810                Anadyr2           275.313
       123   02 Jun 2027 17:40:36.095   02 Jun 2027 17:41:04.668            28.573                Anadyr2           892.906
       124   02 Jun 2027 17:41:45.332   02 Jun 2027 17:41:51.892             6.560                Anadyr1           205.000
       125   02 Jun 2027 17:45:00.668   02 Jun 2027 17:45:08.282             7.614                Anadyr2           237.938
       126   02 Jun 2027 18:32:59.850   02 Jun 2027 18:35:25.014           145.164               CapeTown          4536.375
       127   02 Jun 2027 19:00:50.719   02 Jun 2027 19:04:32.484           221.765                 Moscow          6930.156
       128   02 Jun 2027 19:06:00.096   02 Jun 2027 19:06:32.447            32.351              Murmansk2          1010.969
       129   02 Jun 2027 19:11:24.434   02 Jun 2027 19:11:46.881            22.447              Murmansk1           701.469
       130   02 Jun 2027 19:18:36.660   02 Jun 2027 19:19:18.116            41.456               Magadan2          1295.500
       131   02 Jun 2027 20:10:17.674   02 Jun 2027 20:10:54.314            36.640               CapeTown          1145.000
       132   02 Jun 2027 20:13:35.308   02 Jun 2027 20:15:22.262           106.954               CapeTown          3342.313
       133   02 Jun 2027 20:44:07.986   02 Jun 2027 20:46:02.648           114.662              Murmansk2          3583.188
       134   02 Jun 2027 20:52:01.370   02 Jun 2027 20:53:42.819           101.449               Magadan2          3170.281
       135   02 Jun 2027 20:54:26.024   02 Jun 2027 20:55:09.373            43.349               Magadan2          1354.656
       136   02 Jun 2027 20:57:32.493   02 Jun 2027 20:57:55.510            23.017               Magadan1           719.281
       137   02 Jun 2027 20:58:16.452   02 Jun 2027 20:58:24.330             7.878               Magadan1           246.187
       138   02 Jun 2027 20:59:00.634   02 Jun 2027 20:59:43.198            42.564               Magadan2          1330.125
       139   02 Jun 2027 22:25:26.407   02 Jun 2027 22:29:11.825           225.418                Anadyr2          7044.313
       140   02 Jun 2027 22:29:25.131   02 Jun 2027 22:32:38.837           193.706               Magadan2          6053.313
       141   02 Jun 2027 22:32:59.744   02 Jun 2027 22:33:18.978            19.234               Magadan2           601.062
       142   02 Jun 2027 22:34:42.900   02 Jun 2027 22:35:02.711            19.811               Magadan1           619.094
       143   02 Jun 2027 22:38:08.236   02 Jun 2027 22:38:50.930            42.694               Magadan1          1334.188
       144   02 Jun 2027 23:19:51.540   02 Jun 2027 23:21:23.667            92.127            RioGallegos          2878.969
       145   02 Jun 2027 23:21:51.149   02 Jun 2027 23:22:47.601            56.452            RioGallegos          1764.125
       146   02 Jun 2027 23:29:00.897   02 Jun 2027 23:29:18.061            17.164            RioGallegos           536.375
       147   03 Jun 2027 00:01:03.348   03 Jun 2027 00:01:55.107            51.759                Anadyr2          1617.469
       148   03 Jun 2027 00:02:36.651   03 Jun 2027 00:03:06.547            29.896                Anadyr1           934.250
       149   03 Jun 2027 00:03:14.862   03 Jun 2027 00:04:59.394           104.532                Norilsk          3266.625
       150   03 Jun 2027 00:05:42.571   03 Jun 2027 00:06:02.565            19.994               Magadan2           624.812
       151   03 Jun 2027 00:06:28.647   03 Jun 2027 00:07:16.887            48.240               Magadan2          1507.500
       152   03 Jun 2027 00:07:26.293   03 Jun 2027 00:08:19.117            52.824                Irkutsk          1650.750
       153   03 Jun 2027 00:08:44.653   03 Jun 2027 00:08:51.414             6.761                Irkutsk           211.281
       154   03 Jun 2027 00:09:19.880   03 Jun 2027 00:10:39.181            79.301                Novosib          2478.156
       155   03 Jun 2027 00:11:47.451   03 Jun 2027 00:11:52.708             5.257                Novosib           164.281
       156   03 Jun 2027 00:13:50.280   03 Jun 2027 00:14:15.937            25.657                Novosib           801.781
       157   03 Jun 2027 00:21:12.042   03 Jun 2027 00:21:55.357            43.315                Sumatra          1353.594
       158   03 Jun 2027 00:23:54.618   03 Jun 2027 00:24:45.514            50.896                Sumatra          1590.500
       159   03 Jun 2027 00:29:07.694   03 Jun 2027 00:30:39.084            91.390                Sumatra          2855.937
       160   03 Jun 2027 01:35:47.418   03 Jun 2027 01:36:58.754            71.336                Anadyr1          2229.250
       161   03 Jun 2027 01:36:58.754   03 Jun 2027 01:37:57.957            59.203                Anadyr2          1850.094
       162   03 Jun 2027 01:39:12.922   03 Jun 2027 01:40:40.436            87.514                Norilsk          2734.812
       163   03 Jun 2027 01:40:48.494   03 Jun 2027 01:41:09.467            20.973               Magadan2           655.406
       164   03 Jun 2027 01:41:50.779   03 Jun 2027 01:42:04.303            13.524               Magadan1           422.625
       165   03 Jun 2027 01:43:05.893   03 Jun 2027 01:46:15.196           189.303                Irkutsk          5915.719
       166   03 Jun 2027 01:58:47.949   03 Jun 2027 02:01:44.407           176.458                Sumatra          5514.313
       167   03 Jun 2027 02:35:05.286   03 Jun 2027 02:35:16.116            10.830            RioGallegos           338.437
       168   03 Jun 2027 02:38:57.883   03 Jun 2027 02:39:26.813            28.930            RioGallegos           904.062
       169   03 Jun 2027 03:21:56.838   03 Jun 2027 03:22:31.195            34.357                Irkutsk          1073.656
       170   03 Jun 2027 03:22:52.175   03 Jun 2027 03:23:59.461            67.286              Murmansk2          2102.688
       171   03 Jun 2027 03:24:00.506   03 Jun 2027 03:26:12.221           131.715                Irkutsk          4116.094
       172   03 Jun 2027 05:01:00.637   03 Jun 2027 05:04:48.288           227.651                Novosib          7114.094
       173   03 Jun 2027 05:05:58.618   03 Jun 2027 05:06:14.719            16.101                 Moscow           503.156
       174   03 Jun 2027 05:21:01.223   03 Jun 2027 05:22:29.388            88.165               CapeTown          2755.156
       175   03 Jun 2027 05:23:24.618   03 Jun 2027 05:23:43.063            18.445               CapeTown           576.406
       176   03 Jun 2027 05:23:50.015   03 Jun 2027 05:24:19.782            29.767               CapeTown           930.219
       177   03 Jun 2027 06:24:20.573   03 Jun 2027 06:24:49.879            29.306                Anadyr2           915.812
       178   03 Jun 2027 06:24:49.879   03 Jun 2027 06:25:58.112            68.233                Anadyr1          2132.281
       179   03 Jun 2027 06:36:28.148   03 Jun 2027 06:37:16.663            48.515                 Moscow          1516.094
       180   03 Jun 2027 06:57:15.087   03 Jun 2027 06:58:12.549            57.462               CapeTown          1795.688
       181   03 Jun 2027 07:01:26.313   03 Jun 2027 07:02:01.313            35.000               CapeTown          1093.750
       182   03 Jun 2027 07:58:17.367   03 Jun 2027 07:59:08.258            50.891                Anadyr1          1590.344
       183   03 Jun 2027 07:59:16.760   03 Jun 2027 07:59:24.940             8.180               Magadan1           255.625
       184   03 Jun 2027 07:59:57.409   03 Jun 2027 08:00:24.405            26.996               Magadan1           843.625
       185   03 Jun 2027 08:01:24.215   03 Jun 2027 08:02:44.184            79.969                Anadyr1          2499.031
       186   03 Jun 2027 08:50:45.107   03 Jun 2027 08:50:59.548            14.441            RioGallegos           451.281
       187   03 Jun 2027 09:33:39.565   03 Jun 2027 09:34:11.127            31.562                Anadyr2           986.313
       188   03 Jun 2027 09:34:16.118   03 Jun 2027 09:36:03.057           106.939                Anadyr1          3341.844
       189   03 Jun 2027 09:36:37.649   03 Jun 2027 09:37:49.633            71.984               Magadan1          2249.500
       190   03 Jun 2027 09:37:53.483   03 Jun 2027 09:39:28.669            95.186                Anadyr1          2974.562
       191   03 Jun 2027 09:40:10.462   03 Jun 2027 09:41:37.813            87.351               Magadan2          2729.719
       192   03 Jun 2027 11:09:38.345   03 Jun 2027 11:10:20.034            41.689               Magadan2          1302.781
       193   03 Jun 2027 11:10:40.241   03 Jun 2027 11:12:49.903           129.662               Magadan2          4051.938
       194   03 Jun 2027 11:13:08.337   03 Jun 2027 11:14:10.016            61.679               Magadan2          1927.469
       195   03 Jun 2027 11:14:32.406   03 Jun 2027 11:14:49.355            16.949                Norilsk           529.656
       196   03 Jun 2027 11:14:59.289   03 Jun 2027 11:15:26.413            27.124                Irkutsk           847.625
       197   03 Jun 2027 11:15:35.426   03 Jun 2027 11:16:34.617            59.191                Novosib          1849.719
       198   03 Jun 2027 11:16:42.964   03 Jun 2027 11:17:22.151            39.187                Irkutsk          1224.594
       199   03 Jun 2027 11:17:33.537   03 Jun 2027 11:17:47.911            14.374                Norilsk           449.188
       200   03 Jun 2027 11:52:05.816   03 Jun 2027 11:52:57.523            51.707            RioGallegos          1615.844
       201   03 Jun 2027 11:55:20.900   03 Jun 2027 11:55:33.963            13.063            RioGallegos           408.219
       202   03 Jun 2027 12:27:07.046   03 Jun 2027 12:29:46.757           159.711                Sumatra          4990.969
       203   03 Jun 2027 12:40:48.479   03 Jun 2027 12:40:58.381             9.902                Irkutsk           309.438
       204   03 Jun 2027 12:42:16.079   03 Jun 2027 12:43:00.308            44.229                Novosib          1382.156
       205   03 Jun 2027 12:44:27.473   03 Jun 2027 12:45:15.950            48.477                Irkutsk          1514.906
       206   03 Jun 2027 13:30:50.527   03 Jun 2027 13:32:53.359           122.832            RioGallegos          3838.500
       207   03 Jun 2027 14:05:18.568   03 Jun 2027 14:07:39.900           141.332                Sumatra          4416.625
       208   03 Jun 2027 14:21:08.644   03 Jun 2027 14:23:32.750           144.106                Novosib          4503.313
       209   03 Jun 2027 14:24:26.070   03 Jun 2027 14:25:14.732            48.662                Irkutsk          1520.687
       210   03 Jun 2027 15:51:19.871   03 Jun 2027 15:54:57.832           217.961                  Delhi          6811.281
       211   03 Jun 2027 15:59:00.366   03 Jun 2027 15:59:56.102            55.736              Murmansk2          1741.750
       212   03 Jun 2027 16:01:47.969   03 Jun 2027 16:04:15.851           147.882                Novosib          4621.313
       213   03 Jun 2027 16:04:52.187   03 Jun 2027 16:06:26.435            94.248                Norilsk          2945.250
       214   03 Jun 2027 17:32:19.343   03 Jun 2027 17:33:21.334            61.991                 Moscow          1937.219
       215   03 Jun 2027 17:34:37.065   03 Jun 2027 17:35:02.596            25.531                 Moscow           797.844
       216   03 Jun 2027 17:35:40.922   03 Jun 2027 17:37:44.882           123.960              Murmansk2          3873.750
       217   03 Jun 2027 17:50:16.969   03 Jun 2027 17:51:15.306            58.337                Anadyr2          1823.031
       218   03 Jun 2027 17:52:43.328   03 Jun 2027 17:53:05.916            22.588                Anadyr1           705.875
       219   03 Jun 2027 18:45:00.385   03 Jun 2027 18:47:15.312           134.927               CapeTown          4216.469
       220   03 Jun 2027 19:14:27.471   03 Jun 2027 19:19:35.711           308.240              Murmansk1          9632.500
       221   03 Jun 2027 19:29:44.288   03 Jun 2027 19:30:22.345            38.057               Magadan1          1189.281
       222   03 Jun 2027 19:35:02.444   03 Jun 2027 19:35:15.247            12.803               Magadan2           400.094
       223   03 Jun 2027 20:22:56.514   03 Jun 2027 20:24:33.831            97.317               CapeTown          3041.156
       224   03 Jun 2027 20:27:28.458   03 Jun 2027 20:27:45.270            16.812               CapeTown           525.375
       225   03 Jun 2027 21:01:32.936   03 Jun 2027 21:03:15.314           102.378                Anadyr1          3199.312
       226   03 Jun 2027 21:03:21.446   03 Jun 2027 21:04:33.821            72.375                Anadyr2          2261.719
       227   03 Jun 2027 21:04:56.630   03 Jun 2027 21:05:54.561            57.931               Magadan1          1810.344
       228   03 Jun 2027 21:05:54.561   03 Jun 2027 21:06:15.506            20.945               Magadan2           654.531
       229   03 Jun 2027 21:06:32.402   03 Jun 2027 21:06:50.191            17.789               Magadan2           555.906
       230   03 Jun 2027 21:06:50.191   03 Jun 2027 21:07:04.379            14.188               Magadan1           443.375
       231   03 Jun 2027 21:08:51.206   03 Jun 2027 21:08:56.446             5.240               Magadan1           163.750
       232   03 Jun 2027 21:15:43.408   03 Jun 2027 21:15:56.041            12.633               Magadan2           394.781
       233   03 Jun 2027 22:37:27.239   03 Jun 2027 22:41:11.738           224.499                Anadyr1          7015.594
       234   03 Jun 2027 22:41:14.566   03 Jun 2027 22:43:20.744           126.178               Magadan1          3943.063
       235   03 Jun 2027 22:43:20.744   03 Jun 2027 22:43:34.657            13.913               Magadan2           434.781
       236   03 Jun 2027 22:43:40.230   03 Jun 2027 22:43:53.996            13.766                Norilsk           430.187
       237   03 Jun 2027 22:44:09.283   03 Jun 2027 22:44:41.067            31.784               Magadan1           993.250
       238   03 Jun 2027 22:45:17.771   03 Jun 2027 22:45:41.657            23.886               Magadan1           746.437
       239   03 Jun 2027 22:46:13.781   03 Jun 2027 22:47:12.135            58.354                Irkutsk          1823.563
       240   03 Jun 2027 22:49:57.028   03 Jun 2027 22:50:16.651            19.623                Irkutsk           613.219
       241   03 Jun 2027 23:31:42.069   03 Jun 2027 23:33:35.096           113.027            RioGallegos          3532.094
       242   03 Jun 2027 23:33:50.616   03 Jun 2027 23:34:48.447            57.831            RioGallegos          1807.219
       243   03 Jun 2027 23:41:10.638   03 Jun 2027 23:42:00.162            49.524            RioGallegos          1547.625
       244   04 Jun 2027 00:12:59.773   04 Jun 2027 00:13:39.796            40.023                Anadyr1          1250.719
       245   04 Jun 2027 00:14:27.776   04 Jun 2027 00:15:59.569            91.793                Anadyr2          2868.531
       246   04 Jun 2027 00:16:00.690   04 Jun 2027 00:16:47.077            46.387                Norilsk          1449.594
       247   04 Jun 2027 00:16:48.177   04 Jun 2027 00:17:20.044            31.867               Magadan1           995.844
       248   04 Jun 2027 00:18:24.475   04 Jun 2027 00:18:59.635            35.160               Magadan1          1098.750
       249   04 Jun 2027 00:19:21.716   04 Jun 2027 00:21:21.291           119.575                Irkutsk          3736.719
       250   04 Jun 2027 00:21:58.709   04 Jun 2027 00:23:15.102            76.393                Novosib          2387.281
       251   04 Jun 2027 00:36:05.513   04 Jun 2027 00:36:19.977            14.464                Sumatra           452.000
       252   04 Jun 2027 00:37:56.949   04 Jun 2027 00:39:08.380            71.431                Sumatra          2232.219
       253   04 Jun 2027 01:08:23.736   04 Jun 2027 01:09:03.997            40.261            RioGallegos          1258.156
       254   04 Jun 2027 01:15:32.042   04 Jun 2027 01:16:12.544            40.502            RioGallegos          1265.688
       255   04 Jun 2027 01:47:34.413   04 Jun 2027 01:48:05.616            31.203                Anadyr2           975.094
       256   04 Jun 2027 01:48:05.616   04 Jun 2027 01:49:00.112            54.496                Anadyr1          1703.000
       257   04 Jun 2027 01:49:41.040   04 Jun 2027 01:50:03.297            22.257                Anadyr1           695.531
       258   04 Jun 2027 01:50:03.297   04 Jun 2027 01:50:16.968            13.671                Anadyr2           427.219
       259   04 Jun 2027 01:51:15.343   04 Jun 2027 01:52:49.549            94.206                Norilsk          2943.937
       260   04 Jun 2027 01:55:09.658   04 Jun 2027 01:56:55.212           105.554                Irkutsk          3298.563
       261   04 Jun 2027 01:57:43.646   04 Jun 2027 01:57:55.869            12.223                Novosib           381.969
       262   04 Jun 2027 01:58:10.572   04 Jun 2027 01:58:37.857            27.285                Novosib           852.656
       263   04 Jun 2027 02:00:13.020   04 Jun 2027 02:00:16.366             3.346                Novosib           104.563
       264   04 Jun 2027 02:00:49.486   04 Jun 2027 02:00:50.916             1.430                Irkutsk            44.687
       265   04 Jun 2027 02:02:45.902   04 Jun 2027 02:03:32.106            46.204                  Delhi          1443.875
       266   04 Jun 2027 02:09:23.354   04 Jun 2027 02:09:46.307            22.953                  Delhi           717.281
       267   04 Jun 2027 02:11:58.458   04 Jun 2027 02:16:02.786           244.328                Sumatra          7635.250
       268   04 Jun 2027 02:52:12.049   04 Jun 2027 02:52:45.182            33.133            RioGallegos          1035.406
       269   04 Jun 2027 03:35:16.812   04 Jun 2027 03:36:44.199            87.387              Murmansk2          2730.844
       270   04 Jun 2027 03:36:49.900   04 Jun 2027 03:37:42.125            52.225                Norilsk          1632.031
       271   04 Jun 2027 03:37:45.560   04 Jun 2027 03:40:10.799           145.239                Irkutsk          4538.719
       272   04 Jun 2027 03:42:49.646   04 Jun 2027 03:43:26.218            36.572                Novosib          1142.875
       273   04 Jun 2027 03:43:48.996   04 Jun 2027 03:46:53.786           184.790                  Delhi          5774.688
       274   04 Jun 2027 05:12:41.983   04 Jun 2027 05:13:07.543            25.560                Novosib           798.750
       275   04 Jun 2027 05:13:12.318   04 Jun 2027 05:13:41.821            29.503                Novosib           921.969
       276   04 Jun 2027 05:14:30.072   04 Jun 2027 05:15:16.982            46.910                 Moscow          1465.938
       277   04 Jun 2027 05:15:28.510   04 Jun 2027 05:15:41.810            13.300                 Moscow           415.625
       278   04 Jun 2027 05:16:01.199   04 Jun 2027 05:16:16.862            15.663                Novosib           489.469
       279   04 Jun 2027 05:16:26.037   04 Jun 2027 05:16:45.613            19.576                 Moscow           611.750
       280   04 Jun 2027 05:16:58.597   04 Jun 2027 05:18:03.646            65.049                 Moscow          2032.781
       281   04 Jun 2027 05:32:46.921   04 Jun 2027 05:33:25.956            39.035               CapeTown          1219.844
       282   04 Jun 2027 06:35:54.798   04 Jun 2027 06:36:30.098            35.300               Magadan2          1103.125
       283   04 Jun 2027 06:36:59.857   04 Jun 2027 06:37:58.425            58.568                Anadyr2          1830.250
       284   04 Jun 2027 06:39:20.980   04 Jun 2027 06:40:07.991            47.011                Anadyr2          1469.094
       285   04 Jun 2027 06:48:33.137   04 Jun 2027 06:49:22.738            49.601                 Moscow          1550.031
       286   04 Jun 2027 07:09:46.934   04 Jun 2027 07:10:17.139            30.205               CapeTown           943.906
       287   04 Jun 2027 07:10:50.656   04 Jun 2027 07:13:25.389           154.733               CapeTown          4835.406
       288   04 Jun 2027 08:10:20.795   04 Jun 2027 08:10:57.249            36.454               Magadan1          1139.188
       289   04 Jun 2027 08:11:59.544   04 Jun 2027 08:12:28.507            28.963               Magadan2           905.094
       290   04 Jun 2027 08:13:15.546   04 Jun 2027 08:14:13.860            58.314                Anadyr1          1822.312
       291   04 Jun 2027 08:14:13.860   04 Jun 2027 08:15:13.095            59.235                Anadyr2          1851.094
       292   04 Jun 2027 09:47:20.517   04 Jun 2027 09:47:44.185            23.668               Magadan1           739.625
       293   04 Jun 2027 09:48:21.286   04 Jun 2027 09:49:50.487            89.201               Magadan1          2787.531
       294   04 Jun 2027 09:50:08.795   04 Jun 2027 09:51:15.924            67.129                Anadyr1          2097.781
       295   04 Jun 2027 09:52:13.996   04 Jun 2027 09:53:37.190            83.194               Magadan1          2599.812
       296   04 Jun 2027 11:20:57.886   04 Jun 2027 11:21:47.080            49.194               Magadan1          1537.312
       297   04 Jun 2027 11:22:24.748   04 Jun 2027 11:23:32.786            68.038               Magadan2          2126.187
       298   04 Jun 2027 11:23:32.786   04 Jun 2027 11:24:25.505            52.719               Magadan1          1647.469
       299   04 Jun 2027 11:24:52.982   04 Jun 2027 11:25:10.455            17.473               Magadan2           546.031
       300   04 Jun 2027 11:25:10.455   04 Jun 2027 11:28:24.201           193.746               Magadan1          6054.562
       301   04 Jun 2027 11:28:48.718   04 Jun 2027 11:29:19.519            30.801                Irkutsk           962.531
       302   04 Jun 2027 11:29:24.465   04 Jun 2027 11:29:39.189            14.724                Novosib           460.125
       303   04 Jun 2027 12:04:13.268   04 Jun 2027 12:04:59.044            45.776            RioGallegos          1430.500
       304   04 Jun 2027 12:07:20.862   04 Jun 2027 12:08:11.514            50.652            RioGallegos          1582.875
       305   04 Jun 2027 12:39:01.511   04 Jun 2027 12:39:34.298            32.787                Sumatra          1024.594
       306   04 Jun 2027 12:51:17.796   04 Jun 2027 12:51:45.034            27.238                Sumatra           851.187
       307   04 Jun 2027 12:53:03.648   04 Jun 2027 12:54:20.620            76.972                Irkutsk          2405.375
       308   04 Jun 2027 12:55:19.984   04 Jun 2027 12:55:29.143             9.159                Novosib           286.219
       309   04 Jun 2027 12:55:40.802   04 Jun 2027 12:57:38.918           118.116                Irkutsk          3691.125
       310   04 Jun 2027 13:43:44.001   04 Jun 2027 13:44:48.222            64.221            RioGallegos          2006.906
       311   04 Jun 2027 13:45:25.473   04 Jun 2027 13:48:07.542           162.069            RioGallegos          5064.656
       312   04 Jun 2027 14:18:57.565   04 Jun 2027 14:22:05.132           187.567                Sumatra          5861.469
       313   04 Jun 2027 14:35:06.880   04 Jun 2027 14:36:10.134            63.254                Novosib          1976.687
       314   04 Jun 2027 16:07:38.234   04 Jun 2027 16:09:26.420           108.186                 Moscow          3380.812
       315   04 Jun 2027 16:11:01.935   04 Jun 2027 16:12:01.320            59.385              Murmansk2          1855.781
       316   04 Jun 2027 16:14:35.601   04 Jun 2027 16:15:53.493            77.892                Norilsk          2434.125
       317   04 Jun 2027 16:18:26.531   04 Jun 2027 16:20:10.903           104.372                Norilsk          3261.625
       318   04 Jun 2027 17:22:29.314   04 Jun 2027 17:23:26.954            57.640               CapeTown          1801.250
       319   04 Jun 2027 17:30:24.548   04 Jun 2027 17:30:42.559            18.011               CapeTown           562.844
       320   04 Jun 2027 17:44:41.850   04 Jun 2027 17:44:54.165            12.315                 Moscow           384.844
       321   04 Jun 2027 17:45:28.649   04 Jun 2027 17:46:31.527            62.878                 Moscow          1964.938
       322   04 Jun 2027 17:48:20.196   04 Jun 2027 17:49:00.030            39.834              Murmansk1          1244.812
       323   04 Jun 2027 17:49:40.791   04 Jun 2027 17:50:22.693            41.902              Murmansk1          1309.438
       324   04 Jun 2027 17:52:01.736   04 Jun 2027 17:52:26.062            24.326              Murmansk1           760.188
       325   04 Jun 2027 17:54:10.803   04 Jun 2027 17:55:36.197            85.394              Murmansk1          2668.563
       326   04 Jun 2027 18:04:26.051   04 Jun 2027 18:04:39.938            13.887                Anadyr2           433.969
       327   04 Jun 2027 18:05:40.920   04 Jun 2027 18:05:44.187             3.267                Anadyr2           102.094
       328   04 Jun 2027 18:57:03.711   04 Jun 2027 18:59:05.426           121.715               CapeTown          3803.594
       329   04 Jun 2027 19:00:11.849   04 Jun 2027 19:01:07.388            55.539               CapeTown          1735.594
       330   04 Jun 2027 19:27:02.307   04 Jun 2027 19:32:27.504           325.197              Murmansk1         10162.406
       331   04 Jun 2027 19:33:09.038   04 Jun 2027 19:35:32.433           143.395              Murmansk1          4481.094
       332   04 Jun 2027 20:35:59.572   04 Jun 2027 20:38:33.346           153.774               CapeTown          4805.437
       333   04 Jun 2027 21:13:34.790   04 Jun 2027 21:14:14.170            39.380                Anadyr2          1230.625
       334   04 Jun 2027 21:15:57.089   04 Jun 2027 21:16:53.380            56.291               Magadan2          1759.094
       335   04 Jun 2027 21:16:53.380   04 Jun 2027 21:18:24.873            91.493               Magadan1          2859.156
       336   04 Jun 2027 21:18:54.573   04 Jun 2027 21:20:01.795            67.222               Magadan2          2100.688
       337   04 Jun 2027 22:49:27.752   04 Jun 2027 22:53:36.635           248.883                Anadyr2          7777.594
       338   04 Jun 2027 22:53:48.795   04 Jun 2027 22:54:48.896            60.101                Norilsk          1878.156
       339   04 Jun 2027 22:55:00.345   04 Jun 2027 22:55:26.876            26.531               Magadan2           829.094
       340   04 Jun 2027 22:56:10.901   04 Jun 2027 22:56:49.910            39.009                Norilsk          1219.031
       341   04 Jun 2027 22:57:19.095   04 Jun 2027 22:58:32.765            73.670                Irkutsk          2302.187
       342   04 Jun 2027 22:59:23.437   04 Jun 2027 22:59:26.318             2.881                Irkutsk            90.031
       343   04 Jun 2027 22:59:28.862   04 Jun 2027 22:59:56.618            27.756                Irkutsk           867.375
       344   04 Jun 2027 23:14:06.397   04 Jun 2027 23:14:42.609            36.212                Sumatra          1131.625
       345   04 Jun 2027 23:16:32.759   04 Jun 2027 23:17:13.822            41.063                Sumatra          1283.219
       346   04 Jun 2027 23:17:40.903   04 Jun 2027 23:17:42.463             1.560                Sumatra            48.750
       347   04 Jun 2027 23:43:35.120   04 Jun 2027 23:44:27.505            52.385            RioGallegos          1637.031
       348   04 Jun 2027 23:44:59.328   04 Jun 2027 23:45:34.909            35.581            RioGallegos          1111.906
       349   04 Jun 2027 23:54:06.750   04 Jun 2027 23:54:35.549            28.799            RioGallegos           899.969
       350   05 Jun 2027 00:24:55.264   05 Jun 2027 00:26:19.606            84.342                Anadyr1          2635.688
       351   05 Jun 2027 00:27:17.571   05 Jun 2027 00:29:03.846           106.275                Norilsk          3321.094
       352   05 Jun 2027 00:29:05.968   05 Jun 2027 00:29:31.124            25.156               Magadan1           786.125
       353   05 Jun 2027 00:30:27.981   05 Jun 2027 00:30:53.452            25.471               Magadan1           795.969
       354   05 Jun 2027 00:31:18.704   05 Jun 2027 00:32:56.745            98.041                Irkutsk          3063.781
       355   05 Jun 2027 00:36:05.604   05 Jun 2027 00:36:50.449            44.845                Novosib          1401.406
       356   05 Jun 2027 00:45:00.899   05 Jun 2027 00:47:44.023           163.124                Sumatra          5097.625
       357   05 Jun 2027 00:56:31.868   05 Jun 2027 00:57:05.992            34.124                Sumatra          1066.375
       358   05 Jun 2027 01:24:43.101   05 Jun 2027 01:24:56.641            13.540            RioGallegos           423.125
       359   05 Jun 2027 01:27:27.320   05 Jun 2027 01:27:45.269            17.949            RioGallegos           560.906
       360   05 Jun 2027 01:29:34.667   05 Jun 2027 01:30:04.197            29.530            RioGallegos           922.812
       361   05 Jun 2027 01:59:20.142   05 Jun 2027 02:00:06.097            45.955                Anadyr1          1436.094
       362   05 Jun 2027 02:00:06.097   05 Jun 2027 02:00:19.027            12.930                Anadyr2           404.062
       363   05 Jun 2027 02:01:01.453   05 Jun 2027 02:01:23.315            21.862                Anadyr2           683.187
       364   05 Jun 2027 02:01:41.020   05 Jun 2027 02:01:59.015            17.995                Anadyr1           562.344
       365   05 Jun 2027 02:03:17.741   05 Jun 2027 02:04:36.689            78.948                Norilsk          2467.125
       366   05 Jun 2027 02:06:56.388   05 Jun 2027 02:07:06.872            10.484              Murmansk2           327.625
       367   05 Jun 2027 02:07:09.565   05 Jun 2027 02:09:29.337           139.772                Novosib          4367.875
       368   05 Jun 2027 02:12:40.669   05 Jun 2027 02:12:54.209            13.540                Irkutsk           423.125
       369   05 Jun 2027 02:14:36.770   05 Jun 2027 02:15:29.957            53.187                  Delhi          1662.094
       370   05 Jun 2027 02:24:06.639   05 Jun 2027 02:24:56.740            50.101                  Delhi          1565.656
       371   05 Jun 2027 02:56:20.752   05 Jun 2027 02:57:12.782            52.030            RioGallegos          1625.937
       372   05 Jun 2027 02:58:09.924   05 Jun 2027 02:58:51.262            41.338            RioGallegos          1291.812
       373   05 Jun 2027 02:59:11.458   05 Jun 2027 03:00:23.588            72.130            RioGallegos          2254.063
       374   05 Jun 2027 03:03:50.069   05 Jun 2027 03:04:40.889            50.820            RioGallegos          1588.125
       375   05 Jun 2027 03:48:02.726   05 Jun 2027 03:49:35.273            92.547                Norilsk          2892.094
       376   05 Jun 2027 03:49:41.464   05 Jun 2027 03:54:55.124           313.660                 Moscow          9801.875
       377   05 Jun 2027 03:58:36.227   05 Jun 2027 03:59:00.941            24.714                  Delhi           772.312
       378   05 Jun 2027 05:24:54.269   05 Jun 2027 05:25:14.659            20.390                Novosib           637.188
       379   05 Jun 2027 05:27:11.031   05 Jun 2027 05:27:42.324            31.293                Novosib           977.906
       380   05 Jun 2027 05:27:45.048   05 Jun 2027 05:27:50.202             5.154                 Moscow           161.062
       381   05 Jun 2027 05:28:13.411   05 Jun 2027 05:28:31.569            18.158                 Moscow           567.437
       382   05 Jun 2027 05:28:34.527   05 Jun 2027 05:29:15.284            40.757                 Moscow          1273.656
       383   05 Jun 2027 05:29:33.123   05 Jun 2027 05:29:54.140            21.017              Murmansk1           656.781
       384   05 Jun 2027 05:32:59.235   05 Jun 2027 05:33:08.585             9.350                 Moscow           292.188
       385   05 Jun 2027 05:44:37.856   05 Jun 2027 05:47:14.734           156.878               CapeTown          4902.438
       386   05 Jun 2027 06:47:36.259   05 Jun 2027 06:48:24.006            47.747                Anadyr1          1492.094
       387   05 Jun 2027 06:48:33.985   05 Jun 2027 06:48:43.170             9.185               Magadan2           287.031
       388   05 Jun 2027 06:49:06.466   05 Jun 2027 06:49:19.917            13.451               Magadan1           420.344
       389   05 Jun 2027 06:49:25.653   05 Jun 2027 06:49:44.316            18.663               Magadan1           583.219
       390   05 Jun 2027 06:49:58.294   05 Jun 2027 06:50:19.756            21.462                Anadyr1           670.688
       391   05 Jun 2027 06:50:50.834   05 Jun 2027 06:51:13.470            22.636                Anadyr1           707.375
       392   05 Jun 2027 07:00:38.658   05 Jun 2027 07:00:46.263             7.605                 Moscow           237.656
       393   05 Jun 2027 07:04:23.330   05 Jun 2027 07:05:16.390            53.060                 Moscow          1658.125
       394   05 Jun 2027 07:22:29.167   05 Jun 2027 07:24:30.275           121.108               CapeTown          3784.625
       395   05 Jun 2027 08:21:45.898   05 Jun 2027 08:22:20.808            34.910                Anadyr1          1090.937
       396   05 Jun 2027 08:22:50.199   05 Jun 2027 08:23:33.246            43.047                Anadyr1          1345.219
       397   05 Jun 2027 08:24:01.388   05 Jun 2027 08:24:35.240            33.852               Magadan1          1057.875
       398   05 Jun 2027 08:24:51.844   05 Jun 2027 08:25:31.573            39.729               Magadan2          1241.531
       399   05 Jun 2027 08:25:51.568   05 Jun 2027 08:27:38.951           107.383                Anadyr2          3355.719
       400   05 Jun 2027 09:57:58.018   05 Jun 2027 09:58:15.120            17.102               Magadan1           534.438
       401   05 Jun 2027 09:58:54.436   05 Jun 2027 09:59:41.154            46.718               Magadan2          1459.937
       402   05 Jun 2027 09:59:57.538   05 Jun 2027 10:01:50.832           113.294               Magadan2          3540.438
       403   05 Jun 2027 10:03:04.293   05 Jun 2027 10:03:10.086             5.793               Magadan2           181.031
       404   05 Jun 2027 10:03:21.655   05 Jun 2027 10:04:18.515            56.860               Magadan2          1776.875
       405   05 Jun 2027 10:04:48.210   05 Jun 2027 10:04:55.573             7.363                Irkutsk           230.094
       406   05 Jun 2027 10:04:57.075   05 Jun 2027 10:05:14.885            17.810                Norilsk           556.562
       407   05 Jun 2027 10:40:48.254   05 Jun 2027 10:40:58.466            10.212            RioGallegos           319.125
       408   05 Jun 2027 10:42:27.196   05 Jun 2027 10:42:48.947            21.751            RioGallegos           679.719
       409   05 Jun 2027 10:43:19.125   05 Jun 2027 10:44:08.366            49.241            RioGallegos          1538.781
       410   05 Jun 2027 11:19:01.688   05 Jun 2027 11:19:46.720            45.032                Sumatra          1407.250
       411   05 Jun 2027 11:33:57.497   05 Jun 2027 11:36:16.741           139.244               Magadan1          4351.375
       412   05 Jun 2027 11:36:41.716   05 Jun 2027 11:39:59.635           197.919               Magadan1          6184.969
       413   05 Jun 2027 11:40:21.366   05 Jun 2027 11:40:40.624            19.258                Norilsk           601.813
       414   05 Jun 2027 11:40:47.516   05 Jun 2027 11:40:57.243             9.727                Novosib           303.969
       415   05 Jun 2027 11:41:00.488   05 Jun 2027 11:41:30.025            29.537                Irkutsk           923.031
       416   05 Jun 2027 12:16:24.416   05 Jun 2027 12:16:40.559            16.143            RioGallegos           504.469
       417   05 Jun 2027 12:17:57.857   05 Jun 2027 12:19:19.665            81.808            RioGallegos          2556.500
       418   05 Jun 2027 12:51:01.693   05 Jun 2027 12:53:16.485           134.792                Sumatra          4212.250
       419   05 Jun 2027 13:05:22.965   05 Jun 2027 13:06:24.176            61.211                Irkutsk          1912.844
       420   05 Jun 2027 13:09:40.194   05 Jun 2027 13:10:40.092            59.898                Irkutsk          1871.812
       421   05 Jun 2027 13:56:54.460   05 Jun 2027 13:59:59.001           184.541            RioGallegos          5766.906
       422   05 Jun 2027 14:43:16.643   05 Jun 2027 14:44:00.117            43.474                Novosib          1358.562
       423   05 Jun 2027 14:44:52.202   05 Jun 2027 14:48:26.880           214.678                Novosib          6708.687
       424   05 Jun 2027 16:19:37.475   05 Jun 2027 16:22:05.788           148.313                 Moscow          4634.781
       425   05 Jun 2027 16:23:05.050   05 Jun 2027 16:24:00.398            55.348              Murmansk2          1729.625
       426   05 Jun 2027 16:27:18.584   05 Jun 2027 16:29:38.277           139.693                Norilsk          4365.406
       427   05 Jun 2027 16:30:20.998   05 Jun 2027 16:33:07.982           166.984                Norilsk          5218.250
       428   05 Jun 2027 17:57:08.844   05 Jun 2027 17:57:49.731            40.887                 Moscow          1277.719
       429   05 Jun 2027 18:00:13.916   05 Jun 2027 18:01:09.408            55.492              Murmansk1          1734.125
       430   05 Jun 2027 18:01:48.890   05 Jun 2027 18:02:20.252            31.362                 Moscow           980.063
       431   05 Jun 2027 18:04:01.087   05 Jun 2027 18:04:29.351            28.264              Murmansk1           883.250
       432   05 Jun 2027 18:04:44.467   05 Jun 2027 18:04:59.011            14.544              Murmansk2           454.500
       433   05 Jun 2027 18:07:36.218   05 Jun 2027 18:08:28.828            52.610              Murmansk1          1644.062
       434   05 Jun 2027 18:08:41.204   05 Jun 2027 18:09:24.126            42.922              Murmansk1          1341.312
       435   05 Jun 2027 18:09:55.477   05 Jun 2027 18:10:03.555             8.078              Murmansk1           252.438
       436   05 Jun 2027 18:15:11.590   05 Jun 2027 18:15:18.069             6.479                Anadyr1           202.469
       437   05 Jun 2027 18:20:29.459   05 Jun 2027 18:20:40.663            11.204                Anadyr1           350.125
       438   05 Jun 2027 19:09:09.844   05 Jun 2027 19:10:30.679            80.835               CapeTown          2526.094
       439   05 Jun 2027 19:10:59.240   05 Jun 2027 19:12:04.638            65.398               CapeTown          2043.688
       440   05 Jun 2027 19:39:40.485   05 Jun 2027 19:40:54.276            73.791              Murmansk1          2305.969
       441   05 Jun 2027 19:41:41.907   05 Jun 2027 19:44:25.404           163.497              Murmansk2          5109.281
       442   05 Jun 2027 19:44:49.774   05 Jun 2027 19:45:13.587            23.813              Murmansk1           744.156
       443   05 Jun 2027 19:53:24.715   05 Jun 2027 19:53:51.593            26.878               Magadan2           839.937
       444   05 Jun 2027 19:54:51.656   05 Jun 2027 19:55:31.838            40.182               Magadan1          1255.687
       445   05 Jun 2027 19:56:30.320   05 Jun 2027 19:56:58.086            27.766               Magadan2           867.687
       446   05 Jun 2027 21:25:36.612   05 Jun 2027 21:29:24.554           227.942                Anadyr1          7123.188
       447   05 Jun 2027 21:29:37.921   05 Jun 2027 21:33:00.549           202.628               Magadan1          6332.125
       448   05 Jun 2027 21:33:01.656   05 Jun 2027 21:33:21.310            19.654               Magadan1           614.188
       449   05 Jun 2027 21:35:31.069   05 Jun 2027 21:35:59.969            28.900               Magadan1           903.125
       450   05 Jun 2027 21:38:04.446   05 Jun 2027 21:38:10.974             6.528               Magadan2           204.000
       451   05 Jun 2027 21:38:45.682   05 Jun 2027 21:39:14.536            28.854               Magadan2           901.688
       452   05 Jun 2027 22:22:39.106   05 Jun 2027 22:24:34.314           115.208            RioGallegos          3600.250
       453   05 Jun 2027 23:01:27.884   05 Jun 2027 23:02:47.266            79.382                Anadyr2          2480.688
       454   05 Jun 2027 23:02:55.919   05 Jun 2027 23:04:37.527           101.608                Anadyr1          3175.250
       455   05 Jun 2027 23:04:45.750   05 Jun 2027 23:05:06.933            21.183                Norilsk           661.969
       456   05 Jun 2027 23:05:28.565   05 Jun 2027 23:05:35.419             6.854               Magadan2           214.187
       457   05 Jun 2027 23:05:44.022   05 Jun 2027 23:05:58.859            14.837                Norilsk           463.656
       458   05 Jun 2027 23:06:07.080   05 Jun 2027 23:06:50.950            43.870                Norilsk          1370.938
       459   05 Jun 2027 23:07:09.193   05 Jun 2027 23:07:17.995             8.802               Magadan1           275.062
       460   05 Jun 2027 23:08:27.406   05 Jun 2027 23:08:40.309            12.903               Magadan1           403.219
       461   05 Jun 2027 23:08:47.281   05 Jun 2027 23:09:20.863            33.582                Irkutsk          1049.438
       462   05 Jun 2027 23:09:48.046   05 Jun 2027 23:10:12.006            23.960                Irkutsk           748.750
       463   05 Jun 2027 23:11:13.253   05 Jun 2027 23:11:43.434            30.181                Irkutsk           943.156
       464   05 Jun 2027 23:12:47.009   05 Jun 2027 23:13:55.121            68.112                Irkutsk          2128.500
       465   05 Jun 2027 23:24:18.009   05 Jun 2027 23:25:57.549            99.540                Sumatra          3110.625
       466   06 Jun 2027 00:00:51.509   06 Jun 2027 00:01:26.574            35.065            RioGallegos          1095.781
       467   06 Jun 2027 00:06:09.863   06 Jun 2027 00:06:38.693            28.830            RioGallegos           900.937
       468   06 Jun 2027 00:36:49.723   06 Jun 2027 00:37:18.482            28.759                Anadyr1           898.719
       469   06 Jun 2027 00:37:30.386   06 Jun 2027 00:38:33.531            63.145                Anadyr2          1973.281
       470   06 Jun 2027 00:39:19.366   06 Jun 2027 00:41:06.102           106.736                Norilsk          3335.500
       471   06 Jun 2027 00:41:55.825   06 Jun 2027 00:43:30.880            95.055               Magadan1          2970.469
       472   06 Jun 2027 00:44:05.450   06 Jun 2027 00:45:00.179            54.729                Novosib          1710.281
       473   06 Jun 2027 00:47:04.336   06 Jun 2027 00:47:39.797            35.461                Novosib          1108.156
       474   06 Jun 2027 00:48:38.588   06 Jun 2027 00:48:40.027             1.439                Novosib            44.969
       475   06 Jun 2027 00:49:55.995   06 Jun 2027 00:50:05.959             9.964                Novosib           311.375
       476   06 Jun 2027 00:52:49.502   06 Jun 2027 00:53:13.150            23.648                Novosib           739.000
       477   06 Jun 2027 00:55:49.694   06 Jun 2027 00:56:00.531            10.837                  Delhi           338.656
       478   06 Jun 2027 00:56:39.781   06 Jun 2027 00:57:24.257            44.476                  Delhi          1389.875
       479   06 Jun 2027 00:58:42.658   06 Jun 2027 00:59:27.440            44.782                Sumatra          1399.437
       480   06 Jun 2027 01:06:01.570   06 Jun 2027 01:06:21.208            19.638                Sumatra           613.688
       481   06 Jun 2027 01:31:18.501   06 Jun 2027 01:32:01.871            43.370            RioGallegos          1355.313
       482   06 Jun 2027 01:37:50.655   06 Jun 2027 01:37:52.864             2.209            RioGallegos            69.031
