uniorb/output/strategy_4/Drop/Drop_KinoSat_110503.txt

KinoSat_110503
-------------------------
    Access    *     Start Time (UTCG)     *     Stop Time (UTCG)  *   Duration (s)        *       Station  *  Data (Mbytes)
         1   01 Jun 2027 04:06:14.357   01 Jun 2027 04:07:18.878            64.521               Magadan2          8065.125
         2   01 Jun 2027 04:07:18.878   01 Jun 2027 04:07:25.521             6.643               Magadan1           830.375
         3   01 Jun 2027 04:07:54.083   01 Jun 2027 04:10:33.298           159.215               Magadan2         19901.875
         4   01 Jun 2027 04:10:42.595   01 Jun 2027 04:11:30.003            47.408               Magadan2          5926.000
         5   01 Jun 2027 04:11:37.005   01 Jun 2027 04:11:49.704            12.699               Magadan1          1587.375
         6   01 Jun 2027 04:12:03.810   01 Jun 2027 04:13:07.901            64.091               Magadan1          8011.375
         7   01 Jun 2027 04:13:07.901   01 Jun 2027 04:13:31.568            23.667               Magadan2          2958.375
         8   01 Jun 2027 04:56:37.842   01 Jun 2027 04:56:51.675            13.833            RioGallegos          1729.125
         9   01 Jun 2027 05:26:28.408   01 Jun 2027 05:28:04.396            95.988                Sumatra         11998.500
        10   01 Jun 2027 05:44:42.113   01 Jun 2027 05:45:46.569            64.456               Magadan1          8057.000
        11   01 Jun 2027 05:46:06.713   01 Jun 2027 05:46:31.458            24.745                Irkutsk          3093.125
        12   01 Jun 2027 05:46:39.963   01 Jun 2027 05:47:29.728            49.765                Novosib          6220.625
        13   01 Jun 2027 05:47:38.634   01 Jun 2027 05:48:21.745            43.111                Novosib          5388.875
        14   01 Jun 2027 05:48:34.774   01 Jun 2027 05:49:46.870            72.096                Irkutsk          9012.000
        15   01 Jun 2027 07:09:56.812   01 Jun 2027 07:10:18.966            22.154                  Delhi          2769.250
        16   01 Jun 2027 07:21:39.107   01 Jun 2027 07:22:07.356            28.249                 Moscow          3531.125
        17   01 Jun 2027 07:22:13.162   01 Jun 2027 07:22:49.137            35.975                Novosib          4496.875
        18   01 Jun 2027 07:23:09.211   01 Jun 2027 07:23:14.526             5.315              Murmansk1           664.375
        19   01 Jun 2027 07:23:17.453   01 Jun 2027 07:23:32.117            14.664                 Moscow          1833.000
        20   01 Jun 2027 07:23:40.846   01 Jun 2027 07:25:16.666            95.820                Irkutsk         11977.500
        21   01 Jun 2027 07:25:53.568   01 Jun 2027 07:26:09.793            16.225                Norilsk          2028.125
        22   01 Jun 2027 07:26:32.562   01 Jun 2027 07:27:15.790            43.228                Novosib          5403.500
        23   01 Jun 2027 08:43:47.061   01 Jun 2027 08:44:47.718            60.657                  Delhi          7582.125
        24   01 Jun 2027 08:59:33.893   01 Jun 2027 08:59:43.464             9.571                 Moscow          1196.375
        25   01 Jun 2027 08:59:53.702   01 Jun 2027 09:08:22.620           508.918              Murmansk1         63614.750
        26   01 Jun 2027 10:27:53.247   01 Jun 2027 10:28:24.033            30.786                 Moscow          3848.250
        27   01 Jun 2027 10:32:21.443   01 Jun 2027 10:33:08.506            47.063              Murmansk2          5882.875
        28   01 Jun 2027 10:36:21.974   01 Jun 2027 10:40:47.173           265.199                 Moscow         33149.875
        29   01 Jun 2027 10:40:48.931   01 Jun 2027 10:42:11.061            82.130                Norilsk         10266.250
        30   01 Jun 2027 10:42:41.609   01 Jun 2027 10:44:17.025            95.416              Murmansk2         11927.000
        31   01 Jun 2027 11:42:09.618   01 Jun 2027 11:50:08.023           478.405               CapeTown         59800.625
        32   01 Jun 2027 12:22:19.856   01 Jun 2027 12:24:30.116           130.260                Anadyr1         16282.500
        33   01 Jun 2027 12:25:58.495   01 Jun 2027 12:28:24.679           146.184                Anadyr2         18273.000
        34   01 Jun 2027 12:31:11.259   01 Jun 2027 12:31:51.458            40.199                Anadyr2          5024.875
        35   01 Jun 2027 14:01:07.755   01 Jun 2027 14:05:05.014           237.259               Magadan2         29657.375
        36   01 Jun 2027 14:06:14.427   01 Jun 2027 14:07:45.103            90.676               Magadan1         11334.500
        37   01 Jun 2027 16:30:18.709   01 Jun 2027 16:33:04.023           165.314            RioGallegos         20664.250
        38   01 Jun 2027 16:35:07.751   01 Jun 2027 16:35:22.077            14.326            RioGallegos          1790.750
        39   01 Jun 2027 17:16:52.181   01 Jun 2027 17:21:58.444           306.263                Irkutsk         38282.875
        40   01 Jun 2027 17:23:10.964   01 Jun 2027 17:23:43.571            32.607                Irkutsk          4075.875
        41   01 Jun 2027 17:31:55.781   01 Jun 2027 17:34:24.268           148.487                Sumatra         18560.875
        42   01 Jun 2027 17:36:14.969   01 Jun 2027 17:38:15.176           120.207                Sumatra         15025.875
        43   01 Jun 2027 18:55:02.783   01 Jun 2027 18:58:16.098           193.315                Novosib         16528.126
        44   02 Jun 2027 04:24:36.043   02 Jun 2027 04:25:08.416            32.373              Murmansk1          4046.625
        45   02 Jun 2027 04:25:12.063   02 Jun 2027 04:25:15.364             3.301                Irkutsk           412.625
        46   02 Jun 2027 04:25:26.035   02 Jun 2027 04:25:27.485             1.450                Irkutsk           181.250
        47   02 Jun 2027 04:25:27.830   02 Jun 2027 04:25:44.554            16.724               Magadan2          2090.500
        48   02 Jun 2027 04:25:50.379   02 Jun 2027 04:29:27.196           216.817                Norilsk         27102.125
        49   02 Jun 2027 05:00:58.495   02 Jun 2027 05:02:03.896            65.401            RioGallegos          8175.125
        50   02 Jun 2027 05:37:29.031   02 Jun 2027 05:38:23.110            54.079                Sumatra          6759.875
        51   02 Jun 2027 05:58:01.291   02 Jun 2027 06:00:16.537           135.246                Irkutsk         16905.750
        52   02 Jun 2027 06:01:02.847   02 Jun 2027 06:01:48.586            45.739                Irkutsk          5717.375
        53   02 Jun 2027 06:01:54.212   02 Jun 2027 06:06:36.196           281.984              Murmansk2         35248.000
        54   02 Jun 2027 06:08:29.748   02 Jun 2027 06:09:38.504            68.756              Murmansk2          8594.500
        55   02 Jun 2027 06:37:04.990   02 Jun 2027 06:39:39.327           154.337            RioGallegos         19292.125
        56   02 Jun 2027 06:40:35.268   02 Jun 2027 06:40:41.212             5.944            RioGallegos           743.000
        57   02 Jun 2027 07:11:27.850   02 Jun 2027 07:14:16.787           168.937                Sumatra         21117.125
        58   02 Jun 2027 07:37:30.395   02 Jun 2027 07:38:02.609            32.214                Norilsk          4026.750
        59   02 Jun 2027 07:38:10.254   02 Jun 2027 07:42:21.849           251.595              Murmansk2         31449.375
        60   02 Jun 2027 07:42:21.849   02 Jun 2027 07:44:43.675           141.826              Murmansk1         17728.250
        61   02 Jun 2027 08:56:06.233   02 Jun 2027 09:02:53.978           407.745                  Delhi         50968.125
        62   02 Jun 2027 09:04:18.543   02 Jun 2027 09:08:36.941           258.398                Novosib         32299.750
        63   02 Jun 2027 09:13:07.544   02 Jun 2027 09:14:30.613            83.069                Novosib         10383.625
        64   02 Jun 2027 09:14:31.273   02 Jun 2027 09:18:41.341           250.068                Norilsk         31258.500
        65   02 Jun 2027 09:18:54.340   02 Jun 2027 09:20:23.087            88.747              Murmansk1         11093.375
        66   02 Jun 2027 10:43:27.940   02 Jun 2027 10:45:06.829            98.889              Murmansk2         12361.125
        67   02 Jun 2027 10:48:12.640   02 Jun 2027 10:52:47.319           274.679                 Moscow         34334.875
        68   02 Jun 2027 10:52:50.852   02 Jun 2027 10:54:00.656            69.804                Norilsk          8725.500
        69   02 Jun 2027 10:54:40.303   02 Jun 2027 10:56:18.668            98.365              Murmansk1         12295.625
        70   02 Jun 2027 11:53:54.075   02 Jun 2027 12:03:19.482           565.407               CapeTown         70675.875
        71   02 Jun 2027 12:05:27.973   02 Jun 2027 12:05:44.781            16.808               CapeTown          2101.000
        72   02 Jun 2027 12:18:17.640   02 Jun 2027 12:22:55.467           277.827                 Moscow         34728.375
        73   02 Jun 2027 12:34:16.297   02 Jun 2027 12:36:04.708           108.411                Anadyr2         13551.375
        74   02 Jun 2027 12:42:11.697   02 Jun 2027 12:43:12.500            60.803                Anadyr1          7600.375
        75   02 Jun 2027 14:12:55.897   02 Jun 2027 14:16:33.265           217.368               Magadan2         27171.000
        76   02 Jun 2027 14:18:40.902   02 Jun 2027 14:18:48.214             7.312               Magadan2           914.000
        77   02 Jun 2027 14:19:50.846   02 Jun 2027 14:21:25.162            94.316               Magadan1         11789.500
        78   02 Jun 2027 16:41:33.356   02 Jun 2027 16:44:50.780           197.424            RioGallegos         24678.000
        79   02 Jun 2027 17:30:38.240   02 Jun 2027 17:34:49.769           251.529                Irkutsk         31441.125
        80   02 Jun 2027 17:43:06.603   02 Jun 2027 17:46:09.481           182.878                Sumatra         22859.750
        81   02 Jun 2027 17:48:53.391   02 Jun 2027 17:51:20.659           147.268                Sumatra         18408.500
        82   02 Jun 2027 19:13:18.269   02 Jun 2027 19:15:15.734           117.465                  Delhi         14683.125
        83   02 Jun 2027 20:40:08.254   02 Jun 2027 20:41:20.358            72.104              Murmansk1          9013.000
        84   02 Jun 2027 22:16:42.510   02 Jun 2027 22:18:08.710            86.200              Murmansk2         10775.000
        85   02 Jun 2027 22:45:57.723   02 Jun 2027 22:48:12.525           134.802               CapeTown          3996.125
        86   03 Jun 2027 04:36:41.286   03 Jun 2027 04:36:51.084             9.798               Magadan1          1224.750
        87   03 Jun 2027 04:37:57.016   03 Jun 2027 04:41:43.944           226.928              Murmansk1         28366.000
        88   03 Jun 2027 05:50:58.331   03 Jun 2027 05:52:04.441            66.110                Sumatra          8263.750
        89   03 Jun 2027 06:13:43.202   03 Jun 2027 06:18:46.723           303.521                Norilsk         37940.125
        90   03 Jun 2027 06:19:00.055   03 Jun 2027 06:19:50.712            50.657              Murmansk1          6332.125
        91   03 Jun 2027 06:19:50.712   03 Jun 2027 06:21:25.549            94.837              Murmansk2         11854.625
        92   03 Jun 2027 06:21:29.794   03 Jun 2027 06:21:31.003             1.209              Murmansk1           151.125
        93   03 Jun 2027 06:49:26.548   03 Jun 2027 06:55:52.236           385.688            RioGallegos         48211.000
        94   03 Jun 2027 07:23:42.854   03 Jun 2027 07:30:18.187           395.333                Sumatra         49416.625
        95   03 Jun 2027 07:38:27.130   03 Jun 2027 07:39:36.388            69.258                Novosib          8657.250
        96   03 Jun 2027 07:39:38.028   03 Jun 2027 07:43:46.013           247.985                Irkutsk         30998.125
        97   03 Jun 2027 07:49:04.554   03 Jun 2027 07:52:30.514           205.960              Murmansk1         25745.000
        98   03 Jun 2027 07:52:30.514   03 Jun 2027 07:53:27.482            56.968              Murmansk2          7121.000
        99   03 Jun 2027 07:54:05.111   03 Jun 2027 07:54:45.781            40.670                Norilsk          5083.750
       100   03 Jun 2027 07:56:03.661   03 Jun 2027 07:56:41.454            37.793              Murmansk1          4724.125
       101   03 Jun 2027 09:08:32.968   03 Jun 2027 09:16:25.431           472.463                  Delhi         59057.875
       102   03 Jun 2027 09:16:54.896   03 Jun 2027 09:19:51.411           176.515                Novosib         22064.375
       103   03 Jun 2027 09:20:07.879   03 Jun 2027 09:20:41.787            33.908                Novosib          4238.500
       104   03 Jun 2027 09:25:25.716   03 Jun 2027 09:26:17.905            52.189                Novosib          6523.625
       105   03 Jun 2027 09:26:26.583   03 Jun 2027 09:30:01.528           214.945              Murmansk2         26868.125
       106   03 Jun 2027 09:30:05.174   03 Jun 2027 09:30:41.760            36.586                Norilsk          4573.250
       107   03 Jun 2027 10:55:34.952   03 Jun 2027 10:57:36.877           121.925              Murmansk1         15240.625
       108   03 Jun 2027 10:58:03.777   03 Jun 2027 10:58:20.223            16.446              Murmansk2          2055.750
       109   03 Jun 2027 10:58:44.463   03 Jun 2027 10:59:34.692            50.229              Murmansk1          6278.625
       110   03 Jun 2027 11:00:24.914   03 Jun 2027 11:01:49.449            84.535              Murmansk2         10566.875
       111   03 Jun 2027 11:01:56.591   03 Jun 2027 11:05:43.106           226.515                Norilsk         28314.375
       112   03 Jun 2027 11:11:59.082   03 Jun 2027 11:15:50.815           231.733                Anadyr2         28966.625
       113   03 Jun 2027 12:05:43.044   03 Jun 2027 12:07:50.682           127.638               CapeTown         15954.750
       114   03 Jun 2027 12:30:59.542   03 Jun 2027 12:31:55.400            55.858                 Moscow          6982.250
       115   03 Jun 2027 14:24:47.026   03 Jun 2027 14:28:57.475           250.449               Magadan1         31306.125
       116   03 Jun 2027 14:30:49.534   03 Jun 2027 14:31:03.524            13.990               Magadan1          1748.750
       117   03 Jun 2027 14:31:03.524   03 Jun 2027 14:31:54.029            50.505               Magadan2          6313.125
       118   03 Jun 2027 16:53:04.545   03 Jun 2027 16:56:40.815           216.270            RioGallegos         27033.750
       119   03 Jun 2027 16:58:05.940   03 Jun 2027 16:59:18.224            72.284            RioGallegos          9035.500
       120   03 Jun 2027 17:38:05.101   03 Jun 2027 17:38:31.497            26.396                Norilsk          3299.500
       121   03 Jun 2027 17:43:56.540   03 Jun 2027 17:44:20.076            23.536                Irkutsk          2942.000
       122   03 Jun 2027 17:46:45.297   03 Jun 2027 17:47:09.038            23.741                Irkutsk          2967.625
       123   03 Jun 2027 17:58:19.437   03 Jun 2027 18:01:41.317           201.880                Sumatra         25235.000
       124   03 Jun 2027 19:24:32.855   03 Jun 2027 19:27:43.663           190.808                  Delhi         23851.000
       125   03 Jun 2027 19:30:04.513   03 Jun 2027 19:32:00.603           116.090                  Delhi         14511.250
       126   03 Jun 2027 20:50:17.516   03 Jun 2027 20:50:23.509             5.993              Murmansk1           749.125
       127   03 Jun 2027 20:51:42.431   03 Jun 2027 20:54:12.260           149.829              Murmansk2         18728.625
       128   03 Jun 2027 22:59:10.413   03 Jun 2027 23:00:02.217            51.804               CapeTown          6475.500
       129   04 Jun 2027 04:49:43.478   04 Jun 2027 04:50:46.714            63.236                Novosib          7904.500
       130   04 Jun 2027 04:53:16.096   04 Jun 2027 04:53:53.465            37.369              Murmansk1          4671.125
       131   04 Jun 2027 04:54:21.991   04 Jun 2027 04:54:26.794             4.803                Norilsk           600.375
       132   04 Jun 2027 04:57:17.374   04 Jun 2027 04:58:52.858            95.484              Murmansk1         11935.500
       133   04 Jun 2027 06:00:17.600   04 Jun 2027 06:01:47.139            89.539                Sumatra         11192.375
       134   04 Jun 2027 06:12:58.835   04 Jun 2027 06:17:34.382           275.547                Irkutsk         34443.375
       135   04 Jun 2027 06:25:42.081   04 Jun 2027 06:30:48.091           306.010                Norilsk         38251.250
       136   04 Jun 2027 06:30:57.137   04 Jun 2027 06:33:24.249           147.112              Murmansk2         18389.000
       137   04 Jun 2027 07:01:53.105   04 Jun 2027 07:08:46.230           413.125            RioGallegos         51640.625
       138   04 Jun 2027 07:36:05.307   04 Jun 2027 07:37:53.865           108.558                Sumatra         13569.750
       139   04 Jun 2027 07:39:17.482   04 Jun 2027 07:43:59.120           281.638                Sumatra         35204.750
       140   04 Jun 2027 07:50:34.344   04 Jun 2027 07:51:28.534            54.190                Novosib          6773.750
       141   04 Jun 2027 07:51:28.656   04 Jun 2027 07:56:58.476           329.820                Irkutsk         41227.500
       142   04 Jun 2027 08:01:22.150   04 Jun 2027 08:05:38.304           256.154                Norilsk         32019.250
       143   04 Jun 2027 08:05:56.606   04 Jun 2027 08:06:47.634            51.028                Norilsk          6378.500
       144   04 Jun 2027 08:08:04.213   04 Jun 2027 08:08:39.731            35.518              Murmansk1          4439.750
       145   04 Jun 2027 09:21:09.201   04 Jun 2027 09:21:41.497            32.296                  Delhi          4037.000
       146   04 Jun 2027 09:22:56.343   04 Jun 2027 09:30:53.200           476.857                  Delhi         59607.125
       147   04 Jun 2027 09:31:13.321   04 Jun 2027 09:33:17.383           124.062                Novosib         15507.750
       148   04 Jun 2027 09:37:38.814   04 Jun 2027 09:42:41.676           302.862                Norilsk         37857.750
       149   04 Jun 2027 11:07:43.700   04 Jun 2027 11:13:30.595           346.895              Murmansk2         43361.875
       150   04 Jun 2027 11:14:50.045   04 Jun 2027 11:17:52.174           182.129              Murmansk2         22766.125
       151   04 Jun 2027 11:18:27.737   04 Jun 2027 11:18:38.955            11.218              Murmansk2          1402.250
       152   04 Jun 2027 11:23:27.247   04 Jun 2027 11:27:09.868           222.621                Anadyr1         27827.625
       153   04 Jun 2027 12:18:08.525   04 Jun 2027 12:19:33.753            85.228               CapeTown         10653.500
       154   04 Jun 2027 12:29:28.861   04 Jun 2027 12:30:12.462            43.601               CapeTown          5450.125
       155   04 Jun 2027 12:43:50.505   04 Jun 2027 12:47:44.369           233.864                 Moscow         29233.000
       156   04 Jun 2027 14:36:40.347   04 Jun 2027 14:40:35.659           235.312               Magadan1         29414.000
       157   04 Jun 2027 14:44:25.777   04 Jun 2027 14:45:27.018            61.241               Magadan1          7655.125
       158   04 Jun 2027 17:06:33.881   04 Jun 2027 17:11:06.373           272.492            RioGallegos         34061.500
       159   04 Jun 2027 17:49:55.172   04 Jun 2027 17:50:38.715            43.543                Norilsk          5442.875
       160   04 Jun 2027 18:11:39.419   04 Jun 2027 18:12:42.372            62.953                Sumatra          7869.125
       161   04 Jun 2027 19:38:21.531   04 Jun 2027 19:43:02.868           281.337                  Delhi         35167.125
       162   04 Jun 2027 21:03:02.537   04 Jun 2027 21:03:33.903            31.366              Murmansk1          3920.750
       163   04 Jun 2027 21:03:35.685   04 Jun 2027 21:06:30.274           174.589              Murmansk2         21823.625
       164   04 Jun 2027 21:06:41.048   04 Jun 2027 21:07:46.049            65.001              Murmansk1          8125.125
       165   04 Jun 2027 21:08:04.097   04 Jun 2027 21:09:33.028            88.931                 Moscow         11116.375
       166   04 Jun 2027 23:11:51.948   04 Jun 2027 23:12:40.055            48.107               CapeTown          6013.375
       167   05 Jun 2027 05:02:01.104   05 Jun 2027 05:05:06.159           185.055              Murmansk2         23131.875
       168   05 Jun 2027 05:05:06.159   05 Jun 2027 05:06:20.372            74.213              Murmansk1          9276.625
       169   05 Jun 2027 05:07:00.507   05 Jun 2027 05:07:47.866            47.359              Murmansk1          5919.875
       170   05 Jun 2027 05:09:10.080   05 Jun 2027 05:10:24.358            74.278              Murmansk1          9284.750
       171   05 Jun 2027 06:13:39.797   05 Jun 2027 06:14:10.936            31.139                Sumatra          3892.375
       172   05 Jun 2027 06:24:57.748   05 Jun 2027 06:25:55.604            57.856                  Delhi          7232.000
       173   05 Jun 2027 06:26:12.704   05 Jun 2027 06:29:05.672           172.968                Irkutsk         21621.000
       174   05 Jun 2027 06:29:23.029   05 Jun 2027 06:29:43.164            20.135                Novosib          2516.875
       175   05 Jun 2027 06:30:10.085   05 Jun 2027 06:30:21.134            11.049                Irkutsk          1381.125
       176   05 Jun 2027 06:37:32.760   05 Jun 2027 06:45:18.227           465.467              Murmansk1         58183.375
       177   05 Jun 2027 07:14:25.471   05 Jun 2027 07:21:58.186           452.715            RioGallegos         56589.375
       178   05 Jun 2027 07:48:37.338   05 Jun 2027 07:58:18.877           581.539                Sumatra         72692.375
       179   05 Jun 2027 08:04:16.044   05 Jun 2027 08:09:32.231           316.187                Irkutsk         39523.375
       180   05 Jun 2027 08:13:14.773   05 Jun 2027 08:15:14.022           119.249                Novosib         14906.125
       181   05 Jun 2027 08:15:29.602   05 Jun 2027 08:18:00.365           150.763              Murmansk1         18845.375
       182   05 Jun 2027 08:18:22.874   05 Jun 2027 08:18:49.425            26.551                Norilsk          3318.875
       183   05 Jun 2027 09:33:58.693   05 Jun 2027 09:42:14.108           495.415                  Delhi         61926.875
       184   05 Jun 2027 09:42:31.726   05 Jun 2027 09:45:00.454           148.728                Novosib         18591.000
       185   05 Jun 2027 09:50:08.610   05 Jun 2027 09:54:40.934           272.324                Norilsk         34040.500
       186   05 Jun 2027 11:19:54.238   05 Jun 2027 11:22:21.888           147.650              Murmansk1         18456.250
       187   05 Jun 2027 11:22:21.888   05 Jun 2027 11:26:48.968           267.080              Murmansk2         33385.000
       188   05 Jun 2027 11:27:19.994   05 Jun 2027 11:28:59.718            99.724              Murmansk2         12465.500
       189   05 Jun 2027 11:29:54.664   05 Jun 2027 11:30:38.836            44.172              Murmansk2          5521.500
       190   05 Jun 2027 11:35:08.185   05 Jun 2027 11:38:31.814           203.629                Anadyr2         25453.625
       191   05 Jun 2027 12:29:31.640   05 Jun 2027 12:31:48.036           136.396               CapeTown         17049.500
       192   05 Jun 2027 12:32:39.465   05 Jun 2027 12:34:06.289            86.824               CapeTown         10853.000
       193   05 Jun 2027 12:56:55.371   05 Jun 2027 12:59:06.220           130.849                 Moscow         16356.125
       194   05 Jun 2027 14:48:35.345   05 Jun 2027 14:50:37.308           121.963               Magadan1         15245.375
       195   05 Jun 2027 14:53:57.859   05 Jun 2027 14:55:38.489           100.630               Magadan2         12578.750
       196   05 Jun 2027 14:57:30.851   05 Jun 2027 14:57:51.900            21.049               Magadan1          2631.125
       197   05 Jun 2027 17:19:58.590   05 Jun 2027 17:22:31.282           152.692            RioGallegos         19086.500
       198   05 Jun 2027 18:01:37.744   05 Jun 2027 18:04:08.816           151.072                Norilsk         18884.000
       199   05 Jun 2027 18:06:18.615   05 Jun 2027 18:10:38.086           259.471                Novosib         32433.875
       200   05 Jun 2027 19:52:09.047   05 Jun 2027 19:54:06.693           117.646                  Delhi         14705.750
       201   05 Jun 2027 21:15:25.122   05 Jun 2027 21:16:28.920            63.798              Murmansk2          7974.750
       202   05 Jun 2027 21:16:40.813   05 Jun 2027 21:18:29.777           108.964              Murmansk1         13620.500
       203   05 Jun 2027 21:18:42.440   05 Jun 2027 21:19:35.458            53.018              Murmansk2          6627.250
       204   05 Jun 2027 21:20:03.362   05 Jun 2027 21:21:31.773            88.411                 Moscow         11051.375
       205   05 Jun 2027 21:24:35.336   05 Jun 2027 21:25:14.662            39.326                 Moscow          4915.750
       206   06 Jun 2027 05:14:01.654   06 Jun 2027 05:18:29.474           267.820                Norilsk         33477.500
       207   06 Jun 2027 05:18:48.018   06 Jun 2027 05:22:30.321           222.303              Murmansk1         27787.875
       208   06 Jun 2027 05:48:34.576   06 Jun 2027 05:50:53.949           139.373            RioGallegos         17421.625
       209   06 Jun 2027 05:51:51.031   06 Jun 2027 05:52:35.822            44.791            RioGallegos          5598.875
       210   06 Jun 2027 05:56:12.582   06 Jun 2027 05:57:01.612            49.030            RioGallegos          6128.750
       211   06 Jun 2027 06:23:41.749   06 Jun 2027 06:23:53.677            11.928                Sumatra          1491.000
       212   06 Jun 2027 06:25:17.586   06 Jun 2027 06:26:27.033            69.447                Sumatra          8680.875
       213   06 Jun 2027 06:30:46.544   06 Jun 2027 06:33:09.202           142.658                Sumatra         17832.250
       214   06 Jun 2027 06:35:29.737   06 Jun 2027 06:36:10.583            40.846                  Delhi          5105.750
       215   06 Jun 2027 06:37:14.535   06 Jun 2027 06:41:09.260           234.725                Irkutsk         29340.625
       216   06 Jun 2027 06:49:31.186   06 Jun 2027 06:51:00.686            89.500                 Moscow         11187.500
       217   06 Jun 2027 06:51:12.730   06 Jun 2027 06:57:12.931           360.201              Murmansk1         45025.125
       218   06 Jun 2027 07:27:04.902   06 Jun 2027 07:36:11.490           546.588            RioGallegos         68323.500
       219   06 Jun 2027 08:01:23.483   06 Jun 2027 08:09:27.152           483.669                Sumatra         60458.625
       220   06 Jun 2027 08:17:16.124   06 Jun 2027 08:21:41.149           265.025                Irkutsk         33128.125
       221   06 Jun 2027 08:25:20.428   06 Jun 2027 08:27:11.321           110.893                Novosib         13861.625
       222   06 Jun 2027 08:27:13.828   06 Jun 2027 08:28:35.364            81.536                Norilsk         10192.000
       223   06 Jun 2027 08:28:39.416   06 Jun 2027 08:30:43.166           123.750              Murmansk1         15468.750
       224   06 Jun 2027 08:32:06.011   06 Jun 2027 08:32:37.623            31.612              Murmansk2          3951.500
       225   06 Jun 2027 09:47:11.020   06 Jun 2027 09:53:14.116           363.096                  Delhi         45387.000
       226   06 Jun 2027 10:01:13.430   06 Jun 2027 10:01:42.605            29.175                 Moscow          3646.875
       227   06 Jun 2027 10:02:37.305   06 Jun 2027 10:08:27.143           349.838              Murmansk1         43729.750
       228   06 Jun 2027 11:07:56.652   06 Jun 2027 11:12:59.214           302.562               CapeTown         37820.250
       229   06 Jun 2027 11:14:47.009   06 Jun 2027 11:15:27.130            40.121               CapeTown          5015.125
       230   06 Jun 2027 11:28:42.808   06 Jun 2027 11:34:39.504           356.696                 Moscow         44587.000
       231   06 Jun 2027 11:34:43.045   06 Jun 2027 11:40:57.186           374.141              Murmansk1         46767.625
       232   06 Jun 2027 11:42:31.465   06 Jun 2027 11:43:17.936            46.471              Murmansk1          5808.875
       233   06 Jun 2027 11:46:55.258   06 Jun 2027 11:50:32.201           216.943                Anadyr2         27117.875
       234   06 Jun 2027 11:52:54.369   06 Jun 2027 11:54:46.677           112.308                Anadyr2         14038.500
       235   06 Jun 2027 12:41:30.462   06 Jun 2027 12:41:57.414            26.952               CapeTown          3369.000
       236   06 Jun 2027 12:42:42.150   06 Jun 2027 12:43:22.232            40.082               CapeTown          5010.250
       237   06 Jun 2027 12:43:57.794   06 Jun 2027 12:44:44.017            46.223               CapeTown          5777.875
       238   06 Jun 2027 12:46:53.061   06 Jun 2027 12:47:22.308            29.247               CapeTown          3655.875
       239   06 Jun 2027 12:48:48.574   06 Jun 2027 12:49:37.158            48.584               CapeTown          6073.000
       240   06 Jun 2027 12:50:11.006   06 Jun 2027 12:51:06.054            55.048               CapeTown          6881.000
       241   06 Jun 2027 13:26:38.570   06 Jun 2027 13:31:08.428           269.858               Magadan2         33732.250
       242   06 Jun 2027 16:43:41.352   06 Jun 2027 16:45:37.787           116.435                Irkutsk         14554.375
       243   06 Jun 2027 18:17:32.193   06 Jun 2027 18:23:58.072           385.879                Novosib         48234.875
       244   06 Jun 2027 20:05:11.906   06 Jun 2027 20:05:29.438            17.532                  Delhi          2191.500
       245   06 Jun 2027 21:27:07.476   06 Jun 2027 21:27:51.959            44.483              Murmansk1          5560.375
       246   06 Jun 2027 21:28:47.640   06 Jun 2027 21:31:28.425           160.785              Murmansk2         20098.125
       247   06 Jun 2027 21:32:02.595   06 Jun 2027 21:38:16.533           373.938                 Moscow         46742.250
       248   07 Jun 2027 03:48:17.481   07 Jun 2027 03:50:06.794           109.313               Magadan1         13664.125
       249   07 Jun 2027 03:50:07.815   07 Jun 2027 03:50:56.975            49.160                Norilsk          6145.000
       250   07 Jun 2027 05:25:56.974   07 Jun 2027 05:34:19.954           502.980              Murmansk1         62872.500
       251   07 Jun 2027 06:00:40.314   07 Jun 2027 06:03:50.832           190.518            RioGallegos         23814.750
       252   07 Jun 2027 06:04:40.660   07 Jun 2027 06:05:32.737            52.077            RioGallegos          6509.625
       253   07 Jun 2027 06:05:46.567   07 Jun 2027 06:07:49.849           123.282            RioGallegos         15410.250
       254   07 Jun 2027 06:09:56.436   07 Jun 2027 06:10:21.985            25.549            RioGallegos          3193.625
       255   07 Jun 2027 06:35:33.463   07 Jun 2027 06:36:28.841            55.378                Sumatra          6922.250
       256   07 Jun 2027 06:38:36.671   07 Jun 2027 06:40:15.580            98.909                Sumatra         12363.625
       257   07 Jun 2027 06:46:30.152   07 Jun 2027 06:48:23.540           113.388                  Delhi         14173.500
       258   07 Jun 2027 06:49:27.806   07 Jun 2027 06:54:02.635           274.829                Irkutsk         34353.625
       259   07 Jun 2027 07:01:41.219   07 Jun 2027 07:06:52.973           311.754                Norilsk         38969.250
       260   07 Jun 2027 07:07:04.644   07 Jun 2027 07:09:08.315           123.671              Murmansk1         15458.875
       261   07 Jun 2027 07:39:53.583   07 Jun 2027 07:47:48.545           474.962            RioGallegos         59370.250
       262   07 Jun 2027 08:14:36.803   07 Jun 2027 08:20:07.309           330.506                Sumatra         41313.250
       263   07 Jun 2027 08:29:36.096   07 Jun 2027 08:30:28.796            52.700                Novosib          6587.500
       264   07 Jun 2027 08:30:40.750   07 Jun 2027 08:33:48.905           188.155                Irkutsk         23519.375
       265   07 Jun 2027 08:37:25.531   07 Jun 2027 08:39:07.386           101.855                Novosib         12731.875
       266   07 Jun 2027 08:39:12.870   07 Jun 2027 08:42:52.670           219.800                Norilsk         27475.000
       267   07 Jun 2027 08:44:07.194   07 Jun 2027 08:44:37.158            29.964              Murmansk2          3745.500
       268   07 Jun 2027 10:13:26.572   07 Jun 2027 10:13:58.300            31.728                Norilsk          3966.000
       269   07 Jun 2027 10:14:04.176   07 Jun 2027 10:14:21.480            17.304                Norilsk          2163.000
       270   07 Jun 2027 10:14:28.599   07 Jun 2027 10:20:28.554           359.955              Murmansk1         44994.375
       271   07 Jun 2027 11:19:14.581   07 Jun 2027 11:28:23.642           549.061               CapeTown         68632.625
       272   07 Jun 2027 11:41:03.297   07 Jun 2027 11:50:57.227           593.930                 Moscow         74241.250
       273   07 Jun 2027 11:50:58.469   07 Jun 2027 11:56:26.576           328.107              Murmansk1         41013.375
       274   07 Jun 2027 11:58:46.043   07 Jun 2027 12:07:28.293           522.250                Anadyr2         65281.250
       275   07 Jun 2027 12:53:32.054   07 Jun 2027 12:54:23.112            51.058               CapeTown          6382.250
       276   07 Jun 2027 12:55:03.430   07 Jun 2027 12:56:36.085            92.655               CapeTown         11581.875
       277   07 Jun 2027 13:38:01.478   07 Jun 2027 13:39:17.920            76.442               Magadan1          9555.250
       278   07 Jun 2027 13:41:22.953   07 Jun 2027 13:41:33.236            10.283               Magadan1          1285.375
       279   07 Jun 2027 13:43:40.525   07 Jun 2027 13:44:21.508            40.983               Magadan2          5122.875
       280   07 Jun 2027 15:19:03.711   07 Jun 2027 15:19:42.768            39.057               Magadan1          4882.125
       281   07 Jun 2027 16:54:13.038   07 Jun 2027 16:59:39.416           326.378                Irkutsk         40797.250
       282   07 Jun 2027 18:29:04.023   07 Jun 2027 18:36:56.756           472.733                Novosib         59091.625
       283   07 Jun 2027 21:38:29.648   07 Jun 2027 21:39:33.938            64.290              Murmansk1          8036.250
       284   07 Jun 2027 21:41:31.070   07 Jun 2027 21:43:23.672           112.602              Murmansk2         14075.250
       285   07 Jun 2027 21:43:32.154   07 Jun 2027 21:47:31.938           239.784                 Moscow         29973.000
       286   07 Jun 2027 21:48:49.203   07 Jun 2027 21:50:25.020            95.817                 Moscow         11977.125
       287   07 Jun 2027 22:10:26.635   07 Jun 2027 22:11:29.667            63.032               CapeTown          5755.001
       288   08 Jun 2027 04:00:46.134   08 Jun 2027 04:01:30.465            44.331                Anadyr2          5541.375
       289   08 Jun 2027 04:01:54.321   08 Jun 2027 04:07:18.474           324.153                Norilsk         40519.125
       290   08 Jun 2027 04:07:36.195   08 Jun 2027 04:07:53.659            17.464              Murmansk1          2183.000
       291   08 Jun 2027 05:16:21.959   08 Jun 2027 05:17:14.432            52.473                Sumatra          6559.125
       292   08 Jun 2027 05:38:07.347   08 Jun 2027 05:39:14.947            67.600                Novosib          8450.000
       293   08 Jun 2027 05:39:15.580   08 Jun 2027 05:42:58.402           222.822                Norilsk         27852.750
       294   08 Jun 2027 05:43:01.782   08 Jun 2027 05:46:10.256           188.474              Murmansk1         23559.250
       295   08 Jun 2027 06:12:49.610   08 Jun 2027 06:18:19.708           330.098            RioGallegos         41262.250
       296   08 Jun 2027 06:20:40.378   08 Jun 2027 06:21:05.009            24.631            RioGallegos          3078.875
       297   08 Jun 2027 06:22:02.362   08 Jun 2027 06:22:34.285            31.923            RioGallegos          3990.375
       298   08 Jun 2027 06:47:30.875   08 Jun 2027 06:49:20.185           109.310                Sumatra         13663.750
       299   08 Jun 2027 06:54:36.808   08 Jun 2027 06:55:34.389            57.581                Sumatra          7197.625
       300   08 Jun 2027 06:56:50.946   08 Jun 2027 06:57:07.345            16.399                Sumatra          2049.875
       301   08 Jun 2027 06:57:45.109   08 Jun 2027 07:00:36.311           171.202                  Delhi         21400.250
       302   08 Jun 2027 07:01:45.034   08 Jun 2027 07:05:15.937           210.903                Irkutsk         26362.875
       303   08 Jun 2027 07:05:19.426   08 Jun 2027 07:06:27.874            68.448                Novosib          8556.000
       304   08 Jun 2027 07:13:20.824   08 Jun 2027 07:13:58.527            37.703                Novosib          4712.875
       305   08 Jun 2027 07:14:03.073   08 Jun 2027 07:21:04.361           421.288              Murmansk1         52661.000
       306   08 Jun 2027 07:52:56.113   08 Jun 2027 07:59:14.194           378.081            RioGallegos         47260.125
       307   08 Jun 2027 08:34:50.046   08 Jun 2027 08:35:18.110            28.064                  Delhi          3508.000
       308   08 Jun 2027 08:38:29.348   08 Jun 2027 08:38:35.737             6.389                  Delhi           798.625
       309   08 Jun 2027 08:39:37.261   08 Jun 2027 08:39:52.023            14.762                Novosib          1845.250
       310   08 Jun 2027 08:40:05.034   08 Jun 2027 08:40:32.722            27.688                  Delhi          3461.000
       311   08 Jun 2027 08:41:31.890   08 Jun 2027 08:44:50.820           198.930                Novosib         24866.250
       312   08 Jun 2027 08:45:18.422   08 Jun 2027 08:45:54.897            36.475                Norilsk          4559.375
       313   08 Jun 2027 08:49:31.933   08 Jun 2027 08:51:01.972            90.039                Novosib         11254.875
       314   08 Jun 2027 08:51:17.971   08 Jun 2027 08:54:53.870           215.899              Murmansk1         26987.375
       315   08 Jun 2027 08:56:08.524   08 Jun 2027 08:56:37.042            28.518              Murmansk2          3564.750
       316   08 Jun 2027 10:24:57.614   08 Jun 2027 10:25:26.808            29.194                Norilsk          3649.250
       317   08 Jun 2027 10:25:54.813   08 Jun 2027 10:30:32.255           277.442                Norilsk         34680.250
       318   08 Jun 2027 10:30:58.553   08 Jun 2027 10:32:30.070            91.517              Murmansk1         11439.625
       319   08 Jun 2027 11:30:45.275   08 Jun 2027 11:40:02.316           557.041               CapeTown         69630.125
       320   08 Jun 2027 11:53:28.032   08 Jun 2027 12:03:25.748           597.716                 Moscow         74714.500
       321   08 Jun 2027 12:03:26.364   08 Jun 2027 12:08:27.848           301.484              Murmansk1         37685.500
       322   08 Jun 2027 12:10:39.330   08 Jun 2027 12:20:05.014           565.684                Anadyr2         70710.500
       323   08 Jun 2027 13:05:36.369   08 Jun 2027 13:08:38.134           181.765               CapeTown         22720.625
       324   08 Jun 2027 13:49:38.359   08 Jun 2027 13:52:47.240           188.881               Magadan2         23610.125
       325   08 Jun 2027 13:55:51.682   08 Jun 2027 13:57:17.743            86.061               Magadan2         10757.625
       326   08 Jun 2027 17:05:32.818   08 Jun 2027 17:12:49.765           436.947                Irkutsk         54618.375
       327   08 Jun 2027 17:21:23.468   08 Jun 2027 17:23:00.446            96.978                Sumatra         12122.250
       328   08 Jun 2027 17:24:27.603   08 Jun 2027 17:26:46.880           139.277                Sumatra         17409.625
       329   08 Jun 2027 18:41:47.076   08 Jun 2027 18:42:04.636            17.560                Novosib          2195.000
       330   08 Jun 2027 18:42:27.202   08 Jun 2027 18:44:01.071            93.869                Novosib         11733.625
       331   08 Jun 2027 18:47:19.176   08 Jun 2027 18:48:54.879            95.703                Novosib         11962.875
       332   08 Jun 2027 20:16:46.519   08 Jun 2027 20:18:02.129            75.610              Murmansk1          9451.250
       333   08 Jun 2027 21:50:39.928   08 Jun 2027 21:52:03.842            83.914              Murmansk1         10489.250
       334   08 Jun 2027 21:54:03.522   08 Jun 2027 21:55:46.495           102.973                 Moscow         12871.625
       335   08 Jun 2027 21:57:32.669   08 Jun 2027 21:58:01.777            29.108                 Moscow          3638.500
       336   08 Jun 2027 22:00:51.605   08 Jun 2027 22:02:26.073            94.468                 Moscow          9122.499
       337   09 Jun 2027 04:12:56.510   09 Jun 2027 04:13:33.628            37.118                Irkutsk          4639.750
       338   09 Jun 2027 04:14:05.525   09 Jun 2027 04:14:26.551            21.026                Novosib          2628.250
       339   09 Jun 2027 04:14:44.156   09 Jun 2027 04:18:29.610           225.454                Norilsk         28181.750
       340   09 Jun 2027 05:26:42.155   09 Jun 2027 05:28:19.544            97.389                Sumatra         12173.625
       341   09 Jun 2027 05:30:38.765   09 Jun 2027 05:32:46.461           127.696                Sumatra         15962.000
       342   09 Jun 2027 05:50:08.116   09 Jun 2027 05:51:20.291            72.175                Novosib          9021.875
       343   09 Jun 2027 05:51:21.640   09 Jun 2027 05:54:59.171           217.531                Norilsk         27191.375
       344   09 Jun 2027 05:55:03.279   09 Jun 2027 05:58:01.277           177.998              Murmansk1         22249.750
       345   09 Jun 2027 06:25:02.690   09 Jun 2027 06:27:49.327           166.637            RioGallegos         20829.625
       346   09 Jun 2027 06:28:47.745   09 Jun 2027 06:29:49.798            62.053            RioGallegos          7756.625
       347   09 Jun 2027 06:30:48.794   09 Jun 2027 06:31:20.746            31.952            RioGallegos          3994.000
       348   09 Jun 2027 06:33:05.311   09 Jun 2027 06:34:28.274            82.963            RioGallegos         10370.375
       349   09 Jun 2027 06:59:33.859   09 Jun 2027 07:01:35.090           121.231                Sumatra         15153.875
       350   09 Jun 2027 07:02:28.935   09 Jun 2027 07:02:47.232            18.297                Sumatra          2287.125
       351   09 Jun 2027 07:07:17.123   09 Jun 2027 07:07:47.037            29.914                Sumatra          3739.250
       352   09 Jun 2027 07:08:40.235   09 Jun 2027 07:09:14.903            34.668                Sumatra          4333.500
       353   09 Jun 2027 07:10:33.641   09 Jun 2027 07:11:12.636            38.995                  Delhi          4874.375
       354   09 Jun 2027 07:13:10.078   09 Jun 2027 07:14:38.304            88.226                  Delhi         11028.250
       355   09 Jun 2027 07:14:38.618   09 Jun 2027 07:19:27.035           288.417                Irkutsk         36052.125
       356   09 Jun 2027 07:24:41.481   09 Jun 2027 07:24:54.250            12.769                Novosib          1596.125
       357   09 Jun 2027 07:25:52.866   09 Jun 2027 07:28:08.670           135.804                 Moscow         16975.500
       358   09 Jun 2027 07:28:26.255   09 Jun 2027 07:30:56.646           150.391                Norilsk         18798.875
       359   09 Jun 2027 07:31:00.620   09 Jun 2027 07:33:01.023           120.403              Murmansk2         15050.375
       360   09 Jun 2027 08:06:27.624   09 Jun 2027 08:10:14.002           226.378            RioGallegos         28297.250
       361   09 Jun 2027 08:44:01.869   09 Jun 2027 08:50:11.490           369.621                  Delhi         46202.625
       362   09 Jun 2027 08:53:26.134   09 Jun 2027 08:56:21.335           175.201                Novosib         21900.125
       363   09 Jun 2027 09:01:34.226   09 Jun 2027 09:02:54.712            80.486                Novosib         10060.750
       364   09 Jun 2027 09:02:56.410   09 Jun 2027 09:06:34.303           217.893                Norilsk         27236.625
       365   09 Jun 2027 09:06:41.149   09 Jun 2027 09:08:37.239           116.090              Murmansk2         14511.250
       366   09 Jun 2027 10:32:36.108   09 Jun 2027 10:33:08.995            32.887              Murmansk1          4110.875
       367   09 Jun 2027 10:33:08.995   09 Jun 2027 10:33:23.672            14.677              Murmansk2          1834.625
       368   09 Jun 2027 10:36:45.066   09 Jun 2027 10:44:31.663           466.597              Murmansk2         58324.625
       369   09 Jun 2027 11:42:24.021   09 Jun 2027 11:53:14.506           650.485               CapeTown         81310.625
       370   09 Jun 2027 12:05:57.573   09 Jun 2027 12:15:59.685           602.112                 Moscow         75264.000
       371   09 Jun 2027 12:16:04.439   09 Jun 2027 12:20:28.917           264.478              Murmansk1         33059.750
       372   09 Jun 2027 12:22:34.431   09 Jun 2027 12:24:30.376           115.945                Anadyr2         14493.125
       373   09 Jun 2027 12:29:49.636   09 Jun 2027 12:31:26.276            96.640                Anadyr2         12080.000
       374   09 Jun 2027 14:01:22.215   09 Jun 2027 14:06:29.424           307.209               Magadan1         38401.125
       375   09 Jun 2027 16:30:32.615   09 Jun 2027 16:33:18.470           165.855            RioGallegos         20731.875
       376   09 Jun 2027 17:17:06.540   09 Jun 2027 17:20:46.636           220.096                Irkutsk         27512.000
       377   09 Jun 2027 17:22:13.440   09 Jun 2027 17:23:25.827            72.387                Irkutsk          9048.375
       378   09 Jun 2027 17:32:09.697   09 Jun 2027 17:34:29.914           140.217                Sumatra         17527.125
       379   09 Jun 2027 18:55:18.333   09 Jun 2027 18:56:30.023            71.690                Novosib          8961.250
       380   09 Jun 2027 19:02:46.871   09 Jun 2027 19:04:31.787           104.916                  Delhi         13114.500
       381   09 Jun 2027 19:05:21.458   09 Jun 2027 19:06:30.555            69.097                  Delhi          8637.125
       382   09 Jun 2027 20:28:07.101   09 Jun 2027 20:29:27.205            80.104              Murmansk2         10013.000
       383   09 Jun 2027 22:02:02.672   09 Jun 2027 22:02:47.351            44.679              Murmansk2          5584.875
       384   09 Jun 2027 22:03:58.969   09 Jun 2027 22:06:21.905           142.936              Murmansk1         17867.000
       385   09 Jun 2027 22:09:40.490   09 Jun 2027 22:09:57.625            17.135                 Moscow           282.625
       386   10 Jun 2027 04:26:05.013   10 Jun 2027 04:31:14.736           309.723                Norilsk         38715.375
       387   10 Jun 2027 04:31:39.718   10 Jun 2027 04:34:11.530           151.812              Murmansk1         18976.500
       388   10 Jun 2027 05:37:43.065   10 Jun 2027 05:40:30.514           167.449                Sumatra         20931.125
       389   10 Jun 2027 06:01:47.763   10 Jun 2027 06:06:35.136           287.373                Norilsk         35921.625
       390   10 Jun 2027 06:06:50.734   10 Jun 2027 06:09:53.030           182.296              Murmansk2         22787.000
       391   10 Jun 2027 06:37:19.839   10 Jun 2027 06:40:50.013           210.174            RioGallegos         26271.750
       392   10 Jun 2027 06:41:14.773   10 Jun 2027 06:41:56.570            41.797            RioGallegos          5224.625
       393   10 Jun 2027 06:43:04.344   10 Jun 2027 06:43:10.968             6.624            RioGallegos           828.000
       394   10 Jun 2027 06:46:03.030   10 Jun 2027 06:46:43.350            40.320            RioGallegos          5040.000
       395   10 Jun 2027 07:11:42.608   10 Jun 2027 07:14:31.280           168.672                Sumatra         21084.000
       396   10 Jun 2027 07:14:58.400   10 Jun 2027 07:16:45.675           107.275                Sumatra         13409.375
       397   10 Jun 2027 07:26:33.009   10 Jun 2027 07:33:00.867           387.858                Irkutsk         48482.250
       398   10 Jun 2027 07:37:52.584   10 Jun 2027 07:40:20.453           147.869                 Moscow         18483.625
       399   10 Jun 2027 07:40:49.250   10 Jun 2027 07:43:19.833           150.583              Murmansk2         18822.875
       400   10 Jun 2027 07:43:53.782   10 Jun 2027 07:44:16.633            22.851              Murmansk2          2856.375
       401   10 Jun 2027 07:44:16.633   10 Jun 2027 07:44:58.265            41.632              Murmansk1          5204.000
       402   10 Jun 2027 08:56:21.124   10 Jun 2027 08:59:36.752           195.628                  Delhi         24453.500
       403   10 Jun 2027 09:00:22.992   10 Jun 2027 09:00:59.288            36.296                  Delhi          4537.000
       404   10 Jun 2027 09:01:36.379   10 Jun 2027 09:03:09.490            93.111                  Delhi         11638.875
       405   10 Jun 2027 09:04:33.558   10 Jun 2027 09:08:51.835           258.277                Novosib         32284.625
       406   10 Jun 2027 09:13:22.448   10 Jun 2027 09:14:45.092            82.644                Novosib         10330.500
       407   10 Jun 2027 09:14:54.098   10 Jun 2027 09:17:38.697           164.599              Murmansk1         20574.875
       408   10 Jun 2027 09:18:09.790   10 Jun 2027 09:18:55.962            46.172                Norilsk          5771.500
       409   10 Jun 2027 09:20:11.538   10 Jun 2027 09:20:37.713            26.175              Murmansk2          3271.875
       410   10 Jun 2027 10:43:42.635   10 Jun 2027 10:45:22.006            99.371              Murmansk1         12421.375
       411   10 Jun 2027 10:45:22.006   10 Jun 2027 10:46:26.169            64.163              Murmansk2          8020.375
       412   10 Jun 2027 10:48:28.421   10 Jun 2027 10:51:58.167           209.746                 Moscow         26218.250
       413   10 Jun 2027 10:52:07.863   10 Jun 2027 10:55:06.608           178.745              Murmansk2         22343.125
       414   10 Jun 2027 10:55:06.608   10 Jun 2027 10:55:30.066            23.458              Murmansk1          2932.250
       415   10 Jun 2027 10:55:54.564   10 Jun 2027 10:56:33.304            38.740              Murmansk1          4842.500
       416   10 Jun 2027 11:54:08.537   10 Jun 2027 11:55:52.891           104.354               CapeTown         13044.250
       417   10 Jun 2027 11:56:07.077   10 Jun 2027 12:03:33.987           446.910               CapeTown         55863.750
       418   10 Jun 2027 12:05:42.494   10 Jun 2027 12:05:59.637            17.143               CapeTown          2142.875
       419   10 Jun 2027 12:18:32.719   10 Jun 2027 12:22:16.183           223.464                 Moscow         27933.000
       420   10 Jun 2027 12:34:30.886   10 Jun 2027 12:36:19.175           108.289                Anadyr2         13536.125
       421   10 Jun 2027 14:13:10.396   10 Jun 2027 14:16:48.103           217.707               Magadan1         27213.375
       422   10 Jun 2027 14:18:55.851   10 Jun 2027 14:20:05.747            69.896               Magadan1          8737.000
       423   10 Jun 2027 16:41:47.563   10 Jun 2027 16:45:05.274           197.711            RioGallegos         24713.875
       424   10 Jun 2027 17:30:54.083   10 Jun 2027 17:35:26.382           272.299                Irkutsk         34037.375
       425   10 Jun 2027 17:43:20.728   10 Jun 2027 17:46:23.976           183.248                Sumatra         22906.000
       426   10 Jun 2027 17:48:05.040   10 Jun 2027 17:49:08.194            63.154                Sumatra          7894.250
       427   10 Jun 2027 19:13:32.228   10 Jun 2027 19:16:12.161           159.933                  Delhi         19991.625
       428   10 Jun 2027 19:17:54.862   10 Jun 2027 19:18:22.287            27.425                  Delhi          3428.125
       429   10 Jun 2027 20:40:04.287   10 Jun 2027 20:41:35.470            91.183              Murmansk1         11397.875
       430   10 Jun 2027 20:44:19.734   10 Jun 2027 20:44:48.679            28.945              Murmansk1          3618.125
       431   10 Jun 2027 22:16:58.245   10 Jun 2027 22:18:23.561            85.316              Murmansk2         10664.500
       432   10 Jun 2027 22:46:13.800   10 Jun 2027 22:48:27.211           133.411               CapeTown         11129.751
       433   11 Jun 2027 04:36:56.265   11 Jun 2027 04:37:07.715            11.450               Magadan2          1431.250
       434   11 Jun 2027 04:37:57.166   11 Jun 2027 04:38:51.849            54.683                Novosib          6835.375
       435   11 Jun 2027 04:38:55.594   11 Jun 2027 04:41:41.193           165.599              Murmansk2         20699.875
       436   11 Jun 2027 05:51:16.377   11 Jun 2027 05:52:18.972            62.595                Sumatra          7824.375
       437   11 Jun 2027 06:13:57.862   11 Jun 2027 06:19:01.355           303.493                Norilsk         37936.625
       438   11 Jun 2027 06:19:18.481   11 Jun 2027 06:21:45.540           147.059              Murmansk2         18382.375
       439   11 Jun 2027 06:49:41.450   11 Jun 2027 06:54:45.932           304.482            RioGallegos         38060.250
       440   11 Jun 2027 06:55:25.706   11 Jun 2027 06:56:07.475            41.769            RioGallegos          5221.125
       441   11 Jun 2027 07:23:57.692   11 Jun 2027 07:30:33.697           396.005                Sumatra         49500.625
       442   11 Jun 2027 07:38:41.815   11 Jun 2027 07:39:51.511            69.696                Novosib          8712.000
       443   11 Jun 2027 07:39:54.145   11 Jun 2027 07:45:19.240           325.095                Irkutsk         40636.875
       444   11 Jun 2027 07:49:21.533   11 Jun 2027 07:52:45.115           203.582              Murmansk1         25447.750
       445   11 Jun 2027 07:52:45.115   11 Jun 2027 07:53:44.261            59.146              Murmansk2          7393.250
       446   11 Jun 2027 07:54:20.018   11 Jun 2027 07:55:00.418            40.400                Norilsk          5050.000
       447   11 Jun 2027 07:56:18.371   11 Jun 2027 07:56:56.050            37.679              Murmansk1          4709.875
       448   11 Jun 2027 09:08:47.959   11 Jun 2027 09:11:42.362           174.403                  Delhi         21800.375
       449   11 Jun 2027 09:11:51.672   11 Jun 2027 09:12:09.221            17.549                  Delhi          2193.625
       450   11 Jun 2027 09:12:45.458   11 Jun 2027 09:16:41.670           236.212                  Delhi         29526.500
       451   11 Jun 2027 09:17:09.993   11 Jun 2027 09:19:24.053           134.060                Novosib         16757.500
       452   11 Jun 2027 09:25:41.000   11 Jun 2027 09:26:32.340            51.340                Novosib          6417.500
       453   11 Jun 2027 09:26:33.399   11 Jun 2027 09:30:56.374           262.975                Norilsk         32871.875
       454   11 Jun 2027 09:32:13.163   11 Jun 2027 09:32:38.434            25.271              Murmansk1          3158.875
       455   11 Jun 2027 10:55:49.664   11 Jun 2027 10:56:53.278            63.614              Murmansk2          7951.750
       456   11 Jun 2027 10:57:20.797   11 Jun 2027 10:57:53.399            32.602              Murmansk1          4075.250
       457   11 Jun 2027 10:58:18.622   11 Jun 2027 10:58:26.126             7.504              Murmansk1           938.000
       458   11 Jun 2027 10:58:34.953   11 Jun 2027 10:58:59.099            24.146              Murmansk1          3018.250
       459   11 Jun 2027 10:59:26.107   11 Jun 2027 10:59:50.463            24.356              Murmansk1          3044.500
       460   11 Jun 2027 11:00:41.655   11 Jun 2027 11:01:51.910            70.255              Murmansk2          8781.875
       461   11 Jun 2027 11:01:51.910   11 Jun 2027 11:02:53.980            62.070              Murmansk1          7758.750
       462   11 Jun 2027 11:03:02.580   11 Jun 2027 11:05:57.418           174.838                Norilsk         21854.750
       463   11 Jun 2027 11:12:13.194   11 Jun 2027 11:16:06.433           233.239                Anadyr1         29154.875
       464   11 Jun 2027 12:09:33.289   11 Jun 2027 12:10:12.583            39.294               CapeTown          4911.750
       465   11 Jun 2027 12:31:14.714   11 Jun 2027 12:32:33.569            78.855                 Moscow          9856.875
       466   11 Jun 2027 12:47:48.233   11 Jun 2027 12:48:03.048            14.815                Anadyr1          1851.875
       467   11 Jun 2027 14:25:01.556   11 Jun 2027 14:28:19.274           197.718               Magadan2         24714.750
       468   11 Jun 2027 14:28:42.895   11 Jun 2027 14:29:12.080            29.185               Magadan1          3648.125
       469   11 Jun 2027 14:31:06.145   11 Jun 2027 14:32:08.887            62.742               Magadan2          7842.750
       470   11 Jun 2027 16:53:18.883   11 Jun 2027 16:58:20.945           302.062            RioGallegos         37757.750
       471   11 Jun 2027 16:59:33.080   11 Jun 2027 17:00:22.445            49.365            RioGallegos          6170.625
       472   11 Jun 2027 17:38:32.768   11 Jun 2027 17:38:46.650            13.882                Norilsk          1735.250
       473   11 Jun 2027 17:44:11.995   11 Jun 2027 17:44:34.662            22.667                Irkutsk          2833.375
       474   11 Jun 2027 17:58:35.492   11 Jun 2027 18:01:55.054           199.562                Sumatra         24945.250
       475   11 Jun 2027 19:24:47.031   11 Jun 2027 19:27:58.157           191.126                  Delhi         23890.750
       476   11 Jun 2027 19:30:08.519   11 Jun 2027 19:32:15.335           126.816                  Delhi         15852.000
       477   11 Jun 2027 20:50:32.054   11 Jun 2027 20:50:46.765            14.711              Murmansk1          1838.875
       478   11 Jun 2027 20:51:59.766   11 Jun 2027 20:54:11.382           131.616              Murmansk2         16452.000
       479   11 Jun 2027 22:59:25.719   11 Jun 2027 23:00:16.837            51.118               CapeTown          6389.750
       480   11 Jun 2027 23:00:47.916   11 Jun 2027 23:01:44.980            57.064               CapeTown          7133.000
       481   12 Jun 2027 04:50:01.829   12 Jun 2027 04:51:01.444            59.615                Novosib          7451.875
       482   12 Jun 2027 04:53:30.606   12 Jun 2027 04:54:46.894            76.288              Murmansk1          9536.000
