uniorb/output/strategy_4/Drop/Drop_KinoSat_112003.txt

KinoSat_112003
-------------------------
    Access    *     Start Time (UTCG)     *     Stop Time (UTCG)  *   Duration (s)        *       Station  *  Data (Mbytes)
         1   01 Jun 2027 03:17:18.269   01 Jun 2027 03:18:30.523            72.254               Magadan2          2257.937
         2   01 Jun 2027 03:18:52.429   01 Jun 2027 03:19:18.146            25.717                Norilsk           803.656
         3   01 Jun 2027 03:19:25.480   01 Jun 2027 03:19:56.090            30.610                Norilsk           956.562
         4   01 Jun 2027 03:20:04.850   01 Jun 2027 03:20:17.610            12.760                Irkutsk           398.750
         5   01 Jun 2027 03:20:31.916   01 Jun 2027 03:21:30.784            58.868                Irkutsk          1839.625
         6   01 Jun 2027 03:21:40.344   01 Jun 2027 03:22:30.968            50.624                Norilsk          1582.000
         7   01 Jun 2027 03:22:37.858   01 Jun 2027 03:24:42.369           124.511                Novosib          3890.969
         8   01 Jun 2027 03:25:47.434   01 Jun 2027 03:27:50.323           122.889                Irkutsk          3840.281
         9   01 Jun 2027 04:05:04.861   01 Jun 2027 04:06:47.365           102.504            RioGallegos          3203.250
        10   01 Jun 2027 04:08:04.682   01 Jun 2027 04:10:03.388           118.706            RioGallegos          3709.563
        11   01 Jun 2027 04:55:32.250   01 Jun 2027 04:55:53.432            21.182              Murmansk1           661.938
        12   01 Jun 2027 04:55:55.325   01 Jun 2027 04:57:39.308           103.983                Norilsk          3249.469
        13   01 Jun 2027 04:57:48.523   01 Jun 2027 04:59:16.627            88.104                 Moscow          2753.250
        14   01 Jun 2027 04:59:24.190   01 Jun 2027 04:59:57.179            32.989                Norilsk          1030.906
        15   01 Jun 2027 05:00:29.483   01 Jun 2027 05:00:46.336            16.853                Norilsk           526.656
        16   01 Jun 2027 05:00:48.626   01 Jun 2027 05:08:56.955           488.329                  Delhi         15260.281
        17   01 Jun 2027 06:34:28.252   01 Jun 2027 06:37:23.940           175.688              Murmansk1          5490.250
        18   01 Jun 2027 06:37:24.252   01 Jun 2027 06:38:00.853            36.601                 Moscow          1143.781
        19   01 Jun 2027 06:38:44.686   01 Jun 2027 06:39:24.387            39.701                 Moscow          1240.656
        20   01 Jun 2027 06:53:20.576   01 Jun 2027 06:56:34.004           193.428               CapeTown          6044.625
        21   01 Jun 2027 07:57:20.410   01 Jun 2027 07:58:29.681            69.271                Anadyr1          2164.719
        22   01 Jun 2027 08:32:31.942   01 Jun 2027 08:39:30.451           418.509               CapeTown         13078.406
        23   01 Jun 2027 09:33:33.180   01 Jun 2027 09:34:44.353            71.173                Anadyr1          2224.156
        24   01 Jun 2027 09:34:44.353   01 Jun 2027 09:36:39.703           115.350                Anadyr2          3604.688
        25   01 Jun 2027 11:08:17.138   01 Jun 2027 11:13:30.390           313.252                Anadyr2          9789.125
        26   01 Jun 2027 12:44:29.886   01 Jun 2027 12:47:49.685           199.799               Magadan1          6243.719
        27   01 Jun 2027 13:31:39.040   01 Jun 2027 13:35:21.060           222.020            RioGallegos          6938.125
        28   01 Jun 2027 13:37:23.787   01 Jun 2027 13:37:34.298            10.511            RioGallegos           328.469
        29   01 Jun 2027 14:06:00.976   01 Jun 2027 14:12:18.178           377.202                Sumatra         11787.563
        30   01 Jun 2027 14:22:29.984   01 Jun 2027 14:25:45.194           195.210                Irkutsk          6100.313
        31   01 Jun 2027 15:51:57.435   01 Jun 2027 15:56:19.502           262.067                  Delhi          8189.594
        32   01 Jun 2027 15:59:45.463   01 Jun 2027 16:03:08.834           203.371                Novosib          6355.344
        33   01 Jun 2027 19:12:28.937   01 Jun 2027 19:16:31.097           242.160                 Moscow          7567.500
        34   01 Jun 2027 19:19:40.725   01 Jun 2027 19:20:01.185            20.460              Murmansk1           639.375
        35   01 Jun 2027 20:25:20.744   01 Jun 2027 20:29:54.532           273.788               CapeTown          8555.875
        36   01 Jun 2027 20:49:20.350   01 Jun 2027 20:51:22.227           121.877              Murmansk2          3808.656
        37   01 Jun 2027 20:51:25.153   01 Jun 2027 20:56:22.907           297.754              Murmansk1          9304.813
        38   02 Jun 2027 00:13:38.606   02 Jun 2027 00:14:21.144            42.538               Magadan1          1329.313
        39   02 Jun 2027 00:16:38.985   02 Jun 2027 00:16:48.990            10.005               Magadan1           312.656
        40   02 Jun 2027 00:17:07.448   02 Jun 2027 00:18:09.755            62.307                Irkutsk          1947.094
        41   02 Jun 2027 00:19:37.981   02 Jun 2027 00:20:01.558            23.577                Irkutsk           736.781
        42   02 Jun 2027 00:21:37.548   02 Jun 2027 00:21:51.969            14.421                Irkutsk           450.656
        43   02 Jun 2027 00:22:22.110   02 Jun 2027 00:22:46.055            23.945                Irkutsk           748.281
        44   02 Jun 2027 00:24:43.706   02 Jun 2027 00:25:09.723            26.017                Irkutsk           813.031
        45   02 Jun 2027 00:25:58.450   02 Jun 2027 00:26:27.227            28.777                Irkutsk           899.281
        46   02 Jun 2027 00:33:38.860   02 Jun 2027 00:34:24.110            45.250                Sumatra          1414.063
        47   02 Jun 2027 00:35:02.352   02 Jun 2027 00:36:30.499            88.147                Sumatra          2754.594
        48   02 Jun 2027 01:12:08.027   02 Jun 2027 01:12:19.720            11.693            RioGallegos           365.406
        49   02 Jun 2027 01:12:41.987   02 Jun 2027 01:13:46.148            64.161            RioGallegos          2005.031
        50   02 Jun 2027 01:45:28.642   02 Jun 2027 01:45:34.271             5.629                Anadyr2           175.906
        51   02 Jun 2027 01:45:48.023   02 Jun 2027 01:46:21.509            33.486                Anadyr1          1046.438
        52   02 Jun 2027 01:46:46.005   02 Jun 2027 01:47:00.136            14.131                Anadyr2           441.594
        53   02 Jun 2027 01:47:14.492   02 Jun 2027 01:47:42.173            27.681                Anadyr1           865.031
        54   02 Jun 2027 01:48:08.611   02 Jun 2027 01:49:24.380            75.769                Norilsk          2367.781
        55   02 Jun 2027 01:49:48.337   02 Jun 2027 01:50:04.722            16.385                Norilsk           512.031
        56   02 Jun 2027 01:52:03.402   02 Jun 2027 01:54:11.949           128.547                Irkutsk          4017.094
        57   02 Jun 2027 01:54:53.760   02 Jun 2027 01:55:10.667            16.907                Novosib           528.344
        58   02 Jun 2027 01:55:50.258   02 Jun 2027 01:56:25.411            35.153                Novosib          1098.531
        59   02 Jun 2027 02:02:10.672   02 Jun 2027 02:03:39.753            89.081                  Delhi          2783.781
        60   02 Jun 2027 02:06:03.138   02 Jun 2027 02:06:32.977            29.839                Sumatra           932.469
        61   02 Jun 2027 02:08:47.442   02 Jun 2027 02:10:54.949           127.507                Sumatra          3984.594
        62   02 Jun 2027 02:13:32.845   02 Jun 2027 02:15:50.354           137.509                Sumatra          4297.156
        63   02 Jun 2027 03:28:31.396   02 Jun 2027 03:28:50.678            19.282               Magadan2           602.563
        64   02 Jun 2027 03:29:04.588   02 Jun 2027 03:29:21.143            16.555               Magadan2           517.344
        65   02 Jun 2027 03:29:21.143   02 Jun 2027 03:29:57.860            36.717               Magadan1          1147.406
        66   02 Jun 2027 03:31:44.635   02 Jun 2027 03:33:29.978           105.343                Norilsk          3291.969
        67   02 Jun 2027 03:33:45.333   02 Jun 2027 03:34:26.280            40.947                Norilsk          1279.594
        68   02 Jun 2027 03:34:51.633   02 Jun 2027 03:37:05.554           133.921                Norilsk          4185.031
        69   02 Jun 2027 03:37:16.498   02 Jun 2027 03:39:31.020           134.522                Irkutsk          4203.813
        70   02 Jun 2027 03:39:40.685   02 Jun 2027 03:42:07.816           147.131                  Delhi          4597.844
        71   02 Jun 2027 04:17:24.806   02 Jun 2027 04:23:35.533           370.727            RioGallegos         11585.219
        72   02 Jun 2027 05:08:21.385   02 Jun 2027 05:10:15.823           114.438                Irkutsk          3576.188
        73   02 Jun 2027 05:11:38.818   02 Jun 2027 05:13:45.028           126.210                Novosib          3944.062
        74   02 Jun 2027 05:13:58.216   02 Jun 2027 05:14:40.194            41.978                Novosib          1311.813
        75   02 Jun 2027 05:17:36.754   02 Jun 2027 05:19:49.674           132.920                  Delhi          4153.750
        76   02 Jun 2027 06:46:15.266   02 Jun 2027 06:46:45.936            30.670                Novosib           958.437
        77   02 Jun 2027 06:47:35.289   02 Jun 2027 06:49:08.511            93.222              Murmansk2          2913.187
        78   02 Jun 2027 06:49:22.297   02 Jun 2027 06:49:54.231            31.934                 Moscow           997.937
        79   02 Jun 2027 06:52:29.156   02 Jun 2027 06:53:18.014            48.858                 Moscow          1526.812
        80   02 Jun 2027 08:09:51.089   02 Jun 2027 08:10:25.905            34.816               Magadan1          1088.000
        81   02 Jun 2027 08:10:25.905   02 Jun 2027 08:11:33.343            67.438               Magadan2          2107.437
        82   02 Jun 2027 08:11:36.530   02 Jun 2027 08:15:02.413           205.883                Anadyr2          6433.844
        83   02 Jun 2027 09:45:51.977   02 Jun 2027 09:46:04.807            12.830               Magadan1           400.937
        84   02 Jun 2027 09:46:11.556   02 Jun 2027 09:46:27.603            16.047               Magadan1           501.469
        85   02 Jun 2027 09:46:27.603   02 Jun 2027 09:48:46.050           138.447               Magadan2          4326.469
        86   02 Jun 2027 09:49:51.318   02 Jun 2027 09:50:30.323            39.005               Magadan1          1218.906
        87   02 Jun 2027 11:16:45.056   02 Jun 2027 11:18:21.756            96.700               Magadan1          3021.875
        88   02 Jun 2027 11:20:07.613   02 Jun 2027 11:25:03.719           296.106               Magadan1          9253.313
        89   02 Jun 2027 11:25:27.665   02 Jun 2027 11:25:37.239             9.574                Norilsk           299.188
        90   02 Jun 2027 11:25:47.192   02 Jun 2027 11:26:13.895            26.703                Norilsk           834.469
        91   02 Jun 2027 11:26:20.736   02 Jun 2027 11:27:19.121            58.385                Norilsk          1824.531
        92   02 Jun 2027 12:01:12.245   02 Jun 2027 12:02:29.521            77.276            RioGallegos          2414.875
        93   02 Jun 2027 12:37:30.318   02 Jun 2027 12:38:00.034            29.716                Sumatra           928.625
        94   02 Jun 2027 12:49:28.534   02 Jun 2027 12:51:24.825           116.291                Irkutsk          3634.094
        95   02 Jun 2027 12:54:23.734   02 Jun 2027 12:55:17.684            53.950                Norilsk          1685.938
        96   02 Jun 2027 12:55:38.050   02 Jun 2027 12:55:40.068             2.018                Norilsk            63.063
        97   02 Jun 2027 12:55:55.612   02 Jun 2027 12:56:39.511            43.899                Norilsk          1371.844
        98   02 Jun 2027 13:04:09.369   02 Jun 2027 13:04:21.593            12.224              Murmansk1           382.000
        99   02 Jun 2027 13:37:51.553   02 Jun 2027 13:38:28.694            37.141            RioGallegos          1160.656
       100   02 Jun 2027 13:39:38.133   02 Jun 2027 13:42:59.421           201.288            RioGallegos          6290.250
       101   02 Jun 2027 14:12:10.850   02 Jun 2027 14:13:15.034            64.184                Sumatra          2005.750
       102   02 Jun 2027 14:27:11.213   02 Jun 2027 14:29:11.240           120.027                Irkutsk          3750.844
       103   02 Jun 2027 14:31:23.571   02 Jun 2027 14:32:53.992            90.421                Irkutsk          2825.656
       104   02 Jun 2027 14:33:53.053   02 Jun 2027 14:35:54.330           121.277                Irkutsk          3789.906
       105   02 Jun 2027 15:56:56.732   02 Jun 2027 15:58:42.094           105.362                  Delhi          3292.563
       106   02 Jun 2027 16:01:35.339   02 Jun 2027 16:02:40.669            65.330                  Delhi          2041.562
       107   02 Jun 2027 16:05:14.365   02 Jun 2027 16:07:56.713           162.348                Novosib          5073.375
       108   02 Jun 2027 16:09:01.809   02 Jun 2027 16:09:42.206            40.397                Norilsk          1262.406
       109   02 Jun 2027 16:10:37.154   02 Jun 2027 16:12:15.339            98.185                Novosib          3068.281
       110   02 Jun 2027 17:43:46.049   02 Jun 2027 17:44:32.951            46.902                 Moscow          1465.687
       111   02 Jun 2027 17:45:30.381   02 Jun 2027 17:47:10.496           100.115              Murmansk1          3128.594
       112   02 Jun 2027 17:50:00.753   02 Jun 2027 17:54:13.445           252.692                Norilsk          7896.625
       113   02 Jun 2027 19:19:16.920   02 Jun 2027 19:25:38.023           381.103                 Moscow         11909.469
       114   02 Jun 2027 20:30:22.518   02 Jun 2027 20:30:36.938            14.420               CapeTown           450.625
       115   02 Jun 2027 20:32:13.639   02 Jun 2027 20:34:02.852           109.213               CapeTown          3412.906
       116   02 Jun 2027 20:38:37.107   02 Jun 2027 20:40:10.359            93.252               CapeTown          2914.125
       117   02 Jun 2027 21:02:08.418   02 Jun 2027 21:08:14.968           366.550              Murmansk1         11454.688
       118   02 Jun 2027 22:46:27.574   02 Jun 2027 22:47:10.310            42.736                Anadyr2          1335.500
       119   02 Jun 2027 22:47:27.774   02 Jun 2027 22:47:57.637            29.863                Anadyr2           933.219
       120   02 Jun 2027 22:48:43.631   02 Jun 2027 22:50:42.870           119.239               Magadan1          3726.219
       121   02 Jun 2027 22:51:54.750   02 Jun 2027 22:52:11.139            16.389               Magadan1           512.156
       122   02 Jun 2027 22:52:13.004   02 Jun 2027 22:52:28.557            15.553               Magadan1           486.031
       123   02 Jun 2027 22:53:12.239   02 Jun 2027 22:53:40.793            28.554               Magadan2           892.312
       124   02 Jun 2027 22:55:26.005   02 Jun 2027 22:55:49.556            23.551               Magadan2           735.969
       125   02 Jun 2027 22:57:33.932   02 Jun 2027 22:57:48.878            14.946               Magadan1           467.062
       126   02 Jun 2027 23:41:40.433   02 Jun 2027 23:44:47.961           187.528            RioGallegos          5860.250
       127   02 Jun 2027 23:48:15.822   02 Jun 2027 23:49:13.078            57.256            RioGallegos          1789.250
       128   03 Jun 2027 00:22:13.838   03 Jun 2027 00:23:36.523            82.685                Anadyr1          2583.906
       129   03 Jun 2027 00:24:18.149   03 Jun 2027 00:26:14.097           115.948                Norilsk          3623.375
       130   03 Jun 2027 00:27:47.613   03 Jun 2027 00:28:09.351            21.738               Magadan2           679.313
       131   03 Jun 2027 00:28:47.262   03 Jun 2027 00:29:15.315            28.053               Magadan1           876.656
       132   03 Jun 2027 00:30:09.132   03 Jun 2027 00:32:22.252           133.120                Irkutsk          4160.000
       133   03 Jun 2027 00:35:59.130   03 Jun 2027 00:36:00.690             1.560                Irkutsk            48.750
       134   03 Jun 2027 00:43:12.603   03 Jun 2027 00:46:08.692           176.089                Sumatra          5502.781
       135   03 Jun 2027 01:24:40.099   03 Jun 2027 01:25:02.600            22.501            RioGallegos           703.156
       136   03 Jun 2027 01:25:45.699   03 Jun 2027 01:26:14.582            28.883            RioGallegos           902.594
       137   03 Jun 2027 01:57:20.515   03 Jun 2027 01:57:29.737             9.222                Anadyr1           288.188
       138   03 Jun 2027 01:57:40.942   03 Jun 2027 01:57:55.781            14.839                Anadyr1           463.719
       139   03 Jun 2027 01:58:17.996   03 Jun 2027 01:58:50.538            32.542                Anadyr1          1016.937
       140   03 Jun 2027 01:59:41.424   03 Jun 2027 01:59:47.873             6.449                Anadyr1           201.531
       141   03 Jun 2027 02:00:10.909   03 Jun 2027 02:02:06.941           116.032                Norilsk          3626.000
       142   03 Jun 2027 02:03:16.275   03 Jun 2027 02:03:43.713            27.438               Magadan2           857.437
       143   03 Jun 2027 02:04:04.219   03 Jun 2027 02:06:59.091           174.872                Irkutsk          5464.750
       144   03 Jun 2027 02:13:55.432   03 Jun 2027 02:15:56.715           121.283                  Delhi          3790.094
       145   03 Jun 2027 02:18:20.350   03 Jun 2027 02:20:20.175           119.825                Sumatra          3744.531
       146   03 Jun 2027 02:23:39.572   03 Jun 2027 02:28:13.713           274.141                Sumatra          8566.906
       147   03 Jun 2027 03:40:55.217   03 Jun 2027 03:41:25.697            30.480               Magadan1           952.500
       148   03 Jun 2027 03:43:59.157   03 Jun 2027 03:44:46.844            47.687                Norilsk          1490.219
       149   03 Jun 2027 03:45:20.373   03 Jun 2027 03:49:31.492           251.119                Novosib          7847.469
       150   03 Jun 2027 03:49:32.765   03 Jun 2027 03:54:38.963           306.198                  Delhi          9568.688
       151   03 Jun 2027 03:56:11.312   03 Jun 2027 03:59:58.723           227.411                  Delhi          7106.594
       152   03 Jun 2027 04:29:51.836   03 Jun 2027 04:34:52.075           300.239            RioGallegos          9382.469
       153   03 Jun 2027 05:18:42.677   03 Jun 2027 05:19:14.841            32.164                Irkutsk          1005.125
       154   03 Jun 2027 05:20:16.120   03 Jun 2027 05:20:50.617            34.497                Irkutsk          1078.031
       155   03 Jun 2027 05:21:15.831   03 Jun 2027 05:21:40.312            24.481                Norilsk           765.031
       156   03 Jun 2027 05:22:03.638   03 Jun 2027 05:22:15.391            11.753                Norilsk           367.281
       157   03 Jun 2027 05:22:16.463   03 Jun 2027 05:25:16.523           180.060                Novosib          5626.875
       158   03 Jun 2027 05:26:56.390   03 Jun 2027 05:27:02.017             5.627                Novosib           175.844
       159   03 Jun 2027 05:27:04.137   03 Jun 2027 05:29:56.060           171.923                  Delhi          5372.594
       160   03 Jun 2027 06:59:30.129   03 Jun 2027 06:59:40.545            10.416              Murmansk2           325.500
       161   03 Jun 2027 06:59:44.010   03 Jun 2027 06:59:53.778             9.768              Murmansk2           305.250
       162   03 Jun 2027 07:00:05.406   03 Jun 2027 07:01:05.358            59.952              Murmansk2          1873.500
       163   03 Jun 2027 07:17:30.655   03 Jun 2027 07:20:05.125           154.470               CapeTown          4827.187
       164   03 Jun 2027 08:20:17.621   03 Jun 2027 08:21:22.973            65.352                Anadyr1          2042.250
       165   03 Jun 2027 08:21:38.768   03 Jun 2027 08:21:41.208             2.440               Magadan1            76.250
       166   03 Jun 2027 08:22:40.325   03 Jun 2027 08:22:57.419            17.094                Anadyr1           534.187
       167   03 Jun 2027 08:23:58.025   03 Jun 2027 08:25:11.377            73.352                Anadyr2          2292.250
       168   03 Jun 2027 09:56:59.217   03 Jun 2027 09:57:58.015            58.798               Magadan1          1837.438
       169   03 Jun 2027 09:58:21.723   03 Jun 2027 09:58:55.376            33.653               Magadan2          1051.656
       170   03 Jun 2027 09:59:25.656   03 Jun 2027 10:00:44.991            79.335               Magadan2          2479.219
       171   03 Jun 2027 11:27:35.688   03 Jun 2027 11:28:39.538            63.850               Magadan2          1995.312
       172   03 Jun 2027 11:31:08.842   03 Jun 2027 11:31:54.879            46.037               Magadan2          1438.656
       173   03 Jun 2027 11:32:48.322   03 Jun 2027 11:35:19.681           151.359               Magadan1          4729.969
       174   03 Jun 2027 11:35:31.852   03 Jun 2027 11:35:38.093             6.241                Irkutsk           195.031
       175   03 Jun 2027 11:35:48.685   03 Jun 2027 11:36:03.133            14.448                Norilsk           451.500
       176   03 Jun 2027 11:36:12.808   03 Jun 2027 11:37:25.550            72.742                Norilsk          2273.188
       177   03 Jun 2027 11:37:35.025   03 Jun 2027 11:38:11.070            36.045               Magadan2          1126.406
       178   03 Jun 2027 11:38:22.957   03 Jun 2027 11:38:24.979             2.022                Norilsk            63.187
       179   03 Jun 2027 12:13:07.352   03 Jun 2027 12:14:28.829            81.477            RioGallegos          2546.156
       180   03 Jun 2027 12:15:16.213   03 Jun 2027 12:15:46.067            29.854            RioGallegos           932.937
       181   03 Jun 2027 12:48:57.586   03 Jun 2027 12:50:10.864            73.278                Sumatra          2289.937
       182   03 Jun 2027 13:01:30.701   03 Jun 2027 13:04:48.190           197.489                Irkutsk          6171.531
       183   03 Jun 2027 13:50:17.032   03 Jun 2027 13:51:30.791            73.759            RioGallegos          2304.969
       184   03 Jun 2027 13:55:14.705   03 Jun 2027 13:55:41.602            26.897            RioGallegos           840.531
       185   03 Jun 2027 13:57:58.173   03 Jun 2027 14:00:15.292           137.119            RioGallegos          4284.969
       186   03 Jun 2027 14:24:31.826   03 Jun 2027 14:30:08.048           336.222                Sumatra         10506.937
       187   03 Jun 2027 14:39:48.164   03 Jun 2027 14:45:58.937           370.773                Irkutsk         11586.656
       188   03 Jun 2027 16:12:41.423   03 Jun 2027 16:16:04.627           203.204                  Delhi          6350.125
       189   03 Jun 2027 16:17:55.925   03 Jun 2027 16:24:25.827           389.902                Novosib         12184.437
       190   03 Jun 2027 18:03:08.741   03 Jun 2027 18:04:05.875            57.134                Norilsk          1785.437
       191   03 Jun 2027 18:05:35.546   03 Jun 2027 18:06:09.983            34.437                Norilsk          1076.156
       192   03 Jun 2027 19:32:05.094   03 Jun 2027 19:39:58.258           473.164                 Moscow         14786.375
       193   03 Jun 2027 20:45:41.277   03 Jun 2027 20:47:48.172           126.895               CapeTown          3965.469
       194   03 Jun 2027 21:15:03.275   03 Jun 2027 21:20:02.341           299.066              Murmansk2          9345.812
       195   03 Jun 2027 22:58:41.435   03 Jun 2027 22:59:11.161            29.726                Anadyr2           928.937
       196   03 Jun 2027 22:59:58.444   03 Jun 2027 23:00:19.203            20.759                Anadyr2           648.719
       197   03 Jun 2027 23:00:44.754   03 Jun 2027 23:02:06.388            81.634               Magadan2          2551.063
       198   03 Jun 2027 23:03:46.093   03 Jun 2027 23:04:15.558            29.465               Magadan1           920.781
       199   03 Jun 2027 23:04:28.378   03 Jun 2027 23:04:33.204             4.826               Magadan2           150.813
       200   03 Jun 2027 23:04:41.741   03 Jun 2027 23:05:19.098            37.357               Magadan1          1167.406
       201   03 Jun 2027 23:05:51.637   03 Jun 2027 23:06:28.015            36.378               Magadan2          1136.812
       202   03 Jun 2027 23:53:19.113   03 Jun 2027 23:56:38.279           199.166            RioGallegos          6223.938
       203   04 Jun 2027 00:00:11.559   04 Jun 2027 00:00:32.559            21.000            RioGallegos           656.250
       204   04 Jun 2027 00:01:17.612   04 Jun 2027 00:01:45.976            28.364            RioGallegos           886.375
       205   04 Jun 2027 00:34:12.363   04 Jun 2027 00:35:18.989            66.626                Anadyr1          2082.063
       206   04 Jun 2027 00:36:17.974   04 Jun 2027 00:38:16.205           118.231                Norilsk          3694.719
       207   04 Jun 2027 00:39:09.918   04 Jun 2027 00:39:17.351             7.433                Norilsk           232.281
       208   04 Jun 2027 00:39:41.063   04 Jun 2027 00:39:59.912            18.849                Norilsk           589.031
       209   04 Jun 2027 00:40:11.712   04 Jun 2027 00:40:29.357            17.645               Magadan1           551.406
       210   04 Jun 2027 00:40:42.441   04 Jun 2027 00:42:09.524            87.083                Irkutsk          2721.344
       211   04 Jun 2027 00:44:17.574   04 Jun 2027 00:45:14.912            57.338                Irkutsk          1791.812
       212   04 Jun 2027 00:49:09.698   04 Jun 2027 00:49:19.651             9.953                Irkutsk           311.031
       213   04 Jun 2027 00:54:44.889   04 Jun 2027 00:56:20.181            95.292                Sumatra          2977.875
       214   04 Jun 2027 00:56:25.674   04 Jun 2027 00:56:49.556            23.882                Sumatra           746.312
       215   04 Jun 2027 00:58:43.345   04 Jun 2027 01:01:00.363           137.018                Sumatra          4281.813
       216   04 Jun 2027 02:09:11.093   04 Jun 2027 02:09:30.926            19.833                Anadyr1           619.781
       217   04 Jun 2027 02:10:36.986   04 Jun 2027 02:11:14.742            37.756                Anadyr2          1179.875
       218   04 Jun 2027 02:12:09.292   04 Jun 2027 02:12:17.188             7.896                Anadyr1           246.750
       219   04 Jun 2027 02:12:54.689   04 Jun 2027 02:14:32.538            97.849               Magadan2          3057.781
       220   04 Jun 2027 02:16:05.935   04 Jun 2027 02:18:25.006           139.071                Irkutsk          4345.969
       221   04 Jun 2027 02:19:33.058   04 Jun 2027 02:19:42.631             9.573                Irkutsk           299.156
       222   04 Jun 2027 02:20:04.196   04 Jun 2027 02:20:04.948             0.752                Irkutsk            23.500
       223   04 Jun 2027 02:21:08.808   04 Jun 2027 02:21:23.430            14.622                Novosib           456.937
       224   04 Jun 2027 02:22:59.211   04 Jun 2027 02:23:04.979             5.768                Irkutsk           180.250
       225   04 Jun 2027 02:24:40.325   04 Jun 2027 02:25:24.334            44.009                  Delhi          1375.281
       226   04 Jun 2027 02:29:23.524   04 Jun 2027 02:29:59.913            36.389                  Delhi          1137.156
       227   04 Jun 2027 02:30:45.533   04 Jun 2027 02:36:45.882           360.349                Sumatra         11260.906
       228   04 Jun 2027 03:52:49.325   04 Jun 2027 03:52:54.731             5.406               Magadan1           168.938
       229   04 Jun 2027 03:56:04.245   04 Jun 2027 04:02:42.418           398.173                Irkutsk         12442.906
       230   04 Jun 2027 04:03:02.554   04 Jun 2027 04:03:35.394            32.840                Novosib          1026.250
       231   04 Jun 2027 04:42:35.986   04 Jun 2027 04:45:35.681           179.695            RioGallegos          5615.469
       232   04 Jun 2027 05:33:16.123   04 Jun 2027 05:33:53.475            37.352                Norilsk          1167.250
       233   04 Jun 2027 05:34:13.157   04 Jun 2027 05:37:34.012           200.855                Novosib          6276.719
       234   04 Jun 2027 07:09:11.474   04 Jun 2027 07:09:25.081            13.607                Norilsk           425.219
       235   04 Jun 2027 07:09:41.288   04 Jun 2027 07:10:03.885            22.597                Norilsk           706.156
       236   04 Jun 2027 07:10:08.191   04 Jun 2027 07:10:32.378            24.187                Norilsk           755.844
       237   04 Jun 2027 07:11:12.166   04 Jun 2027 07:11:35.204            23.038                 Moscow           719.938
       238   04 Jun 2027 07:11:48.670   04 Jun 2027 07:13:29.518           100.848                 Moscow          3151.500
       239   04 Jun 2027 07:29:43.886   04 Jun 2027 07:30:08.861            24.975               CapeTown           780.469
       240   04 Jun 2027 07:30:45.825   04 Jun 2027 07:32:27.909           102.084               CapeTown          3190.125
       241   04 Jun 2027 07:38:25.121   04 Jun 2027 07:39:32.874            67.753               CapeTown          2117.281
       242   04 Jun 2027 08:32:39.011   04 Jun 2027 08:33:05.163            26.152               Magadan1           817.250
       243   04 Jun 2027 08:33:13.617   04 Jun 2027 08:33:21.775             8.158               Magadan2           254.937
       244   04 Jun 2027 08:33:23.835   04 Jun 2027 08:33:34.939            11.104                Anadyr2           347.000
       245   04 Jun 2027 08:33:39.511   04 Jun 2027 08:34:55.160            75.649               Magadan2          2364.031
       246   04 Jun 2027 08:35:15.193   04 Jun 2027 08:36:08.930            53.737                Anadyr2          1679.281
       247   04 Jun 2027 08:37:11.115   04 Jun 2027 08:38:17.545            66.430                Anadyr1          2075.938
       248   04 Jun 2027 10:08:59.222   04 Jun 2027 10:10:13.761            74.539               Magadan1          2329.344
       249   04 Jun 2027 10:10:35.719   04 Jun 2027 10:10:42.593             6.874               Magadan1           214.813
       250   04 Jun 2027 10:11:33.367   04 Jun 2027 10:12:25.241            51.874               Magadan2          1621.063
       251   04 Jun 2027 10:51:06.157   04 Jun 2027 10:51:13.889             7.732            RioGallegos           241.625
       252   04 Jun 2027 10:52:19.133   04 Jun 2027 10:53:05.479            46.346            RioGallegos          1448.312
       253   04 Jun 2027 11:40:07.984   04 Jun 2027 11:41:48.708           100.724               Magadan2          3147.625
       254   04 Jun 2027 11:45:48.365   04 Jun 2027 11:50:03.975           255.610               Magadan1          7987.812
       255   04 Jun 2027 12:25:05.740   04 Jun 2027 12:26:26.891            81.151            RioGallegos          2535.969
       256   04 Jun 2027 13:00:34.259   04 Jun 2027 13:02:30.411           116.152                Sumatra          3629.750
       257   04 Jun 2027 13:12:25.249   04 Jun 2027 13:12:27.807             2.558                Sumatra            79.938
       258   04 Jun 2027 13:13:36.215   04 Jun 2027 13:16:48.920           192.705                Irkutsk          6022.031
       259   04 Jun 2027 14:02:48.097   04 Jun 2027 14:04:59.940           131.843            RioGallegos          4120.094
       260   04 Jun 2027 14:12:07.231   04 Jun 2027 14:12:51.525            44.294            RioGallegos          1384.187
       261   04 Jun 2027 14:37:01.830   04 Jun 2027 14:43:39.929           398.099                Sumatra         12440.594
       262   04 Jun 2027 14:52:33.106   04 Jun 2027 14:59:35.507           422.401                Irkutsk         13200.031
       263   04 Jun 2027 16:23:20.957   04 Jun 2027 16:31:02.556           461.599                  Delhi         14424.969
       264   04 Jun 2027 16:31:30.769   04 Jun 2027 16:38:22.728           411.959                Novosib         12873.719
       265   04 Jun 2027 19:45:04.975   04 Jun 2027 19:51:30.482           385.507                 Moscow         12047.094
       266   04 Jun 2027 19:51:38.862   04 Jun 2027 19:51:54.374            15.512              Murmansk2           484.750
       267   04 Jun 2027 20:56:58.126   04 Jun 2027 21:00:47.942           229.816               CapeTown          7181.750
       268   04 Jun 2027 21:28:09.832   04 Jun 2027 21:31:40.101           210.269              Murmansk1          6570.906
       269   04 Jun 2027 23:13:24.499   04 Jun 2027 23:13:30.811             6.312               Magadan1           197.250
       270   04 Jun 2027 23:13:46.026   04 Jun 2027 23:14:00.881            14.855                Norilsk           464.219
       271   04 Jun 2027 23:15:30.413   04 Jun 2027 23:16:05.884            35.471               Magadan1          1108.469
       272   04 Jun 2027 23:17:42.098   04 Jun 2027 23:17:59.411            17.313               Magadan1           541.031
       273   04 Jun 2027 23:24:39.373   04 Jun 2027 23:25:19.234            39.861               Magadan2          1245.656
       274   05 Jun 2027 00:05:03.660   05 Jun 2027 00:08:03.264           179.604            RioGallegos          5612.625
       275   05 Jun 2027 00:10:40.088   05 Jun 2027 00:11:06.770            26.682            RioGallegos           833.812
       276   05 Jun 2027 00:13:42.530   05 Jun 2027 00:13:49.638             7.108            RioGallegos           222.125
       277   05 Jun 2027 00:15:02.023   05 Jun 2027 00:15:19.520            17.497            RioGallegos           546.781
       278   05 Jun 2027 00:46:10.198   05 Jun 2027 00:47:21.887            71.689                Anadyr2          2240.281
       279   05 Jun 2027 00:48:18.466   05 Jun 2027 00:48:53.786            35.320                Norilsk          1103.750
       280   05 Jun 2027 00:48:58.351   05 Jun 2027 00:50:00.150            61.799                Norilsk          1931.219
       281   05 Jun 2027 00:50:23.838   05 Jun 2027 00:51:13.722            49.884               Magadan1          1558.875
       282   05 Jun 2027 00:52:01.826   05 Jun 2027 00:52:01.985             0.159                Norilsk             4.969
       283   05 Jun 2027 00:52:13.814   05 Jun 2027 00:52:36.099            22.285               Magadan1           696.406
       284   05 Jun 2027 00:52:58.810   05 Jun 2027 00:53:08.858            10.048               Magadan2           314.000
       285   05 Jun 2027 00:53:12.691   05 Jun 2027 00:54:10.840            58.149                Irkutsk          1817.156
       286   05 Jun 2027 00:54:58.298   05 Jun 2027 00:56:14.482            76.184                Irkutsk          2380.750
       287   05 Jun 2027 00:58:59.179   05 Jun 2027 00:59:59.299            60.120                Irkutsk          1878.750
       288   05 Jun 2027 01:06:25.496   05 Jun 2027 01:07:15.044            49.548                Sumatra          1548.375
       289   05 Jun 2027 01:10:23.926   05 Jun 2027 01:12:43.066           139.140                Sumatra          4348.125
       290   05 Jun 2027 02:21:05.529   05 Jun 2027 02:21:32.227            26.698                Anadyr2           834.313
       291   05 Jun 2027 02:22:16.755   05 Jun 2027 02:22:46.344            29.589                Anadyr1           924.656
       292   05 Jun 2027 02:23:37.944   05 Jun 2027 02:23:40.981             3.037                Anadyr2            94.906
       293   05 Jun 2027 02:24:15.767   05 Jun 2027 02:25:44.386            88.619                Norilsk          2769.344
       294   05 Jun 2027 02:28:08.494   05 Jun 2027 02:30:33.002           144.508                Irkutsk          4515.875
       295   05 Jun 2027 02:31:41.874   05 Jun 2027 02:32:23.156            41.282                Irkutsk          1290.062
       296   05 Jun 2027 02:36:48.672   05 Jun 2027 02:37:26.880            38.208                Irkutsk          1194.000
       297   05 Jun 2027 02:42:18.746   05 Jun 2027 02:43:13.096            54.350                  Delhi          1698.438
       298   05 Jun 2027 02:44:57.283   05 Jun 2027 02:52:43.078           465.795                Sumatra         14556.094
       299   05 Jun 2027 04:06:43.507   05 Jun 2027 04:07:27.425            43.918                Irkutsk          1372.438
       300   05 Jun 2027 04:07:35.341   05 Jun 2027 04:08:46.098            70.757                Novosib          2211.156
       301   05 Jun 2027 04:08:55.922   05 Jun 2027 04:09:29.660            33.738                Norilsk          1054.313
       302   05 Jun 2027 04:09:51.990   05 Jun 2027 04:13:12.850           200.860                Norilsk          6276.875
       303   05 Jun 2027 04:13:26.263   05 Jun 2027 04:14:12.786            46.523                Irkutsk          1453.844
       304   05 Jun 2027 04:14:19.140   05 Jun 2027 04:16:45.071           145.931                Novosib          4560.344
       305   05 Jun 2027 04:18:59.417   05 Jun 2027 04:23:31.692           272.275                  Delhi          8508.594
       306   05 Jun 2027 05:44:37.787   05 Jun 2027 05:50:02.550           324.763                Novosib         10148.844
       307   05 Jun 2027 07:21:38.093   05 Jun 2027 07:22:00.212            22.119                Norilsk           691.219
       308   05 Jun 2027 07:22:05.010   05 Jun 2027 07:22:20.866            15.856                Norilsk           495.500
       309   05 Jun 2027 07:22:36.473   05 Jun 2027 07:22:51.646            15.173              Murmansk1           474.156
       310   05 Jun 2027 07:23:16.935   05 Jun 2027 07:23:40.347            23.412              Murmansk1           731.625
       311   05 Jun 2027 07:23:42.827   05 Jun 2027 07:23:58.061            15.234              Murmansk2           476.063
       312   05 Jun 2027 07:28:01.280   05 Jun 2027 07:28:19.614            18.334                 Moscow           572.938
       313   05 Jun 2027 07:28:38.149   05 Jun 2027 07:29:10.430            32.281                 Moscow          1008.781
       314   05 Jun 2027 07:42:03.275   05 Jun 2027 07:43:20.423            77.148               CapeTown          2410.875
       315   05 Jun 2027 07:44:19.338   05 Jun 2027 07:47:20.381           181.043               CapeTown          5657.594
       316   05 Jun 2027 08:44:57.031   05 Jun 2027 08:45:07.754            10.723               Magadan2           335.094
       317   05 Jun 2027 08:45:40.241   05 Jun 2027 08:46:55.301            75.060               Magadan1          2345.625
       318   05 Jun 2027 08:47:43.298   05 Jun 2027 08:47:54.528            11.230                Anadyr2           350.938
       319   05 Jun 2027 08:47:54.528   05 Jun 2027 08:49:10.232            75.704                Anadyr1          2365.750
       320   05 Jun 2027 10:20:58.569   05 Jun 2027 10:22:02.987            64.418               Magadan2          2013.063
       321   05 Jun 2027 10:23:06.815   05 Jun 2027 10:23:19.835            13.020               Magadan2           406.875
       322   05 Jun 2027 10:23:43.857   05 Jun 2027 10:24:40.126            56.269               Magadan2          1758.406
       323   05 Jun 2027 11:04:17.860   05 Jun 2027 11:04:58.063            40.203            RioGallegos          1256.344
       324   05 Jun 2027 11:52:45.471   05 Jun 2027 11:55:38.304           172.833               Magadan2          5401.031
       325   05 Jun 2027 11:56:23.040   05 Jun 2027 12:00:57.770           274.730               Magadan1          8585.312
       326   05 Jun 2027 13:16:11.239   05 Jun 2027 13:18:14.865           123.626                Sumatra          3863.313
       327   05 Jun 2027 13:29:52.807   05 Jun 2027 13:30:16.625            23.818                Irkutsk           744.312
       328   05 Jun 2027 13:32:02.589   05 Jun 2027 13:32:15.301            12.712                Norilsk           397.250
       329   05 Jun 2027 13:32:33.246   05 Jun 2027 13:35:11.078           157.832                Irkutsk          4932.250
       330   05 Jun 2027 14:15:25.841   05 Jun 2027 14:21:42.296           376.455            RioGallegos         11764.219
       331   05 Jun 2027 14:49:45.933   05 Jun 2027 14:58:17.504           511.571                Sumatra         15986.594
       332   05 Jun 2027 15:05:29.112   05 Jun 2027 15:12:35.087           425.975                Irkutsk         13311.719
       333   05 Jun 2027 16:35:21.343   05 Jun 2027 16:42:10.727           409.384                  Delhi         12793.250
       334   05 Jun 2027 16:43:49.441   05 Jun 2027 16:49:52.248           362.807                Novosib         11337.719
       335   05 Jun 2027 19:58:26.640   05 Jun 2027 20:02:44.039           257.399                 Moscow          8043.719
       336   05 Jun 2027 20:03:05.824   05 Jun 2027 20:05:25.965           140.141              Murmansk2          4379.406
       337   05 Jun 2027 21:07:34.672   05 Jun 2027 21:15:30.502           475.830               CapeTown         14869.687
       338   06 Jun 2027 00:22:55.338   06 Jun 2027 00:23:40.028            44.690            RioGallegos          1396.562
       339   06 Jun 2027 00:58:07.258   06 Jun 2027 00:59:33.248            85.990                Anadyr2          2687.188
       340   06 Jun 2027 01:00:19.474   06 Jun 2027 01:00:32.454            12.980                Norilsk           405.625
       341   06 Jun 2027 01:00:45.364   06 Jun 2027 01:00:50.285             4.921                Norilsk           153.781
       342   06 Jun 2027 01:00:52.868   06 Jun 2027 01:01:55.994            63.126               Magadan1          1972.688
       343   06 Jun 2027 01:02:20.679   06 Jun 2027 01:02:20.734             0.055                Norilsk             1.719
       344   06 Jun 2027 01:02:41.443   06 Jun 2027 01:03:12.554            31.111               Magadan1           972.219
       345   06 Jun 2027 01:04:00.906   06 Jun 2027 01:04:03.963             3.057                Norilsk            95.531
       346   06 Jun 2027 01:04:13.386   06 Jun 2027 01:04:28.129            14.743               Magadan1           460.719
       347   06 Jun 2027 01:04:28.936   06 Jun 2027 01:06:12.997           104.061                Irkutsk          3251.906
       348   06 Jun 2027 01:07:16.862   06 Jun 2027 01:07:51.240            34.378                Novosib          1074.313
       349   06 Jun 2027 01:11:12.857   06 Jun 2027 01:11:14.063             1.206                Irkutsk            37.688
       350   06 Jun 2027 01:18:13.015   06 Jun 2027 01:21:03.718           170.703                Sumatra          5334.469
       351   06 Jun 2027 01:55:45.264   06 Jun 2027 01:56:05.655            20.391            RioGallegos           637.219
       352   06 Jun 2027 01:59:10.942   06 Jun 2027 01:59:58.589            47.647            RioGallegos          1488.969
       353   06 Jun 2027 02:02:49.010   06 Jun 2027 02:02:56.742             7.732            RioGallegos           241.625
       354   06 Jun 2027 02:32:48.227   06 Jun 2027 02:33:33.595            45.368                Anadyr1          1417.750
       355   06 Jun 2027 02:36:18.265   06 Jun 2027 02:37:37.926            79.661                Norilsk          2489.406
       356   06 Jun 2027 02:37:50.490   06 Jun 2027 02:38:21.143            30.653                Norilsk           957.906
       357   06 Jun 2027 02:40:11.848   06 Jun 2027 02:42:42.172           150.324                Irkutsk          4697.625
       358   06 Jun 2027 02:47:58.792   06 Jun 2027 02:48:29.219            30.427                  Delhi           950.844
       359   06 Jun 2027 02:52:27.568   06 Jun 2027 02:52:46.340            18.772                Irkutsk           586.625
       360   06 Jun 2027 02:53:55.689   06 Jun 2027 02:54:31.123            35.434                  Delhi          1107.312
       361   06 Jun 2027 02:56:13.292   06 Jun 2027 03:03:46.400           453.108                Sumatra         14159.625
       362   06 Jun 2027 04:19:15.353   06 Jun 2027 04:20:41.348            85.995              Murmansk2          2687.344
       363   06 Jun 2027 04:20:43.613   06 Jun 2027 04:25:39.249           295.636                Irkutsk          9238.625
       364   06 Jun 2027 04:26:49.985   06 Jun 2027 04:27:07.851            17.866                Novosib           558.312
       365   06 Jun 2027 05:57:38.993   06 Jun 2027 05:58:17.202            38.209                Norilsk          1194.031
       366   06 Jun 2027 05:58:20.718   06 Jun 2027 05:58:39.586            18.868                Novosib           589.625
       367   06 Jun 2027 05:59:03.988   06 Jun 2027 06:01:42.013           158.025                Novosib          4938.281
       368   06 Jun 2027 06:03:31.579   06 Jun 2027 06:04:00.351            28.772                 Moscow           899.125
       369   06 Jun 2027 06:06:07.514   06 Jun 2027 06:06:17.993            10.479                 Moscow           327.469
       370   06 Jun 2027 06:18:00.336   06 Jun 2027 06:20:02.404           122.068               CapeTown          3814.625
       371   06 Jun 2027 06:24:41.808   06 Jun 2027 06:24:54.147            12.339               CapeTown           385.594
       372   06 Jun 2027 07:21:21.329   06 Jun 2027 07:21:37.332            16.003               Magadan2           500.094
       373   06 Jun 2027 07:21:44.707   06 Jun 2027 07:23:19.900            95.193                Anadyr1          2974.781
       374   06 Jun 2027 07:34:36.186   06 Jun 2027 07:34:43.310             7.124              Murmansk1           222.625
       375   06 Jun 2027 07:35:28.329   06 Jun 2027 07:35:41.567            13.238              Murmansk1           413.687
       376   06 Jun 2027 07:35:43.441   06 Jun 2027 07:37:05.317            81.876                 Moscow          2558.625
       377   06 Jun 2027 07:54:29.763   06 Jun 2027 07:56:06.613            96.850               CapeTown          3026.562
       378   06 Jun 2027 07:59:25.180   06 Jun 2027 08:00:16.192            51.012               CapeTown          1594.125
       379   06 Jun 2027 08:55:27.172   06 Jun 2027 08:55:59.819            32.647               Magadan1          1020.219
       380   06 Jun 2027 08:56:14.266   06 Jun 2027 08:56:15.703             1.437               Magadan1            44.906
       381   06 Jun 2027 08:56:31.678   06 Jun 2027 08:57:10.109            38.431               Magadan1          1200.969
       382   06 Jun 2027 08:57:24.357   06 Jun 2027 08:58:40.168            75.811                Anadyr2          2369.094
       383   06 Jun 2027 08:58:54.829   06 Jun 2027 08:59:42.775            47.946               Magadan2          1498.312
       384   06 Jun 2027 08:59:56.076   06 Jun 2027 09:00:32.367            36.291               Magadan1          1134.094
       385   06 Jun 2027 09:01:45.981   06 Jun 2027 09:02:31.390            45.409               Magadan2          1419.031
       386   06 Jun 2027 10:29:08.422   06 Jun 2027 10:30:35.044            86.622               Magadan1          2706.937
       387   06 Jun 2027 10:30:45.428   06 Jun 2027 10:32:09.619            84.191               Magadan2          2630.969
       388   06 Jun 2027 10:32:40.057   06 Jun 2027 10:33:21.757            41.700                Irkutsk          1303.125
       389   06 Jun 2027 10:33:48.190   06 Jun 2027 10:35:35.065           106.875               Magadan1          3339.844
       390   06 Jun 2027 10:35:57.279   06 Jun 2027 10:36:12.467            15.188               Magadan2           474.625
       391   06 Jun 2027 10:36:18.174   06 Jun 2027 10:36:35.890            17.716               Magadan1           553.625
       392   06 Jun 2027 10:36:35.890   06 Jun 2027 10:38:42.504           126.614               Magadan2          3956.687
       393   06 Jun 2027 12:04:50.252   06 Jun 2027 12:05:39.498            49.246                Irkutsk          1538.937
       394   06 Jun 2027 12:07:17.895   06 Jun 2027 12:12:03.444           285.549               Magadan2          8923.406
       395   06 Jun 2027 12:12:44.577   06 Jun 2027 12:13:41.053            56.476               Magadan1          1764.875
       396   06 Jun 2027 13:40:47.274   06 Jun 2027 13:41:34.102            46.828                Irkutsk          1463.375
       397   06 Jun 2027 13:44:28.030   06 Jun 2027 13:47:44.941           196.911                Irkutsk          6153.469
       398   06 Jun 2027 14:28:12.078   06 Jun 2027 14:35:31.361           439.283            RioGallegos         13727.594
       399   06 Jun 2027 15:02:49.926   06 Jun 2027 15:09:07.085           377.159                Sumatra         11786.219
       400   06 Jun 2027 15:18:43.885   06 Jun 2027 15:23:52.408           308.523                Irkutsk          9641.344
       401   06 Jun 2027 16:49:14.766   06 Jun 2027 16:52:32.450           197.684                  Delhi          6177.625
       402   06 Jun 2027 16:57:19.522   06 Jun 2027 17:00:58.073           218.551                Novosib          6829.719
       403   06 Jun 2027 17:04:56.723   06 Jun 2027 17:04:56.793             0.070                Norilsk             2.187
       404   06 Jun 2027 20:12:10.664   06 Jun 2027 20:13:25.708            75.044              Murmansk2          2345.125
       405   06 Jun 2027 20:14:34.181   06 Jun 2027 20:18:01.214           207.033              Murmansk2          6469.781
       406   06 Jun 2027 20:18:31.887   06 Jun 2027 20:19:27.481            55.594              Murmansk2          1737.312
       407   06 Jun 2027 21:20:19.731   06 Jun 2027 21:26:23.646           363.915               CapeTown         11372.344
       408   06 Jun 2027 23:34:32.390   06 Jun 2027 23:36:28.807           116.417                Anadyr2          3638.031
       409   06 Jun 2027 23:36:39.768   06 Jun 2027 23:37:01.105            21.337                Anadyr2           666.781
       410   06 Jun 2027 23:37:01.260   06 Jun 2027 23:38:05.202            63.942                Norilsk          1998.188
       411   06 Jun 2027 23:38:24.393   06 Jun 2027 23:38:25.112             0.719                Norilsk            22.469
       412   06 Jun 2027 23:38:26.271   06 Jun 2027 23:40:03.848            97.577               Magadan2          3049.281
       413   06 Jun 2027 23:42:38.047   06 Jun 2027 23:43:03.002            24.955               Magadan1           779.844
       414   06 Jun 2027 23:43:57.359   06 Jun 2027 23:44:14.234            16.875                Irkutsk           527.344
       415   06 Jun 2027 23:44:37.185   06 Jun 2027 23:45:22.643            45.458                Irkutsk          1420.563
       416   07 Jun 2027 00:28:43.831   07 Jun 2027 00:32:15.885           212.054            RioGallegos          6626.687
       417   07 Jun 2027 00:37:11.123   07 Jun 2027 00:37:59.564            48.441            RioGallegos          1513.781
       418   07 Jun 2027 01:10:03.446   07 Jun 2027 01:10:24.146            20.700                Anadyr2           646.875
       419   07 Jun 2027 01:10:56.664   07 Jun 2027 01:11:30.650            33.986                Anadyr2          1062.062
       420   07 Jun 2027 01:12:20.886   07 Jun 2027 01:13:37.096            76.210                Norilsk          2381.562
       421   07 Jun 2027 01:13:38.598   07 Jun 2027 01:14:23.319            44.721               Magadan1          1397.531
       422   07 Jun 2027 01:14:42.416   07 Jun 2027 01:15:56.565            74.149               Magadan1          2317.156
       423   07 Jun 2027 01:16:25.041   07 Jun 2027 01:17:44.338            79.297                Irkutsk          2478.031
       424   07 Jun 2027 01:20:49.699   07 Jun 2027 01:20:59.487             9.788                Novosib           305.875
       425   07 Jun 2027 01:21:24.164   07 Jun 2027 01:21:53.020            28.856                Novosib           901.750
       426   07 Jun 2027 01:23:42.374   07 Jun 2027 01:24:13.697            31.323                Novosib           978.844
       427   07 Jun 2027 01:30:06.664   07 Jun 2027 01:33:12.571           185.907                Sumatra          5809.594
       428   07 Jun 2027 02:13:36.451   07 Jun 2027 02:13:53.971            17.520            RioGallegos           547.500
       429   07 Jun 2027 02:44:34.810   07 Jun 2027 02:45:34.999            60.189                Anadyr1          1880.906
       430   07 Jun 2027 02:48:20.767   07 Jun 2027 02:49:09.061            48.294                Norilsk          1509.188
       431   07 Jun 2027 02:49:10.115   07 Jun 2027 02:49:14.667             4.552               Magadan1           142.250
       432   07 Jun 2027 02:49:19.512   07 Jun 2027 02:49:38.766            19.254               Magadan2           601.687
       433   07 Jun 2027 02:52:09.335   07 Jun 2027 02:52:17.876             8.541                Norilsk           266.906
       434   07 Jun 2027 02:52:18.945   07 Jun 2027 02:54:21.068           122.123                Novosib          3816.344
       435   07 Jun 2027 02:54:27.271   07 Jun 2027 02:54:46.911            19.640                Irkutsk           613.750
       436   07 Jun 2027 02:56:36.722   07 Jun 2027 02:57:04.745            28.023                Irkutsk           875.719
       437   07 Jun 2027 02:58:51.806   07 Jun 2027 02:59:07.666            15.860                Irkutsk           495.625
       438   07 Jun 2027 02:59:45.550   07 Jun 2027 03:00:26.280            40.730                Irkutsk          1272.812
       439   07 Jun 2027 03:09:41.262   07 Jun 2027 03:14:12.777           271.515                Sumatra          8484.844
       440   07 Jun 2027 03:44:53.221   07 Jun 2027 03:45:25.618            32.397            RioGallegos          1012.406
       441   07 Jun 2027 04:30:58.983   07 Jun 2027 04:32:43.419           104.436                Irkutsk          3263.625
       442   07 Jun 2027 04:32:52.876   07 Jun 2027 04:34:19.190            86.314                Irkutsk          2697.313
       443   07 Jun 2027 04:34:37.691   07 Jun 2027 04:35:25.670            47.979                Novosib          1499.344
       444   07 Jun 2027 04:36:08.126   07 Jun 2027 04:41:22.368           314.242                  Delhi          9820.063
       445   07 Jun 2027 06:11:35.635   07 Jun 2027 06:11:40.507             4.872                 Moscow           152.250
       446   07 Jun 2027 06:12:35.471   07 Jun 2027 06:13:11.491            36.020              Murmansk1          1125.625
       447   07 Jun 2027 06:13:43.544   07 Jun 2027 06:13:56.591            13.047                 Moscow           407.719
       448   07 Jun 2027 06:15:45.437   07 Jun 2027 06:16:30.895            45.458                 Moscow          1420.563
       449   07 Jun 2027 06:29:47.915   07 Jun 2027 06:32:26.581           158.666               CapeTown          4958.313
       450   07 Jun 2027 07:32:41.681   07 Jun 2027 07:33:01.161            19.480                Anadyr1           608.750
       451   07 Jun 2027 07:33:01.161   07 Jun 2027 07:33:18.704            17.543                Anadyr2           548.219
       452   07 Jun 2027 07:33:34.933   07 Jun 2027 07:34:22.803            47.870                Anadyr2          1495.938
       453   07 Jun 2027 07:34:27.463   07 Jun 2027 07:35:05.059            37.596               Magadan2          1174.875
       454   07 Jun 2027 07:35:20.014   07 Jun 2027 07:35:54.145            34.131                Anadyr1          1066.594
       455   07 Jun 2027 07:46:36.237   07 Jun 2027 07:46:51.839            15.602              Murmansk1           487.562
       456   07 Jun 2027 08:07:04.966   07 Jun 2027 08:13:39.397           394.431               CapeTown         12325.969
       457   07 Jun 2027 09:07:13.425   07 Jun 2027 09:07:59.113            45.688               Magadan1          1427.750
       458   07 Jun 2027 09:09:03.283   07 Jun 2027 09:09:12.200             8.917               Magadan1           278.656
       459   07 Jun 2027 09:09:20.900   07 Jun 2027 09:09:23.836             2.936                Anadyr1            91.750
       460   07 Jun 2027 09:09:49.319   07 Jun 2027 09:10:53.639            64.320               Magadan2          2010.000
       461   07 Jun 2027 09:11:38.204   07 Jun 2027 09:11:44.189             5.985               Magadan1           187.031
       462   07 Jun 2027 09:13:02.857   07 Jun 2027 09:13:05.650             2.793               Magadan2            87.281
       463   07 Jun 2027 09:14:27.855   07 Jun 2027 09:14:34.427             6.572               Magadan1           205.375
       464   07 Jun 2027 09:15:02.217   07 Jun 2027 09:15:07.805             5.588                Anadyr2           174.625
       465   07 Jun 2027 09:54:28.187   07 Jun 2027 09:55:34.288            66.101            RioGallegos          2065.656
       466   07 Jun 2027 10:42:25.423   07 Jun 2027 10:43:07.941            42.518               Magadan2          1328.688
       467   07 Jun 2027 10:43:21.666   07 Jun 2027 10:44:54.731            93.065               Magadan1          2908.281
       468   07 Jun 2027 10:45:27.040   07 Jun 2027 10:45:48.378            21.338               Magadan2           666.813
       469   07 Jun 2027 10:48:02.504   07 Jun 2027 10:48:26.107            23.603                Norilsk           737.594
       470   07 Jun 2027 10:48:30.042   07 Jun 2027 10:49:18.290            48.248               Magadan1          1507.750
       471   07 Jun 2027 10:50:06.932   07 Jun 2027 10:51:00.704            53.772                Norilsk          1680.375
       472   07 Jun 2027 11:26:43.028   07 Jun 2027 11:27:16.060            33.032            RioGallegos          1032.250
       473   07 Jun 2027 12:05:41.671   07 Jun 2027 12:07:44.124           122.453                Sumatra          3826.656
       474   07 Jun 2027 12:13:58.351   07 Jun 2027 12:15:09.918            71.567                Irkutsk          2236.469
       475   07 Jun 2027 12:18:21.392   07 Jun 2027 12:25:22.294           420.902               Magadan2         13153.187
       476   07 Jun 2027 13:53:07.600   07 Jun 2027 13:55:08.701           121.101                Irkutsk          3784.406
       477   07 Jun 2027 14:41:10.376   07 Jun 2027 14:48:04.174           413.798            RioGallegos         12931.188
       478   07 Jun 2027 15:33:28.391   07 Jun 2027 15:33:43.298            14.907                Irkutsk           465.844
       479   07 Jun 2027 17:04:42.409   07 Jun 2027 17:06:07.328            84.919                 Moscow          2653.719
       480   07 Jun 2027 17:07:08.232   07 Jun 2027 17:07:14.181             5.949                 Moscow           185.906
       481   07 Jun 2027 17:08:07.580   07 Jun 2027 17:09:14.127            66.547              Murmansk1          2079.594
       482   07 Jun 2027 17:11:54.279   07 Jun 2027 17:14:39.959           165.680                Norilsk          5177.500
