uniorb/output/strategy_4/Drop/Drop_KinoSat_110302.txt

KinoSat_110302
-------------------------
    Access    *     Start Time (UTCG)     *     Stop Time (UTCG)  *   Duration (s)        *       Station  *  Data (Mbytes)
         1   01 Jun 2027 04:27:21.644   01 Jun 2027 04:28:02.762            41.118               Magadan2          5139.750
         2   01 Jun 2027 04:28:14.098   01 Jun 2027 04:28:23.880             9.782                Novosib          1222.750
         3   01 Jun 2027 04:28:28.688   01 Jun 2027 04:29:16.393            47.705               Magadan2          5963.125
         4   01 Jun 2027 04:29:25.420   01 Jun 2027 04:29:33.469             8.049                Novosib          1006.125
         5   01 Jun 2027 04:29:35.410   01 Jun 2027 04:30:43.239            67.829               Magadan1          8478.625
         6   01 Jun 2027 04:30:53.167   01 Jun 2027 04:31:11.317            18.150                Novosib          2268.750
         7   01 Jun 2027 04:31:33.565   01 Jun 2027 04:32:45.339            71.774              Murmansk1          8971.750
         8   01 Jun 2027 05:07:35.813   01 Jun 2027 05:07:49.101            13.288            RioGallegos          1661.000
         9   01 Jun 2027 05:08:58.421   01 Jun 2027 05:10:19.587            81.166            RioGallegos         10145.750
        10   01 Jun 2027 05:42:08.435   01 Jun 2027 05:44:04.871           116.436                Sumatra         14554.500
        11   01 Jun 2027 05:53:33.153   01 Jun 2027 05:55:17.409           104.256                  Delhi         13032.000
        12   01 Jun 2027 06:05:25.943   01 Jun 2027 06:06:10.037            44.094                Norilsk          5511.750
        13   01 Jun 2027 06:06:20.720   01 Jun 2027 06:06:52.389            31.669                Norilsk          3958.625
        14   01 Jun 2027 06:06:58.719   01 Jun 2027 06:07:01.314             2.595              Murmansk2           324.375
        15   01 Jun 2027 06:07:14.644   01 Jun 2027 06:07:39.704            25.060              Murmansk1          3132.500
        16   01 Jun 2027 06:07:42.508   01 Jun 2027 06:08:06.545            24.037                Norilsk          3004.625
        17   01 Jun 2027 06:08:09.881   01 Jun 2027 06:08:18.050             8.169              Murmansk2          1021.125
        18   01 Jun 2027 06:08:23.593   01 Jun 2027 06:08:43.061            19.468                Norilsk          2433.500
        19   01 Jun 2027 06:08:48.233   01 Jun 2027 06:09:18.574            30.341                Novosib          3792.625
        20   01 Jun 2027 06:48:45.117   01 Jun 2027 06:48:59.467            14.350            RioGallegos          1793.750
        21   01 Jun 2027 07:26:34.902   01 Jun 2027 07:29:20.120           165.218                  Delhi         20652.250
        22   01 Jun 2027 07:42:18.725   01 Jun 2027 07:42:22.897             4.172              Murmansk2           521.500
        23   01 Jun 2027 07:42:29.893   01 Jun 2027 07:42:55.664            25.771                Norilsk          3221.375
        24   01 Jun 2027 07:42:58.248   01 Jun 2027 07:44:07.434            69.186                Novosib          8648.250
        25   01 Jun 2027 09:15:14.314   01 Jun 2027 09:16:04.736            50.422              Murmansk1          6302.750
        26   01 Jun 2027 09:18:41.308   01 Jun 2027 09:23:37.121           295.813                 Moscow         36976.625
        27   01 Jun 2027 09:23:50.469   01 Jun 2027 09:27:06.826           196.357              Murmansk2         24544.625
        28   01 Jun 2027 10:28:28.400   01 Jun 2027 10:33:56.239           327.839               CapeTown         40979.875
        29   01 Jun 2027 11:05:10.392   01 Jun 2027 11:07:37.805           147.413                Anadyr2         18426.625
        30   01 Jun 2027 11:08:12.801   01 Jun 2027 11:09:41.537            88.736                Anadyr2         11092.000
        31   01 Jun 2027 11:13:30.390   01 Jun 2027 11:14:27.603            57.213                Anadyr1          7151.625
        32   01 Jun 2027 12:40:46.877   01 Jun 2027 12:41:23.769            36.892                Anadyr1          4611.500
        33   01 Jun 2027 12:43:59.644   01 Jun 2027 12:44:29.886            30.242               Magadan1          3780.250
        34   01 Jun 2027 12:45:42.261   01 Jun 2027 12:48:07.164           144.903               Magadan2         18112.875
        35   01 Jun 2027 12:49:22.556   01 Jun 2027 12:52:33.069           190.513               Magadan1         23814.125
        36   01 Jun 2027 15:13:17.495   01 Jun 2027 15:16:04.407           166.912            RioGallegos         20864.000
        37   01 Jun 2027 15:59:45.269   01 Jun 2027 16:03:33.763           228.494                Irkutsk         28561.750
        38   01 Jun 2027 16:14:54.320   01 Jun 2027 16:17:24.321           150.001                Sumatra         18750.125
        39   01 Jun 2027 17:37:02.331   01 Jun 2027 17:39:17.715           135.384                Novosib         16923.000
        40   01 Jun 2027 17:45:39.620   01 Jun 2027 17:47:16.565            96.945                  Delhi         12118.125
        41   01 Jun 2027 19:17:35.603   01 Jun 2027 19:18:09.841            34.238                  Delhi          3611.250
        42   02 Jun 2027 03:06:36.128   02 Jun 2027 03:07:34.777            58.649                Anadyr2          7331.125
        43   02 Jun 2027 03:07:56.348   02 Jun 2027 03:08:35.208            38.860               Magadan2          4857.500
        44   02 Jun 2027 03:08:41.088   02 Jun 2027 03:10:21.119           100.031              Murmansk2         12503.875
        45   02 Jun 2027 04:20:26.101   02 Jun 2027 04:23:16.706           170.605                Sumatra         21325.625
        46   02 Jun 2027 04:41:08.690   02 Jun 2027 04:41:17.051             8.361                Novosib          1045.125
        47   02 Jun 2027 04:41:17.617   02 Jun 2027 04:41:36.578            18.961               Magadan1          2370.125
        48   02 Jun 2027 04:41:50.421   02 Jun 2027 04:41:53.140             2.719                Norilsk           339.875
        49   02 Jun 2027 04:42:01.066   02 Jun 2027 04:42:53.101            52.035                Novosib          6504.375
        50   02 Jun 2027 04:43:17.940   02 Jun 2027 04:43:56.828            38.888                Novosib          4861.000
        51   02 Jun 2027 04:44:15.390   02 Jun 2027 04:44:38.418            23.028                Irkutsk          2878.500
        52   02 Jun 2027 04:44:45.031   02 Jun 2027 04:49:35.404           290.373                Norilsk         36296.625
        53   02 Jun 2027 04:49:46.051   02 Jun 2027 04:52:29.586           163.535              Murmansk1         20441.875
        54   02 Jun 2027 05:29:43.173   02 Jun 2027 05:31:49.662           126.489            RioGallegos         15811.125
        55   02 Jun 2027 05:54:16.295   02 Jun 2027 05:57:08.216           171.921                Sumatra         21490.125
        56   02 Jun 2027 06:07:11.644   02 Jun 2027 06:08:45.671            94.027                  Delhi         11753.375
        57   02 Jun 2027 06:19:02.863   02 Jun 2027 06:19:39.138            36.275                Irkutsk          4534.375
        58   02 Jun 2027 06:19:50.196   02 Jun 2027 06:20:10.195            19.999                Novosib          2499.875
        59   02 Jun 2027 06:20:30.718   02 Jun 2027 06:22:54.047           143.329                 Moscow         17916.125
        60   02 Jun 2027 06:23:00.353   02 Jun 2027 06:27:34.012           273.659              Murmansk2         34207.375
        61   02 Jun 2027 07:46:29.173   02 Jun 2027 07:50:33.393           244.220                  Delhi         30527.500
        62   02 Jun 2027 07:50:36.224   02 Jun 2027 07:51:07.125            30.901                 Moscow          3862.625
        63   02 Jun 2027 07:51:15.962   02 Jun 2027 07:51:17.061             1.099                 Moscow           137.375
        64   02 Jun 2027 07:56:09.561   02 Jun 2027 07:56:55.437            45.876              Murmansk1          5734.500
        65   02 Jun 2027 07:58:21.342   02 Jun 2027 07:59:57.412            96.070              Murmansk2         12008.750
        66   02 Jun 2027 07:59:57.412   02 Jun 2027 08:03:13.016           195.604              Murmansk1         24450.500
        67   02 Jun 2027 09:26:02.701   02 Jun 2027 09:26:22.410            19.709                 Moscow          2463.625
        68   02 Jun 2027 09:31:07.559   02 Jun 2027 09:33:03.784           116.225              Murmansk1         14528.125
        69   02 Jun 2027 09:33:13.155   02 Jun 2027 09:35:37.385           144.230                 Moscow         18028.750
        70   02 Jun 2027 09:35:47.880   02 Jun 2027 09:39:08.480           200.600              Murmansk2         25075.000
        71   02 Jun 2027 10:41:44.295   02 Jun 2027 10:48:31.944           407.649               CapeTown         50956.125
        72   02 Jun 2027 11:05:54.537   02 Jun 2027 11:06:46.616            52.079              Murmansk1          6509.875
        73   02 Jun 2027 11:06:51.763   02 Jun 2027 11:10:43.651           231.888                 Moscow         28986.000
        74   02 Jun 2027 11:10:45.219   02 Jun 2027 11:15:05.100           259.881              Murmansk2         32485.125
        75   02 Jun 2027 11:17:06.678   02 Jun 2027 11:21:40.925           274.247                Anadyr2         34280.875
        76   02 Jun 2027 11:23:45.291   02 Jun 2027 11:23:52.030             6.739                Anadyr1           842.375
        77   02 Jun 2027 11:24:53.114   02 Jun 2027 11:26:28.432            95.318                Anadyr1         11914.750
        78   02 Jun 2027 12:55:47.294   02 Jun 2027 13:00:03.058           255.764               Magadan2         31970.500
        79   02 Jun 2027 14:31:01.376   02 Jun 2027 14:31:51.884            50.508               Magadan2          6313.500
        80   02 Jun 2027 15:24:28.309   02 Jun 2027 15:27:51.853           203.544            RioGallegos         25443.000
        81   02 Jun 2027 16:12:21.486   02 Jun 2027 16:13:32.696            71.210                Irkutsk          8901.250
        82   02 Jun 2027 16:17:31.480   02 Jun 2027 16:17:47.031            15.551                Irkutsk          1943.875
        83   02 Jun 2027 16:26:02.563   02 Jun 2027 16:29:10.688           188.125                Sumatra         23515.625
        84   02 Jun 2027 17:46:56.138   02 Jun 2027 17:49:33.063           156.925                Novosib         19615.625
        85   02 Jun 2027 17:56:16.336   02 Jun 2027 17:58:57.982           161.646                  Delhi         20205.750
        86   02 Jun 2027 19:29:34.879   02 Jun 2027 19:30:26.009            51.130                  Delhi          6391.250
        87   02 Jun 2027 21:00:20.006   02 Jun 2027 21:01:22.750            62.744                 Moscow          7843.000
        88   02 Jun 2027 21:03:08.564   02 Jun 2027 21:03:57.496            48.932                 Moscow          6116.500
        89   02 Jun 2027 21:26:18.356   02 Jun 2027 21:28:58.087           159.731               CapeTown         15386.251
        90   03 Jun 2027 03:20:31.966   03 Jun 2027 03:20:56.846            24.880              Murmansk1          3110.000
        91   03 Jun 2027 03:21:00.168   03 Jun 2027 03:25:49.085           288.917                Norilsk         36114.625
        92   03 Jun 2027 03:26:08.702   03 Jun 2027 03:27:29.495            80.793              Murmansk2         10099.125
        93   03 Jun 2027 04:31:42.653   03 Jun 2027 04:33:15.896            93.243                Sumatra         11655.375
        94   03 Jun 2027 04:38:03.955   03 Jun 2027 04:39:52.155           108.200                Sumatra         13525.000
        95   03 Jun 2027 04:56:46.687   03 Jun 2027 05:01:36.579           289.892                Norilsk         36236.500
        96   03 Jun 2027 05:02:12.450   03 Jun 2027 05:04:21.988           129.538              Murmansk1         16192.250
        97   03 Jun 2027 06:14:16.689   03 Jun 2027 06:18:15.514           238.825                Sumatra         29853.125
        98   03 Jun 2027 06:21:16.392   03 Jun 2027 06:22:28.415            72.023                Novosib          9002.875
        99   03 Jun 2027 06:24:03.011   03 Jun 2027 06:28:05.278           242.267                Novosib         30283.375
       100   03 Jun 2027 06:31:52.742   03 Jun 2027 06:33:07.400            74.658              Murmansk2          9332.250
       101   03 Jun 2027 06:33:30.280   03 Jun 2027 06:34:06.576            36.296                Novosib          4537.000
       102   03 Jun 2027 06:34:33.402   03 Jun 2027 06:36:08.519            95.117              Murmansk1         11889.625
       103   03 Jun 2027 06:36:08.519   03 Jun 2027 06:39:31.728           203.209              Murmansk2         25401.125
       104   03 Jun 2027 07:59:45.531   03 Jun 2027 08:04:11.733           266.202                Novosib         33275.250
       105   03 Jun 2027 08:08:44.705   03 Jun 2027 08:09:00.910            16.205                 Moscow          2025.625
       106   03 Jun 2027 08:10:22.632   03 Jun 2027 08:15:13.721           291.089              Murmansk2         36386.125
       107   03 Jun 2027 09:38:25.981   03 Jun 2027 09:39:00.139            34.158                 Moscow          4269.750
       108   03 Jun 2027 09:41:36.505   03 Jun 2027 09:41:59.075            22.570              Murmansk2          2821.250
       109   03 Jun 2027 09:42:30.621   03 Jun 2027 09:45:07.504           156.883              Murmansk2         19610.375
       110   03 Jun 2027 09:45:51.820   03 Jun 2027 09:47:36.901           105.081                 Moscow         13135.125
       111   03 Jun 2027 09:47:40.863   03 Jun 2027 09:51:10.163           209.300              Murmansk2         26162.500
       112   03 Jun 2027 09:56:34.572   03 Jun 2027 09:58:28.781           114.209                Anadyr1         14276.125
       113   03 Jun 2027 10:56:14.581   03 Jun 2027 11:00:49.587           275.006               CapeTown         34375.750
       114   03 Jun 2027 11:18:34.176   03 Jun 2027 11:19:09.065            34.889                 Moscow          4361.125
       115   03 Jun 2027 11:22:10.205   03 Jun 2027 11:27:05.646           295.441              Murmansk2         36930.125
       116   03 Jun 2027 11:30:23.980   03 Jun 2027 11:34:15.234           231.254                Anadyr1         28906.750
       117   03 Jun 2027 13:07:38.082   03 Jun 2027 13:16:42.435           544.353               Magadan1         68044.125
       118   03 Jun 2027 15:35:57.908   03 Jun 2027 15:37:28.983            91.075            RioGallegos         11384.375
       119   03 Jun 2027 16:26:00.414   03 Jun 2027 16:27:22.464            82.050                Irkutsk         10256.250
       120   03 Jun 2027 16:39:10.812   03 Jun 2027 16:41:03.127           112.315                Sumatra         14039.375
       121   03 Jun 2027 17:58:47.670   03 Jun 2027 18:01:38.739           171.069                Novosib         21383.625
       122   03 Jun 2027 18:07:28.197   03 Jun 2027 18:10:44.812           196.615                  Delhi         24576.875
       123   03 Jun 2027 21:10:46.416   03 Jun 2027 21:11:46.384            59.968              Murmansk2          7496.000
       124   03 Jun 2027 21:12:13.245   03 Jun 2027 21:13:51.128            97.883                 Moscow         12235.375
       125   03 Jun 2027 21:37:24.049   03 Jun 2027 21:38:04.869            40.820               CapeTown          5102.500
       126   03 Jun 2027 21:43:37.664   03 Jun 2027 21:44:36.546            58.882               CapeTown          7360.250
       127   04 Jun 2027 03:32:33.082   04 Jun 2027 03:33:35.371            62.289                Novosib          7786.125
       128   04 Jun 2027 03:34:12.111   04 Jun 2027 03:35:27.250            75.139                Norilsk          9392.375
       129   04 Jun 2027 04:43:11.286   04 Jun 2027 04:44:33.084            81.798                Sumatra         10224.750
       130   04 Jun 2027 04:46:59.837   04 Jun 2027 04:47:01.488             1.651                Sumatra           206.375
       131   04 Jun 2027 04:50:09.981   04 Jun 2027 04:50:15.368             5.387                Sumatra           673.375
       132   04 Jun 2027 05:08:48.442   04 Jun 2027 05:13:37.939           289.497                Norilsk         36187.125
       133   04 Jun 2027 05:14:02.079   04 Jun 2027 05:16:15.138           133.059              Murmansk1         16632.375
       134   04 Jun 2027 06:26:14.693   04 Jun 2027 06:29:50.086           215.393                Sumatra         26924.125
       135   04 Jun 2027 06:33:23.181   04 Jun 2027 06:35:53.676           150.495                Novosib         18811.875
       136   04 Jun 2027 06:36:11.448   04 Jun 2027 06:39:11.692           180.244                  Delhi         22530.500
       137   04 Jun 2027 06:44:10.552   04 Jun 2027 06:45:11.552            61.000                 Moscow          7625.000
       138   04 Jun 2027 06:45:18.582   04 Jun 2027 06:46:05.926            47.344                Novosib          5918.000
       139   04 Jun 2027 06:46:32.910   04 Jun 2027 06:51:29.953           297.043              Murmansk2         37130.375
       140   04 Jun 2027 08:10:19.262   04 Jun 2027 08:10:56.261            36.999                  Delhi          4624.875
       141   04 Jun 2027 08:12:21.778   04 Jun 2027 08:16:13.375           231.597                Novosib         28949.625
       142   04 Jun 2027 08:20:27.158   04 Jun 2027 08:20:53.693            26.535                Novosib          3316.875
       143   04 Jun 2027 08:22:24.063   04 Jun 2027 08:27:14.639           290.576              Murmansk2         36322.000
       144   04 Jun 2027 09:50:02.177   04 Jun 2027 09:50:35.076            32.899                 Moscow          4112.375
       145   04 Jun 2027 09:54:00.162   04 Jun 2027 09:56:43.233           163.071              Murmansk1         20383.875
       146   04 Jun 2027 09:56:45.898   04 Jun 2027 09:59:35.575           169.677                 Moscow         21209.625
       147   04 Jun 2027 09:59:57.790   04 Jun 2027 10:03:11.838           194.048              Murmansk1         24256.000
       148   04 Jun 2027 10:06:20.498   04 Jun 2027 10:11:43.861           323.363                Anadyr2         40420.375
       149   04 Jun 2027 11:08:11.063   04 Jun 2027 11:13:01.315           290.252               CapeTown         36281.500
       150   04 Jun 2027 11:30:26.850   04 Jun 2027 11:31:22.504            55.654                 Moscow          6956.750
       151   04 Jun 2027 11:34:08.378   04 Jun 2027 11:36:06.956           118.578              Murmansk1         14822.250
       152   04 Jun 2027 11:36:06.956   04 Jun 2027 11:39:05.789           178.833              Murmansk2         22354.125
       153   04 Jun 2027 11:46:14.921   04 Jun 2027 11:48:17.475           122.554                Anadyr1         15319.250
       154   04 Jun 2027 13:19:31.151   04 Jun 2027 13:22:18.536           167.385               Magadan1         20923.125
       155   04 Jun 2027 13:23:31.431   04 Jun 2027 13:26:28.903           177.472               Magadan1         22184.000
       156   04 Jun 2027 13:26:28.903   04 Jun 2027 13:28:42.902           133.999               Magadan2         16749.875
       157   04 Jun 2027 15:48:06.438   04 Jun 2027 15:49:40.672            94.234            RioGallegos         11779.250
       158   04 Jun 2027 16:37:45.723   04 Jun 2027 16:39:19.209            93.486                Irkutsk         11685.750
       159   04 Jun 2027 16:48:59.048   04 Jun 2027 16:50:46.729           107.681                Sumatra         13460.125
       160   04 Jun 2027 18:10:41.303   04 Jun 2027 18:12:56.677           135.374                Novosib         16921.750
       161   04 Jun 2027 18:18:55.161   04 Jun 2027 18:22:36.067           220.906                  Delhi         27613.250
       162   04 Jun 2027 19:51:30.482   04 Jun 2027 19:53:38.871           128.389                 Moscow         16048.625
       163   04 Jun 2027 21:48:54.567   04 Jun 2027 21:50:24.653            90.086               CapeTown         11260.750
       164   04 Jun 2027 21:50:56.052   04 Jun 2027 21:52:36.639           100.587               CapeTown          6798.250
       165   05 Jun 2027 03:44:51.060   05 Jun 2027 03:45:43.898            52.838                Novosib          6604.750
       166   05 Jun 2027 03:46:00.209   05 Jun 2027 03:46:55.893            55.684              Murmansk2          6960.500
       167   05 Jun 2027 04:54:48.775   05 Jun 2027 04:54:55.410             6.635                Sumatra           829.375
       168   05 Jun 2027 04:56:45.882   05 Jun 2027 04:59:02.387           136.505                Sumatra         17063.125
       169   05 Jun 2027 05:20:49.935   05 Jun 2027 05:22:11.568            81.633                Novosib         10204.125
       170   05 Jun 2027 05:22:18.712   05 Jun 2027 05:25:39.446           200.734                Norilsk         25091.750
       171   05 Jun 2027 05:25:49.789   05 Jun 2027 05:28:09.026           139.237              Murmansk2         17404.625
       172   05 Jun 2027 06:45:33.133   05 Jun 2027 06:46:18.037            44.904                Novosib          5613.000
       173   05 Jun 2027 06:48:05.882   05 Jun 2027 06:51:16.455           190.573                  Delhi         23821.625
       174   05 Jun 2027 06:51:30.876   05 Jun 2027 06:52:38.351            67.475                Irkutsk          8434.375
       175   05 Jun 2027 06:56:42.304   05 Jun 2027 06:57:26.347            44.043                 Moscow          5505.375
       176   05 Jun 2027 06:57:32.371   05 Jun 2027 06:58:04.410            32.039                Novosib          4004.875
       177   05 Jun 2027 06:58:32.769   05 Jun 2027 07:00:00.102            87.333              Murmansk1         10916.625
       178   05 Jun 2027 07:00:00.102   05 Jun 2027 07:03:28.642           208.540              Murmansk2         26067.500
       179   05 Jun 2027 08:25:13.458   05 Jun 2027 08:27:48.532           155.074                Novosib         19384.250
       180   05 Jun 2027 08:32:00.807   05 Jun 2027 08:32:06.727             5.920                Novosib           740.000
       181   05 Jun 2027 08:32:57.040   05 Jun 2027 08:34:22.008            84.968                Norilsk         10621.000
       182   05 Jun 2027 08:34:25.596   05 Jun 2027 08:39:15.752           290.156              Murmansk2         36269.500
       183   05 Jun 2027 09:42:54.377   05 Jun 2027 09:44:34.665           100.288               CapeTown         12536.000
       184   05 Jun 2027 10:02:00.666   05 Jun 2027 10:02:52.102            51.436                 Moscow          6429.500
       185   05 Jun 2027 10:06:01.412   05 Jun 2027 10:08:18.659           137.247              Murmansk1         17155.875
       186   05 Jun 2027 10:08:26.417   05 Jun 2027 10:11:33.273           186.856                 Moscow         23357.000
       187   05 Jun 2027 10:11:45.486   05 Jun 2027 10:14:10.871           145.385              Murmansk2         18173.125
       188   05 Jun 2027 10:14:10.871   05 Jun 2027 10:15:13.480            62.609              Murmansk1          7826.125
       189   05 Jun 2027 10:18:00.284   05 Jun 2027 10:24:41.802           401.518                Anadyr2         50189.750
       190   05 Jun 2027 11:20:02.592   05 Jun 2027 11:25:07.643           305.051               CapeTown         38131.375
       191   05 Jun 2027 11:42:17.141   05 Jun 2027 11:42:53.596            36.455                 Moscow          4556.875
       192   05 Jun 2027 11:46:05.447   05 Jun 2027 11:47:51.797           106.350              Murmansk1         13293.750
       193   05 Jun 2027 11:47:51.797   05 Jun 2027 11:51:05.412           193.615              Murmansk2         24201.875
       194   05 Jun 2027 11:53:58.474   05 Jun 2027 11:54:56.674            58.200                Anadyr2          7275.000
       195   05 Jun 2027 13:31:25.958   05 Jun 2027 13:34:25.033           179.075               Magadan1         22384.375
       196   05 Jun 2027 13:38:44.234   05 Jun 2027 13:40:43.790           119.556               Magadan2         14944.500
       197   05 Jun 2027 15:59:20.962   05 Jun 2027 16:01:48.655           147.693            RioGallegos         18461.625
       198   05 Jun 2027 16:02:00.375   05 Jun 2027 16:05:22.267           201.892            RioGallegos         25236.500
       199   05 Jun 2027 16:48:32.812   05 Jun 2027 16:49:46.370            73.558                Irkutsk          9194.750
       200   05 Jun 2027 16:51:32.116   05 Jun 2027 16:52:05.175            33.059                Novosib          4132.375
       201   05 Jun 2027 17:00:40.285   05 Jun 2027 17:02:33.910           113.625                Sumatra         14203.125
       202   05 Jun 2027 17:06:44.486   05 Jun 2027 17:06:55.213            10.727                Sumatra          1340.875
       203   05 Jun 2027 17:10:04.637   05 Jun 2027 17:11:44.686           100.049                Sumatra         12506.125
       204   05 Jun 2027 18:22:36.608   05 Jun 2027 18:24:23.104           106.496                Novosib         13312.000
       205   05 Jun 2027 18:30:31.396   05 Jun 2027 18:31:44.504            73.108                  Delhi          9138.500
       206   05 Jun 2027 18:32:46.011   05 Jun 2027 18:34:05.210            79.199                  Delhi          9899.875
       207   05 Jun 2027 20:02:44.039   05 Jun 2027 20:05:26.210           162.171                 Moscow         20271.375
       208   05 Jun 2027 21:42:16.576   05 Jun 2027 21:42:44.107            27.531              Murmansk1          3441.375
       209   05 Jun 2027 21:45:56.178   05 Jun 2027 21:48:21.840           145.662                 Moscow         10656.500
       210   06 Jun 2027 03:56:47.753   06 Jun 2027 03:57:51.422            63.669                Novosib          7958.625
       211   06 Jun 2027 03:58:02.197   06 Jun 2027 04:01:47.692           225.495                Norilsk         28186.875
       212   06 Jun 2027 04:01:59.391   06 Jun 2027 04:02:04.762             5.371              Murmansk1           671.375
       213   06 Jun 2027 05:06:33.446   06 Jun 2027 05:07:24.761            51.315                Sumatra          6414.375
       214   06 Jun 2027 05:08:19.763   06 Jun 2027 05:09:15.247            55.484                Sumatra          6935.500
       215   06 Jun 2027 05:19:54.824   06 Jun 2027 05:20:22.772            27.948                  Delhi          3493.500
       216   06 Jun 2027 05:21:54.945   06 Jun 2027 05:24:12.931           137.986                  Delhi         17248.250
       217   06 Jun 2027 05:32:22.322   06 Jun 2027 05:32:58.684            36.362              Murmansk2          4545.250
       218   06 Jun 2027 05:33:02.073   06 Jun 2027 05:37:41.088           279.015                Norilsk         34876.875
       219   06 Jun 2027 05:37:47.596   06 Jun 2027 05:40:03.642           136.046              Murmansk2         17005.750
       220   06 Jun 2027 06:57:46.439   06 Jun 2027 06:59:24.567            98.128                Novosib         12266.000
       221   06 Jun 2027 07:00:05.601   06 Jun 2027 07:03:17.932           192.331                  Delhi         24041.375
       222   06 Jun 2027 07:03:19.264   06 Jun 2027 07:03:28.517             9.253                Novosib          1156.625
       223   06 Jun 2027 07:08:19.825   06 Jun 2027 07:09:11.270            51.445              Murmansk2          6430.625
       224   06 Jun 2027 07:09:14.174   06 Jun 2027 07:10:01.885            47.711                Novosib          5963.875
       225   06 Jun 2027 07:10:32.947   06 Jun 2027 07:15:27.755           294.808              Murmansk2         36851.000
       226   06 Jun 2027 08:35:19.136   06 Jun 2027 08:35:49.636            30.500                 Moscow          3812.500
       227   06 Jun 2027 08:43:55.034   06 Jun 2027 08:44:50.345            55.311              Murmansk2          6913.875
       228   06 Jun 2027 08:44:57.773   06 Jun 2027 08:45:03.391             5.618                Norilsk           702.250
       229   06 Jun 2027 08:45:33.706   06 Jun 2027 08:47:47.329           133.623                 Moscow         16702.875
       230   06 Jun 2027 08:47:55.543   06 Jun 2027 08:51:17.028           201.485              Murmansk2         25185.625
       231   06 Jun 2027 09:55:27.253   06 Jun 2027 09:58:07.596           160.343               CapeTown         20042.875
       232   06 Jun 2027 10:18:02.801   06 Jun 2027 10:19:54.044           111.243              Murmansk2         13905.375
       233   06 Jun 2027 10:20:32.516   06 Jun 2027 10:23:29.809           177.293                 Moscow         22161.625
       234   06 Jun 2027 10:23:52.015   06 Jun 2027 10:27:15.050           203.035              Murmansk1         25379.375
       235   06 Jun 2027 10:29:46.722   06 Jun 2027 10:37:30.586           463.864                Anadyr1         57983.000
       236   06 Jun 2027 11:32:05.899   06 Jun 2027 11:37:08.877           302.978               CapeTown         37872.250
       237   06 Jun 2027 11:54:10.819   06 Jun 2027 12:00:03.069           352.250              Murmansk1         44031.250
       238   06 Jun 2027 12:00:03.069   06 Jun 2027 12:03:04.374           181.305              Murmansk2         22663.125
       239   06 Jun 2027 12:05:00.732   06 Jun 2027 12:09:42.428           281.696                Anadyr1         35212.000
       240   06 Jun 2027 12:11:52.526   06 Jun 2027 12:12:44.577            52.051               Magadan1          6506.375
       241   06 Jun 2027 12:13:41.053   06 Jun 2027 12:13:46.113             5.060               Magadan1           632.500
       242   06 Jun 2027 13:43:22.132   06 Jun 2027 13:46:28.941           186.809               Magadan1         23351.125
       243   06 Jun 2027 13:52:05.606   06 Jun 2027 13:52:22.127            16.521               Magadan1          2065.125
       244   06 Jun 2027 13:53:37.208   06 Jun 2027 13:54:14.930            37.722               Magadan1          4715.250
       245   06 Jun 2027 15:27:21.260   06 Jun 2027 15:27:33.036            11.776                Irkutsk          1472.000
       246   06 Jun 2027 16:11:09.221   06 Jun 2027 16:16:54.049           344.828            RioGallegos         43103.500
       247   06 Jun 2027 17:00:58.073   06 Jun 2027 17:03:53.243           175.170                Novosib         21896.250
       248   06 Jun 2027 17:12:28.159   06 Jun 2027 17:15:21.270           173.111                Sumatra         21638.875
       249   06 Jun 2027 17:17:14.464   06 Jun 2027 17:17:17.342             2.878                Sumatra           359.750
       250   06 Jun 2027 18:35:48.651   06 Jun 2027 18:36:00.642            11.991                Novosib          1498.875
       251   06 Jun 2027 18:41:04.673   06 Jun 2027 18:42:26.653            81.980                Novosib         10247.500
       252   06 Jun 2027 18:44:14.081   06 Jun 2027 18:46:29.695           135.614                  Delhi         16951.750
       253   06 Jun 2027 20:13:33.251   06 Jun 2027 20:17:16.674           223.423                 Moscow         27927.875
       254   06 Jun 2027 21:57:35.524   06 Jun 2027 21:58:39.917            64.393                 Moscow          4796.375
       255   07 Jun 2027 04:08:55.793   07 Jun 2027 04:13:18.989           263.196                Norilsk         32899.500
       256   07 Jun 2027 05:18:24.350   07 Jun 2027 05:20:06.700           102.350                Sumatra         12793.750
       257   07 Jun 2027 05:29:56.027   07 Jun 2027 05:31:59.869           123.842                  Delhi         15480.250
       258   07 Jun 2027 05:44:32.916   07 Jun 2027 05:45:17.257            44.341              Murmansk1          5542.625
       259   07 Jun 2027 05:45:20.096   07 Jun 2027 05:46:17.030            56.934                Novosib          7116.750
       260   07 Jun 2027 05:46:28.067   07 Jun 2027 05:49:42.825           194.758                Norilsk         24344.750
       261   07 Jun 2027 05:50:01.395   07 Jun 2027 05:51:58.946           117.551              Murmansk1         14693.875
       262   07 Jun 2027 07:09:54.259   07 Jun 2027 07:15:16.104           321.845                  Delhi         40230.625
       263   07 Jun 2027 07:15:53.301   07 Jun 2027 07:16:36.691            43.390                Irkutsk          5423.750
       264   07 Jun 2027 07:20:40.412   07 Jun 2027 07:21:12.074            31.662              Murmansk2          3957.750
       265   07 Jun 2027 07:21:17.137   07 Jun 2027 07:22:18.428            61.291                 Moscow          7661.375
       266   07 Jun 2027 07:22:33.405   07 Jun 2027 07:27:27.258           293.853              Murmansk1         36731.625
       267   07 Jun 2027 08:56:58.077   07 Jun 2027 08:58:09.042            70.965                Norilsk          8870.625
       268   07 Jun 2027 08:58:28.888   07 Jun 2027 09:03:18.444           289.556              Murmansk1         36194.500
       269   07 Jun 2027 10:07:51.876   07 Jun 2027 10:11:06.920           195.044               CapeTown         24380.500
       270   07 Jun 2027 10:30:04.297   07 Jun 2027 10:31:53.966           109.669              Murmansk2         13708.625
       271   07 Jun 2027 10:32:26.426   07 Jun 2027 10:35:24.965           178.539                 Moscow         22317.375
       272   07 Jun 2027 10:35:39.263   07 Jun 2027 10:39:16.516           217.253              Murmansk2         27156.625
       273   07 Jun 2027 10:41:37.112   07 Jun 2027 10:50:12.974           515.862                Anadyr1         64482.750
       274   07 Jun 2027 11:39:33.995   07 Jun 2027 11:49:05.153           571.158               CapeTown         71394.750
       275   07 Jun 2027 12:06:05.857   07 Jun 2027 12:15:02.482           536.625              Murmansk2         67078.125
       276   07 Jun 2027 12:17:32.519   07 Jun 2027 12:17:45.295            12.776                Anadyr2          1597.000
       277   07 Jun 2027 12:20:55.427   07 Jun 2027 12:24:33.110           217.683               Magadan1         27210.375
       278   07 Jun 2027 13:55:19.406   07 Jun 2027 13:56:37.162            77.756               Magadan1          9719.500
       279   07 Jun 2027 13:57:34.910   07 Jun 2027 13:58:30.349            55.439               Magadan2          6929.875
       280   07 Jun 2027 15:37:10.507   07 Jun 2027 15:42:17.602           307.095                Irkutsk         38386.875
       281   07 Jun 2027 16:25:54.240   07 Jun 2027 16:26:10.239            15.999            RioGallegos          1999.875
       282   07 Jun 2027 17:10:41.400   07 Jun 2027 17:12:25.061           103.661                Irkutsk         12957.625
       283   07 Jun 2027 17:13:11.975   07 Jun 2027 17:16:46.414           214.439                Novosib         26804.875
       284   07 Jun 2027 17:25:20.545   07 Jun 2027 17:26:34.810            74.265                Sumatra          9283.125
       285   07 Jun 2027 18:51:10.701   07 Jun 2027 18:51:41.053            30.352                Novosib          3794.000
       286   07 Jun 2027 18:53:31.102   07 Jun 2027 18:53:51.577            20.475                Novosib          2559.375
       287   07 Jun 2027 18:54:02.168   07 Jun 2027 18:58:31.542           269.374                  Delhi         33671.750
       288   07 Jun 2027 20:25:11.262   07 Jun 2027 20:26:55.302           104.040                 Moscow         13005.000
       289   07 Jun 2027 22:00:00.781   07 Jun 2027 22:01:05.396            64.615                 Moscow          3059.750
       290   08 Jun 2027 04:20:50.989   08 Jun 2027 04:22:04.177            73.188                Novosib          9148.500
       291   08 Jun 2027 04:22:11.953   08 Jun 2027 04:25:31.586           199.633                Norilsk         24954.125
       292   08 Jun 2027 05:30:20.997   08 Jun 2027 05:33:10.698           169.701                Sumatra         21212.625
       293   08 Jun 2027 05:40:40.848   08 Jun 2027 05:41:50.126            69.278                  Delhi          8659.750
       294   08 Jun 2027 05:46:23.662   08 Jun 2027 05:48:16.551           112.889                  Delhi         14111.125
       295   08 Jun 2027 05:56:05.520   08 Jun 2027 05:56:43.171            37.651                 Moscow          4706.375
       296   08 Jun 2027 05:57:01.361   08 Jun 2027 05:58:36.042            94.681                 Moscow         11835.125
       297   08 Jun 2027 05:58:49.464   08 Jun 2027 06:01:44.645           175.181                Norilsk         21897.625
       298   08 Jun 2027 06:02:04.261   08 Jun 2027 06:03:54.910           110.649              Murmansk2         13831.125
       299   08 Jun 2027 07:21:35.273   08 Jun 2027 07:27:10.773           335.500                  Delhi         41937.500
       300   08 Jun 2027 07:27:18.670   08 Jun 2027 07:27:48.989            30.319                 Moscow          3789.875
       301   08 Jun 2027 07:27:50.293   08 Jun 2027 07:27:55.970             5.677                Novosib           709.625
       302   08 Jun 2027 07:28:08.382   08 Jun 2027 07:28:30.807            22.425                Norilsk          2803.125
       303   08 Jun 2027 07:32:37.008   08 Jun 2027 07:33:12.581            35.573              Murmansk2          4446.625
       304   08 Jun 2027 07:33:14.086   08 Jun 2027 07:33:52.989            38.903                Novosib          4862.875
       305   08 Jun 2027 07:34:17.362   08 Jun 2027 07:35:39.317            81.955                 Moscow         10244.375
       306   08 Jun 2027 07:35:41.951   08 Jun 2027 07:37:44.024           122.073                Norilsk         15259.125
       307   08 Jun 2027 07:37:48.988   08 Jun 2027 07:39:27.113            98.125              Murmansk2         12265.625
       308   08 Jun 2027 09:02:01.797   08 Jun 2027 09:02:15.223            13.426                 Moscow          1678.250
       309   08 Jun 2027 09:08:57.846   08 Jun 2027 09:09:59.661            61.815                Norilsk          7726.875
       310   08 Jun 2027 09:10:08.538   08 Jun 2027 09:11:50.923           102.385                 Moscow         12798.125
       311   08 Jun 2027 09:12:00.447   08 Jun 2027 09:15:19.961           199.514              Murmansk2         24939.250
       312   08 Jun 2027 10:20:09.686   08 Jun 2027 10:23:50.131           220.445               CapeTown         27555.625
       313   08 Jun 2027 10:41:42.266   08 Jun 2027 10:51:17.837           575.571              Murmansk2         71946.375
       314   08 Jun 2027 10:53:30.125   08 Jun 2027 11:02:50.333           560.208                Anadyr2         70026.000
       315   08 Jun 2027 11:56:30.640   08 Jun 2027 12:00:56.478           265.838               CapeTown         33229.750
       316   08 Jun 2027 12:18:41.932   08 Jun 2027 12:23:58.854           316.922              Murmansk2         39615.250
       317   08 Jun 2027 12:23:58.854   08 Jun 2027 12:25:36.224            97.370              Murmansk1         12171.250
       318   08 Jun 2027 12:32:31.012   08 Jun 2027 12:36:27.416           236.404               Magadan2         29550.500
       319   08 Jun 2027 14:07:17.585   08 Jun 2027 14:08:23.812            66.227               Magadan1          8278.375
       320   08 Jun 2027 14:11:56.821   08 Jun 2027 14:12:25.899            29.078               Magadan2          3634.750
       321   08 Jun 2027 14:13:54.773   08 Jun 2027 14:15:12.795            78.022               Magadan1          9752.750
       322   08 Jun 2027 15:48:27.281   08 Jun 2027 15:52:51.605           264.324                Irkutsk         33040.500
       323   08 Jun 2027 16:04:27.474   08 Jun 2027 16:07:35.831           188.357                Sumatra         23544.625
       324   08 Jun 2027 17:23:36.796   08 Jun 2027 17:27:37.477           240.681                Novosib         30085.125
       325   08 Jun 2027 19:03:07.107   08 Jun 2027 19:03:36.623            29.516                Novosib          3689.500
       326   08 Jun 2027 19:05:54.364   08 Jun 2027 19:09:05.969           191.605                  Delhi         23950.625
       327   08 Jun 2027 20:35:14.070   08 Jun 2027 20:36:29.111            75.041              Murmansk1          9380.125
       328   08 Jun 2027 20:36:55.382   08 Jun 2027 20:38:29.921            94.539                 Moscow         11817.375
       329   08 Jun 2027 22:13:31.933   08 Jun 2027 22:14:14.909            42.976              Murmansk2          2423.375
       330   09 Jun 2027 04:32:58.359   09 Jun 2027 04:37:38.529           280.170                Norilsk         35021.250
       331   09 Jun 2027 05:42:23.216   09 Jun 2027 05:44:20.051           116.835                Sumatra         14604.375
       332   09 Jun 2027 05:53:48.064   09 Jun 2027 05:55:32.096           104.032                  Delhi         13004.000
       333   09 Jun 2027 06:07:29.167   09 Jun 2027 06:07:55.345            26.178              Murmansk1          3272.250
       334   09 Jun 2027 06:08:47.460   09 Jun 2027 06:09:21.208            33.748              Murmansk1          4218.500
       335   09 Jun 2027 06:09:37.345   09 Jun 2027 06:10:20.389            43.044                Novosib          5380.500
       336   09 Jun 2027 06:10:43.718   09 Jun 2027 06:13:46.519           182.801                Norilsk         22850.125
       337   09 Jun 2027 06:13:52.465   09 Jun 2027 06:15:51.505           119.040              Murmansk2         14880.000
       338   09 Jun 2027 07:33:09.045   09 Jun 2027 07:34:03.907            54.862                  Delhi          6857.750
       339   09 Jun 2027 07:34:43.628   09 Jun 2027 07:39:01.581           257.953                  Delhi         32244.125
       340   09 Jun 2027 07:39:21.461   09 Jun 2027 07:39:26.296             4.835                 Moscow           604.375
       341   09 Jun 2027 07:44:22.870   09 Jun 2027 07:45:46.036            83.166                Novosib         10395.750
       342   09 Jun 2027 07:46:35.057   09 Jun 2027 07:51:27.283           292.226              Murmansk1         36528.250
       343   09 Jun 2027 09:13:56.880   09 Jun 2027 09:14:33.043            36.163                 Moscow          4520.375
       344   09 Jun 2027 09:19:35.129   09 Jun 2027 09:23:51.840           256.711                 Moscow         32088.875
       345   09 Jun 2027 09:24:46.179   09 Jun 2027 09:27:21.560           155.381              Murmansk1         19422.625
       346   09 Jun 2027 10:28:44.243   09 Jun 2027 10:36:22.624           458.381               CapeTown         57297.625
       347   09 Jun 2027 10:54:07.510   09 Jun 2027 10:55:00.179            52.669              Murmansk2          6583.625
       348   09 Jun 2027 10:55:00.179   09 Jun 2027 11:03:18.959           498.780              Murmansk1         62347.500
       349   09 Jun 2027 11:05:25.030   09 Jun 2027 11:15:23.451           598.421                Anadyr1         74802.625
       350   09 Jun 2027 12:03:30.056   09 Jun 2027 12:07:05.655           215.599               CapeTown         26949.875
       351   09 Jun 2027 12:41:01.594   09 Jun 2027 12:41:38.358            36.764                Anadyr1          4595.500
       352   09 Jun 2027 12:44:14.134   09 Jun 2027 12:44:59.268            45.134               Magadan1          5641.750
       353   09 Jun 2027 12:45:57.594   09 Jun 2027 12:47:59.906           122.312               Magadan2         15289.000
       354   09 Jun 2027 12:47:59.906   09 Jun 2027 12:48:21.896            21.990               Magadan1          2748.750
       355   09 Jun 2027 14:19:16.516   09 Jun 2027 14:20:13.893            57.377               Magadan1          7172.125
       356   09 Jun 2027 14:23:29.504   09 Jun 2027 14:23:57.716            28.212               Magadan2          3526.500
       357   09 Jun 2027 14:28:50.439   09 Jun 2027 14:29:42.302            51.863               Magadan1          6482.875
       358   09 Jun 2027 15:13:31.230   09 Jun 2027 15:16:18.976           167.746            RioGallegos         20968.250
       359   09 Jun 2027 15:59:59.640   09 Jun 2027 16:03:48.449           228.809                Irkutsk         28601.125
       360   09 Jun 2027 16:15:08.142   09 Jun 2027 16:17:38.857           150.715                Sumatra         18839.375
       361   09 Jun 2027 17:35:21.874   09 Jun 2027 17:37:18.070           116.196                Novosib         14524.500
       362   09 Jun 2027 17:45:52.556   09 Jun 2027 17:47:31.016            98.460                  Delhi         12307.500
       363   09 Jun 2027 17:48:31.542   09 Jun 2027 17:50:09.721            98.179                  Delhi         12272.375
       364   09 Jun 2027 19:17:50.274   09 Jun 2027 19:18:52.353            62.079                  Delhi          7759.875
       365   09 Jun 2027 20:44:52.687   09 Jun 2027 20:45:30.023            37.336              Murmansk2          4667.000
       366   09 Jun 2027 20:48:43.536   09 Jun 2027 20:49:04.229            20.693                 Moscow          2586.625
       367   09 Jun 2027 20:51:17.404   09 Jun 2027 20:53:00.267           102.863                 Moscow         12857.875
       368   09 Jun 2027 22:47:53.154   09 Jun 2027 22:48:44.559            51.405               CapeTown          6425.625
       369   10 Jun 2027 03:08:52.750   10 Jun 2027 03:18:15.715           562.965              Murmansk1         70370.625
       370   10 Jun 2027 04:20:40.081   10 Jun 2027 04:23:31.298           171.217                Sumatra         21402.125
       371   10 Jun 2027 04:44:36.851   10 Jun 2027 04:44:56.361            19.510              Murmansk1          2438.750
       372   10 Jun 2027 04:45:08.236   10 Jun 2027 04:46:14.531            66.295                Novosib          8286.875
       373   10 Jun 2027 04:46:21.656   10 Jun 2027 04:49:50.128           208.472                Norilsk         26059.000
       374   10 Jun 2027 04:50:00.788   10 Jun 2027 04:52:44.176           163.388              Murmansk1         20423.500
       375   10 Jun 2027 05:54:31.160   10 Jun 2027 06:06:47.783           736.623                Sumatra         92077.875
       376   10 Jun 2027 06:09:27.375   10 Jun 2027 06:12:05.199           157.824                Novosib         19728.000
       377   10 Jun 2027 06:12:24.906   10 Jun 2027 06:13:58.532            93.626                Novosib         11703.250
       378   10 Jun 2027 06:19:17.408   10 Jun 2027 06:19:53.309            35.901                Irkutsk          4487.625
       379   10 Jun 2027 06:20:48.406   10 Jun 2027 06:22:14.590            86.184                 Moscow         10773.000
       380   10 Jun 2027 06:22:36.777   10 Jun 2027 06:25:48.426           191.649                Norilsk         23956.125
       381   10 Jun 2027 06:25:52.089   10 Jun 2027 06:27:48.680           116.591              Murmansk2         14573.875
       382   10 Jun 2027 07:46:43.794   10 Jun 2027 07:50:47.880           244.086                  Delhi         30510.750
       383   10 Jun 2027 07:50:51.046   10 Jun 2027 07:51:32.627            41.581                 Moscow          5197.625
       384   10 Jun 2027 07:56:26.488   10 Jun 2027 07:57:12.566            46.078              Murmansk1          5759.750
       385   10 Jun 2027 07:57:21.472   10 Jun 2027 07:57:36.811            15.339                Novosib          1917.375
       386   10 Jun 2027 07:58:36.188   10 Jun 2027 08:00:13.046            96.858              Murmansk2         12107.250
       387   10 Jun 2027 08:00:13.046   10 Jun 2027 08:03:27.732           194.686              Murmansk1         24335.750
       388   10 Jun 2027 09:26:17.418   10 Jun 2027 09:27:08.337            50.919                 Moscow          6364.875
       389   10 Jun 2027 09:31:22.218   10 Jun 2027 09:33:34.730           132.512              Murmansk1         16564.000
       390   10 Jun 2027 09:33:43.103   10 Jun 2027 09:36:17.836           154.733                Norilsk         19341.625
       391   10 Jun 2027 09:36:36.553   10 Jun 2027 09:39:23.215           166.662              Murmansk2         20832.750
       392   10 Jun 2027 10:41:59.701   10 Jun 2027 10:48:46.949           407.248               CapeTown         50906.000
       393   10 Jun 2027 11:06:09.174   10 Jun 2027 11:07:01.352            52.178              Murmansk1          6522.250
       394   10 Jun 2027 11:07:08.746   10 Jun 2027 11:10:58.181           229.435                 Moscow         28679.375
       395   10 Jun 2027 11:11:01.876   10 Jun 2027 11:15:19.826           257.950              Murmansk1         32243.750
       396   10 Jun 2027 11:17:21.336   10 Jun 2027 11:25:05.407           464.071                Anadyr2         58008.875
       397   10 Jun 2027 11:26:43.428   10 Jun 2027 11:26:53.711            10.283                Anadyr2          1285.375
       398   10 Jun 2027 12:56:01.843   10 Jun 2027 13:02:03.590           361.747               Magadan1         45218.375
       399   10 Jun 2027 15:24:42.478   10 Jun 2027 15:28:06.482           204.004            RioGallegos         25500.500
       400   10 Jun 2027 16:12:37.883   10 Jun 2027 16:15:41.930           184.047                Irkutsk         23005.875
       401   10 Jun 2027 16:26:16.657   10 Jun 2027 16:29:25.333           188.676                Sumatra         23584.500
       402   10 Jun 2027 17:49:48.197   10 Jun 2027 17:50:30.753            42.556                Novosib          5319.500
       403   10 Jun 2027 17:56:30.191   10 Jun 2027 17:59:12.539           162.348                  Delhi         20293.500
       404   10 Jun 2027 19:29:49.602   10 Jun 2027 19:30:40.031            50.429                  Delhi          6303.625
       405   10 Jun 2027 21:00:34.599   10 Jun 2027 21:01:37.903            63.304                 Moscow          7913.000
       406   10 Jun 2027 21:03:23.646   10 Jun 2027 21:04:10.164            46.518                 Moscow          5814.750
       407   10 Jun 2027 21:26:28.860   10 Jun 2027 21:27:13.560            44.700               CapeTown          5587.500
       408   11 Jun 2027 03:20:46.491   11 Jun 2027 03:21:14.661            28.170              Murmansk2          3521.250
       409   11 Jun 2027 03:21:14.687   11 Jun 2027 03:26:03.777           289.090                Norilsk         36136.250
       410   11 Jun 2027 03:26:23.179   11 Jun 2027 03:29:35.669           192.490              Murmansk2         24061.250
       411   11 Jun 2027 04:31:56.842   11 Jun 2027 04:33:30.702            93.860                Sumatra         11732.500
       412   11 Jun 2027 04:38:18.935   11 Jun 2027 04:40:05.037           106.102                Sumatra         13262.750
       413   11 Jun 2027 04:57:01.543   11 Jun 2027 05:01:51.307           289.764                Norilsk         36220.500
       414   11 Jun 2027 05:02:28.830   11 Jun 2027 05:04:36.589           127.759              Murmansk1         15969.875
       415   11 Jun 2027 06:14:31.338   11 Jun 2027 06:18:29.923           238.585                Sumatra         29823.125
       416   11 Jun 2027 06:21:31.174   11 Jun 2027 06:23:59.770           148.596                Novosib         18574.500
       417   11 Jun 2027 06:24:17.840   11 Jun 2027 06:28:19.681           241.841                Novosib         30230.125
       418   11 Jun 2027 06:32:07.617   11 Jun 2027 06:33:24.682            77.065              Murmansk2          9633.125
       419   11 Jun 2027 06:33:45.069   11 Jun 2027 06:34:21.279            36.210                Novosib          4526.250
       420   11 Jun 2027 06:34:48.210   11 Jun 2027 06:39:46.405           298.195              Murmansk1         37274.375
       421   11 Jun 2027 08:00:00.088   11 Jun 2027 08:04:27.473           267.385                Novosib         33423.125
       422   11 Jun 2027 08:08:36.653   11 Jun 2027 08:09:24.584            47.931                Novosib          5991.375
       423   11 Jun 2027 08:09:30.153   11 Jun 2027 08:11:52.866           142.713                 Moscow         17839.125
       424   11 Jun 2027 08:12:00.370   11 Jun 2027 08:15:28.441           208.071              Murmansk1         26008.875
       425   11 Jun 2027 09:38:40.639   11 Jun 2027 09:39:14.957            34.318                 Moscow          4289.750
       426   11 Jun 2027 09:41:51.522   11 Jun 2027 09:42:13.704            22.182              Murmansk2          2772.750
       427   11 Jun 2027 09:42:38.225   11 Jun 2027 09:42:52.740            14.515              Murmansk1          1814.375
       428   11 Jun 2027 09:42:52.740   11 Jun 2027 09:45:09.547           136.807              Murmansk2         17100.875
       429   11 Jun 2027 09:46:03.937   11 Jun 2027 09:47:51.600           107.663                 Moscow         13457.875
       430   11 Jun 2027 09:47:57.211   11 Jun 2027 09:51:24.898           207.687              Murmansk1         25960.875
       431   11 Jun 2027 09:56:50.189   11 Jun 2027 09:58:44.808           114.619                Anadyr1         14327.375
       432   11 Jun 2027 10:56:29.387   11 Jun 2027 11:01:04.503           275.116               CapeTown         34389.500
       433   11 Jun 2027 11:18:48.737   11 Jun 2027 11:19:25.796            37.059                 Moscow          4632.375
       434   11 Jun 2027 11:22:25.022   11 Jun 2027 11:24:25.584           120.562              Murmansk1         15070.250
       435   11 Jun 2027 11:24:25.584   11 Jun 2027 11:26:48.534           142.950              Murmansk2         17868.750
       436   11 Jun 2027 11:33:54.379   11 Jun 2027 11:33:55.615             1.236                Anadyr2           154.500
       437   11 Jun 2027 13:07:52.671   11 Jun 2027 13:12:14.891           262.220               Magadan2         32777.500
       438   11 Jun 2027 13:14:25.533   11 Jun 2027 13:17:21.536           176.003               Magadan1         22000.375
       439   11 Jun 2027 15:36:12.253   11 Jun 2027 15:39:57.092           224.839            RioGallegos         28104.875
       440   11 Jun 2027 16:26:16.005   11 Jun 2027 16:27:37.216            81.211                Irkutsk         10151.375
       441   11 Jun 2027 16:40:01.464   11 Jun 2027 16:41:17.872            76.408                Sumatra          9551.000
       442   11 Jun 2027 16:44:22.618   11 Jun 2027 16:45:09.241            46.623                Sumatra          5827.875
       443   11 Jun 2027 17:59:02.273   11 Jun 2027 18:00:13.391            71.118                Novosib          8889.750
       444   11 Jun 2027 18:05:16.696   11 Jun 2027 18:06:14.223            57.527                Novosib          7190.875
       445   11 Jun 2027 18:07:42.345   11 Jun 2027 18:10:59.453           197.108                  Delhi         24638.500
       446   11 Jun 2027 21:11:01.732   11 Jun 2027 21:12:42.918           101.186              Murmansk2         12648.250
       447   11 Jun 2027 21:13:23.393   11 Jun 2027 21:13:38.455            15.062              Murmansk1          1882.750
       448   11 Jun 2027 21:14:06.208   11 Jun 2027 21:15:26.880            80.672                 Moscow         10084.000
       449   11 Jun 2027 21:39:13.675   11 Jun 2027 21:40:59.461           105.786               CapeTown         13223.250
       450   12 Jun 2027 03:33:03.701   12 Jun 2027 03:33:50.201            46.500                Novosib          5812.500
       451   12 Jun 2027 03:34:27.335   12 Jun 2027 03:35:16.650            49.315              Murmansk2          6164.375
       452   12 Jun 2027 04:43:25.615   12 Jun 2027 04:44:48.213            82.598                Sumatra         10324.750
       453   12 Jun 2027 04:47:15.824   12 Jun 2027 04:47:16.283             0.459                Sumatra            57.375
       454   12 Jun 2027 04:50:24.859   12 Jun 2027 04:50:29.121             4.262                Sumatra           532.750
       455   12 Jun 2027 05:09:03.299   12 Jun 2027 05:13:52.670           289.371                Norilsk         36171.375
       456   12 Jun 2027 05:14:16.571   12 Jun 2027 05:16:29.751           133.180              Murmansk2         16647.500
       457   12 Jun 2027 06:26:29.272   12 Jun 2027 06:30:04.371           215.099                Sumatra         26887.375
       458   12 Jun 2027 06:33:38.008   12 Jun 2027 06:35:34.369           116.361                Novosib         14545.125
       459   12 Jun 2027 06:36:26.041   12 Jun 2027 06:39:26.492           180.451                  Delhi         22556.375
       460   12 Jun 2027 06:44:25.978   12 Jun 2027 06:44:55.709            29.731                 Moscow          3716.375
       461   12 Jun 2027 06:44:59.972   12 Jun 2027 06:45:26.033            26.061              Murmansk1          3257.625
       462   12 Jun 2027 06:45:33.304   12 Jun 2027 06:46:20.622            47.318                Novosib          5914.750
       463   12 Jun 2027 06:46:47.725   12 Jun 2027 06:51:44.638           296.913              Murmansk2         37114.125
       464   12 Jun 2027 08:10:33.792   12 Jun 2027 08:11:11.061            37.269                  Delhi          4658.625
       465   12 Jun 2027 08:13:03.566   12 Jun 2027 08:16:28.054           204.488                Novosib         25561.000
       466   12 Jun 2027 08:20:42.528   12 Jun 2027 08:21:08.139            25.611                Novosib          3201.375
       467   12 Jun 2027 08:22:38.914   12 Jun 2027 08:27:29.362           290.448              Murmansk2         36306.000
       468   12 Jun 2027 09:50:16.873   12 Jun 2027 09:50:43.721            26.848                 Moscow          3356.000
       469   12 Jun 2027 09:54:14.794   12 Jun 2027 09:57:13.456           178.662              Murmansk2         22332.750
       470   12 Jun 2027 09:57:24.196   12 Jun 2027 09:59:50.261           146.065                 Moscow         18258.125
       471   12 Jun 2027 10:00:28.976   12 Jun 2027 10:03:26.573           177.597              Murmansk2         22199.625
       472   12 Jun 2027 10:06:34.833   12 Jun 2027 10:11:59.497           324.664                Anadyr2         40583.000
       473   12 Jun 2027 11:08:25.785   12 Jun 2027 11:13:16.147           290.362               CapeTown         36295.250
       474   12 Jun 2027 11:30:41.384   12 Jun 2027 11:31:39.090            57.706                 Moscow          7213.250
       475   12 Jun 2027 11:34:23.181   12 Jun 2027 11:39:20.503           297.322              Murmansk2         37165.250
       476   12 Jun 2027 11:46:29.980   12 Jun 2027 11:48:31.654           121.674                Anadyr2         15209.250
       477   12 Jun 2027 13:19:45.770   12 Jun 2027 13:22:25.423           159.653               Magadan1         19956.625
       478   12 Jun 2027 13:22:33.684   12 Jun 2027 13:26:44.016           250.332               Magadan2         31291.500
       479   12 Jun 2027 13:26:44.016   12 Jun 2027 13:29:16.051           152.035               Magadan1         19004.375
       480   12 Jun 2027 15:48:23.412   12 Jun 2027 15:51:50.093           206.681            RioGallegos         25835.125
       481   12 Jun 2027 16:39:20.906   12 Jun 2027 16:39:33.987            13.081                Irkutsk          1635.125
       482   12 Jun 2027 16:49:13.438   12 Jun 2027 16:53:16.079           242.641                Sumatra         30330.125
