uniorb/output/strategy_4/Drop/Drop_KinoSat_111602.txt

KinoSat_111602
-------------------------
    Access    *     Start Time (UTCG)     *     Stop Time (UTCG)  *   Duration (s)        *       Station  *  Data (Mbytes)
         1   01 Jun 2027 03:45:52.972   01 Jun 2027 03:46:47.696            54.724              Murmansk1          1710.125
         2   01 Jun 2027 03:46:54.921   01 Jun 2027 03:50:50.910           235.989                Novosib          7374.656
         3   01 Jun 2027 03:51:34.301   01 Jun 2027 03:51:51.240            16.939                 Moscow           529.344
         4   01 Jun 2027 04:07:48.044   01 Jun 2027 04:08:05.193            17.149               CapeTown           535.906
         5   01 Jun 2027 05:23:18.417   01 Jun 2027 05:23:51.861            33.444                Norilsk          1045.125
         6   01 Jun 2027 05:23:53.558   01 Jun 2027 05:24:51.436            57.878              Murmansk2          1808.688
         7   01 Jun 2027 05:24:51.436   01 Jun 2027 05:25:04.383            12.947              Murmansk1           404.594
         8   01 Jun 2027 05:25:22.234   01 Jun 2027 05:26:05.204            42.970              Murmansk1          1342.812
         9   01 Jun 2027 05:26:50.903   01 Jun 2027 05:27:11.355            20.452              Murmansk2           639.125
        10   01 Jun 2027 05:28:01.717   01 Jun 2027 05:28:03.373             1.656              Murmansk2            51.750
        11   01 Jun 2027 05:43:21.981   01 Jun 2027 05:44:28.950            66.969               CapeTown          2092.781
        12   01 Jun 2027 06:46:08.845   01 Jun 2027 06:50:10.825           241.980                Anadyr1          7561.875
        13   01 Jun 2027 06:52:42.413   01 Jun 2027 06:52:44.777             2.364              Murmansk2            73.875
        14   01 Jun 2027 08:23:06.557   01 Jun 2027 08:23:52.741            46.184               Magadan2          1443.250
        15   01 Jun 2027 08:24:02.760   01 Jun 2027 08:27:39.037           216.277                Anadyr1          6758.656
        16   01 Jun 2027 09:59:32.718   01 Jun 2027 10:03:01.925           209.207               Magadan2          6537.719
        17   01 Jun 2027 10:38:02.001   01 Jun 2027 10:39:52.365           110.364            RioGallegos          3448.875
        18   01 Jun 2027 11:13:37.910   01 Jun 2027 11:14:51.614            73.704                Sumatra          2303.250
        19   01 Jun 2027 11:35:16.014   01 Jun 2027 11:37:23.598           127.584                Irkutsk          3987.000
        20   01 Jun 2027 11:37:38.308   01 Jun 2027 11:41:23.872           225.564              Murmansk1          7048.875
        21   01 Jun 2027 11:41:52.061   01 Jun 2027 11:42:17.683            25.622              Murmansk1           800.688
        22   01 Jun 2027 12:15:32.824   01 Jun 2027 12:16:30.308            57.484            RioGallegos          1796.375
        23   01 Jun 2027 12:17:48.994   01 Jun 2027 12:19:11.023            82.029            RioGallegos          2563.406
        24   01 Jun 2027 12:49:45.777   01 Jun 2027 12:53:30.557           224.780                Sumatra          7024.375
        25   01 Jun 2027 12:54:02.045   01 Jun 2027 12:55:00.821            58.776                Sumatra          1836.750
        26   01 Jun 2027 13:05:12.816   01 Jun 2027 13:07:28.541           135.725                Irkutsk          4241.406
        27   01 Jun 2027 13:09:31.197   01 Jun 2027 13:10:03.144            31.947                Irkutsk           998.344
        28   01 Jun 2027 14:34:54.640   01 Jun 2027 14:39:47.964           293.324                  Delhi          9166.375
        29   01 Jun 2027 14:43:24.106   01 Jun 2027 14:44:53.091            88.985                Novosib          2780.781
        30   01 Jun 2027 14:46:47.723   01 Jun 2027 14:47:00.726            13.003                Norilsk           406.344
        31   01 Jun 2027 14:50:17.119   01 Jun 2027 14:52:30.132           133.013                Norilsk          4156.656
        32   01 Jun 2027 16:00:07.862   01 Jun 2027 16:00:34.720            26.858               CapeTown           839.312
        33   01 Jun 2027 16:17:46.680   01 Jun 2027 16:18:53.647            66.967                 Moscow          2092.719
        34   01 Jun 2027 16:19:28.730   01 Jun 2027 16:20:41.578            72.848                 Moscow          2276.500
        35   01 Jun 2027 16:21:16.443   01 Jun 2027 16:21:43.975            27.532              Murmansk1           860.375
        36   01 Jun 2027 16:22:11.595   01 Jun 2027 16:22:56.171            44.576              Murmansk1          1393.000
        37   01 Jun 2027 16:29:21.889   01 Jun 2027 16:30:18.921            57.032                Norilsk          1782.250
        38   01 Jun 2027 16:36:44.113   01 Jun 2027 16:37:43.205            59.092                Anadyr2          1846.625
        39   01 Jun 2027 16:39:27.242   01 Jun 2027 16:40:16.252            49.010                Anadyr2          1531.563
        40   01 Jun 2027 17:31:02.972   01 Jun 2027 17:32:51.827           108.855               CapeTown          3401.719
        41   01 Jun 2027 17:37:33.298   01 Jun 2027 17:37:55.356            22.058               CapeTown           689.312
        42   01 Jun 2027 17:38:36.998   01 Jun 2027 17:38:53.875            16.877               CapeTown           527.406
        43   01 Jun 2027 17:41:19.779   01 Jun 2027 17:42:50.053            90.274               CapeTown          2821.063
        44   01 Jun 2027 17:57:39.169   01 Jun 2027 18:02:09.985           270.816                 Moscow          8463.000
        45   01 Jun 2027 18:18:39.659   01 Jun 2027 18:18:51.220            11.561                Anadyr1           361.281
        46   01 Jun 2027 18:19:03.923   01 Jun 2027 18:19:22.743            18.820                Anadyr1           588.125
        47   01 Jun 2027 18:22:48.939   01 Jun 2027 18:23:11.491            22.552                Anadyr2           704.750
        48   01 Jun 2027 19:07:49.792   01 Jun 2027 19:09:00.825            71.033               CapeTown          2219.781
        49   01 Jun 2027 19:10:24.165   01 Jun 2027 19:12:52.195           148.030               CapeTown          4625.937
        50   01 Jun 2027 19:40:43.410   01 Jun 2027 19:44:42.272           238.862              Murmansk1          7464.437
        51   01 Jun 2027 19:55:42.845   01 Jun 2027 19:55:49.807             6.962                Anadyr1           217.563
        52   01 Jun 2027 19:55:55.723   01 Jun 2027 19:56:07.521            11.798               Magadan1           368.687
        53   01 Jun 2027 19:56:13.399   01 Jun 2027 19:56:17.087             3.688               Magadan1           115.250
        54   01 Jun 2027 19:56:50.884   01 Jun 2027 19:57:01.148            10.264               Magadan1           320.750
        55   01 Jun 2027 19:58:32.418   01 Jun 2027 19:58:41.464             9.046               Magadan1           282.687
        56   01 Jun 2027 21:23:25.692   01 Jun 2027 21:27:08.454           222.762                Anadyr1          6961.312
        57   01 Jun 2027 21:27:09.901   01 Jun 2027 21:28:33.334            83.433                Anadyr2          2607.281
        58   01 Jun 2027 21:28:35.319   01 Jun 2027 21:32:11.464           216.145               Magadan2          6754.531
        59   01 Jun 2027 21:35:50.238   01 Jun 2027 21:36:13.850            23.612               Magadan1           737.875
        60   01 Jun 2027 22:18:05.627   01 Jun 2027 22:20:29.009           143.382            RioGallegos          4480.687
        61   01 Jun 2027 22:25:57.154   01 Jun 2027 22:26:31.188            34.034            RioGallegos          1063.562
        62   01 Jun 2027 22:59:06.270   01 Jun 2027 23:00:01.595            55.325                Anadyr2          1728.906
        63   01 Jun 2027 23:00:13.269   01 Jun 2027 23:01:19.178            65.909                Anadyr2          2059.656
        64   01 Jun 2027 23:01:19.783   01 Jun 2027 23:01:48.503            28.720                Anadyr1           897.500
        65   01 Jun 2027 23:01:53.294   01 Jun 2027 23:03:21.536            88.242               Magadan1          2757.562
        66   01 Jun 2027 23:03:23.013   01 Jun 2027 23:04:55.484            92.471               Magadan2          2889.719
        67   01 Jun 2027 23:05:33.803   01 Jun 2027 23:06:46.636            72.833                Irkutsk          2276.031
        68   01 Jun 2027 23:08:37.424   01 Jun 2027 23:10:14.198            96.774                Novosib          3024.188
        69   01 Jun 2027 23:21:37.477   01 Jun 2027 23:22:12.361            34.884                Sumatra          1090.125
        70   01 Jun 2027 23:25:55.417   01 Jun 2027 23:25:58.178             2.761                Sumatra            86.281
        71   01 Jun 2027 23:29:28.279   01 Jun 2027 23:30:53.167            84.888                Sumatra          2652.750
        72   02 Jun 2027 00:02:49.260   02 Jun 2027 00:03:13.990            24.730            RioGallegos           772.813
        73   02 Jun 2027 00:06:00.886   02 Jun 2027 00:06:01.374             0.488            RioGallegos            15.250
        74   02 Jun 2027 00:33:59.193   02 Jun 2027 00:35:24.234            85.041                Anadyr1          2657.531
        75   02 Jun 2027 00:35:39.435   02 Jun 2027 00:36:06.273            26.838                Anadyr1           838.687
        76   02 Jun 2027 00:36:06.273   02 Jun 2027 00:36:14.773             8.500                Anadyr2           265.625
        77   02 Jun 2027 00:36:26.007   02 Jun 2027 00:36:41.273            15.266                Anadyr2           477.062
        78   02 Jun 2027 00:37:11.324   02 Jun 2027 00:38:54.529           103.205                Norilsk          3225.156
        79   02 Jun 2027 00:39:20.984   02 Jun 2027 00:39:24.463             3.479               Magadan2           108.719
        80   02 Jun 2027 00:41:03.442   02 Jun 2027 00:43:08.334           124.892                Irkutsk          3902.875
        81   02 Jun 2027 00:43:17.949   02 Jun 2027 00:43:27.145             9.196                Novosib           287.375
        82   02 Jun 2027 00:43:39.728   02 Jun 2027 00:45:59.777           140.049                Novosib          4376.531
        83   02 Jun 2027 00:53:54.165   02 Jun 2027 00:54:04.469            10.304                  Delhi           322.000
        84   02 Jun 2027 00:54:37.389   02 Jun 2027 00:54:53.978            16.589                  Delhi           518.406
        85   02 Jun 2027 00:56:02.746   02 Jun 2027 00:56:54.963            52.217                Sumatra          1631.781
        86   02 Jun 2027 00:58:36.637   02 Jun 2027 00:59:19.421            42.784                Sumatra          1337.000
        87   02 Jun 2027 01:00:01.053   02 Jun 2027 01:01:10.575            69.522                Sumatra          2172.562
        88   02 Jun 2027 01:35:57.439   02 Jun 2027 01:36:09.475            12.036            RioGallegos           376.125
        89   02 Jun 2027 01:36:50.342   02 Jun 2027 01:37:19.899            29.557            RioGallegos           923.656
        90   02 Jun 2027 01:37:44.007   02 Jun 2027 01:37:44.267             0.260            RioGallegos             8.125
        91   02 Jun 2027 01:40:03.428   02 Jun 2027 01:40:13.767            10.339            RioGallegos           323.094
        92   02 Jun 2027 02:07:38.641   02 Jun 2027 02:07:45.572             6.931                Anadyr2           216.594
        93   02 Jun 2027 02:09:00.903   02 Jun 2027 02:09:32.601            31.698                Anadyr2           990.562
        94   02 Jun 2027 02:13:11.656   02 Jun 2027 02:14:36.309            84.653                Norilsk          2645.406
        95   02 Jun 2027 02:15:36.469   02 Jun 2027 02:17:31.094           114.625              Murmansk1          3582.031
        96   02 Jun 2027 02:17:51.737   02 Jun 2027 02:18:52.701            60.964                Novosib          1905.125
        97   02 Jun 2027 02:25:01.798   02 Jun 2027 02:26:03.015            61.217                Irkutsk          1913.031
        98   02 Jun 2027 02:33:17.048   02 Jun 2027 02:33:33.692            16.644                  Delhi           520.125
        99   02 Jun 2027 03:44:37.758   02 Jun 2027 03:44:53.264            15.506                Anadyr2           484.562
       100   02 Jun 2027 03:57:44.023   02 Jun 2027 03:58:10.249            26.226                Novosib           819.562
       101   02 Jun 2027 03:58:46.826   02 Jun 2027 03:58:48.238             1.412              Murmansk2            44.125
       102   02 Jun 2027 03:58:49.652   02 Jun 2027 03:59:08.962            19.310              Murmansk2           603.438
       103   02 Jun 2027 03:59:48.439   02 Jun 2027 04:02:36.200           167.761              Murmansk1          5242.531
       104   02 Jun 2027 04:02:36.200   02 Jun 2027 04:03:09.786            33.586              Murmansk2          1049.563
       105   02 Jun 2027 04:03:58.648   02 Jun 2027 04:06:54.211           175.563                 Moscow          5486.344
       106   02 Jun 2027 04:19:21.910   02 Jun 2027 04:28:39.903           557.993               CapeTown         17437.281
       107   02 Jun 2027 04:29:41.033   02 Jun 2027 04:29:51.228            10.195               CapeTown           318.594
       108   02 Jun 2027 04:29:55.904   02 Jun 2027 04:30:56.945            61.041               CapeTown          1907.531
       109   02 Jun 2027 05:41:19.046   02 Jun 2027 05:41:53.079            34.033                 Moscow          1063.531
       110   02 Jun 2027 06:57:52.166   02 Jun 2027 06:58:00.265             8.099               Magadan2           253.094
       111   02 Jun 2027 06:58:00.265   02 Jun 2027 06:59:33.341            93.076               Magadan1          2908.625
       112   02 Jun 2027 06:59:52.417   02 Jun 2027 07:01:11.508            79.091               Magadan1          2471.594
       113   02 Jun 2027 07:01:13.372   02 Jun 2027 07:01:49.531            36.159                Anadyr2          1129.969
       114   02 Jun 2027 07:01:49.531   02 Jun 2027 07:02:12.731            23.200                Anadyr1           725.000
       115   02 Jun 2027 08:36:35.888   02 Jun 2027 08:37:21.096            45.208               Magadan2          1412.750
       116   02 Jun 2027 08:37:48.842   02 Jun 2027 08:39:38.217           109.375               Magadan2          3417.969
       117   02 Jun 2027 10:09:50.172   02 Jun 2027 10:10:27.173            37.001               Magadan1          1156.281
       118   02 Jun 2027 10:10:57.109   02 Jun 2027 10:11:11.782            14.673               Magadan1           458.531
       119   02 Jun 2027 10:11:11.782   02 Jun 2027 10:11:28.451            16.669               Magadan2           520.906
       120   02 Jun 2027 10:11:59.828   02 Jun 2027 10:12:27.253            27.425                Norilsk           857.031
       121   02 Jun 2027 10:12:42.172   02 Jun 2027 10:12:45.739             3.567                Irkutsk           111.469
       122   02 Jun 2027 10:13:19.969   02 Jun 2027 10:14:01.051            41.082                Norilsk          1283.813
       123   02 Jun 2027 10:14:12.084   02 Jun 2027 10:14:38.931            26.847                Novosib           838.969
       124   02 Jun 2027 10:14:52.303   02 Jun 2027 10:15:17.744            25.441                Irkutsk           795.031
       125   02 Jun 2027 10:15:56.101   02 Jun 2027 10:16:25.366            29.265                Novosib           914.531
       126   02 Jun 2027 10:50:02.435   02 Jun 2027 10:51:05.077            62.642            RioGallegos          1957.563
       127   02 Jun 2027 11:25:19.452   02 Jun 2027 11:25:55.834            36.382                Sumatra          1136.938
       128   02 Jun 2027 11:31:14.470   02 Jun 2027 11:31:33.967            19.497                Sumatra           609.281
       129   02 Jun 2027 11:42:26.400   02 Jun 2027 11:42:41.744            15.344                  Delhi           479.500
       130   02 Jun 2027 11:45:23.355   02 Jun 2027 11:45:38.219            14.864                Irkutsk           464.500
       131   02 Jun 2027 11:46:32.512   02 Jun 2027 11:47:26.631            54.119                Irkutsk          1691.219
       132   02 Jun 2027 11:47:30.566   02 Jun 2027 11:48:38.995            68.429                Novosib          2138.406
       133   02 Jun 2027 11:48:45.166   02 Jun 2027 11:48:45.803             0.637                Norilsk            19.906
       134   02 Jun 2027 11:48:48.543   02 Jun 2027 11:49:28.377            39.834                Irkutsk          1244.812
       135   02 Jun 2027 11:49:36.666   02 Jun 2027 11:49:52.478            15.812                Novosib           494.125
       136   02 Jun 2027 11:49:59.375   02 Jun 2027 11:50:36.417            37.042                Novosib          1157.563
       137   02 Jun 2027 11:50:38.769   02 Jun 2027 11:51:15.430            36.661                Norilsk          1145.656
       138   02 Jun 2027 12:28:07.899   02 Jun 2027 12:28:30.089            22.190            RioGallegos           693.437
       139   02 Jun 2027 12:29:48.617   02 Jun 2027 12:30:15.085            26.468            RioGallegos           827.125
       140   02 Jun 2027 12:33:06.647   02 Jun 2027 12:33:08.215             1.568            RioGallegos            49.000
       141   02 Jun 2027 12:36:59.032   02 Jun 2027 12:37:55.201            56.169            RioGallegos          1755.281
       142   02 Jun 2027 13:02:23.009   02 Jun 2027 13:02:58.524            35.515                Sumatra          1109.844
       143   02 Jun 2027 13:05:10.196   02 Jun 2027 13:05:58.637            48.441                Sumatra          1513.781
       144   02 Jun 2027 13:09:09.563   02 Jun 2027 13:09:49.918            40.355                Sumatra          1261.094
       145   02 Jun 2027 13:17:23.823   02 Jun 2027 13:19:10.735           106.912                Novosib          3341.000
       146   02 Jun 2027 13:20:20.509   02 Jun 2027 13:20:39.541            19.032                Norilsk           594.750
       147   02 Jun 2027 13:20:50.995   02 Jun 2027 13:21:37.931            46.936                Norilsk          1466.750
       148   02 Jun 2027 13:25:18.338   02 Jun 2027 13:25:40.495            22.157                Irkutsk           692.406
       149   02 Jun 2027 14:47:51.231   02 Jun 2027 14:52:05.599           254.368                  Delhi          7949.000
       150   02 Jun 2027 14:56:22.004   02 Jun 2027 14:58:57.967           155.963                Novosib          4873.844
       151   02 Jun 2027 14:59:20.858   02 Jun 2027 14:59:47.462            26.604                Norilsk           831.375
       152   02 Jun 2027 15:02:31.377   02 Jun 2027 15:02:58.565            27.188                Norilsk           849.625
       153   02 Jun 2027 16:10:01.189   02 Jun 2027 16:11:56.771           115.582               CapeTown          3611.937
       154   02 Jun 2027 16:15:43.758   02 Jun 2027 16:15:48.430             4.672               CapeTown           146.000
       155   02 Jun 2027 16:30:01.318   02 Jun 2027 16:30:36.720            35.402                 Moscow          1106.313
       156   02 Jun 2027 16:33:27.933   02 Jun 2027 16:35:00.825            92.892              Murmansk1          2902.875
       157   02 Jun 2027 16:36:18.905   02 Jun 2027 16:37:43.118            84.213              Murmansk1          2631.656
       158   02 Jun 2027 16:48:28.861   02 Jun 2027 16:49:27.160            58.299                Anadyr1          1821.844
       159   02 Jun 2027 16:49:44.582   02 Jun 2027 16:50:08.240            23.658                Anadyr2           739.313
       160   02 Jun 2027 16:50:24.104   02 Jun 2027 16:50:54.305            30.201                Anadyr2           943.781
       161   02 Jun 2027 16:54:47.324   02 Jun 2027 16:55:22.315            34.991                Anadyr2          1093.469
       162   02 Jun 2027 17:43:00.463   02 Jun 2027 17:43:42.613            42.150               CapeTown          1317.187
       163   02 Jun 2027 17:46:08.199   02 Jun 2027 17:46:35.698            27.499               CapeTown           859.344
       164   02 Jun 2027 17:51:59.534   02 Jun 2027 17:52:34.836            35.302               CapeTown          1103.187
       165   02 Jun 2027 18:10:51.178   02 Jun 2027 18:14:27.244           216.066                 Moscow          6752.062
       166   02 Jun 2027 18:25:04.791   02 Jun 2027 18:25:47.599            42.808                Anadyr2          1337.750
       167   02 Jun 2027 18:26:33.485   02 Jun 2027 18:26:51.773            18.288                Anadyr2           571.500
       168   02 Jun 2027 18:28:40.824   02 Jun 2027 18:29:29.342            48.518               Magadan1          1516.187
       169   02 Jun 2027 18:30:44.523   02 Jun 2027 18:30:52.459             7.936               Magadan2           248.000
       170   02 Jun 2027 19:20:17.256   02 Jun 2027 19:21:09.815            52.559               CapeTown          1642.469
       171   02 Jun 2027 19:23:44.150   02 Jun 2027 19:25:29.987           105.837               CapeTown          3307.406
       172   02 Jun 2027 19:54:11.064   02 Jun 2027 19:55:59.845           108.781              Murmansk2          3399.406
       173   02 Jun 2027 20:01:55.726   02 Jun 2027 20:03:25.689            89.963                Anadyr1          2811.344
       174   02 Jun 2027 20:03:27.204   02 Jun 2027 20:04:32.957            65.753               Magadan1          2054.781
       175   02 Jun 2027 20:06:25.431   02 Jun 2027 20:06:43.158            17.727               Magadan2           553.969
       176   02 Jun 2027 20:09:49.112   02 Jun 2027 20:10:16.829            27.717               Magadan1           866.156
       177   02 Jun 2027 21:35:26.694   02 Jun 2027 21:39:17.779           231.085                Anadyr1          7221.406
       178   02 Jun 2027 21:39:28.115   02 Jun 2027 21:42:26.754           178.639                Norilsk          5582.469
       179   02 Jun 2027 21:42:45.931   02 Jun 2027 21:42:55.096             9.165               Magadan2           286.406
       180   02 Jun 2027 21:44:29.805   02 Jun 2027 21:44:40.571            10.766               Magadan1           336.437
       181   02 Jun 2027 21:44:52.728   02 Jun 2027 21:45:02.839            10.111               Magadan1           315.969
       182   02 Jun 2027 21:46:10.082   02 Jun 2027 21:46:25.765            15.683                Anadyr2           490.094
       183   02 Jun 2027 21:48:05.403   02 Jun 2027 21:49:25.515            80.112               Magadan1          2503.500
       184   02 Jun 2027 22:29:52.657   02 Jun 2027 22:31:59.488           126.831            RioGallegos          3963.469
       185   02 Jun 2027 22:40:28.532   02 Jun 2027 22:40:36.071             7.539            RioGallegos           235.594
       186   02 Jun 2027 23:11:03.440   02 Jun 2027 23:11:52.064            48.624                Anadyr2          1519.500
       187   02 Jun 2027 23:12:03.574   02 Jun 2027 23:12:10.331             6.757                Anadyr2           211.156
       188   02 Jun 2027 23:12:13.564   02 Jun 2027 23:13:14.665            61.101                Anadyr2          1909.406
       189   02 Jun 2027 23:13:15.905   02 Jun 2027 23:13:43.925            28.020                Norilsk           875.625
       190   02 Jun 2027 23:13:47.012   02 Jun 2027 23:14:56.446            69.434               Magadan1          2169.812
       191   02 Jun 2027 23:14:56.446   02 Jun 2027 23:15:06.117             9.671               Magadan2           302.219
       192   02 Jun 2027 23:17:27.195   02 Jun 2027 23:17:45.817            18.622                Irkutsk           581.938
       193   02 Jun 2027 23:18:03.426   02 Jun 2027 23:18:04.617             1.191               Magadan1            37.219
       194   02 Jun 2027 23:18:13.987   02 Jun 2027 23:18:47.872            33.885                Irkutsk          1058.906
       195   02 Jun 2027 23:19:12.196   02 Jun 2027 23:19:38.019            25.823                Irkutsk           806.969
       196   02 Jun 2027 23:19:54.722   02 Jun 2027 23:20:31.014            36.292                Novosib          1134.125
       197   02 Jun 2027 23:23:09.308   02 Jun 2027 23:23:30.443            21.135                Irkutsk           660.469
       198   02 Jun 2027 23:23:50.535   02 Jun 2027 23:24:34.874            44.339                Irkutsk          1385.594
       199   02 Jun 2027 23:31:12.801   02 Jun 2027 23:31:52.258            39.457                Sumatra          1233.031
       200   02 Jun 2027 23:37:08.443   02 Jun 2027 23:37:31.249            22.806                Sumatra           712.687
       201   02 Jun 2027 23:39:16.549   02 Jun 2027 23:40:39.753            83.204                Sumatra          2600.125
       202   03 Jun 2027 00:15:17.971   03 Jun 2027 00:15:28.349            10.378            RioGallegos           324.312
       203   03 Jun 2027 00:16:46.365   03 Jun 2027 00:16:50.963             4.598            RioGallegos           143.687
       204   03 Jun 2027 00:45:47.469   03 Jun 2027 00:47:19.917            92.448                Anadyr2          2889.000
       205   03 Jun 2027 00:47:42.751   03 Jun 2027 00:48:01.755            19.004                Anadyr2           593.875
       206   03 Jun 2027 00:49:13.614   03 Jun 2027 00:50:56.345           102.731                Norilsk          3210.344
       207   03 Jun 2027 00:52:47.711   03 Jun 2027 00:53:16.183            28.472               Magadan2           889.750
       208   03 Jun 2027 00:53:21.198   03 Jun 2027 00:55:07.747           106.549                Irkutsk          3329.656
       209   03 Jun 2027 00:55:28.702   03 Jun 2027 00:56:50.929            82.227                Novosib          2569.594
       210   03 Jun 2027 01:02:07.173   03 Jun 2027 01:02:40.852            33.679                  Delhi          1052.469
       211   03 Jun 2027 01:08:47.492   03 Jun 2027 01:09:03.592            16.100                Sumatra           503.125
       212   03 Jun 2027 01:13:36.380   03 Jun 2027 01:14:39.520            63.140                Sumatra          1973.125
       213   03 Jun 2027 01:41:35.067   03 Jun 2027 01:42:13.344            38.277            RioGallegos          1196.156
       214   03 Jun 2027 01:48:53.871   03 Jun 2027 01:49:01.600             7.729            RioGallegos           241.531
       215   03 Jun 2027 01:51:32.902   03 Jun 2027 01:51:47.263            14.361            RioGallegos           448.781
       216   03 Jun 2027 02:19:19.785   03 Jun 2027 02:19:31.950            12.165                Anadyr2           380.156
       217   03 Jun 2027 02:19:37.811   03 Jun 2027 02:20:27.339            49.528                Anadyr1          1547.750
       218   03 Jun 2027 02:21:50.584   03 Jun 2027 02:22:04.109            13.525                Anadyr1           422.656
       219   03 Jun 2027 02:25:13.369   03 Jun 2027 02:27:04.525           111.156                Norilsk          3473.625
       220   03 Jun 2027 02:27:33.772   03 Jun 2027 02:28:22.734            48.962              Murmansk2          1530.063
       221   03 Jun 2027 02:28:45.581   03 Jun 2027 02:29:04.200            18.619              Murmansk1           581.844
       222   03 Jun 2027 02:29:12.230   03 Jun 2027 02:29:49.023            36.793                Novosib          1149.781
       223   03 Jun 2027 02:30:00.193   03 Jun 2027 02:31:00.634            60.441                Irkutsk          1888.781
       224   03 Jun 2027 02:38:56.313   03 Jun 2027 02:40:51.578           115.265                  Delhi          3602.031
       225   03 Jun 2027 04:10:51.616   03 Jun 2027 04:11:37.414            45.798              Murmansk1          1431.188
       226   03 Jun 2027 04:11:42.778   03 Jun 2027 04:14:38.041           175.263              Murmansk1          5476.969
       227   03 Jun 2027 04:14:54.668   03 Jun 2027 04:15:26.584            31.916              Murmansk1           997.375
       228   03 Jun 2027 04:16:03.098   03 Jun 2027 04:19:09.141           186.043                 Moscow          5813.844
       229   03 Jun 2027 04:31:01.932   03 Jun 2027 04:42:13.028           671.096               CapeTown         20971.750
       230   03 Jun 2027 04:42:50.407   03 Jun 2027 04:43:07.799            17.392               CapeTown           543.500
       231   03 Jun 2027 05:33:50.343   03 Jun 2027 05:34:08.220            17.877               Magadan1           558.656
       232   03 Jun 2027 05:34:43.999   03 Jun 2027 05:35:30.113            46.114               Magadan1          1441.063
       233   03 Jun 2027 07:08:30.561   03 Jun 2027 07:09:15.220            44.659                Anadyr1          1395.594
       234   03 Jun 2027 07:09:34.813   03 Jun 2027 07:09:45.296            10.483               Magadan1           327.594
       235   03 Jun 2027 07:09:46.417   03 Jun 2027 07:09:54.450             8.033               Magadan1           251.031
       236   03 Jun 2027 07:09:54.450   03 Jun 2027 07:10:19.950            25.500               Magadan2           796.875
       237   03 Jun 2027 07:10:53.757   03 Jun 2027 07:11:23.104            29.347                Anadyr2           917.094
       238   03 Jun 2027 07:11:23.104   03 Jun 2027 07:12:18.321            55.217                Anadyr1          1725.531
       239   03 Jun 2027 07:12:28.414   03 Jun 2027 07:12:40.716            12.302               Magadan1           384.437
       240   03 Jun 2027 07:12:40.716   03 Jun 2027 07:13:02.567            21.851               Magadan2           682.844
       241   03 Jun 2027 07:13:02.567   03 Jun 2027 07:13:38.154            35.587               Magadan1          1112.094
       242   03 Jun 2027 08:44:03.732   03 Jun 2027 08:44:19.203            15.471                Anadyr1           483.469
       243   03 Jun 2027 08:44:41.787   03 Jun 2027 08:45:43.222            61.435               Magadan1          1919.844
       244   03 Jun 2027 08:45:53.439   03 Jun 2027 08:46:36.691            43.252               Magadan2          1351.625
       245   03 Jun 2027 08:47:42.031   03 Jun 2027 08:47:58.404            16.373                Anadyr1           511.656
       246   03 Jun 2027 08:48:08.014   03 Jun 2027 08:48:15.838             7.824                Anadyr1           244.500
       247   03 Jun 2027 08:48:48.116   03 Jun 2027 08:49:17.609            29.493               Magadan2           921.656
       248   03 Jun 2027 08:49:27.221   03 Jun 2027 08:49:51.352            24.131               Magadan1           754.094
       249   03 Jun 2027 09:27:23.210   03 Jun 2027 09:27:47.761            24.551            RioGallegos           767.219
       250   03 Jun 2027 09:29:06.068   03 Jun 2027 09:29:19.926            13.858            RioGallegos           433.063
       251   03 Jun 2027 09:29:43.729   03 Jun 2027 09:29:48.684             4.955            RioGallegos           154.844
       252   03 Jun 2027 10:19:50.010   03 Jun 2027 10:20:18.441            28.431               Magadan2           888.469
       253   03 Jun 2027 10:21:50.878   03 Jun 2027 10:22:59.820            68.942               Magadan2          2154.437
       254   03 Jun 2027 10:23:15.813   03 Jun 2027 10:23:22.580             6.767               Magadan1           211.469
       255   03 Jun 2027 10:23:27.470   03 Jun 2027 10:23:52.563            25.093                Irkutsk           784.156
       256   03 Jun 2027 10:24:01.414   03 Jun 2027 10:25:40.824            99.410               Magadan1          3106.563
       257   03 Jun 2027 10:26:28.993   03 Jun 2027 10:26:46.265            17.272                Irkutsk           539.750
       258   03 Jun 2027 10:28:08.412   03 Jun 2027 10:28:08.691             0.279                Novosib             8.719
       259   03 Jun 2027 11:02:06.255   03 Jun 2027 11:02:57.077            50.822            RioGallegos          1588.187
       260   03 Jun 2027 11:03:20.003   03 Jun 2027 11:04:18.600            58.597            RioGallegos          1831.156
       261   03 Jun 2027 11:37:47.192   03 Jun 2027 11:39:39.805           112.613                Sumatra          3519.156
       262   03 Jun 2027 11:57:29.462   03 Jun 2027 11:58:25.189            55.727                Irkutsk          1741.469
       263   03 Jun 2027 11:59:05.992   03 Jun 2027 11:59:35.088            29.096                Novosib           909.250
       264   03 Jun 2027 11:59:37.075   03 Jun 2027 11:59:59.149            22.074                Irkutsk           689.813
       265   03 Jun 2027 12:01:05.077   03 Jun 2027 12:01:11.030             5.953                Novosib           186.031
       266   03 Jun 2027 12:01:32.379   03 Jun 2027 12:03:15.984           103.605                Irkutsk          3237.656
       267   03 Jun 2027 12:04:10.034   03 Jun 2027 12:04:53.290            43.256                Novosib          1351.750
       268   03 Jun 2027 12:45:39.733   03 Jun 2027 12:47:04.365            84.632            RioGallegos          2644.750
       269   03 Jun 2027 13:15:17.782   03 Jun 2027 13:16:56.884            99.102                Sumatra          3096.938
       270   03 Jun 2027 13:29:26.802   03 Jun 2027 13:30:01.030            34.228                Novosib          1069.625
       271   03 Jun 2027 13:31:08.948   03 Jun 2027 13:31:46.785            37.837                Novosib          1182.406
       272   03 Jun 2027 13:32:37.864   03 Jun 2027 13:33:48.115            70.251                Norilsk          2195.344
       273   03 Jun 2027 13:34:29.301   03 Jun 2027 13:35:07.537            38.236                Irkutsk          1194.875
       274   03 Jun 2027 13:41:47.808   03 Jun 2027 13:42:16.086            28.278                Norilsk           883.687
       275   03 Jun 2027 13:42:29.396   03 Jun 2027 13:43:33.833            64.437                Norilsk          2013.656
       276   03 Jun 2027 15:01:18.984   03 Jun 2027 15:04:09.618           170.634                  Delhi          5332.313
       277   03 Jun 2027 15:09:00.827   03 Jun 2027 15:10:16.695            75.868              Murmansk2          2370.875
       278   03 Jun 2027 15:11:50.943   03 Jun 2027 15:13:02.360            71.417                Novosib          2231.781
       279   03 Jun 2027 15:16:16.538   03 Jun 2027 15:17:03.111            46.573                Norilsk          1455.406
       280   03 Jun 2027 16:21:06.442   03 Jun 2027 16:23:16.102           129.660               CapeTown          4051.875
       281   03 Jun 2027 16:28:41.551   03 Jun 2027 16:29:21.792            40.241               CapeTown          1257.531
       282   03 Jun 2027 16:45:41.334   03 Jun 2027 16:46:14.402            33.068              Murmansk2          1033.375
       283   03 Jun 2027 16:47:07.137   03 Jun 2027 16:47:48.054            40.917              Murmansk2          1278.656
       284   03 Jun 2027 16:49:57.776   03 Jun 2027 16:50:01.161             3.385              Murmansk2           105.781
       285   03 Jun 2027 16:52:08.368   03 Jun 2027 16:52:12.076             3.708              Murmansk1           115.875
       286   03 Jun 2027 16:52:35.136   03 Jun 2027 16:53:16.245            41.109                 Moscow          1284.656
       287   03 Jun 2027 16:55:27.669   03 Jun 2027 16:55:49.601            21.932              Murmansk2           685.375
       288   03 Jun 2027 17:00:18.364   03 Jun 2027 17:01:26.209            67.845                Anadyr1          2120.156
       289   03 Jun 2027 17:02:20.783   03 Jun 2027 17:02:55.736            34.953                Anadyr1          1092.281
       290   03 Jun 2027 17:04:57.554   03 Jun 2027 17:05:56.584            59.030                Anadyr2          1844.688
       291   03 Jun 2027 17:58:04.092   03 Jun 2027 17:58:14.501            10.409               CapeTown           325.281
       292   03 Jun 2027 17:58:18.071   03 Jun 2027 17:58:53.303            35.232               CapeTown          1101.000
       293   03 Jun 2027 18:04:36.259   03 Jun 2027 18:06:51.924           135.665               CapeTown          4239.531
       294   03 Jun 2027 18:24:27.925   03 Jun 2027 18:25:45.342            77.417              Murmansk2          2419.281
       295   03 Jun 2027 18:26:19.022   03 Jun 2027 18:27:48.815            89.793              Murmansk2          2806.031
       296   03 Jun 2027 18:39:46.646   03 Jun 2027 18:39:51.699             5.053               Magadan1           157.906
       297   03 Jun 2027 18:40:27.798   03 Jun 2027 18:40:50.374            22.576               Magadan1           705.500
       298   03 Jun 2027 18:40:52.850   03 Jun 2027 18:40:57.240             4.390               Magadan1           137.187
       299   03 Jun 2027 18:41:08.575   03 Jun 2027 18:42:34.356            85.781               Magadan2          2680.656
       300   03 Jun 2027 19:34:47.222   03 Jun 2027 19:35:26.560            39.338               CapeTown          1229.313
       301   03 Jun 2027 20:11:33.352   03 Jun 2027 20:15:18.233           224.881                Anadyr2          7027.531
       302   03 Jun 2027 20:16:03.765   03 Jun 2027 20:17:05.160            61.395               Magadan1          1918.594
       303   03 Jun 2027 20:17:05.160   03 Jun 2027 20:18:10.695            65.535               Magadan2          2047.969
       304   03 Jun 2027 20:19:41.259   03 Jun 2027 20:19:56.365            15.106               Magadan1           472.063
       305   03 Jun 2027 20:20:27.256   03 Jun 2027 20:20:50.318            23.062               Magadan1           720.688
       306   03 Jun 2027 21:47:27.431   03 Jun 2027 21:51:08.547           221.116                Anadyr2          6909.875
       307   03 Jun 2027 21:51:18.510   03 Jun 2027 21:54:11.272           172.762                Norilsk          5398.812
       308   03 Jun 2027 21:54:48.067   03 Jun 2027 21:54:48.247             0.180                Norilsk             5.625
       309   03 Jun 2027 21:54:56.360   03 Jun 2027 21:55:20.931            24.571               Magadan1           767.844
       310   03 Jun 2027 21:55:47.297   03 Jun 2027 21:56:06.862            19.565               Magadan1           611.406
       311   03 Jun 2027 21:56:17.244   03 Jun 2027 21:56:52.438            35.194                Irkutsk          1099.812
       312   03 Jun 2027 21:57:13.109   03 Jun 2027 21:58:02.460            49.351                Irkutsk          1542.219
       313   03 Jun 2027 22:41:43.015   03 Jun 2027 22:43:07.978            84.963            RioGallegos          2655.094
       314   03 Jun 2027 22:43:25.954   03 Jun 2027 22:43:53.988            28.034            RioGallegos           876.062
       315   03 Jun 2027 22:47:43.298   03 Jun 2027 22:47:51.336             8.038            RioGallegos           251.188
       316   03 Jun 2027 22:50:39.522   03 Jun 2027 22:51:11.504            31.982            RioGallegos           999.438
       317   03 Jun 2027 23:22:59.774   03 Jun 2027 23:23:41.225            41.451                Anadyr1          1295.344
       318   03 Jun 2027 23:24:14.137   03 Jun 2027 23:25:15.845            61.708                Anadyr1          1928.375
       319   03 Jun 2027 23:25:16.950   03 Jun 2027 23:26:12.126            55.176                Norilsk          1724.250
       320   03 Jun 2027 23:26:28.440   03 Jun 2027 23:26:46.370            17.930               Magadan1           560.312
       321   03 Jun 2027 23:28:51.756   03 Jun 2027 23:29:00.640             8.884               Magadan1           277.625
       322   03 Jun 2027 23:29:22.477   03 Jun 2027 23:30:16.948            54.471                Irkutsk          1702.219
       323   03 Jun 2027 23:30:46.524   03 Jun 2027 23:32:03.601            77.077                Novosib          2408.656
       324   03 Jun 2027 23:33:09.339   03 Jun 2027 23:33:19.036             9.697                Novosib           303.031
       325   03 Jun 2027 23:33:28.398   03 Jun 2027 23:33:43.543            15.145                Novosib           473.281
       326   03 Jun 2027 23:40:45.452   03 Jun 2027 23:41:26.320            40.868                Irkutsk          1277.125
       327   03 Jun 2027 23:43:04.138   03 Jun 2027 23:45:06.621           122.483                Sumatra          3827.594
       328   04 Jun 2027 00:25:07.397   04 Jun 2027 00:25:32.733            25.336            RioGallegos           791.750
       329   04 Jun 2027 00:28:33.294   04 Jun 2027 00:28:50.061            16.767            RioGallegos           523.969
       330   04 Jun 2027 00:57:34.440   04 Jun 2027 00:58:00.369            25.929                Anadyr1           810.281
       331   04 Jun 2027 00:58:00.369   04 Jun 2027 00:58:30.957            30.588                Anadyr2           955.875
       332   04 Jun 2027 00:59:13.977   04 Jun 2027 00:59:50.043            36.066                Anadyr2          1127.062
       333   04 Jun 2027 01:00:08.902   04 Jun 2027 01:00:17.190             8.288                Anadyr2           259.000
       334   04 Jun 2027 01:00:18.668   04 Jun 2027 01:00:26.847             8.179                Anadyr1           255.594
       335   04 Jun 2027 01:01:15.927   04 Jun 2027 01:02:58.020           102.093                Norilsk          3190.406
       336   04 Jun 2027 01:04:18.704   04 Jun 2027 01:04:44.179            25.475               Magadan1           796.094
       337   04 Jun 2027 01:05:09.922   04 Jun 2027 01:07:08.179           118.257                Irkutsk          3695.531
       338   04 Jun 2027 01:07:15.015   04 Jun 2027 01:07:55.984            40.969                Novosib          1280.281
       339   04 Jun 2027 01:12:46.728   04 Jun 2027 01:13:30.602            43.874                  Delhi          1371.063
       340   04 Jun 2027 01:16:12.078   04 Jun 2027 01:16:54.426            42.348                  Delhi          1323.375
       341   04 Jun 2027 01:21:57.148   04 Jun 2027 01:22:52.589            55.441                Sumatra          1732.531
       342   04 Jun 2027 01:53:54.942   04 Jun 2027 01:54:07.009            12.067            RioGallegos           377.094
       343   04 Jun 2027 01:56:08.673   04 Jun 2027 01:56:29.186            20.513            RioGallegos           641.031
       344   04 Jun 2027 01:57:23.486   04 Jun 2027 01:57:42.000            18.514            RioGallegos           578.563
       345   04 Jun 2027 01:59:51.460   04 Jun 2027 02:00:13.803            22.343            RioGallegos           698.219
       346   04 Jun 2027 02:31:00.808   04 Jun 2027 02:31:14.235            13.427                Anadyr2           419.594
       347   04 Jun 2027 02:32:47.000   04 Jun 2027 02:33:42.765            55.765                Anadyr1          1742.656
       348   04 Jun 2027 02:36:11.018   04 Jun 2027 02:36:27.306            16.288                Anadyr2           509.000
       349   04 Jun 2027 02:36:57.646   04 Jun 2027 02:37:05.354             7.708                Anadyr2           240.875
       350   04 Jun 2027 02:37:12.870   04 Jun 2027 02:37:52.379            39.509               Magadan1          1234.656
       351   04 Jun 2027 02:38:09.137   04 Jun 2027 02:38:15.271             6.134                Norilsk           191.688
       352   04 Jun 2027 02:38:31.526   04 Jun 2027 02:38:47.313            15.787                Norilsk           493.344
       353   04 Jun 2027 02:39:32.228   04 Jun 2027 02:40:49.485            77.257              Murmansk2          2414.281
       354   04 Jun 2027 02:40:49.485   04 Jun 2027 02:41:05.579            16.094              Murmansk1           502.938
       355   04 Jun 2027 02:41:35.345   04 Jun 2027 02:42:18.855            43.510                Novosib          1359.688
       356   04 Jun 2027 02:43:14.759   04 Jun 2027 02:43:23.731             8.972                Irkutsk           280.375
       357   04 Jun 2027 02:44:40.000   04 Jun 2027 02:44:55.923            15.923                Irkutsk           497.594
       358   04 Jun 2027 02:47:21.776   04 Jun 2027 02:47:48.404            26.628                Irkutsk           832.125
       359   04 Jun 2027 02:48:56.019   04 Jun 2027 02:49:11.070            15.051                  Delhi           470.344
       360   04 Jun 2027 02:52:36.392   04 Jun 2027 02:53:34.107            57.715                  Delhi          1803.594
       361   04 Jun 2027 04:23:09.068   04 Jun 2027 04:23:21.514            12.446              Murmansk1           388.938
       362   04 Jun 2027 04:23:24.123   04 Jun 2027 04:24:09.857            45.734                 Moscow          1429.187
       363   04 Jun 2027 04:24:12.988   04 Jun 2027 04:26:18.462           125.474              Murmansk2          3921.063
       364   04 Jun 2027 04:26:18.462   04 Jun 2027 04:27:41.358            82.896              Murmansk1          2590.500
       365   04 Jun 2027 04:28:08.049   04 Jun 2027 04:31:20.611           192.562                 Moscow          6017.562
       366   04 Jun 2027 05:46:19.240   04 Jun 2027 05:47:41.677            82.437                Anadyr2          2576.156
       367   04 Jun 2027 07:20:56.293   04 Jun 2027 07:21:09.632            13.339               Magadan1           416.844
       368   04 Jun 2027 07:21:09.632   04 Jun 2027 07:21:11.046             1.414               Magadan2            44.187
       369   04 Jun 2027 07:21:26.723   04 Jun 2027 07:22:09.043            42.320                Anadyr1          1322.500
       370   04 Jun 2027 07:22:20.655   04 Jun 2027 07:23:14.323            53.668                Anadyr2          1677.125
       371   04 Jun 2027 07:23:32.252   04 Jun 2027 07:23:58.366            26.114               Magadan1           816.062
       372   04 Jun 2027 07:24:09.377   04 Jun 2027 07:24:35.233            25.856               Magadan2           808.000
       373   04 Jun 2027 07:24:50.576   04 Jun 2027 07:25:33.526            42.950               Magadan2          1342.188
       374   04 Jun 2027 07:25:33.526   04 Jun 2027 07:25:40.868             7.342               Magadan1           229.437
       375   04 Jun 2027 07:35:31.928   04 Jun 2027 07:35:42.817            10.889                 Moscow           340.281
       376   04 Jun 2027 08:55:24.433   04 Jun 2027 08:55:39.570            15.137               Magadan1           473.031
       377   04 Jun 2027 08:56:09.576   04 Jun 2027 08:56:50.226            40.650               Magadan2          1270.312
       378   04 Jun 2027 08:57:03.940   04 Jun 2027 08:58:45.762           101.822                Anadyr1          3181.937
       379   04 Jun 2027 08:59:56.102   04 Jun 2027 09:00:21.991            25.889               Magadan1           809.031
       380   04 Jun 2027 09:00:31.146   04 Jun 2027 09:01:05.902            34.756               Magadan2          1086.125
       381   04 Jun 2027 09:01:12.760   04 Jun 2027 09:01:53.619            40.859               Magadan2          1276.844
       382   04 Jun 2027 09:02:53.042   04 Jun 2027 09:03:13.623            20.581                Norilsk           643.156
       383   04 Jun 2027 09:39:04.322   04 Jun 2027 09:39:48.960            44.638            RioGallegos          1394.938
       384   04 Jun 2027 09:48:06.777   04 Jun 2027 09:48:17.305            10.528            RioGallegos           329.000
       385   04 Jun 2027 10:33:51.043   04 Jun 2027 10:35:14.612            83.569               Magadan2          2611.531
       386   04 Jun 2027 10:35:36.100   04 Jun 2027 10:35:37.743             1.643               Magadan2            51.344
       387   04 Jun 2027 10:36:24.754   04 Jun 2027 10:36:38.220            13.466                Irkutsk           420.812
       388   04 Jun 2027 10:37:01.018   04 Jun 2027 10:37:05.703             4.685                Norilsk           146.406
       389   04 Jun 2027 10:37:23.068   04 Jun 2027 10:37:35.523            12.455                Irkutsk           389.219
       390   04 Jun 2027 10:37:39.053   04 Jun 2027 10:38:24.051            44.998               Magadan1          1406.188
       391   04 Jun 2027 10:38:30.637   04 Jun 2027 10:38:36.220             5.583                Norilsk           174.469
       392   04 Jun 2027 10:38:38.079   04 Jun 2027 10:39:26.385            48.306                Irkutsk          1509.562
       393   04 Jun 2027 11:14:13.588   04 Jun 2027 11:14:55.319            41.731            RioGallegos          1304.094
       394   04 Jun 2027 11:49:02.004   04 Jun 2027 11:50:22.697            80.693                Sumatra          2521.656
       395   04 Jun 2027 12:04:31.362   04 Jun 2027 12:04:33.938             2.576                Irkutsk            80.500
       396   04 Jun 2027 12:05:13.510   04 Jun 2027 12:05:15.620             2.110                Novosib            65.938
       397   04 Jun 2027 12:05:36.549   04 Jun 2027 12:06:08.452            31.903                Novosib           996.969
       398   04 Jun 2027 12:09:10.264   04 Jun 2027 12:09:34.745            24.481                Irkutsk           765.031
       399   04 Jun 2027 12:11:36.564   04 Jun 2027 12:12:26.641            50.077                Irkutsk          1564.906
       400   04 Jun 2027 12:53:43.951   04 Jun 2027 12:54:58.827            74.876            RioGallegos          2339.875
       401   04 Jun 2027 12:57:08.389   04 Jun 2027 12:58:18.052            69.663            RioGallegos          2176.969
       402   04 Jun 2027 13:00:54.676   04 Jun 2027 13:01:10.577            15.901            RioGallegos           496.906
       403   04 Jun 2027 13:28:55.018   04 Jun 2027 13:31:54.402           179.384                Sumatra          5605.750
       404   04 Jun 2027 13:45:29.070   04 Jun 2027 13:46:08.104            39.034                Irkutsk          1219.812
       405   04 Jun 2027 13:47:32.848   04 Jun 2027 13:47:55.635            22.787                Irkutsk           712.094
       406   04 Jun 2027 13:52:38.263   04 Jun 2027 13:54:16.755            98.492                Norilsk          3077.875
       407   04 Jun 2027 15:17:38.655   04 Jun 2027 15:18:46.305            67.650                 Moscow          2114.063
       408   04 Jun 2027 15:19:34.295   04 Jun 2027 15:19:51.619            17.324                 Moscow           541.375
       409   04 Jun 2027 15:20:17.361   04 Jun 2027 15:20:54.446            37.085                 Moscow          1158.906
       410   04 Jun 2027 15:21:02.313   04 Jun 2027 15:22:18.650            76.337              Murmansk1          2385.531
       411   04 Jun 2027 15:24:36.083   04 Jun 2027 15:25:42.764            66.681                Norilsk          2083.781
       412   04 Jun 2027 15:28:18.891   04 Jun 2027 15:29:27.445            68.554                Norilsk          2142.312
       413   04 Jun 2027 16:32:30.667   04 Jun 2027 16:33:29.641            58.974               CapeTown          1842.937
       414   04 Jun 2027 16:35:54.344   04 Jun 2027 16:35:58.648             4.304               CapeTown           134.500
       415   04 Jun 2027 16:36:17.970   04 Jun 2027 16:36:36.694            18.724               CapeTown           585.125
       416   04 Jun 2027 16:38:10.438   04 Jun 2027 16:38:42.946            32.508               CapeTown          1015.875
       417   04 Jun 2027 16:54:42.021   04 Jun 2027 16:54:44.378             2.357                 Moscow            73.656
       418   04 Jun 2027 16:55:01.272   04 Jun 2027 16:55:43.954            42.682                 Moscow          1333.812
       419   04 Jun 2027 16:57:26.323   04 Jun 2027 16:58:50.345            84.022                 Moscow          2625.688
       420   04 Jun 2027 17:05:38.010   04 Jun 2027 17:06:12.162            34.152              Murmansk2          1067.250
       421   04 Jun 2027 17:12:10.910   04 Jun 2027 17:13:25.839            74.929                Anadyr2          2341.531
       422   04 Jun 2027 17:13:47.246   04 Jun 2027 17:14:31.020            43.774                Anadyr1          1367.938
       423   04 Jun 2027 17:16:56.660   04 Jun 2027 17:17:10.629            13.969                Anadyr2           436.531
       424   04 Jun 2027 17:20:00.141   04 Jun 2027 17:20:07.031             6.890                Anadyr2           215.312
       425   04 Jun 2027 17:20:57.725   04 Jun 2027 17:20:59.997             2.272                Anadyr1            71.000
       426   04 Jun 2027 18:07:03.983   04 Jun 2027 18:09:16.125           132.142               CapeTown          4129.437
       427   04 Jun 2027 18:37:02.658   04 Jun 2027 18:37:41.944            39.286              Murmansk1          1227.688
       428   04 Jun 2027 18:37:47.139   04 Jun 2027 18:42:05.213           258.074              Murmansk2          8064.813
       429   04 Jun 2027 18:53:40.007   04 Jun 2027 18:54:20.181            40.174               Magadan1          1255.438
       430   04 Jun 2027 19:45:57.246   04 Jun 2027 19:46:40.531            43.285               CapeTown          1352.656
       431   04 Jun 2027 19:50:00.301   04 Jun 2027 19:50:21.484            21.183               CapeTown           661.969
       432   04 Jun 2027 20:23:35.104   04 Jun 2027 20:26:53.803           198.699                Anadyr2          6209.344
       433   04 Jun 2027 20:26:59.171   04 Jun 2027 20:29:31.679           152.508               Magadan2          4765.875
       434   04 Jun 2027 20:36:51.920   04 Jun 2027 20:37:43.072            51.152               Magadan2          1598.500
       435   04 Jun 2027 21:59:27.845   04 Jun 2027 22:03:01.561           213.716                Anadyr1          6678.625
       436   04 Jun 2027 22:03:07.342   04 Jun 2027 22:03:24.183            16.841                Norilsk           526.281
       437   04 Jun 2027 22:04:04.530   04 Jun 2027 22:05:25.737            81.207               Magadan2          2537.719
       438   04 Jun 2027 22:05:25.737   04 Jun 2027 22:05:44.598            18.861               Magadan1           589.406
       439   04 Jun 2027 22:06:05.783   04 Jun 2027 22:07:04.014            58.231               Magadan1          1819.719
       440   04 Jun 2027 22:08:02.276   04 Jun 2027 22:08:07.931             5.655               Magadan1           176.719
       441   04 Jun 2027 22:08:10.660   04 Jun 2027 22:08:12.157             1.497                Norilsk            46.781
       442   04 Jun 2027 22:08:23.596   04 Jun 2027 22:08:54.247            30.651               Magadan1           957.844
       443   04 Jun 2027 22:09:17.506   04 Jun 2027 22:09:47.711            30.205                Irkutsk           943.906
       444   04 Jun 2027 22:12:08.254   04 Jun 2027 22:12:23.139            14.885                Irkutsk           465.156
       445   04 Jun 2027 22:12:52.761   04 Jun 2027 22:13:15.102            22.341                Irkutsk           698.156
       446   04 Jun 2027 22:24:09.900   04 Jun 2027 22:24:44.037            34.137                Sumatra          1066.781
       447   04 Jun 2027 22:26:16.118   04 Jun 2027 22:27:12.153            56.035                Sumatra          1751.094
       448   04 Jun 2027 23:01:47.550   04 Jun 2027 23:02:09.279            21.729            RioGallegos           679.031
       449   04 Jun 2027 23:34:55.192   04 Jun 2027 23:37:14.731           139.539                Anadyr2          4360.594
       450   04 Jun 2027 23:37:14.731   04 Jun 2027 23:37:29.641            14.910                Anadyr1           465.937
       451   04 Jun 2027 23:37:33.404   04 Jun 2027 23:39:00.307            86.903                Norilsk          2715.719
       452   04 Jun 2027 23:40:00.952   04 Jun 2027 23:41:03.246            62.294               Magadan1          1946.687
       453   04 Jun 2027 23:41:19.320   04 Jun 2027 23:41:32.019            12.699                Irkutsk           396.844
       454   04 Jun 2027 23:41:44.373   04 Jun 2027 23:42:22.652            38.279                Irkutsk          1196.219
       455   04 Jun 2027 23:42:23.184   04 Jun 2027 23:42:41.514            18.330                Novosib           572.813
       456   04 Jun 2027 23:44:49.732   04 Jun 2027 23:45:29.176            39.444                Novosib          1232.625
       457   04 Jun 2027 23:47:46.753   04 Jun 2027 23:48:01.410            14.657                Novosib           458.031
       458   04 Jun 2027 23:48:47.339   04 Jun 2027 23:49:45.516            58.177                Novosib          1818.031
       459   04 Jun 2027 23:57:45.322   04 Jun 2027 23:57:56.626            11.304                Sumatra           353.250
       460   05 Jun 2027 00:03:52.890   05 Jun 2027 00:03:59.603             6.713                Sumatra           209.781
       461   05 Jun 2027 00:04:36.386   05 Jun 2027 00:04:37.370             0.984                Sumatra            30.750
       462   05 Jun 2027 00:29:14.635   05 Jun 2027 00:29:24.074             9.439            RioGallegos           294.969
       463   05 Jun 2027 00:30:09.837   05 Jun 2027 00:30:15.968             6.131            RioGallegos           191.594
       464   05 Jun 2027 00:31:15.763   05 Jun 2027 00:31:22.624             6.861            RioGallegos           214.406
       465   05 Jun 2027 00:32:13.998   05 Jun 2027 00:32:22.381             8.383            RioGallegos           261.969
       466   05 Jun 2027 00:33:05.916   05 Jun 2027 00:33:23.937            18.021            RioGallegos           563.156
       467   05 Jun 2027 00:35:58.586   05 Jun 2027 00:36:45.846            47.260            RioGallegos          1476.875
       468   05 Jun 2027 01:09:20.148   05 Jun 2027 01:09:36.676            16.528                Anadyr2           516.500
       469   05 Jun 2027 01:09:54.446   05 Jun 2027 01:10:30.089            35.643                Anadyr2          1113.844
       470   05 Jun 2027 01:11:05.815   05 Jun 2027 01:11:31.643            25.828                Anadyr1           807.125
       471   05 Jun 2027 01:12:05.534   05 Jun 2027 01:12:17.761            12.227                Anadyr2           382.094
       472   05 Jun 2027 01:13:18.227   05 Jun 2027 01:14:59.534           101.307                Norilsk          3165.844
       473   05 Jun 2027 01:16:35.927   05 Jun 2027 01:16:49.981            14.054                Norilsk           439.187
       474   05 Jun 2027 01:17:00.597   05 Jun 2027 01:17:20.185            19.588              Murmansk2           612.125
       475   05 Jun 2027 01:17:28.367   05 Jun 2027 01:18:50.830            82.463              Murmansk1          2576.969
       476   05 Jun 2027 01:19:45.283   05 Jun 2027 01:20:50.013            64.730                Novosib          2022.812
       477   05 Jun 2027 01:24:35.376   05 Jun 2027 01:25:05.143            29.767                Novosib           930.219
       478   05 Jun 2027 01:25:26.564   05 Jun 2027 01:26:26.090            59.526                  Delhi          1860.187
       479   05 Jun 2027 02:05:57.586   05 Jun 2027 02:07:17.484            79.898            RioGallegos          2496.813
       480   05 Jun 2027 02:07:47.009   05 Jun 2027 02:08:14.343            27.334            RioGallegos           854.187
       481   05 Jun 2027 02:09:18.214   05 Jun 2027 02:10:17.442            59.228            RioGallegos          1850.875
       482   05 Jun 2027 02:42:41.910   05 Jun 2027 02:43:01.146            19.236                Anadyr1           601.125
