uniorb/output/strategy_4/Drop/Drop_KinoSat_111509.txt

KinoSat_111509
-------------------------
    Access    *     Start Time (UTCG)     *     Stop Time (UTCG)  *   Duration (s)        *       Station  *  Data (Mbytes)
         1   01 Jun 2027 04:19:51.911   01 Jun 2027 04:21:20.732            88.821                Novosib          2775.656
         2   01 Jun 2027 04:21:32.252   01 Jun 2027 04:21:42.107             9.855                Novosib           307.969
         3   01 Jun 2027 04:21:43.728   01 Jun 2027 04:23:09.819            86.091              Murmansk2          2690.344
         4   01 Jun 2027 04:23:29.032   01 Jun 2027 04:24:25.965            56.933              Murmansk2          1779.156
         5   01 Jun 2027 04:24:38.411   01 Jun 2027 04:27:56.639           198.228                 Moscow          6194.625
         6   01 Jun 2027 04:45:51.495   01 Jun 2027 04:46:52.043            60.548               CapeTown          1892.125
         7   01 Jun 2027 05:42:45.793   01 Jun 2027 05:43:02.277            16.484                Anadyr1           515.125
         8   01 Jun 2027 05:43:15.714   01 Jun 2027 05:44:51.892            96.178                Anadyr1          3005.563
         9   01 Jun 2027 05:45:46.569   01 Jun 2027 05:46:09.922            23.353               Magadan1           729.781
        10   01 Jun 2027 05:46:30.351   01 Jun 2027 05:46:35.698             5.347                Anadyr2           167.094
        11   01 Jun 2027 05:47:27.202   01 Jun 2027 05:47:47.502            20.300                Anadyr2           634.375
        12   01 Jun 2027 07:20:09.308   01 Jun 2027 07:23:04.474           175.166               Magadan2          5473.938
        13   01 Jun 2027 07:23:04.474   01 Jun 2027 07:23:17.047            12.573               Magadan1           392.906
        14   01 Jun 2027 08:53:36.469   01 Jun 2027 08:53:54.050            17.581               Magadan2           549.406
        15   01 Jun 2027 08:53:54.050   01 Jun 2027 08:56:20.886           146.836               Magadan1          4588.625
        16   01 Jun 2027 08:57:24.745   01 Jun 2027 08:59:58.120           153.375               Magadan1          4792.969
        17   01 Jun 2027 10:14:13.888   01 Jun 2027 10:14:23.440             9.552                Sumatra           298.500
        18   01 Jun 2027 10:29:14.481   01 Jun 2027 10:30:22.967            68.486               Magadan1          2140.187
        19   01 Jun 2027 10:30:22.967   01 Jun 2027 10:32:53.153           150.186               Magadan2          4693.313
        20   01 Jun 2027 10:33:18.807   01 Jun 2027 10:33:56.325            37.518               Magadan1          1172.438
        21   01 Jun 2027 10:34:47.256   01 Jun 2027 10:35:00.128            12.872                Irkutsk           402.250
        22   01 Jun 2027 10:35:23.307   01 Jun 2027 10:35:56.315            33.008                Irkutsk          1031.500
        23   01 Jun 2027 10:36:15.230   01 Jun 2027 10:36:30.413            15.183              Murmansk2           474.469
        24   01 Jun 2027 11:10:58.652   01 Jun 2027 11:12:04.475            65.823            RioGallegos          2056.969
        25   01 Jun 2027 11:13:35.721   01 Jun 2027 11:14:08.260            32.539            RioGallegos          1016.844
        26   01 Jun 2027 11:45:29.295   01 Jun 2027 11:47:57.205           147.910                Sumatra          4622.187
        27   01 Jun 2027 11:49:17.009   01 Jun 2027 11:49:43.116            26.107                Sumatra           815.844
        28   01 Jun 2027 12:01:28.420   01 Jun 2027 12:01:57.363            28.943                Irkutsk           904.469
        29   01 Jun 2027 12:09:02.187   01 Jun 2027 12:09:58.721            56.534                Irkutsk          1766.687
        30   01 Jun 2027 12:52:29.936   01 Jun 2027 12:55:34.672           184.736            RioGallegos          5773.000
        31   01 Jun 2027 13:44:24.998   01 Jun 2027 13:45:22.630            57.632                Novosib          1801.000
        32   01 Jun 2027 13:46:15.040   01 Jun 2027 13:47:36.752            81.712                Novosib          2553.500
        33   01 Jun 2027 15:21:03.735   01 Jun 2027 15:21:06.702             2.967                 Moscow            92.719
        34   01 Jun 2027 15:21:29.340   01 Jun 2027 15:21:53.691            24.351              Murmansk1           760.969
        35   01 Jun 2027 15:21:59.063   01 Jun 2027 15:22:12.426            13.363                 Moscow           417.594
        36   01 Jun 2027 15:22:13.561   01 Jun 2027 15:22:32.236            18.675                 Moscow           583.594
        37   01 Jun 2027 15:23:13.568   01 Jun 2027 15:27:00.450           226.882                Norilsk          7090.062
        38   01 Jun 2027 16:32:24.999   01 Jun 2027 16:32:48.981            23.982               CapeTown           749.438
        39   01 Jun 2027 16:34:42.903   01 Jun 2027 16:35:03.746            20.843               CapeTown           651.344
        40   01 Jun 2027 16:37:38.353   01 Jun 2027 16:37:58.210            19.857               CapeTown           620.531
        41   01 Jun 2027 16:38:16.906   01 Jun 2027 16:38:29.167            12.261               CapeTown           383.156
        42   01 Jun 2027 16:38:55.583   01 Jun 2027 16:39:34.021            38.438               CapeTown          1201.187
        43   01 Jun 2027 16:55:59.968   01 Jun 2027 16:57:03.574            63.606                 Moscow          1987.687
        44   01 Jun 2027 16:59:42.722   01 Jun 2027 17:01:07.335            84.613                 Moscow          2644.156
        45   01 Jun 2027 17:04:40.420   01 Jun 2027 17:04:46.816             6.396              Murmansk2           199.875
        46   01 Jun 2027 17:05:23.589   01 Jun 2027 17:05:45.301            21.712              Murmansk1           678.500
        47   01 Jun 2027 17:11:18.980   01 Jun 2027 17:12:00.744            41.764                Anadyr1          1305.125
        48   01 Jun 2027 17:13:25.803   01 Jun 2027 17:13:34.195             8.392                Anadyr2           262.250
        49   01 Jun 2027 17:13:34.195   01 Jun 2027 17:13:42.667             8.472                Anadyr1           264.750
        50   01 Jun 2027 17:14:27.083   01 Jun 2027 17:14:47.992            20.909                Anadyr1           653.406
        51   01 Jun 2027 17:16:50.514   01 Jun 2027 17:17:10.462            19.948                Anadyr1           623.375
        52   01 Jun 2027 17:17:25.260   01 Jun 2027 17:17:59.092            33.832                Anadyr1          1057.250
        53   01 Jun 2027 18:13:22.593   01 Jun 2027 18:13:57.752            35.159               CapeTown          1098.719
        54   01 Jun 2027 18:14:18.347   01 Jun 2027 18:14:36.609            18.262               CapeTown           570.687
        55   01 Jun 2027 18:34:34.013   01 Jun 2027 18:39:58.527           324.514              Murmansk1         10141.062
        56   01 Jun 2027 18:53:30.634   01 Jun 2027 18:53:52.361            21.727               Magadan1           678.969
        57   01 Jun 2027 18:55:56.387   01 Jun 2027 18:56:04.900             8.513               Magadan2           266.031
        58   01 Jun 2027 20:20:01.869   01 Jun 2027 20:25:25.482           323.613                Anadyr1         10112.906
        59   01 Jun 2027 20:25:42.397   01 Jun 2027 20:26:16.350            33.953               Magadan2          1061.031
        60   01 Jun 2027 20:26:32.582   01 Jun 2027 20:27:09.105            36.523               Magadan1          1141.344
        61   01 Jun 2027 20:27:13.586   01 Jun 2027 20:27:18.023             4.437               Magadan1           138.656
        62   01 Jun 2027 20:27:54.438   01 Jun 2027 20:28:14.771            20.333               Magadan2           635.406
        63   01 Jun 2027 20:29:52.656   01 Jun 2027 20:30:25.042            32.386               Magadan2          1012.063
        64   01 Jun 2027 20:30:56.419   01 Jun 2027 20:31:16.983            20.564               Magadan1           642.625
        65   01 Jun 2027 20:33:22.131   01 Jun 2027 20:33:42.457            20.326               Magadan1           635.187
        66   01 Jun 2027 21:16:17.290   01 Jun 2027 21:18:34.921           137.631            RioGallegos          4300.969
        67   01 Jun 2027 21:21:34.052   01 Jun 2027 21:21:44.827            10.775            RioGallegos           336.719
        68   01 Jun 2027 21:55:51.405   01 Jun 2027 21:57:21.092            89.687                Anadyr2          2802.719
        69   01 Jun 2027 21:57:26.954   01 Jun 2027 21:58:01.741            34.787                Anadyr2          1087.094
        70   01 Jun 2027 21:58:15.420   01 Jun 2027 21:59:02.777            47.357               Magadan1          1479.906
        71   01 Jun 2027 21:59:24.882   01 Jun 2027 21:59:31.869             6.987                Norilsk           218.344
        72   01 Jun 2027 21:59:42.327   01 Jun 2027 22:00:05.365            23.038               Magadan2           719.937
        73   01 Jun 2027 22:00:25.316   01 Jun 2027 22:00:39.279            13.963                Norilsk           436.344
        74   01 Jun 2027 22:01:13.506   01 Jun 2027 22:01:19.675             6.169               Magadan1           192.781
        75   01 Jun 2027 22:01:23.250   01 Jun 2027 22:01:43.791            20.541                Norilsk           641.906
        76   01 Jun 2027 22:02:56.893   01 Jun 2027 22:03:32.372            35.479                Irkutsk          1108.719
        77   01 Jun 2027 22:05:51.300   01 Jun 2027 22:06:03.989            12.689                Irkutsk           396.531
        78   01 Jun 2027 22:07:40.226   01 Jun 2027 22:08:01.222            20.996               Magadan2           656.125
        79   01 Jun 2027 22:08:33.933   01 Jun 2027 22:09:28.759            54.826                Irkutsk          1713.313
        80   01 Jun 2027 22:17:58.129   01 Jun 2027 22:19:44.721           106.592                Sumatra          3331.000
        81   01 Jun 2027 22:59:24.592   01 Jun 2027 22:59:32.724             8.132            RioGallegos           254.125
        82   01 Jun 2027 23:01:02.377   01 Jun 2027 23:01:41.417            39.040            RioGallegos          1220.000
        83   01 Jun 2027 23:31:08.630   01 Jun 2027 23:33:16.463           127.833                Anadyr1          3994.781
        84   01 Jun 2027 23:34:16.450   01 Jun 2027 23:34:21.612             5.162                Norilsk           161.312
        85   01 Jun 2027 23:34:22.399   01 Jun 2027 23:36:00.000            97.600               Magadan2          3050.000
        86   01 Jun 2027 23:37:32.510   01 Jun 2027 23:37:36.372             3.862               Magadan2           120.688
        87   01 Jun 2027 23:37:40.882   01 Jun 2027 23:38:46.655            65.773                Irkutsk          2055.406
        88   01 Jun 2027 23:40:46.260   01 Jun 2027 23:41:44.729            58.469                Novosib          1827.156
        89   01 Jun 2027 23:46:59.904   01 Jun 2027 23:47:49.969            50.065                Novosib          1564.531
        90   01 Jun 2027 23:49:45.452   01 Jun 2027 23:50:29.993            44.541                  Delhi          1391.906
        91   01 Jun 2027 23:59:53.859   02 Jun 2027 00:00:09.436            15.577                Sumatra           486.781
        92   02 Jun 2027 00:03:16.116   02 Jun 2027 00:03:56.258            40.142                Sumatra          1254.437
        93   02 Jun 2027 00:33:42.030   02 Jun 2027 00:34:26.756            44.726            RioGallegos          1397.688
        94   02 Jun 2027 00:37:36.407   02 Jun 2027 00:37:55.038            18.631            RioGallegos           582.219
        95   02 Jun 2027 01:05:16.864   02 Jun 2027 01:05:19.419             2.555                Anadyr2            79.844
        96   02 Jun 2027 01:05:21.883   02 Jun 2027 01:05:46.363            24.480                Anadyr2           765.000
        97   02 Jun 2027 01:06:27.760   02 Jun 2027 01:07:08.795            41.035                Anadyr2          1282.344
        98   02 Jun 2027 01:07:39.654   02 Jun 2027 01:07:49.168             9.514                Anadyr1           297.312
        99   02 Jun 2027 01:07:49.168   02 Jun 2027 01:08:16.611            27.443                Anadyr2           857.594
       100   02 Jun 2027 01:09:46.004   02 Jun 2027 01:11:39.101           113.097                Norilsk          3534.281
       101   02 Jun 2027 01:11:46.762   02 Jun 2027 01:11:48.195             1.433                Norilsk            44.781
       102   02 Jun 2027 01:12:42.149   02 Jun 2027 01:15:44.388           182.239              Murmansk1          5694.969
       103   02 Jun 2027 01:22:29.872   02 Jun 2027 01:22:38.809             8.937                Irkutsk           279.281
       104   02 Jun 2027 01:23:44.227   02 Jun 2027 01:24:44.964            60.737                Irkutsk          1898.031
       105   02 Jun 2027 01:33:00.756   02 Jun 2027 01:33:23.153            22.397                  Delhi           699.906
       106   02 Jun 2027 02:02:47.915   02 Jun 2027 02:04:24.485            96.570            RioGallegos          3017.813
       107   02 Jun 2027 02:05:13.636   02 Jun 2027 02:05:42.832            29.196            RioGallegos           912.375
       108   02 Jun 2027 02:38:34.224   02 Jun 2027 02:38:35.774             1.550                Anadyr2            48.438
       109   02 Jun 2027 02:40:41.149   02 Jun 2027 02:41:04.691            23.542                Anadyr1           735.687
       110   02 Jun 2027 02:41:04.691   02 Jun 2027 02:41:41.612            36.921                Anadyr2          1153.781
       111   02 Jun 2027 02:44:39.970   02 Jun 2027 02:45:27.605            47.635               Magadan1          1488.594
       112   02 Jun 2027 02:45:40.376   02 Jun 2027 02:46:06.670            26.294               Magadan2           821.687
       113   02 Jun 2027 02:46:13.216   02 Jun 2027 02:46:38.189            24.973                Norilsk           780.406
       114   02 Jun 2027 02:47:56.016   02 Jun 2027 02:49:23.143            87.127              Murmansk1          2722.719
       115   02 Jun 2027 02:49:39.848   02 Jun 2027 02:49:51.089            11.241                Novosib           351.281
       116   02 Jun 2027 02:50:42.374   02 Jun 2027 02:50:57.886            15.512                Novosib           484.750
       117   02 Jun 2027 02:51:07.276   02 Jun 2027 02:51:58.049            50.773                Irkutsk          1586.656
       118   02 Jun 2027 02:54:24.873   02 Jun 2027 02:55:29.128            64.255                Irkutsk          2007.969
       119   02 Jun 2027 04:32:16.477   02 Jun 2027 04:32:45.402            28.925                Norilsk           903.906
       120   02 Jun 2027 04:33:30.093   02 Jun 2027 04:33:56.877            26.784              Murmansk1           837.000
       121   02 Jun 2027 04:34:04.934   02 Jun 2027 04:35:17.283            72.349              Murmansk1          2260.906
       122   02 Jun 2027 04:35:30.899   02 Jun 2027 04:36:35.587            64.688              Murmansk2          2021.500
       123   02 Jun 2027 04:50:58.197   02 Jun 2027 04:53:40.137           161.940               CapeTown          5060.625
       124   02 Jun 2027 05:54:17.096   02 Jun 2027 05:55:49.176            92.080                Anadyr1          2877.500
       125   02 Jun 2027 05:55:58.003   02 Jun 2027 05:56:25.371            27.368                Anadyr2           855.250
       126   02 Jun 2027 05:56:27.955   02 Jun 2027 05:57:01.671            33.716               Magadan2          1053.625
       127   02 Jun 2027 09:06:14.203   02 Jun 2027 09:06:37.085            22.882               Magadan2           715.062
       128   02 Jun 2027 09:06:49.429   02 Jun 2027 09:09:44.971           175.542                Anadyr2          5485.688
       129   02 Jun 2027 09:09:52.097   02 Jun 2027 09:10:31.376            39.279                Irkutsk          1227.469
       130   02 Jun 2027 09:10:33.544   02 Jun 2027 09:11:20.815            47.271               Magadan2          1477.219
       131   02 Jun 2027 10:41:44.534   02 Jun 2027 10:41:51.803             7.269                Norilsk           227.156
       132   02 Jun 2027 10:42:06.790   02 Jun 2027 10:42:27.235            20.445                Norilsk           638.906
       133   02 Jun 2027 10:42:31.922   02 Jun 2027 10:42:58.333            26.411                Irkutsk           825.344
       134   02 Jun 2027 10:43:27.100   02 Jun 2027 10:44:23.419            56.319               Magadan2          1759.969
       135   02 Jun 2027 10:44:40.094   02 Jun 2027 10:45:27.049            46.955                Irkutsk          1467.344
       136   02 Jun 2027 10:45:45.647   02 Jun 2027 10:45:58.723            13.076                Irkutsk           408.625
       137   02 Jun 2027 10:46:02.553   02 Jun 2027 10:46:06.666             4.113                Norilsk           128.531
       138   02 Jun 2027 10:46:27.634   02 Jun 2027 10:47:10.735            43.101                Irkutsk          1346.906
       139   02 Jun 2027 10:47:14.287   02 Jun 2027 10:47:29.554            15.267                Irkutsk           477.094
       140   02 Jun 2027 10:47:32.020   02 Jun 2027 10:47:32.152             0.132                Norilsk             4.125
       141   02 Jun 2027 10:47:35.771   02 Jun 2027 10:48:26.584            50.813              Murmansk2          1587.906
       142   02 Jun 2027 11:25:38.377   02 Jun 2027 11:25:43.140             4.763            RioGallegos           148.844
       143   02 Jun 2027 11:27:56.377   02 Jun 2027 11:28:44.143            47.766            RioGallegos          1492.688
       144   02 Jun 2027 11:58:00.284   02 Jun 2027 11:59:44.399           104.115                Sumatra          3253.594
       145   02 Jun 2027 12:12:32.861   02 Jun 2027 12:12:57.994            25.133                Novosib           785.406
       146   02 Jun 2027 12:14:30.666   02 Jun 2027 12:14:53.063            22.397                Novosib           699.906
       147   02 Jun 2027 12:19:09.470   02 Jun 2027 12:19:18.206             8.736                Norilsk           273.000
       148   02 Jun 2027 12:21:02.975   02 Jun 2027 12:21:04.091             1.116                Norilsk            34.875
       149   02 Jun 2027 12:21:57.344   02 Jun 2027 12:23:01.383            64.039                Norilsk          2001.219
       150   02 Jun 2027 13:42:18.527   02 Jun 2027 13:43:10.790            52.263                  Delhi          1633.219
       151   02 Jun 2027 13:46:58.153   02 Jun 2027 13:47:20.568            22.415                  Delhi           700.469
       152   02 Jun 2027 13:48:23.643   02 Jun 2027 13:49:13.516            49.873                  Delhi          1558.531
       153   02 Jun 2027 13:50:31.204   02 Jun 2027 13:53:44.558           193.354                Novosib          6042.312
       154   02 Jun 2027 13:54:24.082   02 Jun 2027 13:55:11.574            47.492                Norilsk          1484.125
       155   02 Jun 2027 13:59:00.009   02 Jun 2027 13:59:12.651            12.642                Norilsk           395.062
       156   02 Jun 2027 14:00:11.804   02 Jun 2027 14:00:33.277            21.473                Norilsk           671.031
       157   02 Jun 2027 14:02:23.893   02 Jun 2027 14:02:40.066            16.173                Norilsk           505.406
       158   02 Jun 2027 14:03:08.501   02 Jun 2027 14:04:17.775            69.274                Norilsk          2164.813
       159   02 Jun 2027 15:26:06.967   02 Jun 2027 15:29:05.767           178.800                 Moscow          5587.500
       160   02 Jun 2027 15:30:55.897   02 Jun 2027 15:31:09.036            13.139              Murmansk2           410.594
       161   02 Jun 2027 15:31:35.842   02 Jun 2027 15:32:27.729            51.887              Murmansk1          1621.469
       162   02 Jun 2027 15:35:07.811   02 Jun 2027 15:36:50.666           102.855                Norilsk          3214.219
       163   02 Jun 2027 15:37:46.629   02 Jun 2027 15:38:07.781            21.152                Norilsk           661.000
       164   02 Jun 2027 15:38:25.831   02 Jun 2027 15:39:04.787            38.956                Norilsk          1217.375
       165   02 Jun 2027 16:42:27.111   02 Jun 2027 16:43:24.336            57.225               CapeTown          1788.281
       166   02 Jun 2027 17:04:30.760   02 Jun 2027 17:04:51.225            20.465                 Moscow           639.531
       167   02 Jun 2027 17:05:24.209   02 Jun 2027 17:06:03.772            39.563                 Moscow          1236.344
       168   02 Jun 2027 17:07:12.690   02 Jun 2027 17:07:45.161            32.471              Murmansk2          1014.719
       169   02 Jun 2027 17:09:19.710   02 Jun 2027 17:09:31.238            11.528                 Moscow           360.250
       170   02 Jun 2027 17:09:34.856   02 Jun 2027 17:10:20.218            45.362              Murmansk2          1417.562
       171   02 Jun 2027 17:15:08.835   02 Jun 2027 17:16:14.387            65.552              Murmansk2          2048.500
       172   02 Jun 2027 17:20:24.042   02 Jun 2027 17:21:08.548            44.506                Anadyr1          1390.812
       173   02 Jun 2027 17:21:38.129   02 Jun 2027 17:22:41.379            63.250                Anadyr2          1976.563
       174   02 Jun 2027 18:15:50.816   02 Jun 2027 18:16:35.014            44.198               CapeTown          1381.188
       175   02 Jun 2027 18:22:40.303   02 Jun 2027 18:23:27.212            46.909               CapeTown          1465.906
       176   02 Jun 2027 18:47:19.113   02 Jun 2027 18:52:02.512           283.399              Murmansk1          8856.219
       177   02 Jun 2027 18:59:02.404   02 Jun 2027 18:59:31.397            28.993               Magadan1           906.031
       178   02 Jun 2027 19:00:13.559   02 Jun 2027 19:00:24.380            10.821               Magadan2           338.156
       179   02 Jun 2027 19:04:48.214   02 Jun 2027 19:05:21.297            33.083               Magadan2          1033.844
       180   02 Jun 2027 19:07:36.015   02 Jun 2027 19:08:15.585            39.570               Magadan2          1236.563
       181   02 Jun 2027 20:32:03.394   02 Jun 2027 20:35:20.521           197.127                Anadyr2          6160.219
       182   02 Jun 2027 20:35:22.805   02 Jun 2027 20:35:26.468             3.663                Anadyr2           114.469
       183   02 Jun 2027 20:35:32.494   02 Jun 2027 20:37:26.437           113.943               Magadan1          3560.719
       184   02 Jun 2027 20:37:26.437   02 Jun 2027 20:37:43.107            16.670               Magadan2           520.937
       185   02 Jun 2027 20:38:17.777   02 Jun 2027 20:38:36.095            18.318               Magadan2           572.437
       186   02 Jun 2027 20:39:08.724   02 Jun 2027 20:39:35.084            26.360               Magadan2           823.750
       187   02 Jun 2027 20:41:22.570   02 Jun 2027 20:42:27.634            65.064               Magadan2          2033.250
       188   02 Jun 2027 21:27:36.010   02 Jun 2027 21:30:09.385           153.375            RioGallegos          4792.969
       189   02 Jun 2027 21:33:43.486   02 Jun 2027 21:33:54.587            11.101            RioGallegos           346.906
       190   02 Jun 2027 21:34:30.936   02 Jun 2027 21:34:44.665            13.729            RioGallegos           429.031
       191   02 Jun 2027 22:07:50.610   02 Jun 2027 22:08:05.009            14.399                Anadyr2           449.969
       192   02 Jun 2027 22:08:48.294   02 Jun 2027 22:10:07.262            78.968                Anadyr2          2467.750
       193   02 Jun 2027 22:10:13.735   02 Jun 2027 22:11:11.879            58.144                Norilsk          1817.000
       194   02 Jun 2027 22:11:31.638   02 Jun 2027 22:11:33.443             1.805                Norilsk            56.406
       195   02 Jun 2027 22:12:23.016   02 Jun 2027 22:13:02.845            39.829                Norilsk          1244.656
       196   02 Jun 2027 22:14:39.288   02 Jun 2027 22:15:30.334            51.046                Irkutsk          1595.188
       197   02 Jun 2027 22:16:50.739   02 Jun 2027 22:17:25.879            35.140                Irkutsk          1098.125
       198   02 Jun 2027 22:23:44.140   02 Jun 2027 22:23:58.724            14.584                Irkutsk           455.750
       199   02 Jun 2027 22:29:10.948   02 Jun 2027 22:31:47.876           156.928                Sumatra          4904.000
       200   02 Jun 2027 23:43:01.036   02 Jun 2027 23:43:58.041            57.005                Anadyr2          1781.406
       201   02 Jun 2027 23:45:17.373   02 Jun 2027 23:45:35.872            18.499                Anadyr1           578.094
       202   02 Jun 2027 23:45:47.370   02 Jun 2027 23:47:33.361           105.991                Norilsk          3312.219
       203   02 Jun 2027 23:47:53.941   02 Jun 2027 23:48:09.120            15.179               Magadan1           474.344
       204   02 Jun 2027 23:49:40.858   02 Jun 2027 23:52:56.317           195.459                Irkutsk          6108.094
       205   02 Jun 2027 23:59:19.542   02 Jun 2027 23:59:39.582            20.040                  Delhi           626.250
       206   03 Jun 2027 00:04:19.180   03 Jun 2027 00:04:45.734            26.554                  Delhi           829.813
       207   03 Jun 2027 00:05:40.394   03 Jun 2027 00:06:47.092            66.698                  Delhi          2084.312
       208   03 Jun 2027 00:43:17.792   03 Jun 2027 00:43:36.617            18.825            RioGallegos           588.281
       209   03 Jun 2027 00:47:03.926   03 Jun 2027 00:47:30.387            26.461            RioGallegos           826.906
       210   03 Jun 2027 01:16:59.739   03 Jun 2027 01:17:16.180            16.441                Anadyr1           513.781
       211   03 Jun 2027 01:17:47.593   03 Jun 2027 01:18:40.417            52.824                Anadyr1          1650.750
       212   03 Jun 2027 01:18:44.509   03 Jun 2027 01:19:09.101            24.592                Anadyr1           768.500
       213   03 Jun 2027 01:22:21.519   03 Jun 2027 01:24:11.464           109.945               Magadan1          3435.781
       214   03 Jun 2027 01:24:30.705   03 Jun 2027 01:26:34.116           123.411              Murmansk2          3856.594
       215   03 Jun 2027 01:27:31.092   03 Jun 2027 01:28:36.393            65.301                Irkutsk          2040.656
       216   03 Jun 2027 01:32:54.965   03 Jun 2027 01:35:40.332           165.367                  Delhi          5167.719
       217   03 Jun 2027 02:15:09.462   03 Jun 2027 02:16:00.315            50.853            RioGallegos          1589.156
       218   03 Jun 2027 02:19:10.971   03 Jun 2027 02:19:43.899            32.928            RioGallegos          1029.000
       219   03 Jun 2027 02:50:16.448   03 Jun 2027 02:50:18.436             1.988                Anadyr2            62.125
       220   03 Jun 2027 02:50:40.696   03 Jun 2027 02:51:03.681            22.985                Anadyr1           718.281
       221   03 Jun 2027 02:51:23.219   03 Jun 2027 02:52:39.537            76.318                Anadyr1          2384.937
       222   03 Jun 2027 02:57:42.318   03 Jun 2027 02:57:47.862             5.544                Norilsk           173.250
       223   03 Jun 2027 02:58:28.613   03 Jun 2027 02:58:44.331            15.718                Norilsk           491.187
       224   03 Jun 2027 02:59:23.003   03 Jun 2027 02:59:50.368            27.365                Norilsk           855.156
       225   03 Jun 2027 02:59:56.775   03 Jun 2027 03:00:14.780            18.005              Murmansk1           562.656
       226   03 Jun 2027 03:04:23.617   03 Jun 2027 03:04:33.504             9.887              Murmansk2           308.969
       227   03 Jun 2027 03:04:33.504   03 Jun 2027 03:05:26.980            53.476              Murmansk1          1671.125
       228   03 Jun 2027 03:05:31.429   03 Jun 2027 03:05:51.494            20.065                Irkutsk           627.031
       229   03 Jun 2027 03:06:06.443   03 Jun 2027 03:07:50.633           104.190                 Moscow          3255.937
       230   03 Jun 2027 03:07:53.831   03 Jun 2027 03:08:39.447            45.616              Murmansk1          1425.500
       231   03 Jun 2027 03:08:59.746   03 Jun 2027 03:09:52.295            52.549                Novosib          1642.156
       232   03 Jun 2027 03:10:04.922   03 Jun 2027 03:10:32.151            27.229              Murmansk1           850.906
       233   03 Jun 2027 03:10:44.032   03 Jun 2027 03:11:09.154            25.122                 Moscow           785.062
       234   03 Jun 2027 03:13:13.932   03 Jun 2027 03:15:38.448           144.516                  Delhi          4516.125
       235   03 Jun 2027 04:24:14.564   03 Jun 2027 04:25:02.708            48.144                Anadyr2          1504.500
       236   03 Jun 2027 04:43:43.182   03 Jun 2027 04:44:11.876            28.694                Novosib           896.687
       237   03 Jun 2027 04:44:41.494   03 Jun 2027 04:45:45.717            64.223              Murmansk2          2006.969
       238   03 Jun 2027 04:46:04.804   03 Jun 2027 04:47:04.883            60.079              Murmansk2          1877.469
       239   03 Jun 2027 06:06:26.954   03 Jun 2027 06:08:27.657           120.703               Magadan1          3771.969
       240   03 Jun 2027 07:42:24.505   03 Jun 2027 07:42:33.970             9.465                Anadyr1           295.781
       241   03 Jun 2027 07:42:35.674   03 Jun 2027 07:42:55.255            19.581               Magadan2           611.906
       242   03 Jun 2027 07:42:56.328   03 Jun 2027 07:43:56.821            60.493                Anadyr2          1890.406
       243   03 Jun 2027 07:44:27.113   03 Jun 2027 07:44:32.527             5.414               Magadan1           169.188
       244   03 Jun 2027 07:44:45.658   03 Jun 2027 07:45:21.125            35.467                Anadyr2          1108.344
       245   03 Jun 2027 07:45:21.125   03 Jun 2027 07:45:50.628            29.503                Anadyr1           921.969
       246   03 Jun 2027 07:57:01.441   03 Jun 2027 07:57:08.270             6.829                 Moscow           213.406
       247   03 Jun 2027 08:25:29.063   03 Jun 2027 08:25:52.696            23.633            RioGallegos           738.531
       248   03 Jun 2027 09:16:39.046   03 Jun 2027 09:17:46.222            67.176               Magadan2          2099.250
       249   03 Jun 2027 09:17:53.331   03 Jun 2027 09:18:12.640            19.309               Magadan1           603.406
       250   03 Jun 2027 09:18:38.953   03 Jun 2027 09:19:21.005            42.052               Magadan1          1314.125
       251   03 Jun 2027 09:19:35.504   03 Jun 2027 09:20:18.055            42.551               Magadan2          1329.719
       252   03 Jun 2027 09:20:54.667   03 Jun 2027 09:21:47.921            53.254                Anadyr2          1664.187
       253   03 Jun 2027 09:21:54.640   03 Jun 2027 09:22:04.546             9.906                Irkutsk           309.562
       254   03 Jun 2027 09:22:28.658   03 Jun 2027 09:22:40.431            11.773                Irkutsk           367.906
       255   03 Jun 2027 09:22:53.879   03 Jun 2027 09:23:24.636            30.757               Magadan2           961.156
       256   03 Jun 2027 09:23:35.558   03 Jun 2027 09:23:50.305            14.747               Magadan1           460.844
       257   03 Jun 2027 09:58:46.723   03 Jun 2027 09:59:42.687            55.964            RioGallegos          1748.875
       258   03 Jun 2027 10:00:34.034   03 Jun 2027 10:00:52.728            18.694            RioGallegos           584.188
       259   03 Jun 2027 10:34:52.711   03 Jun 2027 10:35:09.540            16.829                Sumatra           525.906
       260   03 Jun 2027 10:41:30.430   03 Jun 2027 10:41:52.971            22.541                Sumatra           704.406
       261   03 Jun 2027 10:55:05.340   03 Jun 2027 10:55:14.982             9.642                Irkutsk           301.313
       262   03 Jun 2027 10:56:42.822   03 Jun 2027 10:57:42.479            59.657                Irkutsk          1864.281
       263   03 Jun 2027 10:57:46.321   03 Jun 2027 10:57:52.890             6.569                Norilsk           205.281
       264   03 Jun 2027 10:57:55.682   03 Jun 2027 10:58:15.149            19.467                Norilsk           608.344
       265   03 Jun 2027 10:58:39.625   03 Jun 2027 10:59:05.923            26.298                Norilsk           821.813
       266   03 Jun 2027 10:59:10.791   03 Jun 2027 10:59:17.015             6.224                Novosib           194.500
       267   03 Jun 2027 10:59:26.189   03 Jun 2027 10:59:57.290            31.101                Irkutsk           971.906
       268   03 Jun 2027 11:35:38.884   03 Jun 2027 11:36:47.172            68.288            RioGallegos          2134.000
       269   03 Jun 2027 12:09:55.388   03 Jun 2027 12:10:26.709            31.321                Sumatra           978.781
       270   03 Jun 2027 12:14:43.242   03 Jun 2027 12:14:48.211             4.969                Sumatra           155.281
       271   03 Jun 2027 12:18:46.497   03 Jun 2027 12:19:52.650            66.153                  Delhi          2067.281
       272   03 Jun 2027 12:24:37.598   03 Jun 2027 12:25:35.734            58.136                Novosib          1816.750
       273   03 Jun 2027 12:26:31.587   03 Jun 2027 12:27:36.693            65.106                Novosib          2034.562
       274   03 Jun 2027 13:54:46.655   03 Jun 2027 14:00:00.226           313.571                  Delhi          9799.094
       275   03 Jun 2027 14:03:08.559   03 Jun 2027 14:03:54.231            45.672                Novosib          1427.250
       276   03 Jun 2027 14:05:41.899   03 Jun 2027 14:06:05.115            23.216                Novosib           725.500
       277   03 Jun 2027 14:07:18.563   03 Jun 2027 14:08:12.884            54.321                Norilsk          1697.531
       278   03 Jun 2027 14:11:53.829   03 Jun 2027 14:12:03.710             9.881                Norilsk           308.781
       279   03 Jun 2027 14:14:37.716   03 Jun 2027 14:15:10.846            33.130                Norilsk          1035.313
       280   03 Jun 2027 15:38:14.135   03 Jun 2027 15:40:14.260           120.125                 Moscow          3753.906
       281   03 Jun 2027 15:41:22.922   03 Jun 2027 15:41:54.790            31.868                 Moscow           995.875
       282   03 Jun 2027 15:42:06.327   03 Jun 2027 15:42:49.001            42.674              Murmansk2          1333.562
       283   03 Jun 2027 15:42:49.809   03 Jun 2027 15:43:10.456            20.647              Murmansk1           645.219
       284   03 Jun 2027 15:46:58.673   03 Jun 2027 15:48:33.678            95.005              Murmansk2          2968.906
       285   03 Jun 2027 15:49:32.530   03 Jun 2027 15:50:02.071            29.541                Norilsk           923.156
       286   03 Jun 2027 15:50:51.773   03 Jun 2027 15:51:43.306            51.533                Norilsk          1610.406
       287   03 Jun 2027 16:51:51.249   03 Jun 2027 16:52:42.617            51.368               CapeTown          1605.250
       288   03 Jun 2027 16:58:33.566   03 Jun 2027 16:58:56.941            23.375               CapeTown           730.469
       289   03 Jun 2027 17:02:10.963   03 Jun 2027 17:03:04.954            53.991               CapeTown          1687.219
       290   03 Jun 2027 17:18:10.998   03 Jun 2027 17:19:09.451            58.453                 Moscow          1826.656
       291   03 Jun 2027 17:19:36.026   03 Jun 2027 17:20:12.936            36.910              Murmansk1          1153.438
       292   03 Jun 2027 17:24:33.698   03 Jun 2027 17:24:52.277            18.579              Murmansk1           580.594
       293   03 Jun 2027 17:24:54.498   03 Jun 2027 17:25:42.310            47.812              Murmansk1          1494.125
       294   03 Jun 2027 17:28:44.755   03 Jun 2027 17:29:22.681            37.926              Murmansk2          1185.188
       295   03 Jun 2027 17:32:22.084   03 Jun 2027 17:32:37.167            15.083                Anadyr1           471.344
       296   03 Jun 2027 17:35:51.599   03 Jun 2027 17:36:01.378             9.779                Anadyr1           305.594
       297   03 Jun 2027 17:36:59.219   03 Jun 2027 17:37:10.674            11.455                Anadyr1           357.969
       298   03 Jun 2027 17:39:16.409   03 Jun 2027 17:39:44.147            27.738                Anadyr1           866.812
       299   03 Jun 2027 18:28:05.588   03 Jun 2027 18:28:58.526            52.938               CapeTown          1654.312
       300   03 Jun 2027 18:32:40.967   03 Jun 2027 18:32:48.231             7.264               CapeTown           227.000
       301   03 Jun 2027 18:33:27.690   03 Jun 2027 18:33:37.956            10.266               CapeTown           320.813
       302   03 Jun 2027 19:00:09.908   03 Jun 2027 19:04:35.341           265.433              Murmansk2          8294.781
       303   03 Jun 2027 19:04:38.476   03 Jun 2027 19:04:47.591             9.115              Murmansk1           284.844
       304   03 Jun 2027 19:10:54.330   03 Jun 2027 19:11:58.822            64.492               Magadan1          2015.375
       305   03 Jun 2027 19:13:35.361   03 Jun 2027 19:13:56.617            21.256               Magadan1           664.250
       306   03 Jun 2027 19:15:00.523   03 Jun 2027 19:15:07.645             7.122               Magadan1           222.562
       307   03 Jun 2027 19:16:10.230   03 Jun 2027 19:16:13.428             3.198               Magadan1            99.937
       308   03 Jun 2027 19:17:00.744   03 Jun 2027 19:17:23.284            22.540               Magadan1           704.375
       309   03 Jun 2027 19:19:14.530   03 Jun 2027 19:19:52.140            37.610               Magadan2          1175.313
       310   03 Jun 2027 20:44:04.786   03 Jun 2027 20:46:09.987           125.201                Anadyr2          3912.531
       311   03 Jun 2027 20:46:21.189   03 Jun 2027 20:50:05.026           223.837               Magadan2          6994.906
       312   03 Jun 2027 20:51:33.109   03 Jun 2027 20:52:01.373            28.264               Magadan1           883.250
       313   03 Jun 2027 20:54:21.618   03 Jun 2027 20:54:30.100             8.482               Magadan2           265.063
       314   03 Jun 2027 21:39:09.248   03 Jun 2027 21:41:34.525           145.277            RioGallegos          4539.906
       315   03 Jun 2027 21:41:44.954   03 Jun 2027 21:41:51.086             6.132            RioGallegos           191.625
       316   03 Jun 2027 21:44:42.227   03 Jun 2027 21:45:37.110            54.883            RioGallegos          1715.094
       317   03 Jun 2027 22:19:49.250   03 Jun 2027 22:20:06.915            17.665                Anadyr2           552.031
       318   03 Jun 2027 22:21:23.605   03 Jun 2027 22:21:29.674             6.069                Anadyr2           189.656
       319   03 Jun 2027 22:21:38.565   03 Jun 2027 22:21:48.653            10.088                Anadyr2           315.250
       320   03 Jun 2027 22:21:56.508   03 Jun 2027 22:23:32.095            95.587                Norilsk          2987.094
       321   03 Jun 2027 22:23:52.980   03 Jun 2027 22:24:11.131            18.151               Magadan1           567.219
       322   03 Jun 2027 22:24:29.429   03 Jun 2027 22:25:02.636            33.207                Norilsk          1037.719
       323   03 Jun 2027 22:25:13.437   03 Jun 2027 22:25:40.166            26.729               Magadan2           835.281
       324   03 Jun 2027 22:26:15.270   03 Jun 2027 22:26:22.034             6.764               Magadan2           211.375
       325   03 Jun 2027 22:26:26.278   03 Jun 2027 22:28:46.133           139.855                Irkutsk          4370.469
       326   03 Jun 2027 22:40:37.216   03 Jun 2027 22:41:25.363            48.147                Sumatra          1504.594
       327   03 Jun 2027 22:41:45.328   03 Jun 2027 22:43:33.398           108.070                Sumatra          3377.188
       328   03 Jun 2027 23:54:52.204   03 Jun 2027 23:57:13.425           141.221                Anadyr2          4413.156
       329   03 Jun 2027 23:58:28.322   03 Jun 2027 23:58:56.352            28.030               Magadan1           875.937
       330   03 Jun 2027 23:59:37.501   04 Jun 2027 00:00:39.457            61.956               Magadan1          1936.125
       331   04 Jun 2027 00:01:41.784   04 Jun 2027 00:03:14.292            92.508                Irkutsk          2890.875
       332   04 Jun 2027 00:07:29.366   04 Jun 2027 00:08:01.883            32.517                Novosib          1016.156
       333   04 Jun 2027 00:09:53.368   04 Jun 2027 00:10:29.451            36.083                Novosib          1127.594
       334   04 Jun 2027 00:10:36.758   04 Jun 2027 00:11:22.019            45.261                  Delhi          1414.406
       335   04 Jun 2027 00:14:49.367   04 Jun 2027 00:15:04.812            15.445                  Delhi           482.656
       336   04 Jun 2027 00:17:32.808   04 Jun 2027 00:17:43.920            11.112                  Delhi           347.250
       337   04 Jun 2027 00:19:33.522   04 Jun 2027 00:19:46.657            13.135                  Delhi           410.469
       338   04 Jun 2027 00:52:08.123   04 Jun 2027 00:52:28.609            20.486            RioGallegos           640.188
       339   04 Jun 2027 00:57:25.060   04 Jun 2027 00:57:50.556            25.496            RioGallegos           796.750
       340   04 Jun 2027 00:59:30.578   04 Jun 2027 00:59:37.518             6.940            RioGallegos           216.875
       341   04 Jun 2027 01:28:41.856   04 Jun 2027 01:29:48.896            67.040                Anadyr1          2095.000
       342   04 Jun 2027 01:30:46.657   04 Jun 2027 01:31:19.697            33.040                Anadyr2          1032.500
       343   04 Jun 2027 01:33:50.075   04 Jun 2027 01:35:52.920           122.845                Norilsk          3838.906
       344   04 Jun 2027 01:36:10.984   04 Jun 2027 01:37:35.396            84.412               Magadan1          2637.875
       345   04 Jun 2027 01:37:36.352   04 Jun 2027 01:38:18.525            42.173                Novosib          1317.906
       346   04 Jun 2027 01:38:23.346   04 Jun 2027 01:40:31.300           127.954                Novosib          3998.563
       347   04 Jun 2027 01:53:22.139   04 Jun 2027 01:53:31.971             9.832                  Delhi           307.250
       348   04 Jun 2027 01:55:36.450   04 Jun 2027 01:56:43.089            66.639                  Delhi          2082.469
       349   04 Jun 2027 02:27:39.978   04 Jun 2027 02:28:30.795            50.817            RioGallegos          1588.031
       350   04 Jun 2027 02:29:36.072   04 Jun 2027 02:29:55.035            18.963            RioGallegos           592.594
       351   04 Jun 2027 02:30:29.558   04 Jun 2027 02:31:26.538            56.980            RioGallegos          1780.625
       352   04 Jun 2027 03:18:21.360   04 Jun 2027 03:18:40.717            19.357                Norilsk           604.906
       353   04 Jun 2027 03:19:03.869   04 Jun 2027 03:20:12.716            68.847                 Moscow          2151.469
       354   04 Jun 2027 03:20:45.489   04 Jun 2027 03:21:23.656            38.167                 Moscow          1192.719
       355   04 Jun 2027 03:21:27.264   04 Jun 2027 03:21:36.353             9.089                Novosib           284.031
       356   04 Jun 2027 03:21:48.416   04 Jun 2027 03:22:27.580            39.164                Novosib          1223.875
       357   04 Jun 2027 03:22:50.810   04 Jun 2027 03:22:54.919             4.109              Murmansk1           128.406
       358   04 Jun 2027 03:22:54.919   04 Jun 2027 03:23:01.209             6.290              Murmansk2           196.562
       359   04 Jun 2027 04:36:07.372   04 Jun 2027 04:39:31.338           203.966                Anadyr1          6373.937
       360   04 Jun 2027 04:56:21.826   04 Jun 2027 04:56:59.121            37.295                 Moscow          1165.469
       361   04 Jun 2027 04:57:05.526   04 Jun 2027 04:57:15.653            10.127                 Moscow           316.469
       362   04 Jun 2027 04:57:42.775   04 Jun 2027 04:58:47.082            64.307                 Moscow          2009.594
       363   04 Jun 2027 05:15:12.344   04 Jun 2027 05:16:07.218            54.874               CapeTown          1714.813
       364   04 Jun 2027 06:17:52.610   04 Jun 2027 06:18:49.013            56.403                Anadyr2          1762.594
       365   04 Jun 2027 06:19:01.712   04 Jun 2027 06:19:17.851            16.139               Magadan1           504.344
       366   04 Jun 2027 06:19:38.246   04 Jun 2027 06:20:18.780            40.534               Magadan1          1266.687
       367   04 Jun 2027 06:20:19.997   04 Jun 2027 06:20:26.659             6.662                Anadyr1           208.187
       368   04 Jun 2027 06:20:30.808   04 Jun 2027 06:21:24.723            53.915               Magadan2          1684.844
       369   04 Jun 2027 06:23:25.893   04 Jun 2027 06:23:55.260            29.367                Anadyr1           917.719
       370   04 Jun 2027 07:54:19.382   04 Jun 2027 07:55:03.233            43.851                Anadyr2          1370.344
       371   04 Jun 2027 07:55:11.713   04 Jun 2027 07:55:20.154             8.441                Anadyr2           263.781
       372   04 Jun 2027 07:55:28.252   04 Jun 2027 07:55:35.888             7.636               Magadan1           238.625
       373   04 Jun 2027 07:55:43.709   04 Jun 2027 07:56:34.392            50.683               Magadan1          1583.844
       374   04 Jun 2027 07:56:44.805   04 Jun 2027 07:57:25.196            40.391                Anadyr2          1262.219
       375   04 Jun 2027 07:57:39.278   04 Jun 2027 07:58:53.316            74.038                Anadyr1          2313.687
       376   04 Jun 2027 08:38:33.903   04 Jun 2027 08:39:06.383            32.480            RioGallegos          1015.000
       377   04 Jun 2027 09:29:36.316   04 Jun 2027 09:30:35.134            58.818               Magadan2          1838.062
       378   04 Jun 2027 09:30:40.467   04 Jun 2027 09:31:31.642            51.175               Magadan1          1599.219
       379   04 Jun 2027 09:32:15.236   04 Jun 2027 09:32:36.793            21.557               Magadan1           673.656
       380   04 Jun 2027 09:33:01.158   04 Jun 2027 09:34:29.357            88.199               Magadan2          2756.219
       381   04 Jun 2027 09:34:49.440   04 Jun 2027 09:34:58.112             8.672              Murmansk1           271.000
       382   04 Jun 2027 09:35:10.670   04 Jun 2027 09:35:46.144            35.474                Irkutsk          1108.562
       383   04 Jun 2027 09:36:55.583   04 Jun 2027 09:36:55.606             0.023                Novosib             0.719
       384   04 Jun 2027 10:10:43.076   04 Jun 2027 10:11:49.104            66.028            RioGallegos          2063.375
       385   04 Jun 2027 10:46:24.079   04 Jun 2027 10:47:31.960            67.881                Sumatra          2121.281
       386   04 Jun 2027 11:06:11.656   04 Jun 2027 11:06:29.073            17.417                Novosib           544.281
       387   04 Jun 2027 11:07:21.251   04 Jun 2027 11:07:37.110            15.859                Novosib           495.594
       388   04 Jun 2027 11:07:41.721   04 Jun 2027 11:07:48.556             6.835                Norilsk           213.594
       389   04 Jun 2027 11:07:56.758   04 Jun 2027 11:08:16.788            20.030                Irkutsk           625.937
       390   04 Jun 2027 11:08:44.523   04 Jun 2027 11:09:07.151            22.628                Norilsk           707.125
       391   04 Jun 2027 11:09:16.228   04 Jun 2027 11:09:37.778            21.550                Irkutsk           673.438
       392   04 Jun 2027 11:09:51.698   04 Jun 2027 11:09:54.199             2.501                Norilsk            78.156
       393   04 Jun 2027 11:10:10.754   04 Jun 2027 11:10:47.936            37.182                Irkutsk          1161.938
       394   04 Jun 2027 11:10:50.389   04 Jun 2027 11:11:02.287            11.898                Novosib           371.813
       395   04 Jun 2027 11:11:07.808   04 Jun 2027 11:11:15.497             7.689                Norilsk           240.281
       396   04 Jun 2027 11:11:18.052   04 Jun 2027 11:11:30.432            12.380                Norilsk           386.875
       397   04 Jun 2027 11:11:36.394   04 Jun 2027 11:11:59.787            23.393                Irkutsk           731.031
       398   04 Jun 2027 11:48:06.399   04 Jun 2027 11:48:55.512            49.113            RioGallegos          1534.781
       399   04 Jun 2027 11:51:55.465   04 Jun 2027 11:52:36.929            41.464            RioGallegos          1295.750
       400   04 Jun 2027 12:22:19.439   04 Jun 2027 12:23:36.767            77.328                Sumatra          2416.500
       401   04 Jun 2027 12:36:45.428   04 Jun 2027 12:37:31.776            46.348                Novosib          1448.375
       402   04 Jun 2027 12:37:43.215   04 Jun 2027 12:37:54.543            11.328                Irkutsk           354.000
       403   04 Jun 2027 12:38:26.741   04 Jun 2027 12:39:06.570            39.829                Irkutsk          1244.656
       404   04 Jun 2027 12:40:42.547   04 Jun 2027 12:40:55.907            13.360                Norilsk           417.500
       405   04 Jun 2027 12:41:36.078   04 Jun 2027 12:42:12.602            36.524                Norilsk          1141.375
       406   04 Jun 2027 14:07:24.688   04 Jun 2027 14:10:55.110           210.422                  Delhi          6575.687
       407   04 Jun 2027 14:15:53.309   04 Jun 2027 14:17:34.661           101.352                Novosib          3167.250
       408   04 Jun 2027 14:17:43.437   04 Jun 2027 14:17:59.600            16.163              Murmansk2           505.094
       409   04 Jun 2027 14:19:21.343   04 Jun 2027 14:19:32.886            11.543                Norilsk           360.719
       410   04 Jun 2027 14:19:49.743   04 Jun 2027 14:20:41.256            51.513                Novosib          1609.781
       411   04 Jun 2027 14:21:26.091   04 Jun 2027 14:21:41.353            15.262                Norilsk           476.937
       412   04 Jun 2027 14:22:59.070   04 Jun 2027 14:23:08.977             9.907                Norilsk           309.594
       413   04 Jun 2027 14:23:10.562   04 Jun 2027 14:23:20.339             9.777                Norilsk           305.531
       414   04 Jun 2027 14:24:53.799   04 Jun 2027 14:25:11.619            17.820                Norilsk           556.875
       415   04 Jun 2027 15:50:24.512   04 Jun 2027 15:52:12.933           108.421                 Moscow          3388.156
       416   04 Jun 2027 15:53:18.087   04 Jun 2027 15:54:20.897            62.810                 Moscow          1962.812
       417   04 Jun 2027 15:54:40.706   04 Jun 2027 15:56:42.051           121.345              Murmansk1          3792.031
       418   04 Jun 2027 16:01:31.761   04 Jun 2027 16:02:36.597            64.836                Norilsk          2026.125
       419   04 Jun 2027 16:03:04.253   04 Jun 2027 16:03:15.461            11.208                Norilsk           350.250
       420   04 Jun 2027 16:09:30.094   04 Jun 2027 16:09:54.751            24.657                Anadyr1           770.531
       421   04 Jun 2027 16:09:54.751   04 Jun 2027 16:10:40.481            45.730                Anadyr2          1429.062
       422   04 Jun 2027 17:03:44.770   04 Jun 2027 17:05:40.565           115.795               CapeTown          3618.594
       423   04 Jun 2027 17:31:04.226   04 Jun 2027 17:33:20.002           135.776                 Moscow          4243.000
       424   04 Jun 2027 17:40:46.845   04 Jun 2027 17:42:27.434           100.589              Murmansk2          3143.406
       425   04 Jun 2027 17:45:35.919   04 Jun 2027 17:46:01.511            25.592                Anadyr2           799.750
       426   04 Jun 2027 18:40:24.928   04 Jun 2027 18:41:43.942            79.014               CapeTown          2469.188
       427   04 Jun 2027 18:43:18.405   04 Jun 2027 18:43:41.875            23.470               CapeTown           733.438
       428   04 Jun 2027 19:13:09.290   04 Jun 2027 19:17:27.412           258.122              Murmansk1          8066.313
       429   04 Jun 2027 19:22:48.350   04 Jun 2027 19:24:18.272            89.922               Magadan1          2810.062
       430   04 Jun 2027 19:25:34.482   04 Jun 2027 19:25:36.492             2.010               Magadan2            62.813
       431   04 Jun 2027 19:26:13.904   04 Jun 2027 19:26:43.068            29.164               Magadan1           911.375
       432   04 Jun 2027 19:30:26.432   04 Jun 2027 19:31:18.023            51.591               Magadan1          1612.219
       433   04 Jun 2027 20:56:06.011   04 Jun 2027 20:58:11.764           125.753                Anadyr2          3929.781
       434   04 Jun 2027 20:58:22.225   04 Jun 2027 21:02:24.574           242.349               Magadan1          7573.406
       435   04 Jun 2027 21:50:50.259   04 Jun 2027 21:53:49.341           179.082            RioGallegos          5596.312
       436   04 Jun 2027 21:55:24.359   04 Jun 2027 21:55:31.646             7.287            RioGallegos           227.719
       437   04 Jun 2027 22:00:07.204   04 Jun 2027 22:00:13.170             5.966            RioGallegos           186.438
       438   04 Jun 2027 22:31:47.266   04 Jun 2027 22:32:08.746            21.480                Anadyr1           671.250
       439   04 Jun 2027 22:33:13.120   04 Jun 2027 22:33:24.959            11.839                Anadyr1           369.969
       440   04 Jun 2027 22:33:30.502   04 Jun 2027 22:33:38.823             8.321                Anadyr1           260.031
       441   04 Jun 2027 22:33:56.288   04 Jun 2027 22:35:24.920            88.632                Norilsk          2769.750
       442   04 Jun 2027 22:35:38.027   04 Jun 2027 22:36:13.901            35.874               Magadan1          1121.063
       443   04 Jun 2027 22:36:21.337   04 Jun 2027 22:36:43.282            21.945               Magadan2           685.781
       444   04 Jun 2027 22:36:51.653   04 Jun 2027 22:37:38.983            47.330                Norilsk          1479.063
       445   04 Jun 2027 22:38:46.612   04 Jun 2027 22:40:24.446            97.834                Irkutsk          3057.313
       446   04 Jun 2027 22:46:33.584   04 Jun 2027 22:46:57.670            24.086                Irkutsk           752.688
       447   04 Jun 2027 22:52:13.031   04 Jun 2027 22:54:13.036           120.005                Sumatra          3750.156
       448   04 Jun 2027 23:03:31.731   04 Jun 2027 23:03:46.332            14.601                Sumatra           456.281
       449   05 Jun 2027 00:06:42.078   05 Jun 2027 00:08:58.850           136.772                Anadyr1          4274.125
       450   05 Jun 2027 00:09:51.617   05 Jun 2027 00:10:02.676            11.059                Norilsk           345.594
       451   05 Jun 2027 00:10:31.057   05 Jun 2027 00:12:09.197            98.140               Magadan2          3066.875
       452   05 Jun 2027 00:13:43.567   05 Jun 2027 00:14:53.417            69.850                Irkutsk          2182.813
       453   05 Jun 2027 00:15:51.303   05 Jun 2027 00:16:43.999            52.696                Novosib          1646.750
       454   05 Jun 2027 00:19:49.480   05 Jun 2027 00:20:09.996            20.516                Novosib           641.125
       455   05 Jun 2027 00:21:30.954   05 Jun 2027 00:21:59.225            28.271                Novosib           883.469
       456   05 Jun 2027 00:22:06.966   05 Jun 2027 00:22:58.157            51.191                  Delhi          1599.719
       457   05 Jun 2027 00:25:55.214   05 Jun 2027 00:26:53.068            57.854                  Delhi          1807.937
       458   05 Jun 2027 01:02:04.776   05 Jun 2027 01:02:40.025            35.249            RioGallegos          1101.531
       459   05 Jun 2027 01:06:51.716   05 Jun 2027 01:07:41.484            49.768            RioGallegos          1555.250
       460   05 Jun 2027 01:40:23.412   05 Jun 2027 01:40:56.118            32.706                Anadyr1          1022.062
       461   05 Jun 2027 01:41:50.246   05 Jun 2027 01:42:43.226            52.980                Anadyr2          1655.625
       462   05 Jun 2027 01:42:49.247   05 Jun 2027 01:43:10.510            21.263                Anadyr1           664.469
       463   05 Jun 2027 01:46:14.538   05 Jun 2027 01:46:51.853            37.315               Magadan2          1166.094
       464   05 Jun 2027 01:46:57.141   05 Jun 2027 01:47:44.577            47.436                Norilsk          1482.375
       465   05 Jun 2027 01:47:53.215   05 Jun 2027 01:48:04.640            11.425               Magadan2           357.031
       466   05 Jun 2027 01:48:11.444   05 Jun 2027 01:49:31.783            80.339               Magadan1          2510.594
       467   05 Jun 2027 01:49:38.423   05 Jun 2027 01:50:56.181            77.758              Murmansk1          2429.938
       468   05 Jun 2027 01:54:48.548   05 Jun 2027 01:55:08.276            19.728                 Moscow           616.500
       469   05 Jun 2027 01:57:06.087   05 Jun 2027 01:57:43.882            37.795                  Delhi          1181.094
       470   05 Jun 2027 02:02:03.941   05 Jun 2027 02:02:09.995             6.054                  Delhi           189.187
       471   05 Jun 2027 02:02:33.995   05 Jun 2027 02:02:49.770            15.775                  Delhi           492.969
       472   05 Jun 2027 02:06:04.696   05 Jun 2027 02:06:31.495            26.799                  Delhi           837.469
       473   05 Jun 2027 02:40:39.355   05 Jun 2027 02:40:45.023             5.668            RioGallegos           177.125
       474   05 Jun 2027 02:41:29.130   05 Jun 2027 02:42:02.651            33.521            RioGallegos          1047.531
       475   05 Jun 2027 03:13:43.196   05 Jun 2027 03:14:26.739            43.543                Anadyr2          1360.719
       476   05 Jun 2027 03:17:38.150   05 Jun 2027 03:17:43.234             5.084                Anadyr2           158.875
       477   05 Jun 2027 03:19:02.374   05 Jun 2027 03:19:05.791             3.417                Anadyr2           106.781
       478   05 Jun 2027 03:20:01.826   05 Jun 2027 03:20:04.962             3.136                Anadyr2            98.000
       479   05 Jun 2027 03:24:42.169   05 Jun 2027 03:24:55.470            13.301                Anadyr1           415.656
       480   05 Jun 2027 03:31:27.958   05 Jun 2027 03:31:46.542            18.584                Norilsk           580.750
       481   05 Jun 2027 03:32:09.031   05 Jun 2027 03:32:34.646            25.615                Norilsk           800.469
       482   05 Jun 2027 03:32:51.088   05 Jun 2027 03:33:17.732            26.644                Novosib           832.625
