uniorb/output/strategy_4/Drop/Drop_KinoSat_111804.txt

KinoSat_111804
-------------------------
    Access    *     Start Time (UTCG)     *     Stop Time (UTCG)  *   Duration (s)        *       Station  *  Data (Mbytes)
         1   01 Jun 2027 03:15:56.264   01 Jun 2027 03:16:09.046            12.782                Novosib           399.437
         2   01 Jun 2027 03:16:13.615   01 Jun 2027 03:18:52.429           158.814                Norilsk          4962.938
         3   01 Jun 2027 03:19:01.956   01 Jun 2027 03:20:04.850            62.894                Irkutsk          1965.438
         4   01 Jun 2027 03:20:17.610   01 Jun 2027 03:20:25.642             8.032                Irkutsk           251.000
         5   01 Jun 2027 03:20:38.112   01 Jun 2027 03:20:50.389            12.277                Norilsk           383.656
         6   01 Jun 2027 03:20:51.323   01 Jun 2027 03:21:21.013            29.690                 Moscow           927.813
         7   01 Jun 2027 03:21:30.784   01 Jun 2027 03:22:10.616            39.832                Irkutsk          1244.750
         8   01 Jun 2027 03:23:25.049   01 Jun 2027 03:23:37.882            12.833                Irkutsk           401.031
         9   01 Jun 2027 03:24:11.223   01 Jun 2027 03:26:58.170           166.947                  Delhi          5217.094
        10   01 Jun 2027 04:54:53.477   01 Jun 2027 04:55:55.325            61.848                Norilsk          1932.750
        11   01 Jun 2027 04:56:03.629   01 Jun 2027 04:57:20.278            76.649              Murmansk1          2395.281
        12   01 Jun 2027 04:57:20.278   01 Jun 2027 04:57:28.891             8.613              Murmansk2           269.156
        13   01 Jun 2027 04:57:32.891   01 Jun 2027 04:57:48.523            15.632                 Moscow           488.500
        14   01 Jun 2027 04:57:54.390   01 Jun 2027 04:57:58.093             3.703                Novosib           115.719
        15   01 Jun 2027 04:58:03.210   01 Jun 2027 05:00:28.213           145.003              Murmansk2          4531.344
        16   01 Jun 2027 05:01:05.518   01 Jun 2027 05:04:11.619           186.101                 Moscow          5815.656
        17   01 Jun 2027 05:16:17.308   01 Jun 2027 05:20:24.315           247.007               CapeTown          7718.969
        18   01 Jun 2027 05:20:41.011   01 Jun 2027 05:22:01.763            80.752               CapeTown          2523.500
        19   01 Jun 2027 06:31:34.789   01 Jun 2027 06:35:18.984           224.195                 Moscow          7006.094
        20   01 Jun 2027 06:39:51.439   01 Jun 2027 06:39:54.042             2.603                 Moscow            81.344
        21   01 Jun 2027 06:52:12.801   01 Jun 2027 06:53:20.576            67.775               CapeTown          2117.969
        22   01 Jun 2027 06:56:34.004   01 Jun 2027 06:57:20.905            46.901               CapeTown          1465.656
        23   01 Jun 2027 07:56:16.256   01 Jun 2027 07:57:01.791            45.535                Norilsk          1422.969
        24   01 Jun 2027 07:57:20.410   01 Jun 2027 08:01:10.490           230.080                Anadyr2          7190.000
        25   01 Jun 2027 08:01:14.218   01 Jun 2027 08:03:14.188           119.970              Murmansk1          3749.063
        26   01 Jun 2027 08:05:47.904   01 Jun 2027 08:06:38.852            50.948              Murmansk1          1592.125
        27   01 Jun 2027 08:06:43.898   01 Jun 2027 08:07:05.521            21.623                 Moscow           675.719
        28   01 Jun 2027 09:30:35.692   01 Jun 2027 09:33:03.087           147.395                Anadyr1          4606.094
        29   01 Jun 2027 09:33:33.180   01 Jun 2027 09:36:39.703           186.523                Anadyr1          5828.844
        30   01 Jun 2027 11:07:31.222   01 Jun 2027 11:11:54.896           263.674               Magadan1          8239.812
        31   01 Jun 2027 13:30:24.801   01 Jun 2027 13:31:45.768            80.967            RioGallegos          2530.219
        32   01 Jun 2027 14:00:01.113   01 Jun 2027 14:02:52.194           171.081                Sumatra          5346.281
        33   01 Jun 2027 14:06:00.976   01 Jun 2027 14:08:07.339           126.363                Sumatra          3948.844
        34   01 Jun 2027 14:15:49.021   01 Jun 2027 14:19:41.238           232.217                Irkutsk          7256.781
        35   01 Jun 2027 15:45:45.415   01 Jun 2027 15:49:45.548           240.133                  Delhi          7504.156
        36   01 Jun 2027 15:54:11.919   01 Jun 2027 15:57:03.608           171.689                Novosib          5365.281
        37   01 Jun 2027 19:08:58.007   01 Jun 2027 19:12:28.118           210.111                 Moscow          6565.969
        38   01 Jun 2027 19:13:01.980   01 Jun 2027 19:15:08.011           126.031              Murmansk1          3938.469
        39   01 Jun 2027 20:17:47.068   01 Jun 2027 20:18:08.974            21.906               CapeTown           684.563
        40   01 Jun 2027 20:19:14.953   01 Jun 2027 20:20:35.091            80.138               CapeTown          2504.313
        41   01 Jun 2027 20:23:24.144   01 Jun 2027 20:24:57.196            93.052               CapeTown          2907.875
        42   01 Jun 2027 20:59:08.210   01 Jun 2027 21:00:24.489            76.279               Magadan2          2383.719
        43   01 Jun 2027 22:32:35.448   01 Jun 2027 22:37:47.466           312.018                Anadyr2          9750.562
        44   01 Jun 2027 22:37:49.754   01 Jun 2027 22:38:29.416            39.662                Norilsk          1239.438
        45   01 Jun 2027 22:38:36.500   01 Jun 2027 22:40:10.361            93.861               Magadan2          2933.156
        46   01 Jun 2027 22:40:29.847   01 Jun 2027 22:40:39.282             9.435               Magadan2           294.844
        47   01 Jun 2027 22:42:07.105   01 Jun 2027 22:44:00.649           113.544                Irkutsk          3548.250
        48   01 Jun 2027 23:26:54.172   01 Jun 2027 23:29:59.917           185.745            RioGallegos          5804.531
        49   02 Jun 2027 00:08:09.889   02 Jun 2027 00:08:57.546            47.657                Anadyr1          1489.281
        50   02 Jun 2027 00:09:03.995   02 Jun 2027 00:10:14.715            70.720                Anadyr2          2210.000
        51   02 Jun 2027 00:10:24.010   02 Jun 2027 00:12:09.366           105.356                Norilsk          3292.375
        52   02 Jun 2027 00:12:40.080   02 Jun 2027 00:12:52.638            12.558               Magadan2           392.437
        53   02 Jun 2027 00:13:09.551   02 Jun 2027 00:13:20.031            10.480               Magadan2           327.500
        54   02 Jun 2027 00:13:38.606   02 Jun 2027 00:14:21.144            42.538               Magadan2          1329.313
        55   02 Jun 2027 00:14:31.922   02 Jun 2027 00:16:01.336            89.414                Irkutsk          2794.187
        56   02 Jun 2027 00:16:05.802   02 Jun 2027 00:18:14.567           128.765                Novosib          4023.906
        57   02 Jun 2027 00:28:14.869   02 Jun 2027 00:28:57.500            42.631                Sumatra          1332.219
        58   02 Jun 2027 00:31:06.697   02 Jun 2027 00:31:48.862            42.165                Sumatra          1317.656
        59   02 Jun 2027 01:02:18.610   02 Jun 2027 01:02:54.461            35.851            RioGallegos          1120.344
        60   02 Jun 2027 01:05:57.340   02 Jun 2027 01:06:10.998            13.658            RioGallegos           426.813
        61   02 Jun 2027 01:06:41.372   02 Jun 2027 01:07:04.685            23.313            RioGallegos           728.531
        62   02 Jun 2027 01:42:48.511   02 Jun 2027 01:44:57.060           128.549                Anadyr1          4017.156
        63   02 Jun 2027 01:46:22.842   02 Jun 2027 01:47:42.039            79.197                Norilsk          2474.906
        64   02 Jun 2027 01:47:52.198   02 Jun 2027 01:48:02.588            10.390                Norilsk           324.687
        65   02 Jun 2027 01:50:16.512   02 Jun 2027 01:52:03.402           106.890                Irkutsk          3340.312
        66   02 Jun 2027 01:52:25.132   02 Jun 2027 01:53:04.121            38.989                Novosib          1218.406
        67   02 Jun 2027 01:57:59.536   02 Jun 2027 01:59:49.593           110.057                  Delhi          3439.281
        68   02 Jun 2027 02:06:32.977   02 Jun 2027 02:08:47.442           134.465                Sumatra          4202.031
        69   02 Jun 2027 02:38:49.571   02 Jun 2027 02:39:26.140            36.569            RioGallegos          1142.781
        70   02 Jun 2027 02:40:12.058   02 Jun 2027 02:41:37.167            85.109            RioGallegos          2659.656
        71   02 Jun 2027 03:27:01.946   02 Jun 2027 03:27:37.048            35.102                Irkutsk          1096.937
        72   02 Jun 2027 03:29:41.152   02 Jun 2027 03:29:53.226            12.074                Norilsk           377.313
        73   02 Jun 2027 03:30:01.976   02 Jun 2027 03:30:30.137            28.161              Murmansk2           880.031
        74   02 Jun 2027 03:30:40.870   02 Jun 2027 03:31:57.833            76.963                Norilsk          2405.094
        75   02 Jun 2027 03:32:13.646   02 Jun 2027 03:32:29.828            16.182                Novosib           505.688
        76   02 Jun 2027 03:32:31.551   02 Jun 2027 03:32:51.507            19.956                Norilsk           623.625
        77   02 Jun 2027 03:32:56.950   02 Jun 2027 03:33:10.051            13.101              Murmansk2           409.406
        78   02 Jun 2027 03:33:19.702   02 Jun 2027 03:34:55.760            96.058                 Moscow          3001.813
        79   02 Jun 2027 03:35:07.567   02 Jun 2027 03:36:58.173           110.606                Novosib          3456.437
        80   02 Jun 2027 03:38:22.475   02 Jun 2027 03:38:39.034            16.559                Novosib           517.469
        81   02 Jun 2027 03:39:40.685   02 Jun 2027 03:42:07.816           147.131                  Delhi          4597.844
        82   02 Jun 2027 05:09:00.784   02 Jun 2027 05:11:38.818           158.034                Novosib          4938.562
        83   02 Jun 2027 05:29:48.542   02 Jun 2027 05:30:39.520            50.978               CapeTown          1593.062
        84   02 Jun 2027 05:31:13.188   02 Jun 2027 05:31:26.545            13.357               CapeTown           417.406
        85   02 Jun 2027 05:35:18.911   02 Jun 2027 05:36:04.763            45.852               CapeTown          1432.875
        86   02 Jun 2027 05:37:52.317   02 Jun 2027 05:38:20.163            27.846               CapeTown           870.187
        87   02 Jun 2027 05:39:40.665   02 Jun 2027 05:40:20.707            40.042               CapeTown          1251.313
        88   02 Jun 2027 06:24:23.582   02 Jun 2027 06:25:01.793            38.211                Anadyr2          1194.094
        89   02 Jun 2027 06:25:17.836   02 Jun 2027 06:25:40.537            22.701                Anadyr1           709.406
        90   02 Jun 2027 06:26:26.548   02 Jun 2027 06:26:41.214            14.666                Anadyr2           458.312
        91   02 Jun 2027 06:26:57.183   02 Jun 2027 06:28:52.195           115.012               Magadan2          3594.125
        92   02 Jun 2027 06:31:02.018   02 Jun 2027 06:32:32.703            90.685               Magadan2          2833.906
        93   02 Jun 2027 06:36:36.751   02 Jun 2027 06:36:46.665             9.914               Magadan2           309.812
        94   02 Jun 2027 06:46:39.670   02 Jun 2027 06:47:10.347            30.677              Murmansk2           958.656
        95   02 Jun 2027 06:47:51.517   02 Jun 2027 06:48:18.245            26.728              Murmansk2           835.250
        96   02 Jun 2027 08:07:07.253   02 Jun 2027 08:07:35.124            27.871               Magadan1           870.969
        97   02 Jun 2027 08:08:28.214   02 Jun 2027 08:13:11.137           282.923                Anadyr2          8841.344
        98   02 Jun 2027 08:23:45.290   02 Jun 2027 08:24:43.459            58.169                 Moscow          1817.781
        99   02 Jun 2027 09:41:14.924   02 Jun 2027 09:41:17.206             2.282                Anadyr1            71.313
       100   02 Jun 2027 09:41:47.833   02 Jun 2027 09:41:48.140             0.307               Magadan1             9.594
       101   02 Jun 2027 09:42:53.695   02 Jun 2027 09:43:37.437            43.742               Magadan2          1366.937
       102   02 Jun 2027 09:43:45.493   02 Jun 2027 09:46:29.567           164.074                Anadyr2          5127.313
       103   02 Jun 2027 09:47:20.622   02 Jun 2027 09:48:46.050            85.428               Magadan2          2669.625
       104   02 Jun 2027 11:15:44.976   02 Jun 2027 11:17:11.482            86.506               Magadan1          2703.312
       105   02 Jun 2027 11:18:21.756   02 Jun 2027 11:20:19.420           117.664               Magadan2          3677.000
       106   02 Jun 2027 11:20:22.375   02 Jun 2027 11:23:40.402           198.027               Magadan2          6188.344
       107   02 Jun 2027 11:24:07.049   02 Jun 2027 11:24:11.380             4.331                Norilsk           135.344
       108   02 Jun 2027 11:24:44.297   02 Jun 2027 11:24:50.935             6.638                Novosib           207.438
       109   02 Jun 2027 11:59:18.236   02 Jun 2027 12:01:12.245           114.009            RioGallegos          3562.781
       110   02 Jun 2027 12:34:11.622   02 Jun 2027 12:34:50.230            38.608                Sumatra          1206.500
       111   02 Jun 2027 12:48:05.359   02 Jun 2027 12:49:28.534            83.175                Irkutsk          2599.219
       112   02 Jun 2027 12:50:14.599   02 Jun 2027 12:50:25.537            10.938                Novosib           341.812
       113   02 Jun 2027 12:50:50.437   02 Jun 2027 12:51:24.825            34.388                Irkutsk          1074.625
       114   02 Jun 2027 12:53:36.495   02 Jun 2027 12:53:56.537            20.042                Norilsk           626.312
       115   02 Jun 2027 12:54:19.263   02 Jun 2027 12:55:38.050            78.787                Norilsk          2462.094
       116   02 Jun 2027 13:38:28.694   02 Jun 2027 13:39:38.133            69.439            RioGallegos          2169.969
       117   02 Jun 2027 14:13:15.034   02 Jun 2027 14:17:14.769           239.735                Sumatra          7491.719
       118   02 Jun 2027 14:25:53.229   02 Jun 2027 14:26:58.123            64.894                Novosib          2027.938
       119   02 Jun 2027 14:29:11.240   02 Jun 2027 14:31:23.571           132.331                Irkutsk          4135.344
       120   02 Jun 2027 16:00:22.966   02 Jun 2027 16:01:35.339            72.373                  Delhi          2261.656
       121   02 Jun 2027 16:02:47.906   02 Jun 2027 16:03:59.294            71.388                 Moscow          2230.875
       122   02 Jun 2027 16:06:09.609   02 Jun 2027 16:06:54.478            44.869              Murmansk2          1402.156
       123   02 Jun 2027 16:07:10.413   02 Jun 2027 16:07:31.040            20.627              Murmansk1           644.594
       124   02 Jun 2027 16:07:56.713   02 Jun 2027 16:10:37.154           160.441                Novosib          5013.781
       125   02 Jun 2027 16:13:35.045   02 Jun 2027 16:14:58.118            83.073                Norilsk          2596.031
       126   02 Jun 2027 17:39:40.476   02 Jun 2027 17:40:33.617            53.141                 Moscow          1660.656
       127   02 Jun 2027 17:41:43.483   02 Jun 2027 17:43:46.049           122.566                 Moscow          3830.187
       128   02 Jun 2027 17:45:30.381   02 Jun 2027 17:47:01.849            91.468              Murmansk2          2858.375
       129   02 Jun 2027 17:57:20.943   02 Jun 2027 17:57:51.333            30.390                Anadyr2           949.687
       130   02 Jun 2027 18:03:47.106   02 Jun 2027 18:04:00.320            13.214                Anadyr1           412.937
       131   02 Jun 2027 18:52:10.502   02 Jun 2027 18:54:17.498           126.996               CapeTown          3968.625
       132   02 Jun 2027 19:21:55.926   02 Jun 2027 19:27:16.558           320.632              Murmansk1         10019.750
       133   02 Jun 2027 19:27:55.550   02 Jun 2027 19:29:04.044            68.494              Murmansk1          2140.438
       134   02 Jun 2027 20:30:36.938   02 Jun 2027 20:32:13.639            96.701               CapeTown          3021.906
       135   02 Jun 2027 20:34:02.852   02 Jun 2027 20:35:10.516            67.664               CapeTown          2114.500
       136   02 Jun 2027 21:08:42.535   02 Jun 2027 21:09:28.029            45.494                Anadyr2          1421.687
       137   02 Jun 2027 21:09:47.814   02 Jun 2027 21:09:58.140            10.326                Anadyr2           322.688
       138   02 Jun 2027 21:10:30.823   02 Jun 2027 21:11:53.690            82.867                Anadyr1          2589.594
       139   02 Jun 2027 21:12:07.921   02 Jun 2027 21:14:08.028           120.107               Magadan1          3753.344
       140   02 Jun 2027 21:16:06.781   02 Jun 2027 21:16:12.466             5.685               Magadan1           177.656
       141   02 Jun 2027 21:16:39.419   02 Jun 2027 21:16:45.678             6.259               Magadan2           195.594
       142   02 Jun 2027 22:44:36.097   02 Jun 2027 22:48:20.050           223.953                Anadyr1          6998.531
       143   02 Jun 2027 22:48:23.430   02 Jun 2027 22:51:16.573           173.143                Norilsk          5410.719
       144   02 Jun 2027 22:51:54.750   02 Jun 2027 22:52:28.557            33.807               Magadan1          1056.469
       145   02 Jun 2027 22:52:46.025   02 Jun 2027 22:53:48.580            62.555                Irkutsk          1954.844
       146   02 Jun 2027 22:54:43.275   02 Jun 2027 22:55:34.786            51.511                Irkutsk          1609.719
       147   02 Jun 2027 23:38:46.252   02 Jun 2027 23:40:07.263            81.011            RioGallegos          2531.594
       148   02 Jun 2027 23:40:32.940   02 Jun 2027 23:41:40.433            67.493            RioGallegos          2109.156
       149   02 Jun 2027 23:48:15.822   02 Jun 2027 23:49:13.078            57.256            RioGallegos          1789.250
       150   03 Jun 2027 00:20:05.781   03 Jun 2027 00:20:37.810            32.029                Anadyr1          1000.906
       151   03 Jun 2027 00:21:32.275   03 Jun 2027 00:21:44.162            11.887                Anadyr1           371.469
       152   03 Jun 2027 00:21:44.162   03 Jun 2027 00:23:00.721            76.559                Anadyr2          2392.469
       153   03 Jun 2027 00:23:08.945   03 Jun 2027 00:23:50.662            41.717                Norilsk          1303.656
       154   03 Jun 2027 00:23:58.455   03 Jun 2027 00:24:22.784            24.329               Magadan1           760.281
       155   03 Jun 2027 00:25:26.630   03 Jun 2027 00:25:49.791            23.161               Magadan2           723.781
       156   03 Jun 2027 00:26:28.299   03 Jun 2027 00:28:04.074            95.775                Irkutsk          2992.969
       157   03 Jun 2027 00:28:38.780   03 Jun 2027 00:29:11.485            32.705                Novosib          1022.031
       158   03 Jun 2027 00:30:33.958   03 Jun 2027 00:30:58.728            24.770                Novosib           774.063
       159   03 Jun 2027 00:33:00.772   03 Jun 2027 00:33:45.589            44.817                Novosib          1400.531
       160   03 Jun 2027 00:40:09.821   03 Jun 2027 00:43:11.920           182.099                Sumatra          5690.594
       161   03 Jun 2027 01:54:34.753   03 Jun 2027 01:55:15.016            40.263                Anadyr1          1258.219
       162   03 Jun 2027 01:55:15.016   03 Jun 2027 01:55:28.192            13.176                Anadyr2           411.750
       163   03 Jun 2027 01:56:09.977   03 Jun 2027 01:56:53.645            43.668                Anadyr1          1364.625
       164   03 Jun 2027 01:58:25.258   03 Jun 2027 01:59:52.581            87.323                Norilsk          2728.844
       165   03 Jun 2027 01:59:58.419   03 Jun 2027 02:00:10.909            12.490                Norilsk           390.312
       166   03 Jun 2027 02:02:18.424   03 Jun 2027 02:04:34.221           135.797                Novosib          4243.656
       167   03 Jun 2027 02:05:37.947   03 Jun 2027 02:05:59.050            21.103                Novosib           659.469
       168   03 Jun 2027 02:09:48.570   03 Jun 2027 02:10:41.149            52.579                  Delhi          1643.094
       169   03 Jun 2027 02:17:33.575   03 Jun 2027 02:18:24.910            51.335                  Delhi          1604.219
       170   03 Jun 2027 02:20:20.175   03 Jun 2027 02:23:10.094           169.919                Sumatra          5309.969
       171   03 Jun 2027 02:54:23.093   03 Jun 2027 02:55:23.114            60.021            RioGallegos          1875.656
       172   03 Jun 2027 02:59:07.573   03 Jun 2027 02:59:49.275            41.702            RioGallegos          1303.187
       173   03 Jun 2027 03:41:53.299   03 Jun 2027 03:42:01.573             8.274                Norilsk           258.563
       174   03 Jun 2027 03:42:29.294   03 Jun 2027 03:43:59.157            89.863                Norilsk          2808.219
       175   03 Jun 2027 03:44:20.279   03 Jun 2027 03:44:53.431            33.152                 Moscow          1036.000
       176   03 Jun 2027 03:44:57.175   03 Jun 2027 03:45:45.408            48.233              Murmansk2          1507.281
       177   03 Jun 2027 03:46:00.205   03 Jun 2027 03:46:13.360            13.155              Murmansk2           411.094
       178   03 Jun 2027 03:46:19.139   03 Jun 2027 03:46:55.976            36.837                Irkutsk          1151.156
       179   03 Jun 2027 03:53:52.765   03 Jun 2027 03:56:34.594           161.829                  Delhi          5057.156
       180   03 Jun 2027 05:20:10.287   03 Jun 2027 05:20:20.378            10.091                Novosib           315.344
       181   03 Jun 2027 05:20:20.749   03 Jun 2027 05:20:31.327            10.578                 Moscow           330.562
       182   03 Jun 2027 05:20:34.802   03 Jun 2027 05:21:33.126            58.324                Novosib          1822.625
       183   03 Jun 2027 05:21:37.250   03 Jun 2027 05:22:36.380            59.130                 Moscow          1847.812
       184   03 Jun 2027 05:22:49.367   03 Jun 2027 05:23:20.883            31.516                 Moscow           984.875
       185   03 Jun 2027 05:23:39.867   03 Jun 2027 05:24:17.228            37.361                 Moscow          1167.531
       186   03 Jun 2027 05:24:46.400   03 Jun 2027 05:24:57.529            11.129              Murmansk2           347.781
       187   03 Jun 2027 05:28:05.085   03 Jun 2027 05:28:29.697            24.612                 Moscow           769.125
       188   03 Jun 2027 05:39:49.522   03 Jun 2027 05:42:11.689           142.167               CapeTown          4442.719
       189   03 Jun 2027 06:42:31.681   03 Jun 2027 06:43:31.895            60.214                Anadyr2          1881.687
       190   03 Jun 2027 06:43:36.338   03 Jun 2027 06:44:14.103            37.765                Anadyr2          1180.156
       191   03 Jun 2027 06:44:14.103   03 Jun 2027 06:45:07.154            53.051                Anadyr1          1657.844
       192   03 Jun 2027 06:59:05.247   03 Jun 2027 06:59:30.129            24.882              Murmansk1           777.562
       193   03 Jun 2027 06:59:30.346   03 Jun 2027 06:59:41.347            11.001                 Moscow           343.781
       194   03 Jun 2027 07:17:18.611   03 Jun 2027 07:17:47.070            28.459               CapeTown           889.344
       195   03 Jun 2027 07:20:05.125   03 Jun 2027 07:22:08.129           123.004               CapeTown          3843.875
       196   03 Jun 2027 08:17:01.854   03 Jun 2027 08:17:03.428             1.574               Magadan2            49.188
       197   03 Jun 2027 08:17:03.428   03 Jun 2027 08:17:48.957            45.529               Magadan1          1422.781
       198   03 Jun 2027 08:17:50.795   03 Jun 2027 08:18:35.705            44.910                Anadyr2          1403.438
       199   03 Jun 2027 08:19:00.332   03 Jun 2027 08:19:20.335            20.003                Anadyr2           625.094
       200   03 Jun 2027 08:19:25.810   03 Jun 2027 08:19:40.753            14.943               Magadan1           466.969
       201   03 Jun 2027 08:20:17.621   03 Jun 2027 08:21:22.973            65.352                Anadyr2          2042.250
       202   03 Jun 2027 08:21:38.768   03 Jun 2027 08:21:41.208             2.440               Magadan2            76.250
       203   03 Jun 2027 08:22:40.325   03 Jun 2027 08:22:57.419            17.094                Anadyr2           534.187
       204   03 Jun 2027 08:23:58.025   03 Jun 2027 08:25:11.377            73.352                Anadyr1          2292.250
       205   03 Jun 2027 09:04:19.283   03 Jun 2027 09:04:52.765            33.482            RioGallegos          1046.313
       206   03 Jun 2027 09:53:04.337   03 Jun 2027 09:53:13.404             9.067                Anadyr2           283.344
       207   03 Jun 2027 09:54:51.119   03 Jun 2027 09:55:17.245            26.126               Magadan2           816.437
       208   03 Jun 2027 09:55:17.245   03 Jun 2027 09:56:59.217           101.972               Magadan1          3186.625
       209   03 Jun 2027 09:57:58.015   03 Jun 2027 09:58:21.723            23.708               Magadan2           740.875
       210   03 Jun 2027 09:58:55.376   03 Jun 2027 09:59:25.656            30.280               Magadan2           946.250
       211   03 Jun 2027 10:00:03.646   03 Jun 2027 10:00:14.869            11.223                Norilsk           350.719
       212   03 Jun 2027 10:36:02.824   03 Jun 2027 10:36:34.697            31.873            RioGallegos           996.031
       213   03 Jun 2027 10:38:25.102   03 Jun 2027 10:39:19.760            54.658            RioGallegos          1708.062
       214   03 Jun 2027 11:15:01.342   03 Jun 2027 11:15:24.334            22.992                Sumatra           718.500
       215   03 Jun 2027 11:28:41.086   03 Jun 2027 11:31:08.842           147.756               Magadan1          4617.375
       216   03 Jun 2027 11:31:54.879   03 Jun 2027 11:35:19.681           204.802               Magadan2          6400.063
       217   03 Jun 2027 11:35:38.093   03 Jun 2027 11:36:16.483            38.390                Irkutsk          1199.687
       218   03 Jun 2027 11:36:37.752   03 Jun 2027 11:36:44.315             6.563                Novosib           205.094
       219   03 Jun 2027 12:11:27.825   03 Jun 2027 12:12:03.236            35.411            RioGallegos          1106.594
       220   03 Jun 2027 12:14:28.829   03 Jun 2027 12:15:16.213            47.384            RioGallegos          1480.750
       221   03 Jun 2027 12:46:09.442   03 Jun 2027 12:48:48.231           158.789                Sumatra          4962.156
       222   03 Jun 2027 13:02:28.703   03 Jun 2027 13:03:31.315            62.612                Novosib          1956.625
       223   03 Jun 2027 13:04:48.190   03 Jun 2027 13:05:07.882            19.692                Irkutsk           615.375
       224   03 Jun 2027 13:12:04.514   03 Jun 2027 13:12:18.020            13.506                Irkutsk           422.062
       225   03 Jun 2027 13:15:59.043   03 Jun 2027 13:16:45.703            46.660                Norilsk          1458.125
       226   03 Jun 2027 13:51:30.791   03 Jun 2027 13:55:14.705           223.914            RioGallegos          6997.312
       227   03 Jun 2027 14:38:14.880   03 Jun 2027 14:38:22.325             7.445                Novosib           232.656
       228   03 Jun 2027 14:40:12.051   03 Jun 2027 14:42:15.634           123.583                Novosib          3861.969
       229   03 Jun 2027 14:50:57.643   03 Jun 2027 14:51:30.484            32.841                Norilsk          1026.281
       230   03 Jun 2027 14:51:52.477   03 Jun 2027 14:52:10.582            18.105                Norilsk           565.781
       231   03 Jun 2027 16:14:45.957   03 Jun 2027 16:15:58.982            73.025                 Moscow          2282.031
       232   03 Jun 2027 16:16:57.461   03 Jun 2027 16:16:57.627             0.166                 Moscow             5.188
       233   03 Jun 2027 16:18:03.904   03 Jun 2027 16:18:37.250            33.346                 Moscow          1042.063
       234   03 Jun 2027 16:19:09.782   03 Jun 2027 16:19:37.613            27.831              Murmansk2           869.719
       235   03 Jun 2027 16:20:07.814   03 Jun 2027 16:20:41.479            33.665              Murmansk2          1052.031
       236   03 Jun 2027 16:21:33.125   03 Jun 2027 16:22:08.616            35.491              Murmansk1          1109.094
       237   03 Jun 2027 16:22:08.701   03 Jun 2027 16:23:50.485           101.784                Norilsk          3180.750
       238   03 Jun 2027 16:26:06.680   03 Jun 2027 16:27:51.684           105.004                Norilsk          3281.375
       239   03 Jun 2027 17:29:22.208   03 Jun 2027 17:29:58.722            36.514               CapeTown          1141.062
       240   03 Jun 2027 17:32:26.233   03 Jun 2027 17:32:42.050            15.817               CapeTown           494.281
       241   03 Jun 2027 17:33:12.458   03 Jun 2027 17:33:42.642            30.184               CapeTown           943.250
       242   03 Jun 2027 17:52:05.534   03 Jun 2027 17:53:12.828            67.294                 Moscow          2102.937
       243   03 Jun 2027 17:55:14.875   03 Jun 2027 17:55:29.301            14.426              Murmansk1           450.812
       244   03 Jun 2027 17:55:46.166   03 Jun 2027 17:57:10.944            84.778                 Moscow          2649.313
       245   03 Jun 2027 17:57:24.912   03 Jun 2027 17:59:10.136           105.224              Murmansk1          3288.250
       246   03 Jun 2027 18:01:33.659   03 Jun 2027 18:02:03.024            29.365                 Moscow           917.656
       247   03 Jun 2027 18:09:15.010   03 Jun 2027 18:09:38.688            23.678                Anadyr2           739.937
       248   03 Jun 2027 19:04:15.453   03 Jun 2027 19:06:02.579           107.126               CapeTown          3347.687
       249   03 Jun 2027 19:07:50.407   03 Jun 2027 19:08:23.577            33.170               CapeTown          1036.563
       250   03 Jun 2027 19:34:32.659   03 Jun 2027 19:40:04.447           331.788              Murmansk2         10368.375
       251   03 Jun 2027 19:40:07.787   03 Jun 2027 19:42:19.550           131.763              Murmansk2          4117.594
       252   03 Jun 2027 20:44:38.072   03 Jun 2027 20:45:41.277            63.205               CapeTown          1975.156
       253   03 Jun 2027 21:20:44.372   03 Jun 2027 21:22:25.236           100.864                Anadyr1          3152.000
       254   03 Jun 2027 21:22:32.582   03 Jun 2027 21:23:51.202            78.620                Anadyr2          2456.875
       255   03 Jun 2027 21:23:55.553   03 Jun 2027 21:25:12.683            77.130               Magadan1          2410.312
       256   03 Jun 2027 21:25:26.494   03 Jun 2027 21:25:44.007            17.513               Magadan1           547.281
       257   03 Jun 2027 21:26:00.416   03 Jun 2027 21:26:52.406            51.990               Magadan1          1624.687
       258   03 Jun 2027 22:18:56.288   03 Jun 2027 22:19:54.611            58.323            RioGallegos          1822.594
       259   03 Jun 2027 22:56:36.395   03 Jun 2027 23:00:45.010           248.615                Anadyr1          7769.219
       260   03 Jun 2027 23:00:49.351   03 Jun 2027 23:01:29.058            39.707               Magadan1          1240.844
       261   03 Jun 2027 23:01:34.605   03 Jun 2027 23:01:56.518            21.913               Magadan1           684.781
       262   03 Jun 2027 23:02:06.388   03 Jun 2027 23:02:25.568            19.180               Magadan2           599.375
       263   03 Jun 2027 23:03:46.093   03 Jun 2027 23:04:01.635            15.542               Magadan2           485.688
       264   03 Jun 2027 23:04:05.677   03 Jun 2027 23:04:15.558             9.881               Magadan2           308.781
       265   03 Jun 2027 23:04:20.818   03 Jun 2027 23:06:09.078           108.260                Irkutsk          3383.125
       266   03 Jun 2027 23:20:01.913   03 Jun 2027 23:21:26.507            84.594                Sumatra          2643.563
       267   03 Jun 2027 23:24:12.146   03 Jun 2027 23:24:47.581            35.435                Sumatra          1107.344
       268   03 Jun 2027 23:50:40.538   03 Jun 2027 23:51:31.747            51.209            RioGallegos          1600.281
       269   04 Jun 2027 00:00:32.559   04 Jun 2027 00:01:17.612            45.053            RioGallegos          1407.906
       270   04 Jun 2027 00:32:00.678   04 Jun 2027 00:32:37.116            36.438                Anadyr1          1138.688
       271   04 Jun 2027 00:33:25.896   04 Jun 2027 00:34:12.363            46.467                Anadyr1          1452.094
       272   04 Jun 2027 00:34:27.096   04 Jun 2027 00:36:13.853           106.757                Norilsk          3336.156
       273   04 Jun 2027 00:36:24.028   04 Jun 2027 00:37:02.780            38.752               Magadan1          1211.000
       274   04 Jun 2027 00:38:26.079   04 Jun 2027 00:40:07.594           101.515                Irkutsk          3172.344
       275   04 Jun 2027 00:42:52.986   04 Jun 2027 00:43:24.836            31.850                Novosib           995.313
       276   04 Jun 2027 00:44:58.111   04 Jun 2027 00:45:42.494            44.383                Novosib          1386.969
       277   04 Jun 2027 00:52:10.480   04 Jun 2027 00:54:19.743           129.263                Sumatra          4039.469
       278   04 Jun 2027 01:02:53.509   04 Jun 2027 01:04:03.157            69.648                Sumatra          2176.500
       279   04 Jun 2027 01:36:03.035   04 Jun 2027 01:36:48.561            45.526            RioGallegos          1422.687
       280   04 Jun 2027 02:06:19.785   04 Jun 2027 02:06:24.582             4.797                Anadyr1           149.906
       281   04 Jun 2027 02:06:42.953   04 Jun 2027 02:07:15.312            32.359                Anadyr1          1011.219
       282   04 Jun 2027 02:08:21.780   04 Jun 2027 02:08:44.218            22.438                Anadyr1           701.188
       283   04 Jun 2027 02:10:27.638   04 Jun 2027 02:11:42.093            74.455                Norilsk          2326.719
       284   04 Jun 2027 02:13:45.062   04 Jun 2027 02:14:47.247            62.185              Murmansk2          1943.281
       285   04 Jun 2027 02:14:47.603   04 Jun 2027 02:16:05.935            78.332                Irkutsk          2447.875
       286   04 Jun 2027 02:17:42.999   04 Jun 2027 02:18:05.386            22.387                Novosib           699.594
       287   04 Jun 2027 02:19:33.058   04 Jun 2027 02:19:42.631             9.573                Irkutsk           299.156
       288   04 Jun 2027 02:21:41.819   04 Jun 2027 02:22:33.350            51.531                  Delhi          1610.344
       289   04 Jun 2027 02:29:02.618   04 Jun 2027 02:29:23.524            20.906                  Delhi           653.313
       290   04 Jun 2027 03:03:14.884   04 Jun 2027 03:04:25.271            70.387            RioGallegos          2199.594
       291   04 Jun 2027 03:05:13.110   04 Jun 2027 03:07:47.113           154.003            RioGallegos          4812.594
       292   04 Jun 2027 03:53:29.060   04 Jun 2027 03:55:04.054            94.994                Irkutsk          2968.563
       293   04 Jun 2027 03:56:04.245   04 Jun 2027 03:56:49.652            45.407                Irkutsk          1418.969
       294   04 Jun 2027 03:57:31.480   04 Jun 2027 03:59:10.838            99.358                Norilsk          3104.938
       295   04 Jun 2027 05:32:05.969   04 Jun 2027 05:32:28.554            22.585                Novosib           705.781
       296   04 Jun 2027 05:33:35.895   04 Jun 2027 05:34:24.513            48.618                 Moscow          1519.312
       297   04 Jun 2027 05:34:50.431   04 Jun 2027 05:35:49.060            58.629                 Moscow          1832.156
       298   04 Jun 2027 05:35:55.472   04 Jun 2027 05:36:34.523            39.051                 Moscow          1220.344
       299   04 Jun 2027 05:36:36.157   04 Jun 2027 05:36:55.196            19.039              Murmansk1           594.969
       300   04 Jun 2027 05:51:43.430   04 Jun 2027 05:54:42.076           178.646               CapeTown          5582.688
       301   04 Jun 2027 06:54:48.101   04 Jun 2027 06:55:19.954            31.853                Anadyr2           995.406
       302   04 Jun 2027 06:55:33.500   04 Jun 2027 06:56:25.495            51.995                Anadyr2          1624.844
       303   04 Jun 2027 06:58:16.625   04 Jun 2027 06:59:18.514            61.889                Anadyr2          1934.031
       304   04 Jun 2027 07:30:08.861   04 Jun 2027 07:30:45.825            36.964               CapeTown          1155.125
       305   04 Jun 2027 07:32:27.909   04 Jun 2027 07:34:39.200           131.291               CapeTown          4102.844
       306   04 Jun 2027 08:28:50.380   04 Jun 2027 08:29:30.109            39.729                Anadyr2          1241.531
       307   04 Jun 2027 08:30:00.843   04 Jun 2027 08:30:09.067             8.224               Magadan1           257.000
       308   04 Jun 2027 08:30:17.219   04 Jun 2027 08:30:50.804            33.585                Anadyr1          1049.531
       309   04 Jun 2027 08:31:10.882   04 Jun 2027 08:31:49.069            38.187               Magadan1          1193.344
       310   04 Jun 2027 08:32:02.296   04 Jun 2027 08:33:23.835            81.539                Anadyr2          2548.094
       311   04 Jun 2027 08:33:34.939   04 Jun 2027 08:34:25.063            50.124                Anadyr2          1566.375
       312   04 Jun 2027 09:15:32.792   04 Jun 2027 09:16:01.226            28.434            RioGallegos           888.562
       313   04 Jun 2027 09:21:52.659   04 Jun 2027 09:22:42.897            50.238            RioGallegos          1569.938
       314   04 Jun 2027 10:03:10.411   04 Jun 2027 10:04:02.010            51.599               Magadan1          1612.469
       315   04 Jun 2027 10:05:07.158   04 Jun 2027 10:05:33.211            26.053               Magadan2           814.156
       316   04 Jun 2027 10:05:53.174   04 Jun 2027 10:06:10.660            17.486               Magadan2           546.438
       317   04 Jun 2027 10:06:46.186   04 Jun 2027 10:08:59.222           133.036               Magadan1          4157.375
       318   04 Jun 2027 10:09:17.187   04 Jun 2027 10:10:11.690            54.503                Anadyr1          1703.219
       319   04 Jun 2027 10:10:15.196   04 Jun 2027 10:10:32.708            17.512                Irkutsk           547.250
       320   04 Jun 2027 10:10:35.719   04 Jun 2027 10:10:42.593             6.874               Magadan2           214.813
       321   04 Jun 2027 10:11:23.135   04 Jun 2027 10:11:39.892            16.757                Irkutsk           523.656
       322   04 Jun 2027 10:11:43.861   04 Jun 2027 10:12:05.910            22.049                Anadyr2           689.031
       323   04 Jun 2027 10:12:09.877   04 Jun 2027 10:12:24.629            14.752                Norilsk           461.000
       324   04 Jun 2027 10:12:45.961   04 Jun 2027 10:13:19.082            33.121                Norilsk          1035.031
       325   04 Jun 2027 10:47:49.229   04 Jun 2027 10:48:03.898            14.669            RioGallegos           458.406
       326   04 Jun 2027 10:48:36.896   04 Jun 2027 10:48:39.955             3.059            RioGallegos            95.594
       327   04 Jun 2027 10:49:11.021   04 Jun 2027 10:49:54.125            43.104            RioGallegos          1347.000
       328   04 Jun 2027 11:25:20.318   04 Jun 2027 11:27:06.710           106.392                Sumatra          3324.750
       329   04 Jun 2027 11:41:40.856   04 Jun 2027 11:41:58.906            18.050                Novosib           564.062
       330   04 Jun 2027 11:42:32.578   04 Jun 2027 11:42:53.306            20.728                Irkutsk           647.750
       331   04 Jun 2027 11:42:56.088   04 Jun 2027 11:43:07.761            11.673                Irkutsk           364.781
       332   04 Jun 2027 11:43:33.203   04 Jun 2027 11:44:08.342            35.139                Irkutsk          1098.094
       333   04 Jun 2027 11:44:43.992   04 Jun 2027 11:45:25.124            41.132                Irkutsk          1285.375
       334   04 Jun 2027 11:45:35.046   04 Jun 2027 11:45:41.145             6.099                Norilsk           190.594
       335   04 Jun 2027 11:45:46.118   04 Jun 2027 11:45:56.153            10.035                Norilsk           313.594
       336   04 Jun 2027 11:46:05.449   04 Jun 2027 11:46:38.784            33.335                Novosib          1041.719
       337   04 Jun 2027 11:46:41.083   04 Jun 2027 11:47:20.562            39.479                Novosib          1233.719
       338   04 Jun 2027 11:47:25.623   04 Jun 2027 11:47:35.744            10.121                Irkutsk           316.281
       339   04 Jun 2027 11:47:49.840   04 Jun 2027 11:47:59.318             9.478                Irkutsk           296.188
       340   04 Jun 2027 11:48:08.074   04 Jun 2027 11:48:16.904             8.830                Novosib           275.937
       341   04 Jun 2027 11:48:40.449   04 Jun 2027 11:49:48.691            68.242                Novosib          2132.562
       342   04 Jun 2027 12:23:41.243   04 Jun 2027 12:23:53.581            12.338            RioGallegos           385.562
       343   04 Jun 2027 12:26:26.891   04 Jun 2027 12:26:56.680            29.789            RioGallegos           930.906
       344   04 Jun 2027 12:58:12.948   04 Jun 2027 12:59:44.523            91.575                Sumatra          2861.719
       345   04 Jun 2027 13:09:55.408   04 Jun 2027 13:10:46.996            51.588                Sumatra          1612.125
       346   04 Jun 2027 13:12:44.824   04 Jun 2027 13:14:20.425            95.601                Irkutsk          2987.531
       347   04 Jun 2027 13:14:42.641   04 Jun 2027 13:16:48.920           126.279                Irkutsk          3946.219
       348   04 Jun 2027 14:04:59.940   04 Jun 2027 14:06:55.601           115.661            RioGallegos          3614.406
       349   04 Jun 2027 14:50:40.910   04 Jun 2027 14:51:15.456            34.546                Novosib          1079.562
       350   04 Jun 2027 14:51:18.297   04 Jun 2027 14:52:30.153            71.856                  Delhi          2245.500
       351   04 Jun 2027 14:54:15.580   04 Jun 2027 14:55:29.505            73.925                Novosib          2310.156
       352   04 Jun 2027 14:55:46.856   04 Jun 2027 14:55:49.329             2.473                Novosib            77.281
       353   04 Jun 2027 14:57:47.835   04 Jun 2027 14:59:31.959           104.124                Norilsk          3253.875
       354   04 Jun 2027 15:00:59.074   04 Jun 2027 15:01:35.754            36.680                Novosib          1146.250
       355   04 Jun 2027 16:26:46.888   04 Jun 2027 16:27:57.787            70.899                 Moscow          2215.594
       356   04 Jun 2027 16:29:38.586   04 Jun 2027 16:29:41.471             2.885                 Moscow            90.156
       357   04 Jun 2027 16:30:05.780   04 Jun 2027 16:30:45.436            39.656                 Moscow          1239.250
       358   04 Jun 2027 16:31:35.189   04 Jun 2027 16:32:00.257            25.068              Murmansk2           783.375
       359   04 Jun 2027 16:34:54.177   04 Jun 2027 16:39:27.158           272.981                Norilsk          8530.656
       360   04 Jun 2027 17:47:00.202   04 Jun 2027 17:47:27.492            27.290               CapeTown           852.812
       361   04 Jun 2027 17:51:14.855   04 Jun 2027 17:51:40.273            25.418               CapeTown           794.312
       362   04 Jun 2027 18:04:35.424   04 Jun 2027 18:05:38.100            62.676                 Moscow          1958.625
       363   04 Jun 2027 18:07:33.632   04 Jun 2027 18:08:36.053            62.421              Murmansk1          1950.656
       364   04 Jun 2027 18:08:48.966   04 Jun 2027 18:09:35.170            46.204                 Moscow          1443.875
       365   04 Jun 2027 18:11:09.017   04 Jun 2027 18:11:21.860            12.843              Murmansk2           401.344
       366   04 Jun 2027 18:11:34.515   04 Jun 2027 18:12:11.774            37.259              Murmansk2          1164.344
       367   04 Jun 2027 18:17:04.061   04 Jun 2027 18:17:13.723             9.662              Murmansk2           301.937
       368   04 Jun 2027 18:17:24.287   04 Jun 2027 18:17:49.968            25.681              Murmansk1           802.531
       369   04 Jun 2027 18:22:13.304   04 Jun 2027 18:22:38.316            25.012                Anadyr2           781.625
       370   04 Jun 2027 18:25:57.640   04 Jun 2027 18:26:02.822             5.182                Anadyr2           161.938
       371   04 Jun 2027 18:26:21.515   04 Jun 2027 18:26:29.434             7.919                Anadyr2           247.469
       372   04 Jun 2027 19:16:23.302   04 Jun 2027 19:18:05.559           102.257               CapeTown          3195.531
       373   04 Jun 2027 19:24:22.067   04 Jun 2027 19:25:07.888            45.821               CapeTown          1431.906
       374   04 Jun 2027 19:47:13.007   04 Jun 2027 19:54:20.454           427.447              Murmansk1         13357.719
       375   04 Jun 2027 21:32:46.159   04 Jun 2027 21:34:25.615            99.456                Anadyr2          3108.000
       376   04 Jun 2027 21:34:34.443   04 Jun 2027 21:36:13.858            99.415                Anadyr1          3106.719
       377   04 Jun 2027 21:36:19.592   04 Jun 2027 21:38:33.608           134.016               Magadan1          4188.000
       378   04 Jun 2027 21:39:27.222   04 Jun 2027 21:39:45.064            17.842               Magadan2           557.562
       379   04 Jun 2027 21:39:45.064   04 Jun 2027 21:39:55.802            10.738               Magadan1           335.562
       380   04 Jun 2027 21:39:59.029   04 Jun 2027 21:40:09.199            10.170               Magadan1           317.812
       381   04 Jun 2027 21:40:26.289   04 Jun 2027 21:40:31.555             5.266               Magadan1           164.563
       382   04 Jun 2027 21:40:41.598   04 Jun 2027 21:40:50.338             8.740               Magadan2           273.125
       383   04 Jun 2027 21:43:22.339   04 Jun 2027 21:43:25.496             3.157               Magadan2            98.656
       384   04 Jun 2027 21:43:26.784   04 Jun 2027 21:44:19.701            52.917               Magadan2          1653.656
       385   04 Jun 2027 22:29:05.058   04 Jun 2027 22:31:30.820           145.762            RioGallegos          4555.062
       386   04 Jun 2027 23:08:36.279   04 Jun 2027 23:09:53.152            76.873                Anadyr1          2402.281
       387   04 Jun 2027 23:09:53.438   04 Jun 2027 23:10:29.253            35.815                Anadyr2          1119.219
       388   04 Jun 2027 23:10:42.922   04 Jun 2027 23:12:23.384           100.462                Norilsk          3139.437
       389   04 Jun 2027 23:12:46.285   04 Jun 2027 23:13:24.499            38.214               Magadan2          1194.188
       390   04 Jun 2027 23:14:00.881   04 Jun 2027 23:14:01.040             0.159                Norilsk             4.969
       391   04 Jun 2027 23:15:22.688   04 Jun 2027 23:15:30.413             7.725               Magadan1           241.406
       392   04 Jun 2027 23:15:30.413   04 Jun 2027 23:16:05.884            35.471               Magadan2          1108.469
       393   04 Jun 2027 23:16:27.146   04 Jun 2027 23:17:22.352            55.206                Irkutsk          1725.188
       394   04 Jun 2027 23:21:01.007   04 Jun 2027 23:22:17.964            76.957                Irkutsk          2404.906
       395   04 Jun 2027 23:30:47.782   04 Jun 2027 23:32:45.370           117.588                Sumatra          3674.625
       396   05 Jun 2027 00:10:39.023   05 Jun 2027 00:10:40.088             1.065            RioGallegos            33.281
       397   05 Jun 2027 00:11:06.770   05 Jun 2027 00:11:44.459            37.689            RioGallegos          1177.781
       398   05 Jun 2027 00:43:54.500   05 Jun 2027 00:44:18.656            24.156                Anadyr1           754.875
       399   05 Jun 2027 00:44:43.566   05 Jun 2027 00:45:42.124            58.558                Anadyr2          1829.937
       400   05 Jun 2027 00:46:03.204   05 Jun 2027 00:46:10.198             6.994                Anadyr2           218.562
       401   05 Jun 2027 00:46:29.026   05 Jun 2027 00:48:16.097           107.071                Norilsk          3345.969
       402   05 Jun 2027 00:48:45.496   05 Jun 2027 00:49:07.095            21.599               Magadan2           674.969
       403   05 Jun 2027 00:49:07.095   05 Jun 2027 00:50:23.838            76.743               Magadan1          2398.219
       404   05 Jun 2027 00:50:25.076   05 Jun 2027 00:51:34.658            69.582                Irkutsk          2174.437
       405   05 Jun 2027 00:53:17.136   05 Jun 2027 00:53:48.221            31.085                Novosib           971.406
       406   05 Jun 2027 00:59:39.219   05 Jun 2027 01:00:14.549            35.330                Novosib          1104.062
       407   05 Jun 2027 01:01:21.090   05 Jun 2027 01:01:29.440             8.350                  Delhi           260.937
       408   05 Jun 2027 01:01:44.248   05 Jun 2027 01:02:21.604            37.356                  Delhi          1167.375
       409   05 Jun 2027 01:08:48.449   05 Jun 2027 01:09:56.543            68.094                Sumatra          2127.937
       410   05 Jun 2027 01:40:04.544   05 Jun 2027 01:40:12.385             7.841            RioGallegos           245.031
       411   05 Jun 2027 01:40:54.406   05 Jun 2027 01:41:17.228            22.822            RioGallegos           713.187
       412   05 Jun 2027 01:43:30.105   05 Jun 2027 01:43:49.797            19.692            RioGallegos           615.375
       413   05 Jun 2027 01:44:20.466   05 Jun 2027 01:45:13.354            52.888            RioGallegos          1652.750
       414   05 Jun 2027 02:19:15.245   05 Jun 2027 02:19:20.539             5.294                Anadyr2           165.437
       415   05 Jun 2027 02:19:27.380   05 Jun 2027 02:20:05.407            38.027                Anadyr2          1188.344
       416   05 Jun 2027 02:22:29.970   05 Jun 2027 02:23:41.197            71.227                Norilsk          2225.844
       417   05 Jun 2027 02:23:49.987   05 Jun 2027 02:24:15.767            25.780                Norilsk           805.625
       418   05 Jun 2027 02:25:25.664   05 Jun 2027 02:26:29.814            64.150              Murmansk2          2004.688
       419   05 Jun 2027 02:26:31.529   05 Jun 2027 02:27:30.674            59.145                Irkutsk          1848.281
       420   05 Jun 2027 02:29:25.884   05 Jun 2027 02:31:04.951            99.067                Irkutsk          3095.844
       421   05 Jun 2027 02:42:18.746   05 Jun 2027 02:43:13.096            54.350                  Delhi          1698.438
       422   05 Jun 2027 03:15:31.666   05 Jun 2027 03:15:34.827             3.161            RioGallegos            98.781
       423   05 Jun 2027 03:16:33.909   05 Jun 2027 03:16:43.936            10.027            RioGallegos           313.344
       424   05 Jun 2027 03:17:05.838   05 Jun 2027 03:17:53.463            47.625            RioGallegos          1488.281
       425   05 Jun 2027 03:18:38.847   05 Jun 2027 03:20:23.086           104.239            RioGallegos          3257.469
       426   05 Jun 2027 04:08:25.439   05 Jun 2027 04:09:19.859            54.420                Irkutsk          1700.625
       427   05 Jun 2027 04:09:36.177   05 Jun 2027 04:09:51.990            15.813                Norilsk           494.156
       428   05 Jun 2027 04:10:05.381   05 Jun 2027 04:12:44.384           159.003                Novosib          4968.844
       429   05 Jun 2027 04:13:15.337   05 Jun 2027 04:13:57.531            42.194                Novosib          1318.563
       430   05 Jun 2027 04:14:10.953   05 Jun 2027 04:18:59.417           288.464                  Delhi          9014.500
       431   05 Jun 2027 04:37:22.466   05 Jun 2027 04:39:13.230           110.764               CapeTown          3461.375
       432   05 Jun 2027 05:43:34.162   05 Jun 2027 05:44:37.787            63.625                Novosib          1988.281
       433   05 Jun 2027 05:47:12.499   05 Jun 2027 05:47:27.270            14.771                 Moscow           461.594
       434   05 Jun 2027 05:47:47.331   05 Jun 2027 05:47:59.783            12.452                 Moscow           389.125
       435   05 Jun 2027 05:48:26.600   05 Jun 2027 05:49:19.190            52.590              Murmansk1          1643.438
       436   05 Jun 2027 06:03:42.369   05 Jun 2027 06:04:29.028            46.659               CapeTown          1458.094
       437   05 Jun 2027 06:10:34.975   05 Jun 2027 06:12:18.636           103.661               CapeTown          3239.406
       438   05 Jun 2027 07:06:42.510   05 Jun 2027 07:07:34.965            52.455                Anadyr1          1639.219
       439   05 Jun 2027 07:07:43.956   05 Jun 2027 07:09:05.690            81.734                Anadyr2          2554.187
       440   05 Jun 2027 07:43:20.423   05 Jun 2027 07:47:20.381           239.958               CapeTown          7498.687
       441   05 Jun 2027 08:42:59.674   05 Jun 2027 08:43:08.686             9.012               Magadan1           281.625
       442   05 Jun 2027 08:43:12.171   05 Jun 2027 08:44:00.190            48.019               Magadan1          1500.594
       443   05 Jun 2027 08:44:35.970   05 Jun 2027 08:44:57.031            21.061               Magadan2           658.156
       444   05 Jun 2027 08:45:07.754   05 Jun 2027 08:46:55.301           107.547               Magadan2          3360.844
       445   05 Jun 2027 10:17:08.045   05 Jun 2027 10:17:42.869            34.824               Magadan2          1088.250
       446   05 Jun 2027 10:17:42.869   05 Jun 2027 10:18:04.074            21.205               Magadan1           662.656
       447   05 Jun 2027 10:18:26.414   05 Jun 2027 10:18:42.151            15.737               Magadan1           491.781
       448   05 Jun 2027 10:18:51.873   05 Jun 2027 10:20:58.569           126.696               Magadan2          3959.250
       449   05 Jun 2027 10:21:54.738   05 Jun 2027 10:22:06.219            11.481                Anadyr1           358.781
       450   05 Jun 2027 10:23:06.815   05 Jun 2027 10:23:19.835            13.020               Magadan2           406.875
       451   05 Jun 2027 10:23:43.857   05 Jun 2027 10:24:40.126            56.269               Magadan2          1758.406
       452   05 Jun 2027 10:59:38.884   05 Jun 2027 11:00:31.911            53.027            RioGallegos          1657.094
       453   05 Jun 2027 11:36:21.185   05 Jun 2027 11:38:18.778           117.593                Sumatra          3674.781
       454   05 Jun 2027 11:55:40.136   05 Jun 2027 11:56:23.040            42.904               Magadan1          1340.750
       455   05 Jun 2027 11:56:48.288   05 Jun 2027 11:57:24.373            36.085                Irkutsk          1127.656
       456   05 Jun 2027 11:57:48.248   05 Jun 2027 11:57:56.250             8.002                Norilsk           250.062
       457   05 Jun 2027 11:58:01.260   05 Jun 2027 11:58:06.543             5.283                Novosib           165.094
       458   05 Jun 2027 11:58:09.669   05 Jun 2027 11:59:29.432            79.763                Novosib          2492.594
       459   05 Jun 2027 11:59:45.316   05 Jun 2027 12:00:12.253            26.937                Irkutsk           841.781
       460   05 Jun 2027 12:01:47.985   05 Jun 2027 12:02:03.088            15.103                Novosib           471.969
       461   05 Jun 2027 12:03:24.042   05 Jun 2027 12:03:38.466            14.424                Norilsk           450.750
       462   05 Jun 2027 12:04:17.064   05 Jun 2027 12:05:20.868            63.804                Norilsk          1993.875
       463   05 Jun 2027 12:40:44.261   05 Jun 2027 12:41:18.870            34.609            RioGallegos          1081.531
       464   05 Jun 2027 12:44:15.554   05 Jun 2027 12:45:01.452            45.898            RioGallegos          1434.313
       465   05 Jun 2027 12:47:31.093   05 Jun 2027 12:47:53.924            22.831            RioGallegos           713.469
       466   05 Jun 2027 13:12:18.452   05 Jun 2027 13:13:10.786            52.334                Sumatra          1635.437
       467   05 Jun 2027 13:14:56.939   05 Jun 2027 13:14:57.355             0.416                Sumatra            13.000
       468   05 Jun 2027 13:15:57.103   05 Jun 2027 13:18:14.865           137.762                Sumatra          4305.062
       469   05 Jun 2027 13:25:11.642   05 Jun 2027 13:25:45.229            33.587                Irkutsk          1049.594
       470   05 Jun 2027 13:29:52.807   05 Jun 2027 13:30:16.625            23.818                Irkutsk           744.312
       471   05 Jun 2027 13:35:11.078   05 Jun 2027 13:36:03.392            52.314                Irkutsk          1634.813
       472   05 Jun 2027 14:55:00.607   05 Jun 2027 14:55:56.781            56.174                  Delhi          1755.438
       473   05 Jun 2027 14:59:25.887   05 Jun 2027 15:00:07.245            41.358                  Delhi          1292.438
       474   05 Jun 2027 15:02:04.068   05 Jun 2027 15:03:14.807            70.739                  Delhi          2210.594
       475   05 Jun 2027 15:03:27.931   05 Jun 2027 15:04:23.745            55.814                Novosib          1744.188
       476   05 Jun 2027 15:04:55.906   05 Jun 2027 15:06:35.781            99.875                  Delhi          3121.094
       477   05 Jun 2027 15:09:52.217   05 Jun 2027 15:13:14.806           202.589                Novosib          6330.906
       478   05 Jun 2027 16:38:50.781   05 Jun 2027 16:38:51.513             0.732                 Moscow            22.875
       479   05 Jun 2027 16:40:26.249   05 Jun 2027 16:42:05.096            98.847                 Moscow          3088.969
       480   05 Jun 2027 16:47:44.972   05 Jun 2027 16:52:09.779           264.807                Norilsk          8275.219
       481   05 Jun 2027 18:02:40.105   05 Jun 2027 18:02:43.395             3.290               CapeTown           102.812
       482   05 Jun 2027 18:03:05.596   05 Jun 2027 18:03:44.205            38.609               CapeTown          1206.531
