uniorb/output/strategy_4/Drop/Drop_KinoSat_111806.txt

KinoSat_111806
-------------------------
    Access    *     Start Time (UTCG)     *     Stop Time (UTCG)  *   Duration (s)        *       Station  *  Data (Mbytes)
         1   01 Jun 2027 03:00:12.057   01 Jun 2027 03:00:44.932            32.875                Norilsk          1027.344
         2   01 Jun 2027 03:00:47.489   01 Jun 2027 03:01:08.841            21.352                 Moscow           667.250
         3   01 Jun 2027 03:01:21.229   01 Jun 2027 03:01:36.061            14.832                 Moscow           463.500
         4   01 Jun 2027 03:01:48.740   01 Jun 2027 03:02:21.974            33.234                Novosib          1038.562
         5   01 Jun 2027 03:03:23.219   01 Jun 2027 03:03:31.576             8.357                Norilsk           261.156
         6   01 Jun 2027 03:03:56.531   01 Jun 2027 03:04:17.559            21.028                  Delhi           657.125
         7   01 Jun 2027 03:45:23.211   01 Jun 2027 03:45:32.661             9.450            RioGallegos           295.313
         8   01 Jun 2027 04:35:10.012   01 Jun 2027 04:37:36.696           146.684                Novosib          4583.875
         9   01 Jun 2027 04:37:58.037   01 Jun 2027 04:38:55.919            57.882                Norilsk          1808.813
        10   01 Jun 2027 04:38:58.142   01 Jun 2027 04:39:23.027            24.885                Norilsk           777.656
        11   01 Jun 2027 04:39:44.796   01 Jun 2027 04:40:27.388            42.592                Novosib          1331.000
        12   01 Jun 2027 06:13:22.027   01 Jun 2027 06:13:50.802            28.775                Norilsk           899.219
        13   01 Jun 2027 06:14:04.801   01 Jun 2027 06:16:33.877           149.076              Murmansk2          4658.625
        14   01 Jun 2027 06:16:33.877   01 Jun 2027 06:17:07.646            33.769              Murmansk1          1055.281
        15   01 Jun 2027 06:17:12.582   01 Jun 2027 06:19:18.240           125.658                 Moscow          3926.813
        16   01 Jun 2027 06:32:34.169   01 Jun 2027 06:34:18.673           104.504               CapeTown          3265.750
        17   01 Jun 2027 07:37:22.756   01 Jun 2027 07:39:19.110           116.354                Norilsk          3636.063
        18   01 Jun 2027 07:39:26.061   01 Jun 2027 07:40:35.179            69.118                Norilsk          2159.937
        19   01 Jun 2027 07:41:03.075   01 Jun 2027 07:42:00.297            57.222                Anadyr1          1788.188
        20   01 Jun 2027 07:44:00.167   01 Jun 2027 07:44:18.532            18.365                Norilsk           573.906
        21   01 Jun 2027 07:44:37.627   01 Jun 2027 07:44:44.984             7.357                Norilsk           229.906
        22   01 Jun 2027 07:45:18.032   01 Jun 2027 07:46:19.429            61.397                 Moscow          1918.656
        23   01 Jun 2027 07:47:42.532   01 Jun 2027 07:48:17.014            34.482                 Moscow          1077.562
        24   01 Jun 2027 07:54:52.385   01 Jun 2027 07:54:52.993             0.608                 Moscow            19.000
        25   01 Jun 2027 09:12:34.158   01 Jun 2027 09:13:57.384            83.226                Anadyr2          2600.813
        26   01 Jun 2027 09:14:58.932   01 Jun 2027 09:17:38.893           159.961                Anadyr2          4998.781
        27   01 Jun 2027 10:47:50.025   01 Jun 2027 10:53:01.719           311.694               Magadan2          9740.437
        28   01 Jun 2027 15:33:23.564   01 Jun 2027 15:34:41.835            78.271                Novosib          2445.969
        29   01 Jun 2027 15:37:06.919   01 Jun 2027 15:37:56.311            49.392                Novosib          1543.500
        30   01 Jun 2027 18:47:38.609   01 Jun 2027 18:54:36.081           417.472                 Moscow         13046.000
        31   01 Jun 2027 19:57:49.858   01 Jun 2027 20:00:21.108           151.250               CapeTown          4726.562
        32   01 Jun 2027 20:01:45.957   01 Jun 2027 20:03:00.746            74.789               CapeTown          2337.156
        33   01 Jun 2027 20:30:41.797   01 Jun 2027 20:34:43.358           241.561              Murmansk2          7548.781
        34   01 Jun 2027 22:13:25.297   01 Jun 2027 22:17:43.353           258.056                Anadyr2          8064.250
        35   01 Jun 2027 22:17:59.498   01 Jun 2027 22:18:43.254            43.756                Norilsk          1367.375
        36   01 Jun 2027 22:19:00.137   01 Jun 2027 22:20:48.476           108.339               Magadan1          3385.594
        37   01 Jun 2027 22:20:56.998   01 Jun 2027 22:21:09.857            12.859               Magadan2           401.844
        38   01 Jun 2027 22:27:02.261   01 Jun 2027 22:27:08.649             6.388               Magadan1           199.625
        39   01 Jun 2027 23:08:04.321   01 Jun 2027 23:11:23.354           199.033            RioGallegos          6219.781
        40   01 Jun 2027 23:49:06.092   01 Jun 2027 23:50:46.989           100.897                Anadyr2          3153.031
        41   01 Jun 2027 23:51:14.131   01 Jun 2027 23:52:54.066            99.935                Norilsk          3122.969
        42   01 Jun 2027 23:53:23.356   01 Jun 2027 23:53:42.737            19.381               Magadan1           605.656
        43   01 Jun 2027 23:54:07.775   01 Jun 2027 23:54:18.444            10.669               Magadan1           333.406
        44   01 Jun 2027 23:54:52.945   01 Jun 2027 23:56:00.296            67.351               Magadan2          2104.719
        45   01 Jun 2027 23:56:09.413   01 Jun 2027 23:56:49.979            40.566                Irkutsk          1267.687
        46   01 Jun 2027 23:57:45.215   01 Jun 2027 23:58:33.907            48.692                Irkutsk          1521.625
        47   01 Jun 2027 23:59:41.387   02 Jun 2027 00:00:19.127            37.740                Novosib          1179.375
        48   02 Jun 2027 00:09:26.859   02 Jun 2027 00:11:05.854            98.995                Sumatra          3093.594
        49   02 Jun 2027 00:43:07.442   02 Jun 2027 00:43:24.879            17.437            RioGallegos           544.906
        50   02 Jun 2027 00:43:38.525   02 Jun 2027 00:44:06.919            28.394            RioGallegos           887.313
        51   02 Jun 2027 00:48:54.378   02 Jun 2027 00:49:01.887             7.509            RioGallegos           234.656
        52   02 Jun 2027 00:51:59.201   02 Jun 2027 00:52:12.188            12.987            RioGallegos           405.844
        53   02 Jun 2027 00:53:50.765   02 Jun 2027 00:54:41.018            50.253            RioGallegos          1570.406
        54   02 Jun 2027 01:23:59.105   02 Jun 2027 01:24:03.916             4.811                Anadyr1           150.344
        55   02 Jun 2027 01:24:23.473   02 Jun 2027 01:25:49.196            85.723                Anadyr2          2678.844
        56   02 Jun 2027 01:27:10.522   02 Jun 2027 01:28:56.884           106.362                Norilsk          3323.812
        57   02 Jun 2027 01:29:20.108   02 Jun 2027 01:29:36.729            16.621               Magadan2           519.406
        58   02 Jun 2027 01:31:02.913   02 Jun 2027 01:32:55.763           112.850                Irkutsk          3526.563
        59   02 Jun 2027 01:35:52.827   02 Jun 2027 01:36:21.377            28.550                Irkutsk           892.187
        60   02 Jun 2027 01:36:49.962   02 Jun 2027 01:37:21.503            31.541                Novosib           985.656
        61   02 Jun 2027 01:39:19.248   02 Jun 2027 01:39:27.658             8.410                  Delhi           262.813
        62   02 Jun 2027 01:39:44.405   02 Jun 2027 01:40:05.515            21.110                  Delhi           659.687
        63   02 Jun 2027 01:44:05.410   02 Jun 2027 01:44:23.844            18.434                  Delhi           576.062
        64   02 Jun 2027 01:46:02.769   02 Jun 2027 01:46:40.786            38.017                Sumatra          1188.031
        65   02 Jun 2027 01:48:32.637   02 Jun 2027 01:49:48.983            76.346                Sumatra          2385.812
        66   02 Jun 2027 02:20:11.574   02 Jun 2027 02:20:55.646            44.072            RioGallegos          1377.250
        67   02 Jun 2027 02:23:33.986   02 Jun 2027 02:23:38.209             4.223            RioGallegos           131.969
        68   02 Jun 2027 02:24:42.273   02 Jun 2027 02:25:00.630            18.357            RioGallegos           573.656
        69   02 Jun 2027 02:26:47.644   02 Jun 2027 02:26:55.216             7.572            RioGallegos           236.625
        70   02 Jun 2027 02:27:15.803   02 Jun 2027 02:27:40.252            24.449            RioGallegos           764.031
        71   02 Jun 2027 02:29:06.625   02 Jun 2027 02:29:07.357             0.732            RioGallegos            22.875
        72   02 Jun 2027 02:58:21.098   02 Jun 2027 02:58:31.186            10.088                Anadyr2           315.250
        73   02 Jun 2027 02:58:54.055   02 Jun 2027 02:59:47.267            53.212                Anadyr2          1662.875
        74   02 Jun 2027 03:07:08.372   02 Jun 2027 03:07:19.124            10.752               Magadan1           336.000
        75   02 Jun 2027 03:07:29.905   02 Jun 2027 03:07:32.391             2.486               Magadan1            77.688
        76   02 Jun 2027 03:08:28.812   02 Jun 2027 03:08:34.801             5.989              Murmansk2           187.156
        77   02 Jun 2027 03:08:41.088   02 Jun 2027 03:08:44.633             3.545              Murmansk1           110.781
        78   02 Jun 2027 03:08:53.423   02 Jun 2027 03:11:50.327           176.904                Norilsk          5528.250
        79   02 Jun 2027 03:11:55.017   02 Jun 2027 03:12:41.181            46.164                Novosib          1442.625
        80   02 Jun 2027 03:12:48.564   02 Jun 2027 03:13:04.376            15.812                Irkutsk           494.125
        81   02 Jun 2027 03:13:16.699   02 Jun 2027 03:13:40.263            23.564                Novosib           736.375
        82   02 Jun 2027 03:14:13.518   02 Jun 2027 03:15:20.207            66.689                 Moscow          2084.031
        83   02 Jun 2027 03:15:46.641   02 Jun 2027 03:16:00.169            13.528                Novosib           422.750
        84   02 Jun 2027 03:16:11.423   02 Jun 2027 03:16:28.630            17.207                Irkutsk           537.719
        85   02 Jun 2027 03:17:11.111   02 Jun 2027 03:19:11.574           120.463                  Delhi          3764.469
        86   02 Jun 2027 04:32:27.504   02 Jun 2027 04:32:39.460            11.956                Anadyr1           373.625
        87   02 Jun 2027 04:48:54.302   02 Jun 2027 04:49:34.166            39.864                 Moscow          1245.750
        88   02 Jun 2027 04:50:02.182   02 Jun 2027 04:50:37.885            35.703                 Moscow          1115.719
        89   02 Jun 2027 04:50:54.021   02 Jun 2027 04:53:16.768           142.747                Novosib          4460.844
        90   02 Jun 2027 04:53:54.098   02 Jun 2027 04:55:25.327            91.229                 Moscow          2850.906
        91   02 Jun 2027 05:09:21.113   02 Jun 2027 05:10:50.132            89.019               CapeTown          2781.844
        92   02 Jun 2027 06:05:19.547   02 Jun 2027 06:07:02.586           103.039                Anadyr1          3219.969
        93   02 Jun 2027 06:07:48.202   02 Jun 2027 06:08:58.672            70.470                Anadyr1          2202.188
        94   02 Jun 2027 06:08:58.792   02 Jun 2027 06:09:44.312            45.520               Magadan1          1422.500
        95   02 Jun 2027 06:09:44.312   02 Jun 2027 06:11:19.772            95.460               Magadan2          2983.125
        96   02 Jun 2027 06:24:56.533   02 Jun 2027 06:25:00.435             3.902                 Moscow           121.937
        97   02 Jun 2027 06:27:11.110   02 Jun 2027 06:31:53.412           282.302                 Moscow          8821.937
        98   02 Jun 2027 06:44:51.276   02 Jun 2027 06:50:13.016           321.740               CapeTown         10054.375
        99   02 Jun 2027 07:41:21.266   02 Jun 2027 07:42:06.419            45.153               Magadan1          1411.031
       100   02 Jun 2027 07:42:20.066   02 Jun 2027 07:42:54.733            34.667                Anadyr2          1083.344
       101   02 Jun 2027 07:42:54.733   02 Jun 2027 07:43:26.913            32.180                Anadyr1          1005.625
       102   02 Jun 2027 07:48:03.261   02 Jun 2027 07:50:23.151           139.890               Magadan1          4371.563
       103   02 Jun 2027 07:50:23.151   02 Jun 2027 07:50:45.107            21.956               Magadan2           686.125
       104   02 Jun 2027 07:51:42.278   02 Jun 2027 07:52:11.374            29.096               Magadan2           909.250
       105   02 Jun 2027 07:52:53.225   02 Jun 2027 07:54:01.440            68.215                Anadyr2          2131.719
       106   02 Jun 2027 09:25:25.904   02 Jun 2027 09:26:35.375            69.471               Magadan1          2170.969
       107   02 Jun 2027 09:26:40.416   02 Jun 2027 09:27:47.442            67.026                Anadyr1          2094.562
       108   02 Jun 2027 10:58:41.032   02 Jun 2027 11:00:17.734            96.702               Magadan2          3021.938
       109   02 Jun 2027 11:01:04.313   02 Jun 2027 11:01:11.262             6.949               Magadan1           217.156
       110   02 Jun 2027 11:01:11.262   02 Jun 2027 11:04:52.915           221.653               Magadan2          6926.656
       111   02 Jun 2027 11:05:08.930   02 Jun 2027 11:05:32.386            23.456                Norilsk           733.000
       112   02 Jun 2027 11:40:01.893   02 Jun 2027 11:40:12.847            10.954            RioGallegos           342.312
       113   02 Jun 2027 11:41:08.982   02 Jun 2027 11:42:18.186            69.204            RioGallegos          2162.625
       114   02 Jun 2027 12:15:18.613   02 Jun 2027 12:15:59.243            40.630                Sumatra          1269.687
       115   02 Jun 2027 12:28:37.146   02 Jun 2027 12:30:23.291           106.145                Irkutsk          3317.031
       116   02 Jun 2027 12:30:24.624   02 Jun 2027 12:30:36.184            11.560                Novosib           361.250
       117   02 Jun 2027 12:32:42.583   02 Jun 2027 12:32:54.931            12.348                Irkutsk           385.875
       118   02 Jun 2027 12:33:22.397   02 Jun 2027 12:34:27.631            65.234                Norilsk          2038.562
       119   02 Jun 2027 12:40:24.895   02 Jun 2027 12:40:43.757            18.862              Murmansk2           589.437
       120   02 Jun 2027 12:44:20.394   02 Jun 2027 12:44:31.408            11.014                Norilsk           344.187
       121   02 Jun 2027 13:18:07.563   02 Jun 2027 13:20:37.156           149.593            RioGallegos          4674.781
       122   02 Jun 2027 13:52:23.227   02 Jun 2027 13:55:47.421           204.194                Sumatra          6381.062
       123   02 Jun 2027 14:08:03.988   02 Jun 2027 14:12:30.001           266.013                Irkutsk          8312.906
       124   02 Jun 2027 15:37:51.410   02 Jun 2027 15:42:12.336           260.926                  Delhi          8153.937
       125   02 Jun 2027 15:49:20.205   02 Jun 2027 15:49:35.913            15.708                Norilsk           490.875
       126   02 Jun 2027 15:50:03.672   02 Jun 2027 15:50:37.698            34.026                Novosib          1063.312
       127   02 Jun 2027 15:54:25.738   02 Jun 2027 15:54:36.580            10.842                Norilsk           338.812
       128   02 Jun 2027 16:59:58.891   02 Jun 2027 17:00:30.235            31.344               CapeTown           979.500
       129   02 Jun 2027 17:20:00.878   02 Jun 2027 17:20:38.200            37.322                 Moscow          1166.313
       130   02 Jun 2027 17:21:17.106   02 Jun 2027 17:22:39.640            82.534                 Moscow          2579.188
       131   02 Jun 2027 17:23:23.572   02 Jun 2027 17:24:35.929            72.357                 Moscow          2261.156
       132   02 Jun 2027 17:31:42.221   02 Jun 2027 17:32:13.883            31.662              Murmansk2           989.438
       133   02 Jun 2027 17:38:27.209   02 Jun 2027 17:39:13.866            46.657                Anadyr1          1458.031
       134   02 Jun 2027 17:39:14.795   02 Jun 2027 17:39:29.997            15.202                Anadyr2           475.062
       135   02 Jun 2027 17:40:45.973   02 Jun 2027 17:41:00.323            14.350                Anadyr2           448.438
       136   02 Jun 2027 17:45:08.282   02 Jun 2027 17:45:25.633            17.351                Anadyr2           542.219
       137   02 Jun 2027 18:32:59.850   02 Jun 2027 18:35:25.014           145.164               CapeTown          4536.375
       138   02 Jun 2027 19:00:50.719   02 Jun 2027 19:04:32.484           221.765                 Moscow          6930.156
       139   02 Jun 2027 19:06:32.447   02 Jun 2027 19:07:01.334            28.887              Murmansk2           902.719
       140   02 Jun 2027 19:18:36.275   02 Jun 2027 19:19:02.303            26.028                Anadyr2           813.375
       141   02 Jun 2027 19:19:26.465   02 Jun 2027 19:20:44.082            77.617               Magadan1          2425.531
       142   02 Jun 2027 20:10:17.674   02 Jun 2027 20:10:54.314            36.640               CapeTown          1145.000
       143   02 Jun 2027 20:13:35.308   02 Jun 2027 20:15:22.262           106.954               CapeTown          3342.313
       144   02 Jun 2027 20:44:07.986   02 Jun 2027 20:46:02.648           114.662              Murmansk2          3583.188
       145   02 Jun 2027 20:52:01.370   02 Jun 2027 20:53:27.373            86.003               Magadan1          2687.594
       146   02 Jun 2027 20:54:26.024   02 Jun 2027 20:55:09.373            43.349               Magadan1          1354.656
       147   02 Jun 2027 20:58:05.207   02 Jun 2027 20:58:16.452            11.245               Magadan1           351.406
       148   02 Jun 2027 20:58:42.177   02 Jun 2027 20:59:00.634            18.457               Magadan1           576.781
       149   02 Jun 2027 22:25:26.407   02 Jun 2027 22:27:16.410           110.003                Anadyr2          3437.594
       150   02 Jun 2027 22:27:27.644   02 Jun 2027 22:30:30.737           183.093                Anadyr1          5721.656
       151   02 Jun 2027 22:30:38.358   02 Jun 2027 22:32:28.694           110.336                Norilsk          3448.000
       152   02 Jun 2027 22:33:22.232   02 Jun 2027 22:33:30.856             8.624               Magadan1           269.500
       153   02 Jun 2027 22:34:10.762   02 Jun 2027 22:34:42.900            32.138               Magadan1          1004.313
       154   02 Jun 2027 22:37:57.817   02 Jun 2027 22:38:08.236            10.419               Magadan1           325.594
       155   02 Jun 2027 22:38:50.930   02 Jun 2027 22:39:09.531            18.601               Magadan2           581.281
       156   02 Jun 2027 23:19:51.540   02 Jun 2027 23:21:51.149           119.609            RioGallegos          3737.781
       157   02 Jun 2027 23:22:47.601   02 Jun 2027 23:23:17.199            29.598            RioGallegos           924.938
       158   02 Jun 2027 23:28:19.826   02 Jun 2027 23:28:30.357            10.531            RioGallegos           329.094
       159   02 Jun 2027 23:29:00.897   02 Jun 2027 23:29:18.061            17.164            RioGallegos           536.375
       160   03 Jun 2027 00:01:03.348   03 Jun 2027 00:01:55.107            51.759                Anadyr2          1617.469
       161   03 Jun 2027 00:01:57.642   03 Jun 2027 00:04:13.425           135.783                Anadyr2          4243.219
       162   03 Jun 2027 00:04:20.461   03 Jun 2027 00:04:59.394            38.933                Norilsk          1216.656
       163   03 Jun 2027 00:06:37.691   03 Jun 2027 00:07:30.484            52.793               Magadan1          1649.781
       164   03 Jun 2027 00:08:19.117   03 Jun 2027 00:08:51.414            32.297                Irkutsk          1009.281
       165   03 Jun 2027 00:09:19.880   03 Jun 2027 00:10:39.181            79.301                Novosib          2478.156
       166   03 Jun 2027 00:11:42.093   03 Jun 2027 00:11:52.708            10.615                Novosib           331.719
       167   03 Jun 2027 00:12:01.148   03 Jun 2027 00:13:50.280           109.132                Novosib          3410.375
       168   03 Jun 2027 00:29:07.694   03 Jun 2027 00:30:39.084            91.390                Sumatra          2855.937
       169   03 Jun 2027 01:04:07.657   03 Jun 2027 01:04:12.376             4.719            RioGallegos           147.469
       170   03 Jun 2027 01:05:14.531   03 Jun 2027 01:05:20.227             5.696            RioGallegos           178.000
       171   03 Jun 2027 01:06:09.288   03 Jun 2027 01:06:38.548            29.260            RioGallegos           914.375
       172   03 Jun 2027 01:35:47.418   03 Jun 2027 01:36:04.871            17.453                Anadyr1           545.406
       173   03 Jun 2027 01:36:04.871   03 Jun 2027 01:36:58.754            53.883                Anadyr2          1683.844
       174   03 Jun 2027 01:37:57.957   03 Jun 2027 01:38:24.372            26.415                Anadyr2           825.469
       175   03 Jun 2027 01:39:12.922   03 Jun 2027 01:40:59.862           106.940                Norilsk          3341.875
       176   03 Jun 2027 01:43:05.893   03 Jun 2027 01:44:54.958           109.065                Irkutsk          3408.281
       177   03 Jun 2027 01:45:11.301   03 Jun 2027 01:45:38.787            27.486                Novosib           858.937
       178   03 Jun 2027 01:46:41.331   03 Jun 2027 01:46:58.464            17.133                Novosib           535.406
       179   03 Jun 2027 01:48:03.642   03 Jun 2027 01:48:31.045            27.403                Irkutsk           856.344
       180   03 Jun 2027 01:51:33.867   03 Jun 2027 01:51:36.062             2.195                  Delhi            68.594
       181   03 Jun 2027 01:52:11.355   03 Jun 2027 01:52:40.777            29.422                  Delhi           919.437
       182   03 Jun 2027 01:55:08.290   03 Jun 2027 01:55:41.212            32.922                  Delhi          1028.812
       183   03 Jun 2027 02:00:59.228   03 Jun 2027 02:01:09.199             9.971                  Delhi           311.594
       184   03 Jun 2027 02:01:44.407   03 Jun 2027 02:03:27.398           102.991                Sumatra          3218.469
       185   03 Jun 2027 02:04:54.640   03 Jun 2027 02:07:03.892           129.252                Sumatra          4039.125
       186   03 Jun 2027 03:22:22.217   03 Jun 2027 03:22:35.769            13.552                Norilsk           423.500
       187   03 Jun 2027 03:22:44.399   03 Jun 2027 03:24:18.335            93.936                Norilsk          2935.500
       188   03 Jun 2027 03:24:24.250   03 Jun 2027 03:24:42.547            18.297              Murmansk1           571.781
       189   03 Jun 2027 03:24:43.264   03 Jun 2027 03:25:29.067            45.803                Novosib          1431.344
       190   03 Jun 2027 03:25:46.254   03 Jun 2027 03:26:08.702            22.448              Murmansk1           701.500
       191   03 Jun 2027 03:26:39.520   03 Jun 2027 03:28:55.490           135.970                  Delhi          4249.063
       192   03 Jun 2027 05:00:17.596   03 Jun 2027 05:02:00.618           103.022                Novosib          3219.437
       193   03 Jun 2027 05:02:06.171   03 Jun 2027 05:04:34.840           148.669                Novosib          4645.906
       194   03 Jun 2027 05:04:56.978   03 Jun 2027 05:05:58.618            61.640                 Moscow          1926.250
       195   03 Jun 2027 05:06:14.719   03 Jun 2027 05:07:07.491            52.772                 Moscow          1649.125
       196   03 Jun 2027 05:21:01.223   03 Jun 2027 05:22:17.761            76.538               CapeTown          2391.813
       197   03 Jun 2027 06:24:20.573   03 Jun 2027 06:24:49.879            29.306                Anadyr2           915.812
       198   03 Jun 2027 06:24:49.879   03 Jun 2027 06:25:58.112            68.233                Anadyr1          2132.281
       199   03 Jun 2027 06:40:04.142   03 Jun 2027 06:40:29.642            25.500              Murmansk1           796.875
       200   03 Jun 2027 06:57:15.087   03 Jun 2027 06:58:12.549            57.462               CapeTown          1795.688
       201   03 Jun 2027 07:02:01.313   03 Jun 2027 07:02:26.089            24.776               CapeTown           774.250
       202   03 Jun 2027 07:58:08.013   03 Jun 2027 07:58:17.367             9.354                Anadyr1           292.312
       203   03 Jun 2027 07:58:35.735   03 Jun 2027 07:58:42.454             6.719               Magadan2           209.969
       204   03 Jun 2027 07:59:08.258   03 Jun 2027 08:00:12.564            64.306                Anadyr1          2009.562
       205   03 Jun 2027 08:00:24.405   03 Jun 2027 08:01:33.855            69.450               Magadan1          2170.312
       206   03 Jun 2027 08:01:49.174   03 Jun 2027 08:02:40.191            51.017               Magadan1          1594.281
       207   03 Jun 2027 08:50:17.032   03 Jun 2027 08:50:29.323            12.291            RioGallegos           384.094
       208   03 Jun 2027 09:33:39.565   03 Jun 2027 09:34:11.127            31.562                Anadyr2           986.313
       209   03 Jun 2027 09:34:35.235   03 Jun 2027 09:35:46.169            70.934               Magadan2          2216.687
       210   03 Jun 2027 09:36:03.057   03 Jun 2027 09:37:32.293            89.236                Anadyr1          2788.625
       211   03 Jun 2027 09:37:49.633   03 Jun 2027 09:38:00.032            10.399               Magadan2           324.969
       212   03 Jun 2027 09:38:09.227   03 Jun 2027 09:41:28.355           199.128                Anadyr1          6222.750
       213   03 Jun 2027 11:10:20.034   03 Jun 2027 11:12:49.903           149.869               Magadan2          4683.406
       214   03 Jun 2027 11:14:10.016   03 Jun 2027 11:16:40.915           150.899               Magadan2          4715.594
       215   03 Jun 2027 11:16:59.590   03 Jun 2027 11:17:02.561             2.971                Norilsk            92.844
       216   03 Jun 2027 11:17:33.537   03 Jun 2027 11:17:47.911            14.374                Norilsk           449.188
       217   03 Jun 2027 11:52:05.816   03 Jun 2027 11:52:57.523            51.707            RioGallegos          1615.844
       218   03 Jun 2027 11:55:20.900   03 Jun 2027 11:55:33.963            13.063            RioGallegos           408.219
       219   03 Jun 2027 12:27:07.046   03 Jun 2027 12:29:46.757           159.711                Sumatra          4990.969
       220   03 Jun 2027 12:40:48.479   03 Jun 2027 12:40:58.381             9.902                Irkutsk           309.438
       221   03 Jun 2027 12:42:16.079   03 Jun 2027 12:43:00.308            44.229                Novosib          1382.156
       222   03 Jun 2027 12:44:27.473   03 Jun 2027 12:45:15.950            48.477                Irkutsk          1514.906
       223   03 Jun 2027 12:45:26.210   03 Jun 2027 12:46:27.780            61.570                Norilsk          1924.063
       224   03 Jun 2027 13:30:50.527   03 Jun 2027 13:32:53.359           122.832            RioGallegos          3838.500
       225   03 Jun 2027 14:05:18.568   03 Jun 2027 14:07:39.900           141.332                Sumatra          4416.625
       226   03 Jun 2027 14:21:08.644   03 Jun 2027 14:23:05.750           117.106                Novosib          3659.563
       227   03 Jun 2027 14:24:26.070   03 Jun 2027 14:26:04.134            98.064                Irkutsk          3064.500
       228   03 Jun 2027 15:51:19.871   03 Jun 2027 15:56:12.129           292.258                  Delhi          9133.062
       229   03 Jun 2027 15:59:39.301   03 Jun 2027 16:03:12.036           212.735                Novosib          6647.969
       230   03 Jun 2027 17:33:21.334   03 Jun 2027 17:34:37.065            75.731                 Moscow          2366.594
       231   03 Jun 2027 17:36:19.110   03 Jun 2027 17:37:44.882            85.772              Murmansk1          2680.375
       232   03 Jun 2027 17:40:01.733   03 Jun 2027 17:40:05.577             3.844              Murmansk1           120.125
       233   03 Jun 2027 17:44:04.269   03 Jun 2027 17:44:21.633            17.364              Murmansk1           542.625
       234   03 Jun 2027 17:50:16.969   03 Jun 2027 17:51:15.306            58.337                Anadyr2          1823.031
       235   03 Jun 2027 17:52:43.328   03 Jun 2027 17:52:44.205             0.877                Anadyr1            27.406
       236   03 Jun 2027 17:53:05.916   03 Jun 2027 17:53:23.420            17.504                Anadyr1           547.000
       237   03 Jun 2027 17:55:59.528   03 Jun 2027 17:56:20.882            21.354                Anadyr1           667.312
       238   03 Jun 2027 18:45:00.385   03 Jun 2027 18:47:15.312           134.927               CapeTown          4216.469
       239   03 Jun 2027 19:14:27.471   03 Jun 2027 19:18:28.617           241.146              Murmansk1          7535.813
       240   03 Jun 2027 19:19:35.711   03 Jun 2027 19:19:59.814            24.103              Murmansk1           753.219
       241   03 Jun 2027 19:29:44.288   03 Jun 2027 19:30:22.345            38.057               Magadan1          1189.281
       242   03 Jun 2027 19:35:02.444   03 Jun 2027 19:35:15.247            12.803               Magadan2           400.094
       243   03 Jun 2027 20:22:56.514   03 Jun 2027 20:24:33.831            97.317               CapeTown          3041.156
       244   03 Jun 2027 20:25:19.302   03 Jun 2027 20:27:28.458           129.156               CapeTown          4036.125
       245   03 Jun 2027 21:02:26.522   03 Jun 2027 21:02:56.900            30.378                Anadyr1           949.312
       246   03 Jun 2027 21:03:21.446   03 Jun 2027 21:04:45.979            84.533                Anadyr2          2641.656
       247   03 Jun 2027 21:04:56.630   03 Jun 2027 21:06:50.191           113.561               Magadan1          3548.781
       248   03 Jun 2027 21:08:33.381   03 Jun 2027 21:08:51.206            17.825               Magadan1           557.031
       249   03 Jun 2027 22:37:27.239   03 Jun 2027 22:41:11.738           224.499                Anadyr1          7015.594
       250   03 Jun 2027 22:41:14.566   03 Jun 2027 22:43:43.429           148.863               Magadan1          4651.969
       251   03 Jun 2027 22:43:53.996   03 Jun 2027 22:44:02.296             8.300                Norilsk           259.375
       252   03 Jun 2027 22:44:41.067   03 Jun 2027 22:44:52.670            11.603               Magadan1           362.594
       253   03 Jun 2027 22:45:02.434   03 Jun 2027 22:45:17.771            15.337               Magadan1           479.281
       254   03 Jun 2027 22:46:13.781   03 Jun 2027 22:46:58.787            45.006                Irkutsk          1406.438
       255   03 Jun 2027 22:47:41.408   03 Jun 2027 22:48:22.239            40.831                Irkutsk          1275.969
       256   03 Jun 2027 23:31:42.069   03 Jun 2027 23:33:35.096           113.027            RioGallegos          3532.094
       257   03 Jun 2027 23:33:50.616   03 Jun 2027 23:34:48.447            57.831            RioGallegos          1807.219
       258   03 Jun 2027 23:41:10.638   03 Jun 2027 23:42:00.162            49.524            RioGallegos          1547.625
       259   04 Jun 2027 00:12:59.773   04 Jun 2027 00:13:39.796            40.023                Anadyr1          1250.719
       260   04 Jun 2027 00:13:44.203   04 Jun 2027 00:14:01.525            17.322                Anadyr2           541.312
       261   04 Jun 2027 00:14:27.776   04 Jun 2027 00:15:59.569            91.793                Anadyr2          2868.531
       262   04 Jun 2027 00:16:00.690   04 Jun 2027 00:16:09.871             9.181                Norilsk           286.906
       263   04 Jun 2027 00:16:11.251   04 Jun 2027 00:16:32.443            21.192               Magadan2           662.250
       264   04 Jun 2027 00:16:47.077   04 Jun 2027 00:17:01.601            14.524                Norilsk           453.875
       265   04 Jun 2027 00:17:20.044   04 Jun 2027 00:17:44.856            24.812               Magadan1           775.375
       266   04 Jun 2027 00:19:21.716   04 Jun 2027 00:20:53.684            91.968                Irkutsk          2874.000
       267   04 Jun 2027 00:24:00.636   04 Jun 2027 00:24:33.928            33.292                Novosib          1040.375
       268   04 Jun 2027 00:25:35.364   04 Jun 2027 00:25:52.163            16.799                Novosib           524.969
       269   04 Jun 2027 00:26:56.168   04 Jun 2027 00:27:35.435            39.267                Novosib          1227.094
       270   04 Jun 2027 00:33:03.552   04 Jun 2027 00:33:42.977            39.425                Sumatra          1232.031
       271   04 Jun 2027 00:36:05.513   04 Jun 2027 00:36:19.977            14.464                Sumatra           452.000
       272   04 Jun 2027 00:37:56.949   04 Jun 2027 00:39:08.380            71.431                Sumatra          2232.219
       273   04 Jun 2027 01:12:01.833   04 Jun 2027 01:12:31.645            29.812            RioGallegos           931.625
       274   04 Jun 2027 01:15:00.011   04 Jun 2027 01:15:32.042            32.031            RioGallegos          1000.969
       275   04 Jun 2027 01:47:34.413   04 Jun 2027 01:48:05.616            31.203                Anadyr2           975.094
       276   04 Jun 2027 01:48:05.616   04 Jun 2027 01:49:00.112            54.496                Anadyr1          1703.000
       277   04 Jun 2027 01:49:41.040   04 Jun 2027 01:50:03.297            22.257                Anadyr1           695.531
       278   04 Jun 2027 01:51:15.343   04 Jun 2027 01:52:38.523            83.180                Norilsk          2599.375
       279   04 Jun 2027 01:52:49.549   04 Jun 2027 01:53:01.143            11.594                Norilsk           362.313
       280   04 Jun 2027 01:55:04.270   04 Jun 2027 01:55:05.137             0.867                Norilsk            27.094
       281   04 Jun 2027 01:55:09.658   04 Jun 2027 01:56:55.212           105.554                Irkutsk          3298.563
       282   04 Jun 2027 01:57:30.410   04 Jun 2027 01:57:55.869            25.459                Novosib           795.594
       283   04 Jun 2027 01:58:08.654   04 Jun 2027 01:59:07.254            58.600                Irkutsk          1831.250
       284   04 Jun 2027 02:02:56.823   04 Jun 2027 02:03:32.106            35.283                  Delhi          1102.594
       285   04 Jun 2027 02:08:59.161   04 Jun 2027 02:09:23.354            24.193                  Delhi           756.031
       286   04 Jun 2027 02:11:58.458   04 Jun 2027 02:16:02.786           244.328                Sumatra          7635.250
       287   04 Jun 2027 02:52:12.049   04 Jun 2027 02:52:45.182            33.133            RioGallegos          1035.406
       288   04 Jun 2027 03:35:27.250   04 Jun 2027 03:36:05.860            38.610                Norilsk          1206.563
       289   04 Jun 2027 03:36:07.014   04 Jun 2027 03:36:44.199            37.185              Murmansk1          1162.031
       290   04 Jun 2027 03:36:49.900   04 Jun 2027 03:37:42.125            52.225                Norilsk          1632.031
       291   04 Jun 2027 03:37:45.560   04 Jun 2027 03:40:10.799           145.239                Irkutsk          4538.719
       292   04 Jun 2027 05:12:24.737   04 Jun 2027 05:12:31.634             6.897                 Moscow           215.531
       293   04 Jun 2027 05:12:41.983   04 Jun 2027 05:13:07.543            25.560                Novosib           798.750
       294   04 Jun 2027 05:13:12.318   04 Jun 2027 05:13:41.821            29.503                Novosib           921.969
       295   04 Jun 2027 05:14:58.757   04 Jun 2027 05:16:01.199            62.442                Novosib          1951.313
       296   04 Jun 2027 05:16:07.298   04 Jun 2027 05:16:10.774             3.476                 Moscow           108.625
       297   04 Jun 2027 05:16:26.037   04 Jun 2027 05:16:45.613            19.576                 Moscow           611.750
       298   04 Jun 2027 05:16:58.597   04 Jun 2027 05:18:03.646            65.049                 Moscow          2032.781
       299   04 Jun 2027 05:32:46.921   04 Jun 2027 05:33:25.956            39.035               CapeTown          1219.844
       300   04 Jun 2027 06:35:54.798   04 Jun 2027 06:36:05.296            10.498               Magadan1           328.063
       301   04 Jun 2027 06:36:20.007   04 Jun 2027 06:36:59.857            39.850                Anadyr2          1245.313
       302   04 Jun 2027 06:36:59.857   04 Jun 2027 06:37:58.425            58.568                Anadyr1          1830.250
       303   04 Jun 2027 06:49:39.539   04 Jun 2027 06:50:18.907            39.368                 Moscow          1230.250
       304   04 Jun 2027 07:09:46.934   04 Jun 2027 07:10:17.139            30.205               CapeTown           943.906
       305   04 Jun 2027 07:10:50.656   04 Jun 2027 07:13:25.389           154.733               CapeTown          4835.406
       306   04 Jun 2027 08:10:11.179   04 Jun 2027 08:10:19.152             7.973                Anadyr2           249.156
       307   04 Jun 2027 08:10:20.795   04 Jun 2027 08:10:57.249            36.454               Magadan1          1139.188
       308   04 Jun 2027 08:11:19.569   04 Jun 2027 08:12:12.235            52.666                Anadyr1          1645.813
       309   04 Jun 2027 08:12:28.507   04 Jun 2027 08:13:33.091            64.584               Magadan1          2018.250
       310   04 Jun 2027 08:13:52.211   04 Jun 2027 08:14:34.781            42.570               Magadan2          1330.313
       311   04 Jun 2027 08:14:37.608   04 Jun 2027 08:15:26.795            49.187               Magadan1          1537.094
       312   04 Jun 2027 08:57:41.660   04 Jun 2027 08:58:15.011            33.351            RioGallegos          1042.219
       313   04 Jun 2027 09:47:20.517   04 Jun 2027 09:47:44.185            23.668               Magadan1           739.625
       314   04 Jun 2027 09:48:21.286   04 Jun 2027 09:49:50.487            89.201               Magadan1          2787.531
       315   04 Jun 2027 09:50:08.795   04 Jun 2027 09:51:15.924            67.129                Anadyr2          2097.781
       316   04 Jun 2027 09:52:13.996   04 Jun 2027 09:53:37.190            83.194               Magadan1          2599.812
       317   04 Jun 2027 11:21:35.136   04 Jun 2027 11:22:24.748            49.612               Magadan2          1550.375
       318   04 Jun 2027 11:23:32.786   04 Jun 2027 11:24:25.505            52.719               Magadan1          1647.469
       319   04 Jun 2027 11:25:10.455   04 Jun 2027 11:25:27.247            16.792               Magadan1           524.750
       320   04 Jun 2027 11:26:15.894   04 Jun 2027 11:26:21.526             5.632                Novosib           176.000
       321   04 Jun 2027 11:26:24.270   04 Jun 2027 11:27:27.421            63.151                Irkutsk          1973.469
       322   04 Jun 2027 11:28:02.852   04 Jun 2027 11:28:19.324            16.472                Norilsk           514.750
       323   04 Jun 2027 11:28:32.385   04 Jun 2027 11:28:53.093            20.708                Novosib           647.125
       324   04 Jun 2027 11:28:56.620   04 Jun 2027 11:29:03.178             6.558                Norilsk           204.937
       325   04 Jun 2027 11:29:19.519   04 Jun 2027 11:29:26.479             6.960                Irkutsk           217.500
       326   04 Jun 2027 12:04:13.268   04 Jun 2027 12:06:01.382           108.114            RioGallegos          3378.563
       327   04 Jun 2027 12:39:01.511   04 Jun 2027 12:42:06.873           185.362                Sumatra          5792.563
       328   04 Jun 2027 12:55:19.984   04 Jun 2027 12:55:29.143             9.159                Novosib           286.219
       329   04 Jun 2027 12:56:06.750   04 Jun 2027 12:57:38.918            92.168                Irkutsk          2880.250
       330   04 Jun 2027 13:44:48.222   04 Jun 2027 13:48:07.542           199.320            RioGallegos          6228.750
       331   04 Jun 2027 14:18:57.565   04 Jun 2027 14:22:05.132           187.567                Sumatra          5861.469
       332   04 Jun 2027 14:34:53.617   04 Jun 2027 14:36:05.812            72.195                Irkutsk          2256.094
       333   04 Jun 2027 16:07:38.234   04 Jun 2027 16:09:26.420           108.186                 Moscow          3380.812
       334   04 Jun 2027 16:11:01.935   04 Jun 2027 16:12:16.008            74.073              Murmansk2          2314.781
       335   04 Jun 2027 16:14:35.601   04 Jun 2027 16:15:53.493            77.892                Norilsk          2434.125
       336   04 Jun 2027 16:18:26.531   04 Jun 2027 16:20:10.903           104.372                Norilsk          3261.625
       337   04 Jun 2027 17:22:29.314   04 Jun 2027 17:23:26.954            57.640               CapeTown          1801.250
       338   04 Jun 2027 17:25:19.530   04 Jun 2027 17:26:02.534            43.004               CapeTown          1343.875
       339   04 Jun 2027 17:27:17.467   04 Jun 2027 17:28:18.688            61.221               CapeTown          1913.156
       340   04 Jun 2027 17:44:41.850   04 Jun 2027 17:44:54.165            12.315                 Moscow           384.844
       341   04 Jun 2027 17:45:28.649   04 Jun 2027 17:46:31.527            62.878                 Moscow          1964.938
       342   04 Jun 2027 17:48:37.778   04 Jun 2027 17:49:39.357            61.579                 Moscow          1924.344
       343   04 Jun 2027 17:50:22.693   04 Jun 2027 17:52:01.736            99.043              Murmansk1          3095.094
       344   04 Jun 2027 18:04:26.051   04 Jun 2027 18:04:39.938            13.887                Anadyr2           433.969
       345   04 Jun 2027 18:10:09.664   04 Jun 2027 18:10:30.012            20.348                Anadyr1           635.875
       346   04 Jun 2027 18:57:03.711   04 Jun 2027 18:59:05.426           121.715               CapeTown          3803.594
       347   04 Jun 2027 19:27:02.307   04 Jun 2027 19:32:27.504           325.197              Murmansk1         10162.406
       348   04 Jun 2027 19:33:09.038   04 Jun 2027 19:35:10.157           121.119              Murmansk1          3784.969
       349   04 Jun 2027 20:35:59.572   04 Jun 2027 20:36:57.533            57.961               CapeTown          1811.281
       350   04 Jun 2027 20:38:33.346   04 Jun 2027 20:40:16.129           102.783               CapeTown          3211.969
       351   04 Jun 2027 21:13:34.790   04 Jun 2027 21:14:14.170            39.380                Anadyr2          1230.625
       352   04 Jun 2027 21:14:32.394   04 Jun 2027 21:14:44.065            11.671                Anadyr2           364.719
       353   04 Jun 2027 21:15:57.089   04 Jun 2027 21:18:54.573           177.484               Magadan2          5546.375
       354   04 Jun 2027 21:20:01.795   04 Jun 2027 21:20:19.016            17.221               Magadan1           538.156
       355   04 Jun 2027 22:49:27.752   04 Jun 2027 22:54:01.876           274.124                Anadyr2          8566.375
       356   04 Jun 2027 22:54:11.219   04 Jun 2027 22:54:13.601             2.382                Anadyr2            74.438
       357   04 Jun 2027 22:54:17.053   04 Jun 2027 22:55:17.133            60.080                Norilsk          1877.500
       358   04 Jun 2027 22:55:27.300   04 Jun 2027 22:56:49.540            82.240               Magadan1          2570.000
       359   04 Jun 2027 22:57:19.095   04 Jun 2027 22:58:32.765            73.670                Irkutsk          2302.187
       360   04 Jun 2027 22:59:26.318   04 Jun 2027 22:59:28.862             2.544                Irkutsk            79.500
       361   04 Jun 2027 22:59:56.618   04 Jun 2027 23:00:03.115             6.497                Irkutsk           203.031
       362   04 Jun 2027 23:01:57.656   04 Jun 2027 23:02:34.409            36.753                Irkutsk          1148.531
       363   04 Jun 2027 23:14:06.397   04 Jun 2027 23:14:42.609            36.212                Sumatra          1131.625
       364   04 Jun 2027 23:16:32.759   04 Jun 2027 23:17:13.822            41.063                Sumatra          1283.219
       365   04 Jun 2027 23:44:27.505   04 Jun 2027 23:44:50.447            22.942            RioGallegos           716.937
       366   04 Jun 2027 23:45:34.909   04 Jun 2027 23:45:48.784            13.875            RioGallegos           433.594
       367   04 Jun 2027 23:51:28.031   04 Jun 2027 23:51:47.954            19.923            RioGallegos           622.594
       368   04 Jun 2027 23:53:49.059   04 Jun 2027 23:54:35.549            46.490            RioGallegos          1452.813
       369   05 Jun 2027 00:24:55.264   05 Jun 2027 00:25:21.381            26.117                Anadyr1           816.156
       370   05 Jun 2027 00:25:25.175   05 Jun 2027 00:25:31.985             6.810                Anadyr2           212.813
       371   05 Jun 2027 00:26:19.606   05 Jun 2027 00:27:46.979            87.373                Anadyr2          2730.406
       372   05 Jun 2027 00:27:53.394   05 Jun 2027 00:28:50.257            56.863               Magadan1          1776.969
       373   05 Jun 2027 00:28:50.257   05 Jun 2027 00:29:43.577            53.320               Magadan2          1666.250
       374   05 Jun 2027 00:31:18.704   05 Jun 2027 00:32:56.745            98.041                Irkutsk          3063.781
       375   05 Jun 2027 00:34:04.810   05 Jun 2027 00:34:19.193            14.383                Novosib           449.469
       376   05 Jun 2027 00:34:43.477   05 Jun 2027 00:35:19.573            36.096                Novosib          1128.000
       377   05 Jun 2027 00:38:28.311   05 Jun 2027 00:38:53.107            24.796                Novosib           774.875
       378   05 Jun 2027 00:45:00.899   05 Jun 2027 00:47:44.023           163.124                Sumatra          5097.625
       379   05 Jun 2027 01:24:32.638   05 Jun 2027 01:24:43.101            10.463            RioGallegos           326.969
       380   05 Jun 2027 01:24:56.641   05 Jun 2027 01:25:22.737            26.096            RioGallegos           815.500
       381   05 Jun 2027 01:31:26.519   05 Jun 2027 01:31:50.550            24.031            RioGallegos           750.969
       382   05 Jun 2027 01:59:20.142   05 Jun 2027 02:00:06.097            45.955                Anadyr2          1436.094
       383   05 Jun 2027 02:00:19.027   05 Jun 2027 02:01:01.453            42.426                Anadyr1          1325.813
       384   05 Jun 2027 02:01:41.020   05 Jun 2027 02:01:52.191            11.171                Anadyr2           349.094
       385   05 Jun 2027 02:03:17.741   05 Jun 2027 02:04:36.689            78.948                Norilsk          2467.125
       386   05 Jun 2027 02:06:39.315   05 Jun 2027 02:06:53.699            14.384                Norilsk           449.500
       387   05 Jun 2027 02:06:56.388   05 Jun 2027 02:07:06.872            10.484              Murmansk2           327.625
       388   05 Jun 2027 02:07:09.565   05 Jun 2027 02:08:22.651            73.086                Novosib          2283.937
       389   05 Jun 2027 02:08:36.284   05 Jun 2027 02:08:56.418            20.134                Irkutsk           629.187
       390   05 Jun 2027 02:08:57.433   05 Jun 2027 02:09:43.202            45.769              Murmansk1          1430.281
       391   05 Jun 2027 02:12:40.669   05 Jun 2027 02:12:54.209            13.540                Irkutsk           423.125
       392   05 Jun 2027 02:14:36.770   05 Jun 2027 02:15:29.957            53.187                  Delhi          1662.094
       393   05 Jun 2027 02:24:56.740   05 Jun 2027 02:26:22.305            85.565                  Delhi          2673.906
       394   05 Jun 2027 02:57:12.782   05 Jun 2027 02:57:44.910            32.128            RioGallegos          1004.000
       395   05 Jun 2027 02:58:09.924   05 Jun 2027 02:58:51.262            41.338            RioGallegos          1291.812
       396   05 Jun 2027 02:59:11.458   05 Jun 2027 03:00:23.588            72.130            RioGallegos          2254.063
       397   05 Jun 2027 03:03:50.069   05 Jun 2027 03:04:40.889            50.820            RioGallegos          1588.125
       398   05 Jun 2027 03:46:34.599   05 Jun 2027 03:48:08.790            94.191                Irkutsk          2943.469
       399   05 Jun 2027 03:48:50.396   05 Jun 2027 03:51:29.725           159.329                Irkutsk          4979.031
       400   05 Jun 2027 05:24:54.269   05 Jun 2027 05:25:52.631            58.362                Novosib          1823.812
       401   05 Jun 2027 05:26:06.837   05 Jun 2027 05:26:50.960            44.123                Norilsk          1378.844
       402   05 Jun 2027 05:26:52.570   05 Jun 2027 05:27:00.322             7.752                Novosib           242.250
       403   05 Jun 2027 05:27:11.031   05 Jun 2027 05:27:42.324            31.293                Novosib           977.906
       404   05 Jun 2027 05:27:45.048   05 Jun 2027 05:27:50.202             5.154                 Moscow           161.062
       405   05 Jun 2027 05:28:13.411   05 Jun 2027 05:28:31.569            18.158                 Moscow           567.437
       406   05 Jun 2027 05:28:34.527   05 Jun 2027 05:29:15.284            40.757                 Moscow          1273.656
       407   05 Jun 2027 05:29:33.123   05 Jun 2027 05:29:49.058            15.935              Murmansk1           497.969
       408   05 Jun 2027 05:29:51.221   05 Jun 2027 05:30:09.209            17.988                 Moscow           562.125
       409   05 Jun 2027 05:44:37.856   05 Jun 2027 05:47:14.734           156.878               CapeTown          4902.438
       410   05 Jun 2027 05:57:15.928   05 Jun 2027 05:57:20.002             4.074               CapeTown           127.312
       411   05 Jun 2027 06:47:36.259   05 Jun 2027 06:48:24.006            47.747                Anadyr1          1492.094
       412   05 Jun 2027 06:48:33.985   05 Jun 2027 06:48:43.170             9.185               Magadan1           287.031
       413   05 Jun 2027 06:48:51.636   05 Jun 2027 06:49:58.294            66.658                Anadyr2          2083.062
       414   05 Jun 2027 06:52:37.380   05 Jun 2027 06:52:52.012            14.632                Anadyr2           457.250
       415   05 Jun 2027 06:59:47.823   05 Jun 2027 07:00:38.658            50.835                 Moscow          1588.594
       416   05 Jun 2027 07:24:30.275   05 Jun 2027 07:27:11.581           161.306               CapeTown          5040.812
       417   05 Jun 2027 08:21:53.150   05 Jun 2027 08:21:56.364             3.214               Magadan1           100.438
       418   05 Jun 2027 08:22:20.808   05 Jun 2027 08:23:33.246            72.438                Anadyr2          2263.687
       419   05 Jun 2027 08:24:01.388   05 Jun 2027 08:24:35.240            33.852               Magadan2          1057.875
       420   05 Jun 2027 08:24:51.844   05 Jun 2027 08:25:31.573            39.729               Magadan2          1241.531
       421   05 Jun 2027 08:25:51.568   05 Jun 2027 08:27:38.951           107.383                Anadyr2          3355.719
       422   05 Jun 2027 09:57:01.314   05 Jun 2027 09:57:58.018            56.704               Magadan1          1772.000
       423   05 Jun 2027 09:58:08.618   05 Jun 2027 09:58:15.120             6.502               Magadan2           203.188
       424   05 Jun 2027 09:58:15.120   05 Jun 2027 09:58:54.436            39.316               Magadan1          1228.625
       425   05 Jun 2027 09:59:41.154   05 Jun 2027 09:59:57.538            16.384               Magadan1           512.000
       426   05 Jun 2027 10:01:50.832   05 Jun 2027 10:03:04.293            73.461               Magadan1          2295.656
       427   05 Jun 2027 10:03:10.086   05 Jun 2027 10:03:21.655            11.569               Magadan2           361.531
       428   05 Jun 2027 10:04:18.515   05 Jun 2027 10:05:35.794            77.279               Magadan1          2414.969
       429   05 Jun 2027 11:19:01.688   05 Jun 2027 11:19:46.720            45.032                Sumatra          1407.250
       430   05 Jun 2027 11:34:51.271   05 Jun 2027 11:35:08.558            17.287                Irkutsk           540.219
       431   05 Jun 2027 11:35:43.826   05 Jun 2027 11:36:18.819            34.993                Irkutsk          1093.531
       432   05 Jun 2027 11:36:33.421   05 Jun 2027 11:37:03.452            30.031                Irkutsk           938.469
       433   05 Jun 2027 11:37:32.676   05 Jun 2027 11:38:18.520            45.844                Irkutsk          1432.625
       434   05 Jun 2027 11:38:47.856   05 Jun 2027 11:39:14.335            26.479                Norilsk           827.469
       435   05 Jun 2027 11:39:27.481   05 Jun 2027 11:40:02.973            35.492                Irkutsk          1109.125
       436   05 Jun 2027 11:40:21.366   05 Jun 2027 11:40:40.624            19.258                Norilsk           601.813
       437   05 Jun 2027 11:40:47.516   05 Jun 2027 11:40:57.243             9.727                Novosib           303.969
       438   05 Jun 2027 11:41:00.488   05 Jun 2027 11:41:30.025            29.537                Irkutsk           923.031
       439   05 Jun 2027 12:16:24.416   05 Jun 2027 12:16:40.559            16.143            RioGallegos           504.469
       440   05 Jun 2027 12:19:19.665   05 Jun 2027 12:20:51.816            92.151            RioGallegos          2879.719
       441   05 Jun 2027 12:51:01.693   05 Jun 2027 12:51:11.229             9.536                Sumatra           298.000
       442   05 Jun 2027 12:53:16.485   05 Jun 2027 12:53:38.390            21.905                Sumatra           684.531
       443   05 Jun 2027 12:55:10.063   05 Jun 2027 12:55:33.359            23.296                Sumatra           728.000
       444   05 Jun 2027 13:05:22.965   05 Jun 2027 13:06:24.176            61.211                Irkutsk          1912.844
       445   05 Jun 2027 13:07:19.975   05 Jun 2027 13:08:03.429            43.454                Novosib          1357.937
       446   05 Jun 2027 13:09:40.194   05 Jun 2027 13:10:13.015            32.821                Irkutsk          1025.656
       447   05 Jun 2027 13:10:51.151   05 Jun 2027 13:11:15.824            24.673                Norilsk           771.031
       448   05 Jun 2027 13:16:39.962   05 Jun 2027 13:16:48.551             8.589                Norilsk           268.406
       449   05 Jun 2027 13:20:27.253   05 Jun 2027 13:20:51.531            24.278                Norilsk           758.688
       450   05 Jun 2027 13:56:54.460   05 Jun 2027 13:59:59.001           184.541            RioGallegos          5766.906
       451   05 Jun 2027 14:38:18.591   05 Jun 2027 14:39:57.666            99.075                  Delhi          3096.094
       452   05 Jun 2027 14:43:16.643   05 Jun 2027 14:43:34.314            17.671                Novosib           552.219
       453   05 Jun 2027 14:47:07.291   05 Jun 2027 14:50:07.110           179.819                Novosib          5619.344
       454   05 Jun 2027 16:19:37.475   05 Jun 2027 16:22:05.788           148.313                 Moscow          4634.781
       455   05 Jun 2027 16:23:05.050   05 Jun 2027 16:24:00.398            55.348              Murmansk2          1729.625
       456   05 Jun 2027 16:24:25.353   05 Jun 2027 16:24:30.557             5.204              Murmansk1           162.625
       457   05 Jun 2027 16:27:18.584   05 Jun 2027 16:29:38.277           139.693                Norilsk          4365.406
       458   05 Jun 2027 16:30:20.998   05 Jun 2027 16:33:07.982           166.984                Norilsk          5218.250
       459   05 Jun 2027 17:43:23.725   05 Jun 2027 17:43:30.305             6.580               CapeTown           205.625
       460   05 Jun 2027 17:43:53.325   05 Jun 2027 17:44:23.078            29.753               CapeTown           929.781
       461   05 Jun 2027 17:57:08.844   05 Jun 2027 17:57:49.731            40.887                 Moscow          1277.719
       462   05 Jun 2027 18:00:13.916   05 Jun 2027 18:01:09.408            55.492              Murmansk1          1734.125
       463   05 Jun 2027 18:01:48.890   05 Jun 2027 18:02:13.298            24.408                 Moscow           762.750
       464   05 Jun 2027 18:04:01.087   05 Jun 2027 18:04:29.351            28.264              Murmansk1           883.250
       465   05 Jun 2027 18:04:44.467   05 Jun 2027 18:04:59.011            14.544              Murmansk2           454.500
       466   05 Jun 2027 18:07:36.218   05 Jun 2027 18:08:08.594            32.376              Murmansk1          1011.750
       467   05 Jun 2027 18:08:41.204   05 Jun 2027 18:09:24.126            42.922              Murmansk2          1341.312
       468   05 Jun 2027 18:14:23.145   05 Jun 2027 18:14:42.983            19.838                Anadyr1           619.937
       469   05 Jun 2027 18:18:25.541   05 Jun 2027 18:18:29.162             3.621                Anadyr2           113.156
       470   05 Jun 2027 18:18:49.261   05 Jun 2027 18:18:58.504             9.243                Anadyr2           288.844
       471   05 Jun 2027 18:20:12.077   05 Jun 2027 18:20:29.459            17.382                Anadyr1           543.187
       472   05 Jun 2027 19:09:09.844   05 Jun 2027 19:10:59.240           109.396               CapeTown          3418.625
       473   05 Jun 2027 19:18:01.025   05 Jun 2027 19:18:51.063            50.038               CapeTown          1563.687
       474   05 Jun 2027 19:39:40.485   05 Jun 2027 19:40:54.276            73.791              Murmansk1          2305.969
       475   05 Jun 2027 19:41:41.907   05 Jun 2027 19:44:25.404           163.497              Murmansk2          5109.281
       476   05 Jun 2027 19:44:49.774   05 Jun 2027 19:45:13.587            23.813              Murmansk1           744.156
       477   05 Jun 2027 19:53:24.715   05 Jun 2027 19:53:51.593            26.878               Magadan2           839.937
       478   05 Jun 2027 19:54:51.656   05 Jun 2027 19:55:31.838            40.182               Magadan2          1255.687
       479   05 Jun 2027 19:59:20.276   05 Jun 2027 19:59:45.655            25.379               Magadan2           793.094
       480   05 Jun 2027 21:25:36.612   05 Jun 2027 21:29:24.554           227.942                Anadyr1          7123.188
       481   05 Jun 2027 21:29:37.921   05 Jun 2027 21:32:51.958           194.037               Magadan1          6063.656
       482   05 Jun 2027 21:34:27.617   05 Jun 2027 21:34:52.709            25.092               Magadan2           784.125
