uniorb/output/strategy_4/Drop/Drop_KinoSat_111905.txt

KinoSat_111905
-------------------------
    Access    *     Start Time (UTCG)     *     Stop Time (UTCG)  *   Duration (s)        *       Station  *  Data (Mbytes)
         1   01 Jun 2027 03:00:55.137   01 Jun 2027 03:01:31.758            36.621               Magadan1          1144.406
         2   01 Jun 2027 03:01:31.758   01 Jun 2027 03:01:41.989            10.231               Magadan2           319.719
         3   01 Jun 2027 03:01:43.860   01 Jun 2027 03:02:26.641            42.781               Magadan1          1336.906
         4   01 Jun 2027 03:02:58.419   01 Jun 2027 03:03:26.731            28.312                Novosib           884.750
         5   01 Jun 2027 03:03:31.576   01 Jun 2027 03:03:51.308            19.732                Norilsk           616.625
         6   01 Jun 2027 03:04:06.675   01 Jun 2027 03:05:17.472            70.797                Norilsk          2212.406
         7   01 Jun 2027 03:05:39.879   01 Jun 2027 03:07:30.067           110.188                Norilsk          3443.375
         8   01 Jun 2027 03:07:33.994   01 Jun 2027 03:07:46.605            12.611                Novosib           394.094
         9   01 Jun 2027 03:07:58.939   01 Jun 2027 03:09:48.043           109.104                Norilsk          3409.500
        10   01 Jun 2027 03:10:20.492   01 Jun 2027 03:10:36.989            16.497                Irkutsk           515.531
        11   01 Jun 2027 03:11:04.337   01 Jun 2027 03:11:12.425             8.088                  Delhi           252.750
        12   01 Jun 2027 03:11:38.048   01 Jun 2027 03:12:14.092            36.044                Irkutsk          1126.375
        13   01 Jun 2027 03:50:06.595   01 Jun 2027 03:50:58.626            52.031            RioGallegos          1625.969
        14   01 Jun 2027 03:53:03.738   01 Jun 2027 03:54:30.719            86.981            RioGallegos          2718.156
        15   01 Jun 2027 04:40:37.606   01 Jun 2027 04:42:18.909           101.303              Murmansk2          3165.719
        16   01 Jun 2027 04:42:19.229   01 Jun 2027 04:42:50.717            31.488                Norilsk           984.000
        17   01 Jun 2027 04:43:14.747   01 Jun 2027 04:45:24.001           129.254                Norilsk          4039.187
        18   01 Jun 2027 04:46:14.206   01 Jun 2027 04:50:44.199           269.993                  Delhi          8437.281
        19   01 Jun 2027 06:19:00.836   01 Jun 2027 06:19:15.096            14.260                Novosib           445.625
        20   01 Jun 2027 06:19:18.240   01 Jun 2027 06:21:57.066           158.826                 Moscow          4963.312
        21   01 Jun 2027 06:22:01.105   01 Jun 2027 06:22:17.962            16.857              Murmansk1           526.781
        22   01 Jun 2027 06:22:32.041   01 Jun 2027 06:23:47.070            75.029                 Moscow          2344.656
        23   01 Jun 2027 06:24:01.810   01 Jun 2027 06:24:38.937            37.127                 Moscow          1160.219
        24   01 Jun 2027 06:38:05.492   01 Jun 2027 06:41:17.514           192.022               CapeTown          6000.687
        25   01 Jun 2027 07:42:34.299   01 Jun 2027 07:43:18.405            44.106                Anadyr1          1378.313
        26   01 Jun 2027 07:44:15.107   01 Jun 2027 07:47:44.931           209.824                Anadyr1          6557.000
        27   01 Jun 2027 08:18:54.491   01 Jun 2027 08:22:35.754           221.263               CapeTown          6914.469
        28   01 Jun 2027 09:17:38.893   01 Jun 2027 09:18:25.423            46.530                Anadyr2          1454.062
        29   01 Jun 2027 09:19:01.054   01 Jun 2027 09:19:26.077            25.023               Magadan1           781.969
        30   01 Jun 2027 09:19:41.536   01 Jun 2027 09:22:55.620           194.084                Anadyr2          6065.125
        31   01 Jun 2027 10:52:53.540   01 Jun 2027 10:54:20.651            87.111               Magadan1          2722.219
        32   01 Jun 2027 10:54:51.061   01 Jun 2027 10:57:35.877           164.816                Anadyr1          5150.500
        33   01 Jun 2027 10:58:26.824   01 Jun 2027 10:58:58.765            31.941               Magadan2           998.156
        34   01 Jun 2027 13:44:53.065   01 Jun 2027 13:45:33.074            40.009                Sumatra          1250.281
        35   01 Jun 2027 13:59:53.218   01 Jun 2027 14:04:04.311           251.093                Irkutsk          7846.656
        36   01 Jun 2027 14:09:36.224   01 Jun 2027 14:09:55.964            19.740                Irkutsk           616.875
        37   01 Jun 2027 15:29:38.748   01 Jun 2027 15:32:04.399           145.651                  Delhi          4551.594
        38   01 Jun 2027 15:35:01.885   01 Jun 2027 15:35:12.055            10.170                  Delhi           317.812
        39   01 Jun 2027 15:37:56.311   01 Jun 2027 15:40:06.935           130.624                Novosib          4082.000
        40   01 Jun 2027 15:43:30.943   01 Jun 2027 15:47:39.602           248.659                Novosib          7770.594
        41   01 Jun 2027 17:22:54.127   01 Jun 2027 17:25:37.226           163.099                Norilsk          5096.844
        42   01 Jun 2027 17:25:37.914   01 Jun 2027 17:26:51.974            74.060                Norilsk          2314.375
        43   01 Jun 2027 18:54:36.081   01 Jun 2027 18:56:35.649           119.568                 Moscow          3736.500
        44   01 Jun 2027 19:03:46.401   01 Jun 2027 19:04:24.184            37.783              Murmansk2          1180.719
        45   01 Jun 2027 20:06:36.492   01 Jun 2027 20:07:45.434            68.942               CapeTown          2154.437
        46   01 Jun 2027 20:09:00.075   01 Jun 2027 20:11:12.175           132.100               CapeTown          4128.125
        47   01 Jun 2027 20:34:50.365   01 Jun 2027 20:39:11.688           261.323              Murmansk1          8166.344
        48   01 Jun 2027 20:39:45.330   01 Jun 2027 20:40:57.275            71.945              Murmansk2          2248.281
        49   01 Jun 2027 22:19:58.240   01 Jun 2027 22:20:27.553            29.313                Anadyr2           916.031
        50   01 Jun 2027 22:21:23.126   01 Jun 2027 22:21:56.598            33.472                Anadyr2          1046.000
        51   01 Jun 2027 22:22:05.682   01 Jun 2027 22:22:06.256             0.574                Anadyr2            17.937
        52   01 Jun 2027 22:22:13.927   01 Jun 2027 22:23:11.890            57.963               Magadan1          1811.344
        53   01 Jun 2027 22:23:50.414   01 Jun 2027 22:24:37.134            46.720               Magadan2          1460.000
        54   01 Jun 2027 22:25:28.168   01 Jun 2027 22:25:37.107             8.939               Magadan2           279.344
        55   01 Jun 2027 22:25:46.309   01 Jun 2027 22:26:02.738            16.429               Magadan2           513.406
        56   01 Jun 2027 22:26:16.912   01 Jun 2027 22:27:02.261            45.349               Magadan1          1417.156
        57   01 Jun 2027 23:14:23.790   01 Jun 2027 23:17:28.148           184.358            RioGallegos          5761.188
        58   01 Jun 2027 23:20:52.587   01 Jun 2027 23:21:14.921            22.334            RioGallegos           697.937
        59   01 Jun 2027 23:54:56.277   01 Jun 2027 23:56:20.146            83.869                Anadyr2          2620.906
        60   01 Jun 2027 23:57:00.996   01 Jun 2027 23:59:26.407           145.411                Norilsk          4544.094
        61   02 Jun 2027 00:00:03.357   02 Jun 2027 00:00:22.995            19.638                Norilsk           613.688
        62   02 Jun 2027 00:01:33.392   02 Jun 2027 00:01:43.159             9.767               Magadan1           305.219
        63   02 Jun 2027 00:01:49.197   02 Jun 2027 00:02:42.743            53.546                Irkutsk          1673.312
        64   02 Jun 2027 00:03:47.693   02 Jun 2027 00:05:01.718            74.025                Irkutsk          2313.281
        65   02 Jun 2027 00:15:55.881   02 Jun 2027 00:17:03.208            67.327                Sumatra          2103.969
        66   02 Jun 2027 00:19:31.459   02 Jun 2027 00:20:38.073            66.614                Sumatra          2081.688
        67   02 Jun 2027 00:24:53.277   02 Jun 2027 00:25:07.265            13.988                Sumatra           437.125
        68   02 Jun 2027 00:25:29.104   02 Jun 2027 00:26:19.976            50.872                Sumatra          1589.750
        69   02 Jun 2027 00:57:32.827   02 Jun 2027 00:58:28.292            55.465            RioGallegos          1733.281
        70   02 Jun 2027 01:30:03.024   02 Jun 2027 01:30:33.512            30.488                Anadyr2           952.750
        71   02 Jun 2027 01:31:15.232   02 Jun 2027 01:32:09.071            53.839                Anadyr1          1682.469
        72   02 Jun 2027 01:32:50.490   02 Jun 2027 01:33:04.800            14.310                Anadyr2           447.187
        73   02 Jun 2027 01:33:12.322   02 Jun 2027 01:33:17.904             5.582                Anadyr2           174.437
        74   02 Jun 2027 01:33:24.283   02 Jun 2027 01:34:48.030            83.747                Norilsk          2617.094
        75   02 Jun 2027 01:35:17.857   02 Jun 2027 01:36:04.509            46.652               Magadan1          1457.875
        76   02 Jun 2027 01:36:46.776   02 Jun 2027 01:39:39.532           172.756                Irkutsk          5398.625
        77   02 Jun 2027 01:48:37.489   02 Jun 2027 01:49:07.348            29.859                  Delhi           933.094
        78   02 Jun 2027 01:51:02.459   02 Jun 2027 01:53:16.030           133.571                Sumatra          4174.094
        79   02 Jun 2027 02:25:00.630   02 Jun 2027 02:25:55.992            55.362            RioGallegos          1730.062
        80   02 Jun 2027 02:30:12.624   02 Jun 2027 02:30:33.573            20.949            RioGallegos           654.656
        81   02 Jun 2027 02:32:15.822   02 Jun 2027 02:32:39.469            23.647            RioGallegos           738.969
        82   02 Jun 2027 03:13:31.562   02 Jun 2027 03:14:09.449            37.887               Magadan1          1183.969
        83   02 Jun 2027 03:15:41.506   02 Jun 2027 03:18:26.722           165.216              Murmansk1          5163.000
        84   02 Jun 2027 03:18:27.836   02 Jun 2027 03:19:25.735            57.899                Norilsk          1809.344
        85   02 Jun 2027 03:19:39.615   02 Jun 2027 03:22:58.240           198.625                Irkutsk          6207.031
        86   02 Jun 2027 03:23:11.651   02 Jun 2027 03:23:43.653            32.002                  Delhi          1000.063
        87   02 Jun 2027 04:02:33.251   02 Jun 2027 04:07:34.422           301.171            RioGallegos          9411.594
        88   02 Jun 2027 04:55:37.854   02 Jun 2027 04:59:45.132           247.278                Novosib          7727.437
        89   02 Jun 2027 05:00:44.717   02 Jun 2027 05:01:08.117            23.400                 Moscow           731.250
        90   02 Jun 2027 05:01:42.651   02 Jun 2027 05:02:07.440            24.789                 Moscow           774.656
        91   02 Jun 2027 05:02:18.848   02 Jun 2027 05:02:42.768            23.920                  Delhi           747.500
        92   02 Jun 2027 05:15:55.918   02 Jun 2027 05:18:39.145           163.227               CapeTown          5100.844
        93   02 Jun 2027 06:11:16.108   02 Jun 2027 06:15:06.117           230.009                Anadyr2          7187.781
        94   02 Jun 2027 06:32:36.838   02 Jun 2027 06:34:47.408           130.570                 Moscow          4080.313
        95   02 Jun 2027 06:37:45.724   02 Jun 2027 06:39:03.873            78.149                 Moscow          2442.156
        96   02 Jun 2027 06:50:13.016   02 Jun 2027 06:54:43.778           270.762               CapeTown          8461.313
        97   02 Jun 2027 07:46:59.212   02 Jun 2027 07:48:12.388            73.176                Anadyr2          2286.750
        98   02 Jun 2027 07:53:40.512   02 Jun 2027 07:54:17.391            36.879               Magadan2          1152.469
        99   02 Jun 2027 07:55:04.297   02 Jun 2027 07:57:46.854           162.557                Anadyr1          5079.906
       100   02 Jun 2027 07:57:46.854   02 Jun 2027 07:59:00.046            73.192                Anadyr2          2287.250
       101   02 Jun 2027 08:04:20.936   02 Jun 2027 08:05:09.419            48.483                 Moscow          1515.094
       102   02 Jun 2027 09:30:54.204   02 Jun 2027 09:31:28.338            34.134               Magadan1          1066.688
       103   02 Jun 2027 09:31:41.324   02 Jun 2027 09:31:46.754             5.430                Anadyr1           169.688
       104   02 Jun 2027 09:32:08.098   02 Jun 2027 09:33:20.753            72.655               Magadan2          2270.469
       105   02 Jun 2027 09:33:20.753   02 Jun 2027 09:34:14.762            54.009               Magadan1          1687.781
       106   02 Jun 2027 09:34:59.791   02 Jun 2027 09:35:28.312            28.521                Anadyr2           891.281
       107   02 Jun 2027 11:04:52.915   02 Jun 2027 11:05:34.078            41.163               Magadan1          1286.344
       108   02 Jun 2027 11:06:05.734   02 Jun 2027 11:06:07.551             1.817                Irkutsk            56.781
       109   02 Jun 2027 11:06:40.713   02 Jun 2027 11:07:08.480            27.767                Irkutsk           867.719
       110   02 Jun 2027 11:07:13.085   02 Jun 2027 11:10:17.014           183.929               Magadan1          5747.781
       111   02 Jun 2027 11:10:46.625   02 Jun 2027 11:10:53.573             6.948               Magadan2           217.125
       112   02 Jun 2027 11:12:33.962   02 Jun 2027 11:13:24.375            50.413                Norilsk          1575.406
       113   02 Jun 2027 11:45:49.957   02 Jun 2027 11:47:04.602            74.645            RioGallegos          2332.656
       114   02 Jun 2027 12:21:40.752   02 Jun 2027 12:21:42.019             1.267                Sumatra            39.594
       115   02 Jun 2027 12:21:54.304   02 Jun 2027 12:22:27.272            32.968                Sumatra          1030.250
       116   02 Jun 2027 12:34:13.181   02 Jun 2027 12:36:53.120           159.939                Irkutsk          4998.094
       117   02 Jun 2027 12:39:06.338   02 Jun 2027 12:40:02.445            56.107                Norilsk          1753.344
       118   02 Jun 2027 12:54:03.612   02 Jun 2027 12:54:39.822            36.210              Murmansk1          1131.563
       119   02 Jun 2027 13:22:59.073   02 Jun 2027 13:23:53.557            54.484            RioGallegos          1702.625
       120   02 Jun 2027 13:27:54.971   02 Jun 2027 13:28:15.091            20.120            RioGallegos           628.750
       121   02 Jun 2027 13:30:28.417   02 Jun 2027 13:32:57.255           148.838            RioGallegos          4651.188
       122   02 Jun 2027 13:59:06.310   02 Jun 2027 14:01:30.974           144.664                Sumatra          4520.750
       123   02 Jun 2027 14:12:30.001   02 Jun 2027 14:15:40.388           190.387                Irkutsk          5949.594
       124   02 Jun 2027 15:42:12.336   02 Jun 2027 15:47:02.184           289.848                  Delhi          9057.750
       125   02 Jun 2027 15:50:37.698   02 Jun 2027 15:56:54.787           377.089                Novosib         11784.031
       126   02 Jun 2027 17:35:50.612   02 Jun 2027 17:37:50.147           119.535                Norilsk          3735.469
       127   02 Jun 2027 17:38:26.566   02 Jun 2027 17:38:45.233            18.667                Norilsk           583.344
       128   02 Jun 2027 18:50:23.402   02 Jun 2027 18:50:39.624            16.222               CapeTown           506.938
       129   02 Jun 2027 19:04:46.741   02 Jun 2027 19:09:10.512           263.771                 Moscow          8242.844
       130   02 Jun 2027 19:11:53.793   02 Jun 2027 19:11:56.088             2.295              Murmansk1            71.719
       131   02 Jun 2027 19:13:40.089   02 Jun 2027 19:14:25.006            44.917              Murmansk2          1403.656
       132   02 Jun 2027 20:15:22.262   02 Jun 2027 20:16:28.208            65.946               CapeTown          2060.812
       133   02 Jun 2027 20:18:05.449   02 Jun 2027 20:19:00.820            55.371               CapeTown          1730.344
       134   02 Jun 2027 20:19:07.337   02 Jun 2027 20:20:21.406            74.069               CapeTown          2314.656
       135   02 Jun 2027 20:47:45.112   02 Jun 2027 20:51:55.759           250.647              Murmansk2          7832.719
       136   02 Jun 2027 20:52:06.327   02 Jun 2027 20:52:44.629            38.302              Murmansk1          1196.937
       137   02 Jun 2027 22:31:11.562   02 Jun 2027 22:36:29.355           317.793                Anadyr2          9931.031
       138   02 Jun 2027 22:36:44.050   02 Jun 2027 22:38:50.930           126.880               Magadan2          3965.000
       139   02 Jun 2027 22:44:12.909   02 Jun 2027 22:44:22.352             9.443               Magadan2           295.094
       140   02 Jun 2027 22:44:22.352   02 Jun 2027 22:44:44.277            21.925               Magadan1           685.156
       141   02 Jun 2027 23:26:02.253   02 Jun 2027 23:28:19.826           137.573            RioGallegos          4299.156
       142   02 Jun 2027 23:28:30.357   02 Jun 2027 23:29:00.897            30.540            RioGallegos           954.375
       143   02 Jun 2027 23:32:26.751   02 Jun 2027 23:32:29.578             2.827            RioGallegos            88.344
       144   02 Jun 2027 23:35:18.470   02 Jun 2027 23:35:22.482             4.012            RioGallegos           125.375
       145   03 Jun 2027 00:06:54.775   03 Jun 2027 00:08:02.860            68.085                Anadyr2          2127.656
       146   03 Jun 2027 00:08:15.369   03 Jun 2027 00:09:11.730            56.361                Anadyr1          1761.281
       147   03 Jun 2027 00:09:19.493   03 Jun 2027 00:09:45.238            25.745                Anadyr1           804.531
       148   03 Jun 2027 00:09:59.199   03 Jun 2027 00:11:27.867            88.668               Magadan1          2770.875
       149   03 Jun 2027 00:11:29.965   03 Jun 2027 00:13:01.486            91.521               Magadan2          2860.031
       150   03 Jun 2027 00:13:25.323   03 Jun 2027 00:14:25.668            60.345                Irkutsk          1885.781
       151   03 Jun 2027 00:21:42.781   03 Jun 2027 00:22:11.185            28.404                Irkutsk           887.625
       152   03 Jun 2027 00:23:38.597   03 Jun 2027 00:24:17.909            39.312                Irkutsk          1228.500
       153   03 Jun 2027 00:27:27.955   03 Jun 2027 00:27:54.893            26.938                Sumatra           841.813
       154   03 Jun 2027 00:28:49.373   03 Jun 2027 00:29:07.694            18.321                Sumatra           572.531
       155   03 Jun 2027 00:31:20.379   03 Jun 2027 00:33:31.961           131.582                Sumatra          4111.937
       156   03 Jun 2027 01:11:31.177   03 Jun 2027 01:12:05.699            34.522            RioGallegos          1078.813
       157   03 Jun 2027 01:41:53.599   03 Jun 2027 01:42:15.299            21.700                Anadyr1           678.125
       158   03 Jun 2027 01:42:23.290   03 Jun 2027 01:43:14.144            50.854                Anadyr1          1589.188
       159   03 Jun 2027 01:43:45.825   03 Jun 2027 01:43:56.740            10.915                Anadyr2           341.094
       160   03 Jun 2027 01:44:11.207   03 Jun 2027 01:44:13.762             2.555                Anadyr1            79.844
       161   03 Jun 2027 01:44:43.563   03 Jun 2027 01:45:02.690            19.127                Anadyr2           597.719
       162   03 Jun 2027 01:45:20.481   03 Jun 2027 01:46:45.648            85.167                Norilsk          2661.469
       163   03 Jun 2027 01:47:19.591   03 Jun 2027 01:47:28.532             8.941               Magadan1           279.406
       164   03 Jun 2027 01:48:43.535   03 Jun 2027 01:48:49.090             5.555                Norilsk           173.594
       165   03 Jun 2027 01:49:06.237   03 Jun 2027 01:51:26.000           139.763                Novosib          4367.594
       166   03 Jun 2027 01:52:29.702   03 Jun 2027 01:52:32.896             3.194                Irkutsk            99.812
       167   03 Jun 2027 01:52:37.989   03 Jun 2027 01:52:42.630             4.641                Irkutsk           145.031
       168   03 Jun 2027 01:54:03.324   03 Jun 2027 01:54:49.420            46.096                Novosib          1440.500
       169   03 Jun 2027 01:57:23.599   03 Jun 2027 01:58:12.639            49.040                  Delhi          1532.500
       170   03 Jun 2027 02:03:27.398   03 Jun 2027 02:04:54.640            87.242                Sumatra          2726.313
       171   03 Jun 2027 02:07:03.892   03 Jun 2027 02:08:31.954            88.062                Sumatra          2751.938
       172   03 Jun 2027 02:44:10.264   03 Jun 2027 02:45:10.515            60.251            RioGallegos          1882.844
       173   03 Jun 2027 03:25:24.798   03 Jun 2027 03:25:38.520            13.722               Magadan2           428.812
       174   03 Jun 2027 03:28:19.436   03 Jun 2027 03:28:34.381            14.945                Novosib           467.031
       175   03 Jun 2027 03:28:45.491   03 Jun 2027 03:30:41.923           116.432                Irkutsk          3638.500
       176   03 Jun 2027 03:30:54.534   03 Jun 2027 03:31:56.262            61.728                Norilsk          1929.000
       177   03 Jun 2027 03:31:58.810   03 Jun 2027 03:35:25.649           206.839                Irkutsk          6463.719
       178   03 Jun 2027 03:35:34.609   03 Jun 2027 03:37:32.663           118.054                Novosib          3689.188
       179   03 Jun 2027 03:40:37.745   03 Jun 2027 03:44:30.928           233.183                  Delhi          7286.969
       180   03 Jun 2027 04:15:16.351   03 Jun 2027 04:18:21.025           184.674            RioGallegos          5771.063
       181   03 Jun 2027 05:05:56.322   03 Jun 2027 05:06:44.752            48.430              Murmansk2          1513.437
       182   03 Jun 2027 05:07:27.512   03 Jun 2027 05:07:55.259            27.747                 Moscow           867.094
       183   03 Jun 2027 05:08:24.916   03 Jun 2027 05:10:36.960           132.044                Novosib          4126.375
       184   03 Jun 2027 06:44:40.365   03 Jun 2027 06:44:51.341            10.976              Murmansk1           343.000
       185   03 Jun 2027 06:44:59.019   03 Jun 2027 06:45:17.851            18.832                 Moscow           588.500
       186   03 Jun 2027 07:02:26.089   03 Jun 2027 07:03:43.892            77.803               CapeTown          2431.344
       187   03 Jun 2027 07:05:10.525   03 Jun 2027 07:07:13.802           123.277               CapeTown          3852.406
       188   03 Jun 2027 08:05:12.568   03 Jun 2027 08:05:23.816            11.248               Magadan2           351.500
       189   03 Jun 2027 08:05:43.539   03 Jun 2027 08:06:15.221            31.682               Magadan2           990.062
       190   03 Jun 2027 08:06:19.893   03 Jun 2027 08:07:26.619            66.726               Magadan1          2085.188
       191   03 Jun 2027 08:07:38.049   03 Jun 2027 08:07:57.771            19.722                Anadyr2           616.312
       192   03 Jun 2027 08:08:51.246   03 Jun 2027 08:09:46.638            55.392                Anadyr1          1731.000
       193   03 Jun 2027 09:42:48.140   03 Jun 2027 09:42:57.630             9.490               Magadan2           296.563
       194   03 Jun 2027 09:43:14.084   03 Jun 2027 09:43:30.307            16.223               Magadan1           506.969
       195   03 Jun 2027 09:44:15.727   03 Jun 2027 09:44:32.825            17.098               Magadan2           534.313
       196   03 Jun 2027 09:45:18.958   03 Jun 2027 09:45:59.496            40.538               Magadan1          1266.812
       197   03 Jun 2027 09:46:43.611   03 Jun 2027 09:47:24.965            41.354                Anadyr2          1292.313
       198   03 Jun 2027 11:12:49.903   03 Jun 2027 11:13:18.030            28.127               Magadan2           878.969
       199   03 Jun 2027 11:16:40.915   03 Jun 2027 11:17:39.137            58.222               Magadan1          1819.437
       200   03 Jun 2027 11:18:01.193   03 Jun 2027 11:18:50.103            48.910                Irkutsk          1528.438
       201   03 Jun 2027 11:19:08.160   03 Jun 2027 11:20:02.841            54.681                Irkutsk          1708.781
       202   03 Jun 2027 11:20:16.876   03 Jun 2027 11:20:42.122            25.246                Irkutsk           788.938
       203   03 Jun 2027 11:20:57.084   03 Jun 2027 11:22:04.441            67.357                Norilsk          2104.906
       204   03 Jun 2027 11:22:26.652   03 Jun 2027 11:22:27.673             1.021                Norilsk            31.906
       205   03 Jun 2027 11:22:43.710   03 Jun 2027 11:22:58.554            14.844                Irkutsk           463.875
       206   03 Jun 2027 11:23:10.358   03 Jun 2027 11:24:04.304            53.946                Norilsk          1685.812
       207   03 Jun 2027 11:59:34.384   03 Jun 2027 12:00:42.299            67.915            RioGallegos          2122.344
       208   03 Jun 2027 12:33:17.233   03 Jun 2027 12:33:54.067            36.834                Sumatra          1151.062
       209   03 Jun 2027 12:46:18.600   03 Jun 2027 12:49:31.410           192.810                Irkutsk          6025.313
       210   03 Jun 2027 12:51:07.736   03 Jun 2027 12:51:46.899            39.163                Norilsk          1223.844
       211   03 Jun 2027 13:35:29.985   03 Jun 2027 13:37:15.338           105.353            RioGallegos          3292.281
       212   03 Jun 2027 13:39:36.504   03 Jun 2027 13:40:22.257            45.753            RioGallegos          1429.781
       213   03 Jun 2027 14:09:43.542   03 Jun 2027 14:14:40.391           296.849                Sumatra          9276.531
       214   03 Jun 2027 14:26:04.134   03 Jun 2027 14:32:00.100           355.966                Irkutsk         11123.938
       215   03 Jun 2027 16:03:27.752   03 Jun 2027 16:07:48.256           260.504                Novosib          8140.750
       216   03 Jun 2027 17:37:37.566   03 Jun 2027 17:37:51.884            14.318                 Moscow           447.437
       217   03 Jun 2027 17:40:27.905   03 Jun 2027 17:42:11.071           103.166                 Moscow          3223.937
       218   03 Jun 2027 17:52:59.015   03 Jun 2027 17:53:14.208            15.193              Murmansk1           474.781
       219   03 Jun 2027 17:56:23.242   03 Jun 2027 17:56:56.351            33.109                Anadyr1          1034.656
       220   03 Jun 2027 17:58:40.379   03 Jun 2027 17:58:54.407            14.028                Anadyr2           438.375
       221   03 Jun 2027 18:50:48.170   03 Jun 2027 18:53:01.671           133.501               CapeTown          4171.906
       222   03 Jun 2027 18:58:25.261   03 Jun 2027 18:58:39.261            14.000               CapeTown           437.500
       223   03 Jun 2027 19:17:46.326   03 Jun 2027 19:21:52.047           245.721                 Moscow          7678.781
       224   03 Jun 2027 19:23:40.852   03 Jun 2027 19:25:41.544           120.692              Murmansk2          3771.625
       225   03 Jun 2027 20:27:45.270   03 Jun 2027 20:29:37.830           112.560               CapeTown          3517.500
       226   03 Jun 2027 20:31:19.267   03 Jun 2027 20:32:51.647            92.380               CapeTown          2886.875
       227   03 Jun 2027 21:00:51.512   03 Jun 2027 21:04:22.415           210.903              Murmansk1          6590.719
       228   03 Jun 2027 21:17:53.480   03 Jun 2027 21:18:27.017            33.537               Magadan1          1048.031
       229   03 Jun 2027 22:43:12.871   03 Jun 2027 22:48:26.355           313.484                Anadyr2          9796.375
       230   03 Jun 2027 22:48:28.866   03 Jun 2027 22:50:43.115           134.249               Magadan1          4195.281
       231   03 Jun 2027 22:56:02.118   03 Jun 2027 22:56:27.475            25.357               Magadan2           792.406
       232   03 Jun 2027 22:57:22.449   03 Jun 2027 22:57:47.619            25.170               Magadan2           786.562
       233   03 Jun 2027 23:37:46.642   03 Jun 2027 23:40:34.988           168.346            RioGallegos          5260.812
       234   03 Jun 2027 23:42:00.162   03 Jun 2027 23:42:12.246            12.084            RioGallegos           377.625
       235   03 Jun 2027 23:42:27.586   03 Jun 2027 23:42:33.276             5.690            RioGallegos           177.812
       236   03 Jun 2027 23:43:16.300   03 Jun 2027 23:44:01.142            44.842            RioGallegos          1401.312
       237   04 Jun 2027 00:18:52.587   04 Jun 2027 00:19:53.990            61.403                Anadyr1          1918.844
       238   04 Jun 2027 00:21:01.173   04 Jun 2027 00:22:51.456           110.283                Norilsk          3446.344
       239   04 Jun 2027 00:23:04.006   04 Jun 2027 00:23:40.472            36.466               Magadan2          1139.562
       240   04 Jun 2027 00:23:55.389   04 Jun 2027 00:24:30.034            34.645               Magadan2          1082.656
       241   04 Jun 2027 00:25:17.381   04 Jun 2027 00:26:43.884            86.503                Irkutsk          2703.219
       242   04 Jun 2027 00:27:45.872   04 Jun 2027 00:28:30.580            44.708                Novosib          1397.125
       243   04 Jun 2027 00:29:46.822   04 Jun 2027 00:31:31.083           104.261                Novosib          3258.156
       244   04 Jun 2027 00:41:30.592   04 Jun 2027 00:42:35.236            64.644                Sumatra          2020.125
       245   04 Jun 2027 01:17:03.980   04 Jun 2027 01:17:09.655             5.675            RioGallegos           177.344
       246   04 Jun 2027 01:17:25.399   04 Jun 2027 01:17:40.934            15.535            RioGallegos           485.469
       247   04 Jun 2027 01:19:57.226   04 Jun 2027 01:20:42.731            45.505            RioGallegos          1422.031
       248   04 Jun 2027 01:53:42.841   04 Jun 2027 01:53:43.083             0.242                Anadyr1             7.562
       249   04 Jun 2027 01:54:12.855   04 Jun 2027 01:55:14.917            62.062                Anadyr1          1939.437
       250   04 Jun 2027 01:55:57.287   04 Jun 2027 01:56:18.978            21.691                Anadyr1           677.844
       251   04 Jun 2027 01:56:37.755   04 Jun 2027 01:56:41.505             3.750                Anadyr2           117.188
       252   04 Jun 2027 01:56:58.305   04 Jun 2027 01:58:34.786            96.481                Norilsk          3015.031
       253   04 Jun 2027 01:59:07.787   04 Jun 2027 01:59:21.674            13.887               Magadan2           433.969
       254   04 Jun 2027 02:00:50.916   04 Jun 2027 02:04:05.039           194.123                Irkutsk          6066.344
       255   04 Jun 2027 02:09:23.354   04 Jun 2027 02:09:46.307            22.953                  Delhi           717.281
       256   04 Jun 2027 02:14:55.508   04 Jun 2027 02:15:32.028            36.520                  Delhi          1141.250
       257   04 Jun 2027 02:16:02.786   04 Jun 2027 02:17:47.943           105.157                Sumatra          3286.156
       258   04 Jun 2027 02:22:55.061   04 Jun 2027 02:23:38.775            43.714                Sumatra          1366.062
       259   04 Jun 2027 02:25:11.031   04 Jun 2027 02:25:26.536            15.505                Sumatra           484.531
       260   04 Jun 2027 02:49:16.084   04 Jun 2027 02:49:28.003            11.919            RioGallegos           372.469
       261   04 Jun 2027 02:50:36.555   04 Jun 2027 02:52:12.049            95.494            RioGallegos          2984.188
       262   04 Jun 2027 03:40:10.799   04 Jun 2027 03:41:23.114            72.315                Irkutsk          2259.844
       263   04 Jun 2027 03:41:44.603   04 Jun 2027 03:41:53.933             9.330              Murmansk2           291.562
       264   04 Jun 2027 03:42:48.264   04 Jun 2027 03:43:16.460            28.196                 Moscow           881.125
       265   04 Jun 2027 03:43:16.803   04 Jun 2027 03:49:27.740           370.937                Novosib         11591.781
       266   04 Jun 2027 03:49:45.682   04 Jun 2027 03:56:14.634           388.952                  Delhi         12154.750
       267   04 Jun 2027 05:18:32.869   04 Jun 2027 05:18:39.129             6.260                Novosib           195.625
       268   04 Jun 2027 05:18:40.448   04 Jun 2027 05:19:52.635            72.187                Norilsk          2255.844
       269   04 Jun 2027 05:20:06.191   04 Jun 2027 05:22:47.775           161.584                Novosib          5049.500
       270   04 Jun 2027 05:23:48.663   04 Jun 2027 05:24:02.653            13.990                 Moscow           437.187
       271   04 Jun 2027 05:39:01.157   04 Jun 2027 05:40:15.134            73.977               CapeTown          2311.781
       272   04 Jun 2027 05:41:02.723   04 Jun 2027 05:42:13.581            70.858               CapeTown          2214.312
       273   04 Jun 2027 06:42:40.817   04 Jun 2027 06:43:15.690            34.873                Anadyr2          1089.781
       274   04 Jun 2027 06:43:51.346   04 Jun 2027 06:43:57.943             6.597                Anadyr1           206.156
       275   04 Jun 2027 06:45:02.736   04 Jun 2027 06:45:16.978            14.242                Anadyr2           445.062
       276   04 Jun 2027 06:54:28.574   04 Jun 2027 06:54:34.197             5.623                 Moscow           175.719
       277   04 Jun 2027 06:56:37.055   04 Jun 2027 06:56:38.798             1.743              Murmansk1            54.469
       278   04 Jun 2027 06:56:40.530   04 Jun 2027 06:57:38.376            57.846              Murmansk1          1807.687
       279   04 Jun 2027 06:59:52.571   04 Jun 2027 06:59:55.933             3.362                 Moscow           105.063
       280   04 Jun 2027 07:14:45.299   04 Jun 2027 07:15:40.007            54.708               CapeTown          1709.625
       281   04 Jun 2027 07:17:01.991   04 Jun 2027 07:19:53.598           171.607               CapeTown          5362.719
       282   04 Jun 2027 08:17:46.104   04 Jun 2027 08:18:15.460            29.356               Magadan2           917.375
       283   04 Jun 2027 08:19:21.540   04 Jun 2027 08:19:54.681            33.141                Anadyr2          1035.656
       284   04 Jun 2027 08:20:16.099   04 Jun 2027 08:21:04.419            48.320                Anadyr1          1510.000
       285   04 Jun 2027 09:54:38.129   04 Jun 2027 09:55:31.937            53.808               Magadan1          1681.500
       286   04 Jun 2027 09:55:37.554   04 Jun 2027 09:55:39.866             2.312               Magadan1            72.250
       287   04 Jun 2027 09:56:26.130   04 Jun 2027 09:57:16.163            50.033               Magadan1          1563.531
       288   04 Jun 2027 10:35:24.463   04 Jun 2027 10:35:45.015            20.552            RioGallegos           642.250
       289   04 Jun 2027 11:28:24.201   04 Jun 2027 11:30:32.084           127.883               Magadan2          3996.344
       290   04 Jun 2027 11:30:32.084   04 Jun 2027 11:31:18.173            46.089               Magadan1          1440.281
       291   04 Jun 2027 11:32:38.016   04 Jun 2027 11:32:48.712            10.696                Irkutsk           334.250
       292   04 Jun 2027 11:33:17.716   04 Jun 2027 11:33:51.391            33.675                Irkutsk          1052.344
       293   04 Jun 2027 11:34:06.574   04 Jun 2027 11:34:27.476            20.902                Norilsk           653.188
       294   04 Jun 2027 11:34:29.070   04 Jun 2027 11:34:50.357            21.287                Norilsk           665.219
       295   04 Jun 2027 11:34:55.059   04 Jun 2027 11:35:24.644            29.585                Norilsk           924.531
       296   04 Jun 2027 12:09:49.898   04 Jun 2027 12:10:59.722            69.824            RioGallegos          2182.000
       297   04 Jun 2027 12:45:01.250   04 Jun 2027 12:45:48.109            46.859                Sumatra          1464.344
       298   04 Jun 2027 12:51:02.815   04 Jun 2027 12:51:17.796            14.981                Sumatra           468.156
       299   04 Jun 2027 12:58:27.513   04 Jun 2027 13:01:31.123           183.610                Irkutsk          5737.812
       300   04 Jun 2027 13:48:07.542   04 Jun 2027 13:51:10.482           182.940            RioGallegos          5716.875
       301   04 Jun 2027 14:22:25.912   04 Jun 2027 14:27:03.067           277.155                Sumatra          8661.094
       302   04 Jun 2027 14:38:10.444   04 Jun 2027 14:42:22.631           252.187                Irkutsk          7880.844
       303   04 Jun 2027 16:08:02.178   04 Jun 2027 16:12:04.815           242.637                  Delhi          7582.406
       304   04 Jun 2027 16:12:44.151   04 Jun 2027 16:14:54.409           130.258                  Delhi          4070.563
       305   04 Jun 2027 16:16:30.659   04 Jun 2027 16:20:31.429           240.770                Novosib          7524.063
       306   04 Jun 2027 18:12:48.491   04 Jun 2027 18:12:52.283             3.792                Anadyr1           118.500
       307   04 Jun 2027 18:14:27.991   04 Jun 2027 18:14:42.886            14.895                Anadyr2           465.469
       308   04 Jun 2027 19:02:46.825   04 Jun 2027 19:05:28.537           161.712               CapeTown          5053.500
       309   04 Jun 2027 19:31:07.398   04 Jun 2027 19:34:42.278           214.880                 Moscow          6715.000
       310   04 Jun 2027 19:35:10.157   04 Jun 2027 19:37:06.492           116.335              Murmansk1          3635.469
       311   04 Jun 2027 20:40:16.129   04 Jun 2027 20:43:33.307           197.178               CapeTown          6161.813
       312   04 Jun 2027 20:45:10.399   04 Jun 2027 20:46:10.002            59.603               CapeTown          1862.594
       313   04 Jun 2027 20:47:22.049   04 Jun 2027 20:48:14.365            52.316               CapeTown          1634.875
       314   04 Jun 2027 21:21:47.388   04 Jun 2027 21:22:43.530            56.142               Magadan1          1754.437
       315   04 Jun 2027 21:22:49.439   04 Jun 2027 21:23:13.972            24.533               Magadan2           766.656
       316   04 Jun 2027 21:24:01.511   04 Jun 2027 21:24:27.496            25.985               Magadan1           812.031
       317   04 Jun 2027 21:24:48.713   04 Jun 2027 21:25:04.342            15.629               Magadan1           488.406
       318   04 Jun 2027 21:25:41.330   04 Jun 2027 21:25:44.441             3.111               Magadan1            97.219
       319   04 Jun 2027 21:26:42.743   04 Jun 2027 21:27:11.847            29.104               Magadan1           909.500
       320   04 Jun 2027 22:55:13.944   04 Jun 2027 22:59:02.152           228.208                Anadyr2          7131.500
       321   04 Jun 2027 22:59:02.201   04 Jun 2027 23:00:22.517            80.316                Anadyr1          2509.875
       322   04 Jun 2027 23:00:27.634   04 Jun 2027 23:02:12.510           104.876               Magadan1          3277.375
       323   04 Jun 2027 23:02:38.071   04 Jun 2027 23:03:08.934            30.863               Magadan2           964.469
       324   04 Jun 2027 23:06:21.149   04 Jun 2027 23:06:28.534             7.385               Magadan1           230.781
       325   04 Jun 2027 23:06:41.553   04 Jun 2027 23:06:53.912            12.359               Magadan1           386.219
       326   04 Jun 2027 23:07:00.919   04 Jun 2027 23:07:01.825             0.906               Magadan2            28.312
       327   04 Jun 2027 23:07:40.054   04 Jun 2027 23:07:55.838            15.784               Magadan1           493.250
       328   04 Jun 2027 23:07:55.838   04 Jun 2027 23:08:14.902            19.064               Magadan2           595.750
       329   04 Jun 2027 23:08:50.363   04 Jun 2027 23:09:29.568            39.205               Magadan1          1225.156
       330   04 Jun 2027 23:49:35.102   04 Jun 2027 23:51:28.031           112.929            RioGallegos          3529.031
       331   04 Jun 2027 23:52:40.516   04 Jun 2027 23:53:05.327            24.811            RioGallegos           775.344
       332   04 Jun 2027 23:54:35.549   04 Jun 2027 23:55:02.462            26.913            RioGallegos           841.031
       333   04 Jun 2027 23:55:36.397   04 Jun 2027 23:55:41.266             4.869            RioGallegos           152.156
       334   04 Jun 2027 23:58:52.687   04 Jun 2027 23:59:02.375             9.688            RioGallegos           302.750
       335   05 Jun 2027 00:30:49.631   05 Jun 2027 00:31:43.819            54.188                Anadyr2          1693.375
       336   05 Jun 2027 00:32:00.774   05 Jun 2027 00:32:16.894            16.120                Anadyr1           503.750
       337   05 Jun 2027 00:32:44.139   05 Jun 2027 00:33:21.204            37.065                Anadyr2          1158.281
       338   05 Jun 2027 00:33:21.204   05 Jun 2027 00:33:47.857            26.653                Anadyr1           832.906
       339   05 Jun 2027 00:34:03.002   05 Jun 2027 00:34:53.687            50.685                Norilsk          1583.906
       340   05 Jun 2027 00:35:24.391   05 Jun 2027 00:37:09.084           104.693               Magadan1          3271.656
       341   05 Jun 2027 00:37:11.628   05 Jun 2027 00:38:14.595            62.967                Irkutsk          1967.719
       342   05 Jun 2027 00:38:53.107   05 Jun 2027 00:39:46.537            53.430                Novosib          1669.688
       343   05 Jun 2027 00:48:44.381   05 Jun 2027 00:49:11.300            26.919                Irkutsk           841.219
       344   05 Jun 2027 00:50:55.729   05 Jun 2027 00:53:39.282           163.553                Sumatra          5111.031
       345   05 Jun 2027 01:32:48.716   05 Jun 2027 01:33:03.568            14.852            RioGallegos           464.125
       346   05 Jun 2027 01:33:47.222   05 Jun 2027 01:33:48.658             1.436            RioGallegos            44.875
       347   05 Jun 2027 01:33:52.361   05 Jun 2027 01:34:32.924            40.563            RioGallegos          1267.594
       348   05 Jun 2027 02:05:30.746   05 Jun 2027 02:06:25.931            55.185                Anadyr1          1724.531
       349   05 Jun 2027 02:07:11.241   05 Jun 2027 02:07:17.621             6.380                Anadyr2           199.375
       350   05 Jun 2027 02:07:47.857   05 Jun 2027 02:08:21.427            33.570                Anadyr1          1049.062
       351   05 Jun 2027 02:09:00.764   05 Jun 2027 02:10:03.648            62.884                Norilsk          1965.125
       352   05 Jun 2027 02:10:23.579   05 Jun 2027 02:10:54.091            30.512                Norilsk           953.500
       353   05 Jun 2027 02:12:54.209   05 Jun 2027 02:15:12.995           138.786                Irkutsk          4337.063
       354   05 Jun 2027 02:20:02.038   05 Jun 2027 02:20:32.325            30.287                Novosib           946.469
       355   05 Jun 2027 02:20:41.682   05 Jun 2027 02:21:06.273            24.591                  Delhi           768.469
       356   05 Jun 2027 02:26:50.195   05 Jun 2027 02:27:00.359            10.164                  Delhi           317.625
       357   05 Jun 2027 02:28:54.261   05 Jun 2027 02:33:17.808           263.547                Sumatra          8235.844
       358   05 Jun 2027 03:05:36.982   05 Jun 2027 03:05:43.828             6.846            RioGallegos           213.937
       359   05 Jun 2027 03:10:12.659   05 Jun 2027 03:10:18.932             6.273            RioGallegos           196.031
       360   05 Jun 2027 03:52:26.979   05 Jun 2027 03:54:32.002           125.023                Irkutsk          3906.969
       361   05 Jun 2027 03:54:36.095   05 Jun 2027 03:54:50.841            14.746                Norilsk           460.812
       362   05 Jun 2027 03:54:51.182   05 Jun 2027 03:55:07.777            16.595              Murmansk2           518.594
       363   05 Jun 2027 03:55:21.239   05 Jun 2027 03:55:56.221            34.982              Murmansk2          1093.188
       364   05 Jun 2027 03:56:31.620   05 Jun 2027 03:58:36.227           124.607                  Delhi          3893.969
       365   05 Jun 2027 03:59:57.921   05 Jun 2027 04:01:20.058            82.137                Novosib          2566.781
       366   05 Jun 2027 04:04:46.542   05 Jun 2027 04:07:48.462           181.920                  Delhi          5685.000
       367   05 Jun 2027 05:30:45.589   05 Jun 2027 05:31:20.743            35.154                Novosib          1098.562
       368   05 Jun 2027 05:31:23.243   05 Jun 2027 05:31:30.079             6.836                 Moscow           213.625
       369   05 Jun 2027 05:31:34.397   05 Jun 2027 05:32:02.249            27.852                 Moscow           870.375
       370   05 Jun 2027 05:32:07.242   05 Jun 2027 05:34:25.352           138.110                Novosib          4315.938
       371   05 Jun 2027 05:34:45.348   05 Jun 2027 05:35:53.472            68.124                 Moscow          2128.875
       372   05 Jun 2027 05:37:50.183   05 Jun 2027 05:37:52.877             2.694                 Moscow            84.188
       373   05 Jun 2027 05:38:50.937   05 Jun 2027 05:39:00.172             9.235                 Moscow           288.594
       374   05 Jun 2027 05:50:43.139   05 Jun 2027 05:52:31.010           107.871               CapeTown          3370.969
       375   05 Jun 2027 06:54:10.426   05 Jun 2027 06:54:23.896            13.470               Magadan2           420.937
       376   05 Jun 2027 06:54:26.633   05 Jun 2027 06:55:51.909            85.276                Anadyr2          2664.875
       377   05 Jun 2027 07:05:56.453   05 Jun 2027 07:06:17.008            20.555              Murmansk2           642.344
       378   05 Jun 2027 07:06:24.460   05 Jun 2027 07:06:45.353            20.893              Murmansk2           652.906
       379   05 Jun 2027 07:14:01.604   05 Jun 2027 07:14:14.246            12.642                 Moscow           395.062
       380   05 Jun 2027 07:27:11.581   05 Jun 2027 07:28:49.323            97.742               CapeTown          3054.438
       381   05 Jun 2027 07:31:38.964   05 Jun 2027 07:32:13.201            34.237               CapeTown          1069.906
       382   05 Jun 2027 08:28:04.927   05 Jun 2027 08:28:53.897            48.970                Anadyr2          1530.313
       383   05 Jun 2027 08:29:48.439   05 Jun 2027 08:30:18.193            29.754               Magadan2           929.812
       384   05 Jun 2027 08:31:14.349   05 Jun 2027 08:31:56.200            41.851                Anadyr2          1307.844
       385   05 Jun 2027 08:31:56.200   05 Jun 2027 08:32:48.831            52.631                Anadyr1          1644.719
       386   05 Jun 2027 10:03:10.086   05 Jun 2027 10:03:21.655            11.569               Magadan1           361.531
       387   05 Jun 2027 10:04:18.515   05 Jun 2027 10:04:20.137             1.622               Magadan2            50.687
       388   05 Jun 2027 10:06:24.478   05 Jun 2027 10:07:33.173            68.695               Magadan2          2146.719
       389   05 Jun 2027 10:08:04.962   05 Jun 2027 10:08:29.925            24.963               Magadan1           780.094
       390   05 Jun 2027 10:08:39.458   05 Jun 2027 10:09:03.016            23.558               Magadan1           736.187
       391   05 Jun 2027 10:09:08.831   05 Jun 2027 10:09:30.585            21.754                Norilsk           679.813
       392   05 Jun 2027 10:47:03.317   05 Jun 2027 10:47:44.875            41.558            RioGallegos          1298.687
       393   05 Jun 2027 10:51:02.927   05 Jun 2027 10:51:17.843            14.916            RioGallegos           466.125
       394   05 Jun 2027 11:39:59.635   05 Jun 2027 11:46:09.302           369.667               Magadan2         11552.094
       395   05 Jun 2027 11:46:32.447   05 Jun 2027 11:47:10.727            38.280                Irkutsk          1196.250
       396   05 Jun 2027 12:21:54.978   05 Jun 2027 12:22:31.336            36.358            RioGallegos          1136.187
       397   05 Jun 2027 12:25:08.182   05 Jun 2027 12:25:44.091            35.909            RioGallegos          1122.156
       398   05 Jun 2027 12:56:51.735   05 Jun 2027 12:59:51.186           179.451                Sumatra          5607.844
       399   05 Jun 2027 13:10:40.092   05 Jun 2027 13:11:04.282            24.190                Irkutsk           755.938
       400   05 Jun 2027 13:13:29.722   05 Jun 2027 13:14:12.247            42.525                Irkutsk          1328.906
       401   05 Jun 2027 13:16:15.537   05 Jun 2027 13:16:39.962            24.425                Norilsk           763.281
       402   05 Jun 2027 13:20:51.531   05 Jun 2027 13:21:48.685            57.154                Norilsk          1786.062
       403   05 Jun 2027 14:00:53.543   05 Jun 2027 14:02:30.581            97.038            RioGallegos          3032.437
       404   05 Jun 2027 14:05:15.584   05 Jun 2027 14:05:21.193             5.609            RioGallegos           175.281
       405   05 Jun 2027 14:35:30.389   05 Jun 2027 14:39:35.336           244.947                Sumatra          7654.594
       406   05 Jun 2027 14:51:24.689   05 Jun 2027 14:56:35.647           310.958                Irkutsk          9717.438
       407   05 Jun 2027 16:21:53.426   05 Jun 2027 16:25:18.165           204.739                  Delhi          6398.094
       408   05 Jun 2027 16:29:59.931   05 Jun 2027 16:33:41.620           221.689                Novosib          6927.781
       409   05 Jun 2027 16:37:24.963   05 Jun 2027 16:37:30.007             5.044                Norilsk           157.625
       410   05 Jun 2027 18:02:13.298   05 Jun 2027 18:02:20.252             6.954                 Moscow           217.313
       411   05 Jun 2027 18:04:23.225   05 Jun 2027 18:04:43.481            20.256                 Moscow           633.000
       412   05 Jun 2027 18:07:36.218   05 Jun 2027 18:08:41.204            64.986              Murmansk2          2030.813
       413   05 Jun 2027 18:09:24.126   05 Jun 2027 18:09:39.087            14.961              Murmansk2           467.531
       414   05 Jun 2027 18:09:55.477   05 Jun 2027 18:10:03.555             8.078              Murmansk1           252.438
       415   05 Jun 2027 18:13:34.329   05 Jun 2027 18:13:48.121            13.792              Murmansk2           431.000
       416   05 Jun 2027 18:13:50.618   05 Jun 2027 18:14:31.878            41.260              Murmansk2          1289.375
       417   05 Jun 2027 18:20:29.459   05 Jun 2027 18:20:40.663            11.204                Anadyr1           350.125
       418   05 Jun 2027 18:22:50.207   05 Jun 2027 18:22:56.966             6.759                Anadyr2           211.219
       419   05 Jun 2027 19:14:48.328   05 Jun 2027 19:17:38.948           170.620               CapeTown          5331.875
       420   05 Jun 2027 19:44:25.404   05 Jun 2027 19:49:47.664           322.260              Murmansk2         10070.625
       421   05 Jun 2027 19:51:08.934   05 Jun 2027 19:51:58.534            49.600              Murmansk1          1550.000
       422   05 Jun 2027 20:53:00.597   05 Jun 2027 20:59:08.125           367.528               CapeTown         11485.250
       423   05 Jun 2027 21:33:45.147   05 Jun 2027 21:34:27.617            42.470               Magadan2          1327.188
       424   05 Jun 2027 21:35:59.969   05 Jun 2027 21:36:21.798            21.829               Magadan1           682.156
       425   05 Jun 2027 21:38:10.974   05 Jun 2027 21:38:45.682            34.708               Magadan2          1084.625
       426   05 Jun 2027 23:07:14.727   05 Jun 2027 23:12:17.736           303.009                Anadyr1          9469.031
       427   05 Jun 2027 23:12:24.475   05 Jun 2027 23:14:12.522           108.047                Norilsk          3376.469
       428   05 Jun 2027 23:14:40.450   05 Jun 2027 23:15:12.442            31.992               Magadan1           999.750
       429   05 Jun 2027 23:15:54.964   05 Jun 2027 23:16:29.978            35.014                Irkutsk          1094.188
       430   05 Jun 2027 23:17:22.441   05 Jun 2027 23:17:50.216            27.775                Irkutsk           867.969
       431   05 Jun 2027 23:20:18.537   05 Jun 2027 23:21:05.683            47.146               Magadan2          1473.313
       432   06 Jun 2027 00:01:26.574   06 Jun 2027 00:03:21.900           115.326            RioGallegos          3603.938
       433   06 Jun 2027 00:05:01.747   06 Jun 2027 00:06:07.298            65.551            RioGallegos          2048.469
       434   06 Jun 2027 00:42:45.797   06 Jun 2027 00:43:32.324            46.527                Anadyr2          1453.969
       435   06 Jun 2027 00:43:51.426   06 Jun 2027 00:45:02.858            71.432                Anadyr1          2232.250
       436   06 Jun 2027 00:45:03.475   06 Jun 2027 00:45:54.826            51.351                Norilsk          1604.719
       437   06 Jun 2027 00:46:07.684   06 Jun 2027 00:46:12.449             4.765               Magadan1           148.906
       438   06 Jun 2027 00:46:30.860   06 Jun 2027 00:47:06.311            35.451               Magadan2          1107.844
       439   06 Jun 2027 00:47:29.576   06 Jun 2027 00:48:37.775            68.199               Magadan2          2131.219
       440   06 Jun 2027 00:49:07.651   06 Jun 2027 00:50:19.305            71.654                Irkutsk          2239.188
       441   06 Jun 2027 00:50:23.060   06 Jun 2027 00:51:54.387            91.327                Novosib          2853.969
       442   06 Jun 2027 01:02:49.211   06 Jun 2027 01:03:27.615            38.404                Sumatra          1200.125
       443   06 Jun 2027 01:05:54.899   06 Jun 2027 01:06:01.570             6.671                Sumatra           208.469
       444   06 Jun 2027 01:06:21.208   06 Jun 2027 01:06:44.701            23.493                Sumatra           734.156
       445   06 Jun 2027 01:11:14.191   06 Jun 2027 01:12:22.372            68.181                Sumatra          2130.656
       446   06 Jun 2027 01:37:50.655   06 Jun 2027 01:37:52.864             2.209            RioGallegos            69.031
       447   06 Jun 2027 01:39:16.172   06 Jun 2027 01:39:59.244            43.072            RioGallegos          1346.000
       448   06 Jun 2027 01:46:30.745   06 Jun 2027 01:46:36.300             5.555            RioGallegos           173.594
       449   06 Jun 2027 01:46:47.822   06 Jun 2027 01:47:43.535            55.713            RioGallegos          1741.031
       450   06 Jun 2027 02:18:27.308   06 Jun 2027 02:19:22.318            55.010                Anadyr1          1719.063
       451   06 Jun 2027 02:21:03.222   06 Jun 2027 02:21:57.568            54.346                Norilsk          1698.312
       452   06 Jun 2027 02:23:57.389   06 Jun 2027 02:24:03.297             5.908                Norilsk           184.625
       453   06 Jun 2027 02:24:05.267   06 Jun 2027 02:24:09.114             3.847                Norilsk           120.219
       454   06 Jun 2027 02:24:57.299   06 Jun 2027 02:27:05.725           128.426                Novosib          4013.313
       455   06 Jun 2027 02:27:44.649   06 Jun 2027 02:27:52.966             8.317                Irkutsk           259.906
       456   06 Jun 2027 02:28:11.714   06 Jun 2027 02:28:39.780            28.066                Novosib           877.063
       457   06 Jun 2027 02:33:02.410   06 Jun 2027 02:33:25.475            23.065                  Delhi           720.781
       458   06 Jun 2027 02:36:37.063   06 Jun 2027 02:37:06.719            29.656                Irkutsk           926.750
       459   06 Jun 2027 02:41:57.334   06 Jun 2027 02:42:54.632            57.298                  Delhi          1790.563
       460   06 Jun 2027 02:45:51.956   06 Jun 2027 02:45:56.290             4.334                Sumatra           135.438
       461   06 Jun 2027 03:13:36.844   06 Jun 2027 03:14:41.912            65.068            RioGallegos          2033.375
       462   06 Jun 2027 03:15:31.422   06 Jun 2027 03:16:01.329            29.907            RioGallegos           934.594
       463   06 Jun 2027 03:17:11.248   06 Jun 2027 03:17:42.528            31.280            RioGallegos           977.500
       464   06 Jun 2027 03:21:15.253   06 Jun 2027 03:21:32.997            17.744            RioGallegos           554.500
       465   06 Jun 2027 03:22:22.885   06 Jun 2027 03:22:51.775            28.890            RioGallegos           902.812
       466   06 Jun 2027 04:04:48.293   06 Jun 2027 04:05:44.481            56.188              Murmansk1          1755.875
       467   06 Jun 2027 04:05:50.706   06 Jun 2027 04:06:49.671            58.965                Norilsk          1842.656
       468   06 Jun 2027 04:07:03.210   06 Jun 2027 04:07:38.076            34.866                 Moscow          1089.562
       469   06 Jun 2027 04:07:50.432   06 Jun 2027 04:09:44.917           114.485                Irkutsk          3577.656
       470   06 Jun 2027 04:09:56.390   06 Jun 2027 04:13:09.637           193.247                Novosib          6038.969
       471   06 Jun 2027 04:13:54.859   06 Jun 2027 04:18:57.558           302.699                  Delhi          9459.344
       472   06 Jun 2027 05:42:28.225   06 Jun 2027 05:42:37.586             9.361                Norilsk           292.531
       473   06 Jun 2027 05:42:52.721   06 Jun 2027 05:45:52.902           180.181                Novosib          5630.656
       474   06 Jun 2027 05:46:32.720   06 Jun 2027 05:47:58.804            86.084                 Moscow          2690.125
       475   06 Jun 2027 05:51:05.174   06 Jun 2027 05:51:10.597             5.423                 Moscow           169.469
       476   06 Jun 2027 06:02:30.582   06 Jun 2027 06:02:58.974            28.392               CapeTown           887.250
       477   06 Jun 2027 06:03:29.309   06 Jun 2027 06:04:53.404            84.095               CapeTown          2627.969
       478   06 Jun 2027 07:05:34.692   06 Jun 2027 07:06:56.361            81.669                Anadyr2          2552.156
       479   06 Jun 2027 07:07:09.245   06 Jun 2027 07:07:16.817             7.572               Magadan2           236.625
       480   06 Jun 2027 07:07:52.086   06 Jun 2027 07:08:01.579             9.493                Anadyr1           296.656
       481   06 Jun 2027 07:08:02.061   06 Jun 2027 07:09:15.478            73.417               Magadan1          2294.281
       482   06 Jun 2027 07:18:15.213   06 Jun 2027 07:18:46.215            31.002              Murmansk2           968.813
