uniorb/output/strategy_4/Drop/Drop_KinoSat_110705.txt

KinoSat_110705
-------------------------
    Access    *     Start Time (UTCG)     *     Stop Time (UTCG)  *   Duration (s)        *       Station  *  Data (Mbytes)
         1   01 Jun 2027 03:38:29.226   01 Jun 2027 03:38:49.485            20.259               Magadan2           633.094
         2   01 Jun 2027 03:38:52.668   01 Jun 2027 03:39:33.572            40.904                Anadyr2          1278.250
         3   01 Jun 2027 03:39:51.131   01 Jun 2027 03:43:45.719           234.588                Anadyr2          7330.875
         4   01 Jun 2027 03:43:45.719   01 Jun 2027 03:44:54.359            68.640                Anadyr1          2145.000
         5   01 Jun 2027 05:14:31.723   01 Jun 2027 05:15:27.486            55.763                Irkutsk          1742.594
         6   01 Jun 2027 05:15:31.004   01 Jun 2027 05:15:45.480            14.476               Magadan2           452.375
         7   01 Jun 2027 05:15:56.305   01 Jun 2027 05:16:18.481            22.176                Irkutsk           693.000
         8   01 Jun 2027 05:16:19.398   01 Jun 2027 05:19:19.434           180.036               Magadan1          5626.125
         9   01 Jun 2027 05:19:19.434   01 Jun 2027 05:21:00.502           101.068               Magadan2          3158.375
        10   01 Jun 2027 05:21:18.347   01 Jun 2027 05:21:50.521            32.174               Magadan2          1005.438
        11   01 Jun 2027 05:24:22.942   01 Jun 2027 05:24:34.025            11.083                Norilsk           346.344
        12   01 Jun 2027 05:56:57.853   01 Jun 2027 05:57:43.054            45.201            RioGallegos          1412.531
        13   01 Jun 2027 05:58:52.804   01 Jun 2027 06:00:48.963           116.159            RioGallegos          3629.969
        14   01 Jun 2027 06:34:31.524   01 Jun 2027 06:35:11.884            40.360                Sumatra          1261.250
        15   01 Jun 2027 06:50:18.089   01 Jun 2027 06:50:48.021            29.932                Irkutsk           935.375
        16   01 Jun 2027 06:51:23.605   01 Jun 2027 06:52:31.023            67.418                Irkutsk          2106.813
        17   01 Jun 2027 06:53:52.999   01 Jun 2027 06:54:27.682            34.683                Novosib          1083.844
        18   01 Jun 2027 06:54:37.938   01 Jun 2027 06:54:49.992            12.054                Norilsk           376.688
        19   01 Jun 2027 06:55:04.328   01 Jun 2027 06:57:49.203           164.875                Irkutsk          5152.344
        20   01 Jun 2027 06:57:57.071   01 Jun 2027 06:58:05.536             8.465                Novosib           264.531
        21   01 Jun 2027 06:58:09.929   01 Jun 2027 06:59:55.964           106.035              Murmansk2          3313.594
        22   01 Jun 2027 07:32:50.081   01 Jun 2027 07:33:47.119            57.038            RioGallegos          1782.437
        23   01 Jun 2027 08:07:21.470   01 Jun 2027 08:09:31.668           130.198                Sumatra          4068.688
        24   01 Jun 2027 08:16:58.552   01 Jun 2027 08:19:50.781           172.229                  Delhi          5382.156
        25   01 Jun 2027 08:29:42.082   01 Jun 2027 08:30:59.844            77.762                 Moscow          2430.062
        26   01 Jun 2027 08:31:05.391   01 Jun 2027 08:31:53.693            48.302                Novosib          1509.437
        27   01 Jun 2027 08:31:56.805   01 Jun 2027 08:32:16.988            20.183                 Moscow           630.719
        28   01 Jun 2027 08:32:23.761   01 Jun 2027 08:33:49.921            86.160                Novosib          2692.500
        29   01 Jun 2027 08:33:53.646   01 Jun 2027 08:34:10.926            17.280                Novosib           540.000
        30   01 Jun 2027 08:35:32.491   01 Jun 2027 08:35:35.021             2.530                 Moscow            79.062
        31   01 Jun 2027 09:51:49.255   01 Jun 2027 09:53:07.433            78.178                  Delhi          2443.062
        32   01 Jun 2027 09:54:31.397   01 Jun 2027 09:55:20.504            49.107                  Delhi          1534.594
        33   01 Jun 2027 09:55:55.764   01 Jun 2027 09:56:14.398            18.634                  Delhi           582.312
        34   01 Jun 2027 10:06:51.900   01 Jun 2027 10:08:34.116           102.216                Novosib          3194.250
        35   01 Jun 2027 10:08:44.496   01 Jun 2027 10:09:14.721            30.225                 Moscow           944.531
        36   01 Jun 2027 10:09:30.587   01 Jun 2027 10:09:48.472            17.885                Novosib           558.906
        37   01 Jun 2027 10:10:26.367   01 Jun 2027 10:11:05.526            39.159              Murmansk2          1223.719
        38   01 Jun 2027 11:41:54.544   01 Jun 2027 11:42:02.898             8.354                 Moscow           261.063
        39   01 Jun 2027 11:42:09.889   01 Jun 2027 11:43:25.345            75.456                 Moscow          2358.000
        40   01 Jun 2027 11:43:51.810   01 Jun 2027 11:47:12.296           200.486                 Moscow          6265.187
        41   01 Jun 2027 11:47:32.629   01 Jun 2027 11:47:59.267            26.638                Norilsk           832.438
        42   01 Jun 2027 11:48:07.690   01 Jun 2027 11:48:41.445            33.755              Murmansk1          1054.844
        43   01 Jun 2027 11:49:40.647   01 Jun 2027 11:50:09.888            29.241              Murmansk2           913.781
        44   01 Jun 2027 11:50:53.650   01 Jun 2027 11:50:58.056             4.406              Murmansk2           137.687
        45   01 Jun 2027 11:52:05.402   01 Jun 2027 11:52:19.382            13.980              Murmansk2           436.875
        46   01 Jun 2027 12:50:12.123   01 Jun 2027 12:53:23.030           190.907               CapeTown          5965.844
        47   01 Jun 2027 12:55:08.505   01 Jun 2027 12:56:36.257            87.752               CapeTown          2742.250
        48   01 Jun 2027 13:16:42.918   01 Jun 2027 13:17:41.514            58.596              Murmansk1          1831.125
        49   01 Jun 2027 13:17:41.514   01 Jun 2027 13:19:14.988            93.474              Murmansk2          2921.063
        50   01 Jun 2027 13:24:52.587   01 Jun 2027 13:25:20.854            28.267              Murmansk2           883.344
        51   01 Jun 2027 13:25:47.807   01 Jun 2027 13:26:37.373            49.566              Murmansk2          1548.937
        52   01 Jun 2027 13:30:22.183   01 Jun 2027 13:32:40.525           138.342                Anadyr1          4323.188
        53   01 Jun 2027 13:33:29.037   01 Jun 2027 13:36:06.017           156.980                Anadyr2          4905.625
        54   01 Jun 2027 13:38:16.333   01 Jun 2027 13:40:14.544           118.211                Anadyr2          3694.094
        55   01 Jun 2027 14:56:24.153   01 Jun 2027 14:56:27.885             3.732              Murmansk2           116.625
        56   01 Jun 2027 14:57:54.460   01 Jun 2027 14:59:35.172           100.712              Murmansk1          3147.250
        57   01 Jun 2027 15:05:59.320   01 Jun 2027 15:07:25.763            86.443                Anadyr1          2701.344
        58   01 Jun 2027 15:08:24.880   01 Jun 2027 15:08:29.774             4.894                Anadyr1           152.938
        59   01 Jun 2027 15:08:58.789   01 Jun 2027 15:09:36.656            37.867                Anadyr1          1183.344
        60   01 Jun 2027 15:09:41.233   01 Jun 2027 15:17:51.068           489.835               Magadan1         15307.344
        61   01 Jun 2027 16:44:14.073   01 Jun 2027 16:45:05.745            51.672               Magadan1          1614.750
        62   01 Jun 2027 16:45:05.745   01 Jun 2027 16:46:34.608            88.863               Magadan2          2776.969
        63   01 Jun 2027 16:48:28.177   01 Jun 2027 16:48:34.315             6.138               Magadan1           191.812
        64   01 Jun 2027 16:51:19.986   01 Jun 2027 16:51:40.323            20.337               Magadan2           635.531
        65   01 Jun 2027 16:51:46.040   01 Jun 2027 16:51:58.953            12.913               Magadan2           403.531
        66   01 Jun 2027 16:52:53.005   01 Jun 2027 16:53:48.263            55.258               Magadan2          1726.813
        67   01 Jun 2027 17:38:21.508   01 Jun 2027 17:43:23.617           302.109            RioGallegos          9440.906
        68   01 Jun 2027 18:21:06.009   01 Jun 2027 18:24:04.096           178.087                Norilsk          5565.219
        69   01 Jun 2027 18:24:08.938   01 Jun 2027 18:25:21.090            72.152                Norilsk          2254.750
        70   01 Jun 2027 18:25:21.945   01 Jun 2027 18:28:23.819           181.874                Irkutsk          5683.562
        71   01 Jun 2027 18:30:29.591   01 Jun 2027 18:31:38.160            68.569                Irkutsk          2142.781
        72   01 Jun 2027 18:39:58.747   01 Jun 2027 18:42:19.624           140.877                Sumatra          4402.406
        73   01 Jun 2027 18:46:07.192   01 Jun 2027 18:47:49.552           102.360                Sumatra          3198.750
        74   01 Jun 2027 20:03:04.959   01 Jun 2027 20:04:05.963            61.004                Novosib          1906.375
        75   01 Jun 2027 20:05:27.088   01 Jun 2027 20:06:26.726            59.638                Novosib          1863.688
        76   01 Jun 2027 20:10:36.874   01 Jun 2027 20:12:14.462            97.588                  Delhi          3049.625
        77   01 Jun 2027 20:13:41.034   01 Jun 2027 20:15:22.350           101.316                  Delhi          3166.125
        78   01 Jun 2027 21:34:41.856   01 Jun 2027 21:39:41.574           299.718              Murmansk2          9366.188
        79   01 Jun 2027 23:05:45.558   01 Jun 2027 23:06:10.096            24.538                Anadyr1           766.812
        80   01 Jun 2027 23:06:30.330   01 Jun 2027 23:07:01.464            31.134               Magadan2           972.937
        81   01 Jun 2027 23:07:01.464   01 Jun 2027 23:07:10.736             9.272               Magadan1           289.750
        82   01 Jun 2027 23:08:20.214   01 Jun 2027 23:08:33.071            12.857               Magadan1           401.781
        83   01 Jun 2027 23:08:46.149   01 Jun 2027 23:09:00.034            13.885               Magadan2           433.906
        84   01 Jun 2027 23:09:12.167   01 Jun 2027 23:09:12.948             0.781               Magadan2            24.406
        85   01 Jun 2027 23:09:23.787   01 Jun 2027 23:09:53.403            29.616               Magadan2           925.500
        86   01 Jun 2027 23:10:34.549   01 Jun 2027 23:14:19.010           224.461              Murmansk1          7014.406
        87   01 Jun 2027 23:14:49.857   01 Jun 2027 23:17:17.623           147.766                 Moscow          4617.687
        88   01 Jun 2027 23:17:57.906   01 Jun 2027 23:18:45.320            47.414                 Moscow          1481.687
        89   01 Jun 2027 23:39:53.581   01 Jun 2027 23:42:14.156           140.575               CapeTown          4392.969
        90   01 Jun 2027 23:45:44.073   01 Jun 2027 23:47:49.535           125.462               CapeTown          3920.688
        91   02 Jun 2027 00:45:44.908   02 Jun 2027 00:47:20.523            95.615              Murmansk1          2987.969
        92   02 Jun 2027 00:48:12.817   02 Jun 2027 00:49:39.617            86.800                Novosib          2712.500
        93   02 Jun 2027 00:52:52.086   02 Jun 2027 00:52:56.459             4.373                 Moscow           136.656
        94   02 Jun 2027 00:57:32.724   02 Jun 2027 00:57:47.290            14.566                 Moscow           455.187
        95   02 Jun 2027 00:58:12.608   02 Jun 2027 00:58:33.328            20.720                 Moscow           647.500
        96   02 Jun 2027 01:12:50.873   02 Jun 2027 01:13:26.379            35.506               CapeTown          1109.563
        97   02 Jun 2027 01:14:17.251   02 Jun 2027 01:15:15.090            57.839               CapeTown          1807.469
        98   02 Jun 2027 01:21:47.796   02 Jun 2027 01:21:54.249             6.453               CapeTown           201.656
        99   02 Jun 2027 02:09:36.487   02 Jun 2027 02:10:18.417            41.930                Anadyr2          1310.313
       100   02 Jun 2027 02:10:35.473   02 Jun 2027 02:11:05.954            30.481                Anadyr1           952.531
       101   02 Jun 2027 02:11:16.218   02 Jun 2027 02:13:42.477           146.259               Magadan2          4570.594
       102   02 Jun 2027 02:18:15.117   02 Jun 2027 02:18:30.887            15.770                Norilsk           492.812
       103   02 Jun 2027 02:20:09.505   02 Jun 2027 02:20:54.264            44.759                Norilsk          1398.719
       104   02 Jun 2027 02:21:41.844   02 Jun 2027 02:22:03.825            21.981              Murmansk2           686.906
       105   02 Jun 2027 02:22:46.062   02 Jun 2027 02:22:54.138             8.076              Murmansk2           252.375
       106   02 Jun 2027 02:23:42.348   02 Jun 2027 02:24:41.382            59.034              Murmansk1          1844.813
       107   02 Jun 2027 02:25:05.697   02 Jun 2027 02:25:32.256            26.559                 Moscow           829.969
       108   02 Jun 2027 02:29:25.932   02 Jun 2027 02:29:50.814            24.882                 Moscow           777.563
       109   02 Jun 2027 02:52:28.041   02 Jun 2027 02:54:59.578           151.537               CapeTown          4735.531
       110   02 Jun 2027 03:51:52.612   02 Jun 2027 03:52:14.606            21.994                Anadyr1           687.312
       111   02 Jun 2027 03:52:32.434   02 Jun 2027 03:53:34.866            62.432                Anadyr1          1951.000
       112   02 Jun 2027 03:53:49.974   02 Jun 2027 03:56:37.104           167.130                Anadyr2          5222.813
       113   02 Jun 2027 05:28:12.363   02 Jun 2027 05:31:47.507           215.144               Magadan2          6723.250
       114   02 Jun 2027 05:31:47.507   02 Jun 2027 05:32:15.567            28.060               Magadan1           876.875
       115   02 Jun 2027 05:32:59.553   02 Jun 2027 05:33:29.711            30.158                Irkutsk           942.438
       116   02 Jun 2027 07:04:30.717   02 Jun 2027 07:05:30.477            59.760                Irkutsk          1867.500
       117   02 Jun 2027 07:06:13.464   02 Jun 2027 07:06:28.366            14.902               Magadan1           465.687
       118   02 Jun 2027 07:06:29.218   02 Jun 2027 07:08:34.988           125.770                Irkutsk          3930.312
       119   02 Jun 2027 07:08:41.952   02 Jun 2027 07:09:38.788            56.836                Irkutsk          1776.125
       120   02 Jun 2027 07:10:30.198   02 Jun 2027 07:11:12.714            42.516                Novosib          1328.625
       121   02 Jun 2027 08:43:07.043   02 Jun 2027 08:43:25.033            17.990                Irkutsk           562.187
       122   02 Jun 2027 08:44:00.591   02 Jun 2027 08:44:51.202            50.611                Irkutsk          1581.594
       123   02 Jun 2027 08:46:32.178   02 Jun 2027 08:46:45.974            13.796              Murmansk2           431.125
       124   02 Jun 2027 08:46:49.848   02 Jun 2027 08:46:58.585             8.737              Murmansk2           273.031
       125   02 Jun 2027 08:47:06.047   02 Jun 2027 08:47:20.738            14.691              Murmansk2           459.094
       126   02 Jun 2027 10:04:08.367   02 Jun 2027 10:08:02.906           234.539                  Delhi          7329.344
       127   02 Jun 2027 10:09:23.997   02 Jun 2027 10:10:59.025            95.028                  Delhi          2969.625
       128   02 Jun 2027 10:12:06.012   02 Jun 2027 10:13:25.206            79.194                  Delhi          2474.813
       129   02 Jun 2027 10:18:32.043   02 Jun 2027 10:18:47.992            15.949                Novosib           498.406
       130   02 Jun 2027 10:20:06.776   02 Jun 2027 10:20:26.839            20.063                Norilsk           626.969
       131   02 Jun 2027 10:20:34.716   02 Jun 2027 10:21:06.403            31.687                Novosib           990.219
       132   02 Jun 2027 11:57:32.031   02 Jun 2027 11:57:49.214            17.183              Murmansk1           536.969
       133   02 Jun 2027 12:01:10.227   02 Jun 2027 12:01:17.956             7.729              Murmansk1           241.531
       134   02 Jun 2027 12:01:51.395   02 Jun 2027 12:02:03.399            12.004                Norilsk           375.125
       135   02 Jun 2027 12:03:29.120   02 Jun 2027 12:03:36.919             7.799              Murmansk2           243.719
       136   02 Jun 2027 12:03:54.166   02 Jun 2027 12:04:21.042            26.876              Murmansk2           839.875
       137   02 Jun 2027 13:01:56.550   02 Jun 2027 13:03:42.708           106.158               CapeTown          3317.438
       138   02 Jun 2027 13:05:36.932   02 Jun 2027 13:06:19.761            42.829               CapeTown          1338.406
       139   02 Jun 2027 13:11:14.526   02 Jun 2027 13:11:21.934             7.408               CapeTown           231.500
       140   02 Jun 2027 13:11:52.851   02 Jun 2027 13:13:10.980            78.129               CapeTown          2441.531
       141   02 Jun 2027 13:26:19.568   02 Jun 2027 13:26:29.478             9.910                 Moscow           309.688
       142   02 Jun 2027 13:29:03.435   02 Jun 2027 13:31:02.306           118.871              Murmansk1          3714.719
       143   02 Jun 2027 13:31:29.200   02 Jun 2027 13:31:55.342            26.142              Murmansk2           816.937
       144   02 Jun 2027 13:33:48.849   02 Jun 2027 13:34:07.051            18.202              Murmansk2           568.812
       145   02 Jun 2027 13:35:39.574   02 Jun 2027 13:36:07.245            27.671              Murmansk2           864.719
       146   02 Jun 2027 13:37:36.595   02 Jun 2027 13:37:43.174             6.579              Murmansk2           205.594
       147   02 Jun 2027 13:37:47.919   02 Jun 2027 13:38:31.859            43.940              Murmansk2          1373.125
       148   02 Jun 2027 13:42:18.631   02 Jun 2027 13:45:30.292           191.661                Anadyr2          5989.406
       149   02 Jun 2027 13:50:19.946   02 Jun 2027 13:50:47.507            27.561                Anadyr2           861.281
       150   02 Jun 2027 13:51:12.780   02 Jun 2027 13:51:51.096            38.316                Anadyr2          1197.375
       151   02 Jun 2027 15:09:08.681   02 Jun 2027 15:09:40.297            31.616              Murmansk2           988.000
       152   02 Jun 2027 15:11:52.697   02 Jun 2027 15:12:18.839            26.142              Murmansk1           816.938
       153   02 Jun 2027 15:13:53.451   02 Jun 2027 15:14:48.970            55.519              Murmansk2          1734.969
       154   02 Jun 2027 15:18:00.195   02 Jun 2027 15:19:24.835            84.640                Anadyr1          2645.000
       155   02 Jun 2027 15:20:58.287   02 Jun 2027 15:24:50.865           232.578               Magadan2          7268.063
       156   02 Jun 2027 15:26:21.421   02 Jun 2027 15:27:07.603            46.182               Magadan1          1443.187
       157   02 Jun 2027 15:28:32.681   02 Jun 2027 15:28:40.355             7.674               Magadan1           239.812
       158   02 Jun 2027 15:29:03.170   02 Jun 2027 15:30:30.672            87.502               Magadan1          2734.437
       159   02 Jun 2027 16:56:13.706   02 Jun 2027 16:57:33.887            80.181               Magadan1          2505.656
       160   02 Jun 2027 16:59:16.346   02 Jun 2027 16:59:50.352            34.006               Magadan1          1062.688
       161   02 Jun 2027 16:59:50.352   02 Jun 2027 17:00:10.987            20.635               Magadan2           644.844
       162   02 Jun 2027 17:02:31.074   02 Jun 2027 17:03:11.240            40.166               Magadan2          1255.188
       163   02 Jun 2027 17:04:45.516   02 Jun 2027 17:04:54.942             9.426               Magadan2           294.562
       164   02 Jun 2027 17:49:35.956   02 Jun 2027 17:52:43.698           187.742            RioGallegos          5866.937
       165   02 Jun 2027 17:55:59.107   02 Jun 2027 17:56:37.365            38.258            RioGallegos          1195.562
       166   02 Jun 2027 18:31:52.992   02 Jun 2027 18:36:04.018           251.026                Norilsk          7844.562
       167   02 Jun 2027 18:36:35.797   02 Jun 2027 18:37:26.086            50.289                Irkutsk          1571.531
       168   02 Jun 2027 18:39:15.269   02 Jun 2027 18:40:16.152            60.883                Irkutsk          1902.594
       169   02 Jun 2027 18:42:05.113   02 Jun 2027 18:43:57.519           112.406                Irkutsk          3512.688
       170   02 Jun 2027 18:51:09.384   02 Jun 2027 18:55:36.718           267.334                Sumatra          8354.187
       171   02 Jun 2027 18:57:46.255   02 Jun 2027 18:58:57.757            71.502                Sumatra          2234.437
       172   02 Jun 2027 20:15:09.425   02 Jun 2027 20:15:32.138            22.713                Novosib           709.781
       173   02 Jun 2027 20:21:21.138   02 Jun 2027 20:23:52.516           151.378                  Delhi          4730.562
       174   02 Jun 2027 20:25:38.002   02 Jun 2027 20:27:37.970           119.968                  Delhi          3749.000
       175   02 Jun 2027 21:46:28.489   02 Jun 2027 21:52:35.496           367.007              Murmansk1         11468.969
       176   02 Jun 2027 23:20:41.184   02 Jun 2027 23:21:13.079            31.895               Magadan1           996.719
       177   02 Jun 2027 23:21:50.644   02 Jun 2027 23:25:47.853           237.209              Murmansk1          7412.781
       178   02 Jun 2027 23:26:39.090   02 Jun 2027 23:28:24.073           104.983                 Moscow          3280.719
       179   02 Jun 2027 23:51:08.158   02 Jun 2027 23:53:52.607           164.449               CapeTown          5139.031
       180   02 Jun 2027 23:55:41.362   02 Jun 2027 23:56:08.840            27.478               CapeTown           858.687
       181   02 Jun 2027 23:57:12.427   02 Jun 2027 23:58:31.608            79.181               CapeTown          2474.406
       182   03 Jun 2027 00:57:46.590   03 Jun 2027 00:59:12.966            86.376              Murmansk1          2699.250
       183   03 Jun 2027 01:04:48.275   03 Jun 2027 01:04:57.677             9.402                 Moscow           293.812
       184   03 Jun 2027 01:09:51.505   03 Jun 2027 01:09:57.619             6.114                 Moscow           191.062
       185   03 Jun 2027 01:12:00.640   03 Jun 2027 01:13:21.515            80.875                 Moscow          2527.344
       186   03 Jun 2027 01:26:10.482   03 Jun 2027 01:26:52.833            42.351               CapeTown          1323.469
       187   03 Jun 2027 02:21:41.577   03 Jun 2027 02:22:40.211            58.634                Anadyr2          1832.313
       188   03 Jun 2027 02:22:40.488   03 Jun 2027 02:24:32.355           111.867               Magadan1          3495.844
       189   03 Jun 2027 02:24:59.290   03 Jun 2027 02:25:33.027            33.737               Magadan1          1054.281
       190   03 Jun 2027 02:33:42.693   03 Jun 2027 02:34:54.802            72.109              Murmansk2          2253.406
       191   03 Jun 2027 02:35:44.531   03 Jun 2027 02:36:08.273            23.742              Murmansk2           741.937
       192   03 Jun 2027 02:36:26.477   03 Jun 2027 02:36:43.157            16.680              Murmansk2           521.250
       193   03 Jun 2027 02:37:10.724   03 Jun 2027 02:38:16.808            66.084                 Moscow          2065.125
       194   03 Jun 2027 02:44:48.108   03 Jun 2027 02:45:54.571            66.463                 Moscow          2076.969
       195   03 Jun 2027 03:07:03.175   03 Jun 2027 03:07:54.690            51.515               CapeTown          1609.844
       196   03 Jun 2027 04:04:08.163   03 Jun 2027 04:07:48.141           219.978                Anadyr2          6874.312
       197   03 Jun 2027 04:47:24.818   03 Jun 2027 04:48:55.435            90.617            RioGallegos          2831.781
       198   03 Jun 2027 05:40:45.516   03 Jun 2027 05:41:25.704            40.188               Magadan2          1255.875
       199   03 Jun 2027 05:41:45.804   03 Jun 2027 05:45:15.551           209.747               Magadan1          6554.594
       200   03 Jun 2027 05:45:15.551   03 Jun 2027 05:45:42.237            26.686               Magadan2           833.937
       201   03 Jun 2027 07:18:54.989   03 Jun 2027 07:19:05.612            10.623              Murmansk1           331.969
       202   03 Jun 2027 07:25:35.241   03 Jun 2027 07:25:41.234             5.993                Norilsk           187.281
       203   03 Jun 2027 07:57:28.668   03 Jun 2027 07:57:48.461            19.793            RioGallegos           618.531
       204   03 Jun 2027 07:58:17.007   03 Jun 2027 07:58:41.086            24.079            RioGallegos           752.469
       205   03 Jun 2027 08:00:28.714   03 Jun 2027 08:00:46.154            17.440            RioGallegos           545.000
       206   03 Jun 2027 08:31:45.066   03 Jun 2027 08:32:55.751            70.685                Sumatra          2208.906
       207   03 Jun 2027 08:35:40.809   03 Jun 2027 08:36:46.190            65.381                Sumatra          2043.156
       208   03 Jun 2027 08:54:29.330   03 Jun 2027 08:54:32.327             2.997                Norilsk            93.656
       209   03 Jun 2027 08:54:40.844   03 Jun 2027 08:55:07.787            26.943                Irkutsk           841.969
       210   03 Jun 2027 08:55:26.762   03 Jun 2027 08:55:43.470            16.708                Norilsk           522.125
       211   03 Jun 2027 08:55:53.079   03 Jun 2027 08:56:13.116            20.037                Irkutsk           626.156
       212   03 Jun 2027 08:56:56.716   03 Jun 2027 08:56:58.238             1.522                Irkutsk            47.563
       213   03 Jun 2027 09:01:19.969   03 Jun 2027 09:01:21.125             1.156                Norilsk            36.125
       214   03 Jun 2027 10:16:35.036   03 Jun 2027 10:19:42.391           187.355                  Delhi          5854.844
       215   03 Jun 2027 10:21:09.219   03 Jun 2027 10:21:14.107             4.888                  Delhi           152.750
       216   03 Jun 2027 10:32:29.258   03 Jun 2027 10:32:34.603             5.345                Novosib           167.031
       217   03 Jun 2027 10:34:00.345   03 Jun 2027 10:34:12.587            12.242                Novosib           382.563
       218   03 Jun 2027 12:08:24.100   03 Jun 2027 12:08:51.558            27.458              Murmansk2           858.063
       219   03 Jun 2027 12:09:58.008   03 Jun 2027 12:12:51.019           173.011                Norilsk          5406.594
       220   03 Jun 2027 12:20:01.609   03 Jun 2027 12:23:10.062           188.453                Anadyr1          5889.156
       221   03 Jun 2027 12:23:32.053   03 Jun 2027 12:23:52.614            20.561                Anadyr2           642.531
       222   03 Jun 2027 13:24:40.610   03 Jun 2027 13:24:58.588            17.978               CapeTown           561.813
       223   03 Jun 2027 13:41:26.224   03 Jun 2027 13:42:25.929            59.705              Murmansk1          1865.781
       224   03 Jun 2027 13:43:22.339   03 Jun 2027 13:43:56.164            33.825              Murmansk2          1057.031
       225   03 Jun 2027 13:45:36.842   03 Jun 2027 13:46:06.730            29.888              Murmansk2           934.000
       226   03 Jun 2027 13:46:06.730   03 Jun 2027 13:46:07.071             0.341              Murmansk1            10.656
       227   03 Jun 2027 13:49:26.654   03 Jun 2027 13:49:39.155            12.501              Murmansk1           390.656
       228   03 Jun 2027 13:50:16.297   03 Jun 2027 13:50:42.586            26.289              Murmansk2           821.531
       229   03 Jun 2027 13:52:14.390   03 Jun 2027 13:52:18.026             3.636              Murmansk2           113.625
       230   03 Jun 2027 13:54:16.140   03 Jun 2027 13:56:08.773           112.633                Anadyr1          3519.781
       231   03 Jun 2027 13:57:31.437   03 Jun 2027 13:58:26.638            55.201                Anadyr2          1725.031
       232   03 Jun 2027 13:59:46.190   03 Jun 2027 13:59:50.174             3.984                Anadyr1           124.500
       233   03 Jun 2027 14:00:46.694   03 Jun 2027 14:01:02.355            15.661                Anadyr2           489.406
       234   03 Jun 2027 14:02:20.293   03 Jun 2027 14:02:48.236            27.943                Anadyr2           873.219
       235   03 Jun 2027 14:04:34.244   03 Jun 2027 14:05:19.394            45.150                Anadyr1          1410.937
       236   03 Jun 2027 15:21:58.880   03 Jun 2027 15:23:38.973           100.093              Murmansk2          3127.906
       237   03 Jun 2027 15:30:01.253   03 Jun 2027 15:32:19.809           138.556                Anadyr2          4329.875
       238   03 Jun 2027 15:32:49.416   03 Jun 2027 15:36:59.197           249.781               Magadan2          7805.656
       239   03 Jun 2027 15:42:18.088   03 Jun 2027 15:42:18.464             0.376               Magadan1            11.750
       240   03 Jun 2027 17:05:56.584   03 Jun 2027 17:07:16.595            80.011                Anadyr2          2500.344
       241   03 Jun 2027 17:08:13.867   03 Jun 2027 17:08:58.396            44.529               Magadan2          1391.531
       242   03 Jun 2027 17:10:26.259   03 Jun 2027 17:11:04.927            38.668               Magadan2          1208.375
       243   03 Jun 2027 17:11:26.121   03 Jun 2027 17:11:40.712            14.591               Magadan2           455.969
       244   03 Jun 2027 17:11:40.712   03 Jun 2027 17:11:52.902            12.190               Magadan1           380.938
       245   03 Jun 2027 17:15:24.868   03 Jun 2027 17:15:32.094             7.226               Magadan2           225.812
       246   03 Jun 2027 17:16:30.272   03 Jun 2027 17:16:57.073            26.801               Magadan2           837.531
       247   03 Jun 2027 17:17:49.508   03 Jun 2027 17:18:14.399            24.891               Magadan1           777.844
       248   03 Jun 2027 18:01:07.069   03 Jun 2027 18:05:39.684           272.615            RioGallegos          8519.219
       249   03 Jun 2027 18:06:37.146   03 Jun 2027 18:07:59.342            82.196            RioGallegos          2568.625
       250   03 Jun 2027 18:44:24.425   03 Jun 2027 18:48:04.437           220.012                Norilsk          6875.375
       251   03 Jun 2027 18:49:17.915   03 Jun 2027 18:49:51.127            33.212                Irkutsk          1037.875
       252   03 Jun 2027 18:51:16.587   03 Jun 2027 18:52:10.493            53.906                Irkutsk          1684.562
       253   03 Jun 2027 18:54:51.694   03 Jun 2027 18:55:57.019            65.325                Irkutsk          2041.406
       254   03 Jun 2027 19:02:34.058   03 Jun 2027 19:03:33.716            59.658                Sumatra          1864.313
       255   03 Jun 2027 19:04:01.031   03 Jun 2027 19:05:52.001           110.970                Sumatra          3467.813
       256   03 Jun 2027 19:08:49.627   03 Jun 2027 19:09:36.205            46.578                Sumatra          1455.563
       257   03 Jun 2027 20:25:08.829   03 Jun 2027 20:26:45.802            96.973                Novosib          3030.406
       258   03 Jun 2027 20:32:35.552   03 Jun 2027 20:35:36.719           181.167                  Delhi          5661.469
       259   03 Jun 2027 20:39:35.695   03 Jun 2027 20:40:23.601            47.906                  Delhi          1497.063
       260   03 Jun 2027 21:58:19.827   03 Jun 2027 22:02:20.951           241.124              Murmansk1          7535.125
       261   03 Jun 2027 22:03:27.307   03 Jun 2027 22:04:34.458            67.151              Murmansk2          2098.469
       262   03 Jun 2027 23:28:44.664   03 Jun 2027 23:29:09.363            24.699                Anadyr2           771.844
       263   03 Jun 2027 23:29:34.116   03 Jun 2027 23:30:19.689            45.573               Magadan1          1424.156
       264   03 Jun 2027 23:31:29.195   03 Jun 2027 23:31:36.519             7.324               Magadan2           228.875
       265   03 Jun 2027 23:32:09.196   03 Jun 2027 23:32:50.216            41.020               Magadan2          1281.875
       266   03 Jun 2027 23:33:51.322   03 Jun 2027 23:37:18.333           207.011              Murmansk2          6469.094
       267   03 Jun 2027 23:37:24.852   03 Jun 2027 23:39:06.827           101.975                 Moscow          3186.719
       268   03 Jun 2027 23:39:27.702   03 Jun 2027 23:40:43.853            76.151                 Moscow          2379.719
       269   04 Jun 2027 00:02:32.136   04 Jun 2027 00:04:59.549           147.413               CapeTown          4606.656
       270   04 Jun 2027 01:09:48.260   04 Jun 2027 01:11:22.044            93.784              Murmansk1          2930.750
       271   04 Jun 2027 01:12:41.845   04 Jun 2027 01:13:05.942            24.097                Novosib           753.031
       272   04 Jun 2027 01:13:16.271   04 Jun 2027 01:13:20.135             3.864                Novosib           120.750
       273   04 Jun 2027 01:13:20.441   04 Jun 2027 01:14:24.572            64.131                 Moscow          2004.094
       274   04 Jun 2027 01:17:15.930   04 Jun 2027 01:17:22.294             6.364                 Moscow           198.875
       275   04 Jun 2027 01:17:56.944   04 Jun 2027 01:18:25.398            28.454                 Moscow           889.187
       276   04 Jun 2027 01:37:03.141   04 Jun 2027 01:38:36.248            93.107               CapeTown          2909.594
       277   04 Jun 2027 01:46:31.152   04 Jun 2027 01:46:48.641            17.489               CapeTown           546.531
       278   04 Jun 2027 02:33:48.756   04 Jun 2027 02:33:51.105             2.349                Anadyr1            73.406
       279   04 Jun 2027 02:33:58.136   04 Jun 2027 02:34:57.641            59.505                Anadyr2          1859.531
       280   04 Jun 2027 02:35:14.963   04 Jun 2027 02:37:05.393           110.430               Magadan2          3450.938
       281   04 Jun 2027 02:41:56.571   04 Jun 2027 02:42:02.266             5.695               Magadan2           177.969
       282   04 Jun 2027 02:42:02.266   04 Jun 2027 02:42:13.203            10.937               Magadan1           341.781
       283   04 Jun 2027 02:42:16.911   04 Jun 2027 02:42:28.462            11.551                Norilsk           360.969
       284   04 Jun 2027 02:44:48.232   04 Jun 2027 02:45:07.692            19.460               Magadan2           608.125
       285   04 Jun 2027 02:45:43.306   04 Jun 2027 02:46:55.830            72.524              Murmansk1          2266.375
       286   04 Jun 2027 02:48:01.789   04 Jun 2027 02:48:31.778            29.989              Murmansk2           937.156
       287   04 Jun 2027 02:49:32.740   04 Jun 2027 02:50:19.961            47.221                 Moscow          1475.656
       288   04 Jun 2027 02:53:17.811   04 Jun 2027 02:53:51.581            33.770                 Moscow          1055.313
       289   04 Jun 2027 04:16:37.435   04 Jun 2027 04:18:19.804           102.369                Anadyr1          3199.031
       290   04 Jun 2027 04:18:27.158   04 Jun 2027 04:19:20.000            52.842               Magadan2          1651.312
       291   04 Jun 2027 04:19:49.102   04 Jun 2027 04:21:22.605            93.503                Anadyr1          2921.969
       292   04 Jun 2027 04:58:53.891   04 Jun 2027 05:01:54.365           180.474            RioGallegos          5639.812
       293   04 Jun 2027 05:48:39.660   04 Jun 2027 05:49:45.550            65.890                Irkutsk          2059.062
       294   04 Jun 2027 05:53:14.194   04 Jun 2027 05:53:41.228            27.034                Irkutsk           844.813
       295   04 Jun 2027 05:53:46.837   04 Jun 2027 05:54:01.285            14.448                Irkutsk           451.500
       296   04 Jun 2027 05:54:15.826   04 Jun 2027 05:56:21.586           125.760                Irkutsk          3930.000
       297   04 Jun 2027 05:57:04.388   04 Jun 2027 05:57:13.275             8.887                Irkutsk           277.719
       298   04 Jun 2027 05:57:15.588   04 Jun 2027 05:57:27.414            11.826               Magadan2           369.563
       299   04 Jun 2027 07:30:42.429   04 Jun 2027 07:31:07.651            25.222              Murmansk2           788.187
       300   04 Jun 2027 07:32:57.038   04 Jun 2027 07:33:04.032             6.994                Norilsk           218.562
       301   04 Jun 2027 07:34:48.306   04 Jun 2027 07:35:03.120            14.814              Murmansk2           462.938
       302   04 Jun 2027 08:09:55.185   04 Jun 2027 08:10:47.405            52.220            RioGallegos          1631.875
       303   04 Jun 2027 08:44:07.462   04 Jun 2027 08:44:47.469            40.007                Sumatra          1250.219
       304   04 Jun 2027 08:45:45.811   04 Jun 2027 08:47:16.672            90.861                Sumatra          2839.406
       305   04 Jun 2027 09:05:51.712   04 Jun 2027 09:06:14.165            22.453                Novosib           701.656
       306   04 Jun 2027 09:06:58.989   04 Jun 2027 09:07:06.281             7.292              Murmansk1           227.875
       307   04 Jun 2027 09:07:08.910   04 Jun 2027 09:07:17.788             8.878              Murmansk1           277.438
       308   04 Jun 2027 09:08:37.748   04 Jun 2027 09:08:57.346            19.598                Novosib           612.437
       309   04 Jun 2027 09:13:15.936   04 Jun 2027 09:13:32.132            16.196                Norilsk           506.125
       310   04 Jun 2027 10:29:11.179   04 Jun 2027 10:31:18.787           127.608                  Delhi          3987.750
       311   04 Jun 2027 10:31:28.367   04 Jun 2027 10:32:07.084            38.717                  Delhi          1209.906
       312   04 Jun 2027 10:46:34.853   04 Jun 2027 10:46:35.933             1.080                Norilsk            33.750
       313   04 Jun 2027 12:20:38.632   04 Jun 2027 12:20:56.633            18.001              Murmansk1           562.531
       314   04 Jun 2027 12:21:12.536   04 Jun 2027 12:21:34.473            21.937              Murmansk1           685.531
       315   04 Jun 2027 12:21:49.998   04 Jun 2027 12:22:24.533            34.535              Murmansk2          1079.219
       316   04 Jun 2027 12:23:07.075   04 Jun 2027 12:23:50.659            43.584              Murmansk2          1362.000
       317   04 Jun 2027 12:24:00.373   04 Jun 2027 12:25:06.928            66.555                Norilsk          2079.844
       318   04 Jun 2027 12:31:29.681   04 Jun 2027 12:35:01.176           211.495                Anadyr2          6609.219
       319   04 Jun 2027 12:35:53.954   04 Jun 2027 12:37:04.463            70.509                Anadyr1          2203.406
       320   04 Jun 2027 13:27:19.212   04 Jun 2027 13:27:55.730            36.518               CapeTown          1141.187
       321   04 Jun 2027 13:53:51.394   04 Jun 2027 13:54:33.081            41.687              Murmansk2          1302.719
       322   04 Jun 2027 13:54:43.549   04 Jun 2027 13:55:12.941            29.392              Murmansk1           918.500
       323   04 Jun 2027 13:55:57.228   04 Jun 2027 13:57:16.967            79.739              Murmansk2          2491.844
       324   04 Jun 2027 14:02:23.023   04 Jun 2027 14:03:01.691            38.668              Murmansk2          1208.375
       325   04 Jun 2027 14:06:14.485   04 Jun 2027 14:09:32.435           197.950                Anadyr2          6185.938
       326   04 Jun 2027 15:34:57.622   04 Jun 2027 15:37:34.290           156.668              Murmansk1          4895.875
       327   04 Jun 2027 15:42:02.441   04 Jun 2027 15:44:14.682           132.241                Anadyr2          4132.531
       328   04 Jun 2027 15:44:42.741   04 Jun 2027 15:48:44.824           242.083               Magadan1          7565.094
       329   04 Jun 2027 15:53:35.530   04 Jun 2027 15:54:49.474            73.944               Magadan1          2310.750
       330   04 Jun 2027 17:17:57.493   04 Jun 2027 17:18:15.523            18.030                Anadyr1           563.438
       331   04 Jun 2027 17:20:12.988   04 Jun 2027 17:20:41.956            28.968                Anadyr2           905.250
       332   04 Jun 2027 17:21:52.381   04 Jun 2027 17:23:19.496            87.115               Magadan2          2722.344
       333   04 Jun 2027 17:28:42.088   04 Jun 2027 17:28:48.099             6.011               Magadan1           187.844
       334   04 Jun 2027 17:28:58.241   04 Jun 2027 17:29:27.840            29.599               Magadan2           924.969
       335   04 Jun 2027 18:12:46.660   04 Jun 2027 18:17:21.965           275.305            RioGallegos          8603.281
       336   04 Jun 2027 18:18:12.854   04 Jun 2027 18:19:09.183            56.329            RioGallegos          1760.281
       337   04 Jun 2027 18:55:50.490   04 Jun 2027 18:56:45.367            54.877                Norilsk          1714.906
       338   04 Jun 2027 18:57:39.032   04 Jun 2027 18:59:18.597            99.565                Norilsk          3111.406
       339   04 Jun 2027 19:00:11.264   04 Jun 2027 19:01:20.332            69.068                Irkutsk          2158.375
       340   04 Jun 2027 19:01:59.773   04 Jun 2027 19:03:18.712            78.939                Irkutsk          2466.844
       341   04 Jun 2027 19:10:30.081   04 Jun 2027 19:11:17.821            47.740                Irkutsk          1491.875
       342   04 Jun 2027 19:14:08.528   04 Jun 2027 19:16:02.270           113.742                Sumatra          3554.437
       343   04 Jun 2027 19:17:47.224   04 Jun 2027 19:18:38.241            51.017                Sumatra          1594.281
       344   04 Jun 2027 19:20:11.986   04 Jun 2027 19:20:43.784            31.798                Sumatra           993.688
       345   04 Jun 2027 19:24:55.905   04 Jun 2027 19:25:53.237            57.332                Sumatra          1791.625
       346   04 Jun 2027 20:35:52.957   04 Jun 2027 20:36:49.100            56.143                Novosib          1754.469
       347   04 Jun 2027 20:38:18.570   04 Jun 2027 20:39:13.574            55.004                Novosib          1718.875
       348   04 Jun 2027 20:44:03.956   04 Jun 2027 20:45:13.605            69.649                  Delhi          2176.531
       349   04 Jun 2027 20:46:48.299   04 Jun 2027 20:47:25.781            37.482                  Delhi          1171.313
       350   04 Jun 2027 20:50:05.766   04 Jun 2027 20:50:58.053            52.287                  Delhi          1633.969
       351   04 Jun 2027 22:10:14.009   04 Jun 2027 22:15:57.468           343.459              Murmansk1         10733.094
       352   04 Jun 2027 22:16:06.984   04 Jun 2027 22:19:48.373           221.389                 Moscow          6918.406
       353   04 Jun 2027 23:45:52.299   04 Jun 2027 23:47:01.869            69.570              Murmansk2          2174.063
       354   04 Jun 2027 23:47:12.048   04 Jun 2027 23:47:17.300             5.252              Murmansk2           164.125
       355   04 Jun 2027 23:49:20.044   04 Jun 2027 23:50:06.671            46.627                 Moscow          1457.094
       356   04 Jun 2027 23:51:29.979   04 Jun 2027 23:51:32.505             2.526                 Moscow            78.938
       357   04 Jun 2027 23:52:46.464   04 Jun 2027 23:53:37.724            51.260                 Moscow          1601.875
       358   04 Jun 2027 23:53:42.870   04 Jun 2027 23:55:49.242           126.372                 Moscow          3949.125
       359   05 Jun 2027 00:14:03.552   05 Jun 2027 00:15:18.603            75.051               CapeTown          2345.344
       360   05 Jun 2027 00:15:39.222   05 Jun 2027 00:17:20.527           101.305               CapeTown          3165.781
       361   05 Jun 2027 01:21:49.902   05 Jun 2027 01:24:11.080           141.178              Murmansk2          4411.812
       362   05 Jun 2027 01:28:26.594   05 Jun 2027 01:29:01.630            35.036                 Moscow          1094.875
       363   05 Jun 2027 01:32:21.412   05 Jun 2027 01:32:48.585            27.173              Murmansk2           849.156
       364   05 Jun 2027 01:49:17.480   05 Jun 2027 01:50:24.911            67.431               CapeTown          2107.219
       365   05 Jun 2027 01:58:45.392   05 Jun 2027 01:58:59.730            14.338               CapeTown           448.062
       366   05 Jun 2027 02:45:58.105   05 Jun 2027 02:47:56.649           118.544                Anadyr1          3704.500
       367   05 Jun 2027 02:48:37.474   05 Jun 2027 02:48:56.005            18.531               Magadan2           579.094
       368   05 Jun 2027 02:49:14.168   05 Jun 2027 02:49:34.283            20.115               Magadan1           628.594
       369   05 Jun 2027 02:49:43.616   05 Jun 2027 02:49:46.583             2.967               Magadan1            92.719
       370   05 Jun 2027 02:51:10.616   05 Jun 2027 02:51:12.052             1.436               Magadan2            44.875
       371   05 Jun 2027 02:51:26.572   05 Jun 2027 02:52:16.947            50.375               Magadan2          1574.219
       372   05 Jun 2027 02:54:10.147   05 Jun 2027 02:54:26.556            16.409                Norilsk           512.781
       373   05 Jun 2027 02:57:43.651   05 Jun 2027 02:59:05.557            81.906              Murmansk1          2559.562
       374   05 Jun 2027 04:28:44.759   05 Jun 2027 04:29:29.215            44.456                Irkutsk          1389.250
       375   05 Jun 2027 04:30:05.858   05 Jun 2027 04:30:29.504            23.646                Norilsk           738.937
       376   05 Jun 2027 04:30:50.316   05 Jun 2027 04:31:24.578            34.262               Magadan1          1070.687
       377   05 Jun 2027 04:31:24.578   05 Jun 2027 04:33:15.572           110.994               Magadan2          3468.562
       378   05 Jun 2027 05:10:26.757   05 Jun 2027 05:13:37.844           191.087            RioGallegos          5971.469
       379   05 Jun 2027 06:02:09.630   05 Jun 2027 06:03:44.239            94.609                Novosib          2956.531
       380   05 Jun 2027 06:07:22.836   05 Jun 2027 06:08:29.531            66.695               Magadan2          2084.219
       381   05 Jun 2027 06:08:29.531   05 Jun 2027 06:09:19.466            49.935               Magadan1          1560.469
       382   05 Jun 2027 06:14:02.614   05 Jun 2027 06:14:10.230             7.616                Norilsk           238.000
       383   05 Jun 2027 07:42:29.647   05 Jun 2027 07:42:49.288            19.641              Murmansk1           613.781
       384   05 Jun 2027 07:43:50.858   05 Jun 2027 07:44:08.919            18.061              Murmansk2           564.406
       385   05 Jun 2027 07:46:47.150   05 Jun 2027 07:47:04.537            17.387              Murmansk1           543.344
       386   05 Jun 2027 08:22:27.506   05 Jun 2027 08:23:07.679            40.173            RioGallegos          1255.406
       387   05 Jun 2027 08:23:31.013   05 Jun 2027 08:23:36.684             5.671            RioGallegos           177.219
       388   05 Jun 2027 08:25:54.855   05 Jun 2027 08:26:07.596            12.741            RioGallegos           398.156
       389   05 Jun 2027 08:56:39.413   05 Jun 2027 08:56:44.902             5.489                Sumatra           171.531
       390   05 Jun 2027 08:57:17.428   05 Jun 2027 08:57:39.222            21.794                Sumatra           681.063
       391   05 Jun 2027 08:59:54.510   05 Jun 2027 09:00:34.282            39.772                Sumatra          1242.875
       392   05 Jun 2027 09:05:21.105   05 Jun 2027 09:06:21.355            60.250                Sumatra          1882.813
       393   05 Jun 2027 09:17:47.079   05 Jun 2027 09:17:47.352             0.273                Novosib             8.531
       394   05 Jun 2027 09:19:11.766   05 Jun 2027 09:19:28.028            16.262                Novosib           508.188
       395   05 Jun 2027 09:19:58.126   05 Jun 2027 09:19:58.971             0.845                Novosib            26.406
       396   05 Jun 2027 09:21:14.201   05 Jun 2027 09:21:34.596            20.395                Norilsk           637.344
       397   05 Jun 2027 10:42:00.534   05 Jun 2027 10:44:04.171           123.637                  Delhi          3863.656
       398   05 Jun 2027 10:45:39.260   05 Jun 2027 10:45:57.453            18.193                  Delhi           568.531
       399   05 Jun 2027 10:59:55.282   05 Jun 2027 11:00:08.538            13.256                Norilsk           414.250
       400   05 Jun 2027 12:27:39.952   05 Jun 2027 12:27:58.252            18.300                 Moscow           571.875
       401   05 Jun 2027 12:28:09.040   05 Jun 2027 12:28:47.597            38.557              Murmansk2          1204.906
       402   05 Jun 2027 12:29:16.820   05 Jun 2027 12:30:36.880            80.060              Murmansk1          2501.875
       403   05 Jun 2027 12:30:36.880   05 Jun 2027 12:32:55.177           138.297              Murmansk2          4321.781
       404   05 Jun 2027 12:33:50.788   05 Jun 2027 12:34:23.516            32.728              Murmansk1          1022.750
       405   05 Jun 2027 12:38:47.581   05 Jun 2027 12:38:51.416             3.835              Murmansk1           119.844
       406   05 Jun 2027 12:43:10.593   05 Jun 2027 12:46:54.702           224.109                Anadyr1          7003.406
       407   05 Jun 2027 12:48:13.074   05 Jun 2027 12:50:00.948           107.874                Anadyr2          3371.062
       408   05 Jun 2027 14:06:19.081   05 Jun 2027 14:06:41.095            22.014              Murmansk2           687.937
       409   05 Jun 2027 14:07:58.503   05 Jun 2027 14:08:31.573            33.070              Murmansk1          1033.438
       410   05 Jun 2027 14:13:42.611   05 Jun 2027 14:13:50.084             7.473              Murmansk2           233.531
       411   05 Jun 2027 14:15:31.958   05 Jun 2027 14:15:51.221            19.263              Murmansk2           601.969
       412   05 Jun 2027 14:18:13.499   05 Jun 2027 14:21:33.235           199.736                Anadyr1          6241.750
       413   05 Jun 2027 14:21:46.199   05 Jun 2027 14:22:27.047            40.848                Anadyr1          1276.500
       414   05 Jun 2027 15:48:15.053   05 Jun 2027 15:49:43.128            88.075              Murmansk1          2752.344
       415   05 Jun 2027 15:54:03.729   05 Jun 2027 15:56:07.917           124.188                Anadyr2          3880.875
       416   05 Jun 2027 15:56:37.747   05 Jun 2027 16:00:43.190           245.443               Magadan2          7670.094
       417   05 Jun 2027 16:03:16.990   05 Jun 2027 16:04:38.677            81.687               Magadan2          2552.719
       418   05 Jun 2027 17:29:58.191   05 Jun 2027 17:30:06.628             8.437                Anadyr1           263.656
       419   05 Jun 2027 17:30:10.104   05 Jun 2027 17:30:40.870            30.766                Anadyr2           961.438
       420   05 Jun 2027 17:31:14.328   05 Jun 2027 17:31:19.389             5.061                Anadyr2           158.156
       421   05 Jun 2027 17:32:15.483   05 Jun 2027 17:33:41.259            85.776               Magadan2          2680.500
       422   05 Jun 2027 17:34:08.985   05 Jun 2027 17:34:51.570            42.585               Magadan1          1330.781
       423   05 Jun 2027 17:36:03.057   05 Jun 2027 17:36:27.464            24.407                Norilsk           762.719
       424   05 Jun 2027 18:24:31.592   05 Jun 2027 18:27:24.023           172.431            RioGallegos          5388.469
       425   05 Jun 2027 18:28:18.432   05 Jun 2027 18:30:38.410           139.978            RioGallegos          4374.313
       426   05 Jun 2027 19:07:50.360   05 Jun 2027 19:09:46.664           116.304                Norilsk          3634.500
       427   05 Jun 2027 19:10:05.809   05 Jun 2027 19:11:20.071            74.262                Norilsk          2320.687
       428   05 Jun 2027 19:12:03.338   05 Jun 2027 19:13:48.544           105.206                Irkutsk          3287.687
       429   05 Jun 2027 19:14:04.999   05 Jun 2027 19:14:46.541            41.542                Irkutsk          1298.188
       430   05 Jun 2027 19:15:06.761   05 Jun 2027 19:18:39.761           213.000                Novosib          6656.250
       431   05 Jun 2027 19:29:48.035   05 Jun 2027 19:30:38.060            50.025                Sumatra          1563.281
       432   05 Jun 2027 20:51:14.712   05 Jun 2027 20:51:33.440            18.728                Irkutsk           585.250
       433   05 Jun 2027 20:52:05.218   05 Jun 2027 20:53:01.413            56.195                Irkutsk          1756.094
       434   05 Jun 2027 20:55:02.098   05 Jun 2027 20:56:03.908            61.810                Novosib          1931.563
       435   05 Jun 2027 20:57:01.251   05 Jun 2027 21:00:46.644           225.393                  Delhi          7043.531
       436   05 Jun 2027 21:00:56.138   05 Jun 2027 21:02:09.230            73.092                  Delhi          2284.125
       437   05 Jun 2027 22:22:10.098   05 Jun 2027 22:26:18.798           248.700              Murmansk1          7771.875
       438   05 Jun 2027 22:27:13.098   05 Jun 2027 22:33:16.538           363.440                 Moscow         11357.500
       439   06 Jun 2027 00:01:16.607   06 Jun 2027 00:02:01.038            44.431                 Moscow          1388.469
       440   06 Jun 2027 00:03:32.102   06 Jun 2027 00:04:49.571            77.469                 Moscow          2420.906
       441   06 Jun 2027 00:25:41.299   06 Jun 2027 00:27:16.256            94.957               CapeTown          2967.406
       442   06 Jun 2027 00:27:53.764   06 Jun 2027 00:29:20.126            86.362               CapeTown          2698.812
       443   06 Jun 2027 01:33:24.562   06 Jun 2027 01:33:27.683             3.121               Magadan2            97.531
       444   06 Jun 2027 01:33:51.475   06 Jun 2027 01:36:07.233           135.758              Murmansk1          4242.437
       445   06 Jun 2027 01:37:05.251   06 Jun 2027 01:37:45.709            40.458                 Moscow          1264.313
       446   06 Jun 2027 01:42:05.871   06 Jun 2027 01:42:19.580            13.709                 Moscow           428.406
       447   06 Jun 2027 01:42:37.018   06 Jun 2027 01:43:13.397            36.379              Murmansk1          1136.844
       448   06 Jun 2027 02:03:43.761   06 Jun 2027 02:05:15.463            91.702               CapeTown          2865.688
       449   06 Jun 2027 02:57:47.928   06 Jun 2027 03:00:04.485           136.557               Magadan1          4267.406
       450   06 Jun 2027 03:00:04.485   06 Jun 2027 03:00:26.676            22.191               Magadan2           693.469
       451   06 Jun 2027 03:03:26.877   06 Jun 2027 03:03:43.132            16.255                Anadyr1           507.969
       452   06 Jun 2027 03:03:47.218   06 Jun 2027 03:06:01.911           134.693               Magadan2          4209.156
       453   06 Jun 2027 03:06:08.604   06 Jun 2027 03:08:42.539           153.935               Magadan2          4810.469
       454   06 Jun 2027 04:42:31.343   06 Jun 2027 04:43:34.317            62.974                Norilsk          1967.937
       455   06 Jun 2027 04:43:45.360   06 Jun 2027 04:44:55.332            69.972                Irkutsk          2186.625
       456   06 Jun 2027 06:16:37.268   06 Jun 2027 06:17:03.212            25.944               Magadan1           810.750
       457   06 Jun 2027 06:17:32.938   06 Jun 2027 06:17:35.009             2.071               Magadan2            64.719
       458   06 Jun 2027 06:17:41.837   06 Jun 2027 06:18:01.218            19.381               Magadan2           605.656
       459   06 Jun 2027 06:18:01.218   06 Jun 2027 06:19:25.082            83.864               Magadan1          2620.750
       460   06 Jun 2027 06:19:34.715   06 Jun 2027 06:19:41.081             6.366               Magadan1           198.938
       461   06 Jun 2027 06:20:12.953   06 Jun 2027 06:20:38.282            25.329              Murmansk2           791.531
       462   06 Jun 2027 06:23:34.114   06 Jun 2027 06:23:45.678            11.564              Murmansk2           361.375
       463   06 Jun 2027 07:52:22.602   06 Jun 2027 07:52:34.224            11.622                Irkutsk           363.187
       464   06 Jun 2027 07:53:19.091   06 Jun 2027 07:53:35.301            16.210                Norilsk           506.562
       465   06 Jun 2027 07:54:23.691   06 Jun 2027 07:55:11.316            47.625              Murmansk1          1488.281
       466   06 Jun 2027 07:55:33.230   06 Jun 2027 07:56:00.157            26.927                Irkutsk           841.469
       467   06 Jun 2027 07:56:02.944   06 Jun 2027 07:56:37.446            34.502                Irkutsk          1078.187
       468   06 Jun 2027 07:57:29.529   06 Jun 2027 07:57:39.437             9.908                Novosib           309.625
       469   06 Jun 2027 08:04:19.543   06 Jun 2027 08:04:42.952            23.409              Murmansk2           731.531
       470   06 Jun 2027 08:35:06.877   06 Jun 2027 08:35:34.258            27.381            RioGallegos           855.656
       471   06 Jun 2027 08:36:42.438   06 Jun 2027 08:37:01.241            18.803            RioGallegos           587.594
       472   06 Jun 2027 08:38:07.960   06 Jun 2027 08:38:11.973             4.013            RioGallegos           125.406
       473   06 Jun 2027 09:09:25.425   06 Jun 2027 09:10:23.202            57.777                Sumatra          1805.531
       474   06 Jun 2027 09:13:02.637   06 Jun 2027 09:13:30.640            28.003                Sumatra           875.094
       475   06 Jun 2027 09:29:41.413   06 Jun 2027 09:30:27.920            46.507                Novosib          1453.344
       476   06 Jun 2027 09:31:11.786   06 Jun 2027 09:32:08.897            57.111                Novosib          1784.719
       477   06 Jun 2027 09:32:18.585   06 Jun 2027 09:32:43.958            25.373                Novosib           792.906
       478   06 Jun 2027 09:32:48.898   06 Jun 2027 09:33:19.246            30.348                Novosib           948.375
       479   06 Jun 2027 09:33:24.593   06 Jun 2027 09:33:25.281             0.688                Novosib            21.500
       480   06 Jun 2027 10:55:12.571   06 Jun 2027 10:57:48.097           155.526                  Delhi          4860.187
       481   06 Jun 2027 11:12:41.477   06 Jun 2027 11:12:41.809             0.332                Norilsk            10.375
       482   06 Jun 2027 12:36:45.045   06 Jun 2027 12:38:21.226            96.181                 Moscow          3005.656
