uniorb/output/strategy_4/Drop/Drop_KinoSat_110406.txt

KinoSat_110406
-------------------------
    Access    *     Start Time (UTCG)     *     Stop Time (UTCG)  *   Duration (s)        *       Station  *  Data (Mbytes)
         1   01 Jun 2027 03:42:08.333   01 Jun 2027 03:42:16.178             7.845               Magadan1           980.625
         2   01 Jun 2027 03:42:23.230   01 Jun 2027 03:42:48.276            25.046               Magadan1          3130.750
         3   01 Jun 2027 03:43:17.507   01 Jun 2027 03:44:04.111            46.604               Magadan2          5825.500
         4   01 Jun 2027 03:44:04.111   01 Jun 2027 03:44:27.866            23.755               Magadan1          2969.375
         5   01 Jun 2027 03:44:27.866   01 Jun 2027 03:44:46.766            18.900               Magadan2          2362.500
         6   01 Jun 2027 03:44:54.359   01 Jun 2027 03:46:06.013            71.654                Anadyr1          8956.750
         7   01 Jun 2027 03:46:37.435   01 Jun 2027 03:47:39.106            61.671                Anadyr1          7708.875
         8   01 Jun 2027 03:47:58.178   01 Jun 2027 03:48:22.821            24.643               Magadan1          3080.375
         9   01 Jun 2027 03:48:57.009   01 Jun 2027 03:49:27.846            30.837               Magadan1          3854.625
        10   01 Jun 2027 03:55:12.502   01 Jun 2027 03:55:48.646            36.144              Murmansk2          4518.000
        11   01 Jun 2027 04:30:25.803   01 Jun 2027 04:30:32.994             7.191            RioGallegos           898.875
        12   01 Jun 2027 04:31:34.232   01 Jun 2027 04:31:56.948            22.716            RioGallegos          2839.500
        13   01 Jun 2027 04:32:20.424   01 Jun 2027 04:32:25.036             4.612            RioGallegos           576.500
        14   01 Jun 2027 04:33:42.068   01 Jun 2027 04:33:56.379            14.311            RioGallegos          1788.875
        15   01 Jun 2027 05:01:10.218   01 Jun 2027 05:04:03.279           173.061                Sumatra         21632.625
        16   01 Jun 2027 05:20:47.914   01 Jun 2027 05:20:55.988             8.074                Irkutsk          1009.250
        17   01 Jun 2027 05:21:10.792   01 Jun 2027 05:21:18.347             7.555               Magadan2           944.375
        18   01 Jun 2027 05:21:21.081   01 Jun 2027 05:23:51.255           150.174                Irkutsk         18771.750
        19   01 Jun 2027 05:24:34.025   01 Jun 2027 05:25:04.813            30.788                Norilsk          3848.500
        20   01 Jun 2027 06:35:11.884   01 Jun 2027 06:36:30.859            78.975                Sumatra          9871.875
        21   01 Jun 2027 06:44:10.978   01 Jun 2027 06:46:00.999           110.021                  Delhi         13752.625
        22   01 Jun 2027 06:57:49.203   01 Jun 2027 06:58:21.032            31.829                Irkutsk          3978.625
        23   01 Jun 2027 06:58:24.838   01 Jun 2027 06:58:45.409            20.571                 Moscow          2571.375
        24   01 Jun 2027 06:59:02.130   01 Jun 2027 06:59:40.294            38.164                 Moscow          4770.500
        25   01 Jun 2027 07:00:10.264   01 Jun 2027 07:00:45.716            35.452              Murmansk1          4431.500
        26   01 Jun 2027 07:00:50.615   01 Jun 2027 07:02:20.829            90.214                Novosib         11276.750
        27   01 Jun 2027 08:19:50.781   01 Jun 2027 08:20:08.170            17.389                  Delhi          2173.625
        28   01 Jun 2027 08:34:57.344   01 Jun 2027 08:35:22.310            24.966              Murmansk2          3120.750
        29   01 Jun 2027 08:35:31.268   01 Jun 2027 08:36:32.280            61.012                Novosib          7626.500
        30   01 Jun 2027 08:36:50.020   01 Jun 2027 08:42:37.928           347.908              Murmansk2         43488.500
        31   01 Jun 2027 10:11:56.407   01 Jun 2027 10:18:52.428           416.021              Murmansk1         52002.625
        32   01 Jun 2027 11:23:04.575   01 Jun 2027 11:23:38.273            33.698               CapeTown          4212.250
        33   01 Jun 2027 11:57:59.609   01 Jun 2027 11:59:40.666           101.057                Anadyr2         12632.125
        34   01 Jun 2027 12:00:29.929   01 Jun 2027 12:03:19.473           169.544                Anadyr1         21193.000
        35   01 Jun 2027 12:05:25.274   01 Jun 2027 12:07:09.349           104.075                Anadyr2         13009.375
        36   01 Jun 2027 13:36:38.866   01 Jun 2027 13:40:36.288           237.422               Magadan1         29677.750
        37   01 Jun 2027 16:05:15.164   01 Jun 2027 16:08:38.577           203.413            RioGallegos         25426.625
        38   01 Jun 2027 16:11:19.476   01 Jun 2027 16:12:23.828            64.352            RioGallegos          8044.000
        39   01 Jun 2027 16:54:03.299   01 Jun 2027 16:56:14.078           130.779                Irkutsk         16347.375
        40   01 Jun 2027 16:58:19.184   01 Jun 2027 16:58:31.184            12.000                Irkutsk          1500.000
        41   01 Jun 2027 17:06:48.142   01 Jun 2027 17:11:37.543           289.401                Sumatra         36175.125
        42   01 Jun 2027 17:14:39.057   01 Jun 2027 17:15:15.916            36.859                Sumatra          4607.375
        43   01 Jun 2027 18:31:52.669   01 Jun 2027 18:33:31.906            99.237                Novosib         12404.625
        44   01 Jun 2027 18:36:59.130   01 Jun 2027 18:39:22.945           143.815                  Delhi          4067.002
        45   02 Jun 2027 04:00:26.161   02 Jun 2027 04:01:22.967            56.806               Magadan2          7100.750
        46   02 Jun 2027 04:01:44.973   02 Jun 2027 04:02:05.691            20.718                Novosib          2589.750
        47   02 Jun 2027 04:44:08.285   02 Jun 2027 04:44:26.137            17.852            RioGallegos          2231.500
        48   02 Jun 2027 05:12:29.411   02 Jun 2027 05:13:17.721            48.310                Sumatra          6038.750
        49   02 Jun 2027 05:13:39.355   02 Jun 2027 05:15:52.937           133.582                Sumatra         16697.750
        50   02 Jun 2027 05:34:16.205   02 Jun 2027 05:35:17.635            61.430                Irkutsk          7678.750
        51   02 Jun 2027 05:35:42.820   02 Jun 2027 05:36:36.150            53.330                Irkutsk          6666.250
        52   02 Jun 2027 05:36:49.018   02 Jun 2027 05:37:32.973            43.955                Irkutsk          5494.375
        53   02 Jun 2027 05:37:33.720   02 Jun 2027 05:37:38.349             4.629                Norilsk           578.625
        54   02 Jun 2027 05:37:59.926   02 Jun 2027 05:42:30.257           270.331                Norilsk         33791.375
        55   02 Jun 2027 05:42:42.447   02 Jun 2027 05:45:14.125           151.678              Murmansk1         18959.750
        56   02 Jun 2027 06:20:25.024   02 Jun 2027 06:24:34.647           249.623            RioGallegos         31202.875
        57   02 Jun 2027 07:13:03.206   02 Jun 2027 07:14:59.936           116.730                Novosib         14591.250
        58   02 Jun 2027 07:15:11.084   02 Jun 2027 07:18:29.352           198.268                Norilsk         24783.500
        59   02 Jun 2027 07:18:37.608   02 Jun 2027 07:20:24.825           107.217              Murmansk2         13402.125
        60   02 Jun 2027 08:39:24.219   02 Jun 2027 08:43:03.289           219.070                  Delhi         27383.750
        61   02 Jun 2027 08:43:06.255   02 Jun 2027 08:44:29.610            83.355                Novosib         10419.375
        62   02 Jun 2027 08:49:26.259   02 Jun 2027 08:50:00.713            34.454                Novosib          4306.750
        63   02 Jun 2027 08:50:29.502   02 Jun 2027 08:54:25.267           235.765                Norilsk         29470.625
        64   02 Jun 2027 08:54:31.953   02 Jun 2027 08:56:07.321            95.368              Murmansk2         11921.000
        65   02 Jun 2027 10:18:56.178   02 Jun 2027 10:20:25.037            88.859                 Moscow         11107.375
        66   02 Jun 2027 10:22:17.262   02 Jun 2027 10:23:25.200            67.938              Murmansk2          8492.250
        67   02 Jun 2027 10:23:25.200   02 Jun 2027 10:26:00.790           155.590              Murmansk1         19448.750
        68   02 Jun 2027 10:26:02.730   02 Jun 2027 10:28:30.135           147.405                 Moscow         18425.625
        69   02 Jun 2027 10:29:21.182   02 Jun 2027 10:32:03.894           162.712              Murmansk2         20339.000
        70   02 Jun 2027 10:37:22.898   02 Jun 2027 10:39:38.332           135.434                Anadyr2         16929.250
        71   02 Jun 2027 11:37:01.531   02 Jun 2027 11:41:45.656           284.125               CapeTown         35515.625
        72   02 Jun 2027 11:56:34.391   02 Jun 2027 11:57:38.636            64.245                 Moscow          8030.625
        73   02 Jun 2027 12:09:57.154   02 Jun 2027 12:11:07.172            70.018                Anadyr1          8752.250
        74   02 Jun 2027 13:48:30.119   02 Jun 2027 13:52:16.314           226.195               Magadan1         28274.375
        75   02 Jun 2027 13:53:28.122   02 Jun 2027 13:54:07.718            39.596               Magadan1          4949.500
        76   02 Jun 2027 16:16:46.873   02 Jun 2027 16:22:02.014           315.141            RioGallegos         39392.625
        77   02 Jun 2027 17:06:21.107   02 Jun 2027 17:08:09.364           108.257                Irkutsk         13532.125
        78   02 Jun 2027 17:19:16.729   02 Jun 2027 17:19:53.043            36.314                Sumatra          4539.250
        79   02 Jun 2027 17:21:42.408   02 Jun 2027 17:25:26.602           224.194                Sumatra         28024.250
        80   02 Jun 2027 18:39:39.806   02 Jun 2027 18:40:57.175            77.369                Novosib          9671.125
        81   02 Jun 2027 18:42:19.204   02 Jun 2027 18:42:27.806             8.602                Novosib          1075.250
        82   02 Jun 2027 18:48:14.573   02 Jun 2027 18:51:31.479           196.906                  Delhi         24613.250
        83   02 Jun 2027 21:52:35.496   02 Jun 2027 21:52:37.439             1.943              Murmansk1           242.875
        84   02 Jun 2027 21:53:05.651   02 Jun 2027 21:55:52.588           166.937                 Moscow         20867.125
        85   02 Jun 2027 21:57:28.179   02 Jun 2027 21:57:28.303             0.124                 Moscow            15.500
        86   02 Jun 2027 21:58:32.369   02 Jun 2027 21:58:34.983             2.614                 Moscow           326.750
        87   02 Jun 2027 21:59:00.929   02 Jun 2027 22:00:57.785           116.856              Murmansk1          2456.875
        88   03 Jun 2027 04:13:50.698   03 Jun 2027 04:14:54.668            63.970              Murmansk1          7996.250
        89   03 Jun 2027 04:14:57.704   03 Jun 2027 04:15:13.326            15.622              Murmansk1          1952.750
        90   03 Jun 2027 05:23:59.886   03 Jun 2027 05:25:31.935            92.049                Sumatra         11506.125
        91   03 Jun 2027 05:49:35.456   03 Jun 2027 05:54:31.637           296.181                Norilsk         37022.625
        92   03 Jun 2027 05:54:44.489   03 Jun 2027 05:57:07.409           142.920              Murmansk1         17865.000
        93   03 Jun 2027 06:32:21.980   03 Jun 2027 06:36:24.895           242.915            RioGallegos         30364.375
        94   03 Jun 2027 07:07:12.806   03 Jun 2027 07:10:37.715           204.909                Sumatra         25613.625
        95   03 Jun 2027 07:14:18.236   03 Jun 2027 07:15:04.408            46.172                Novosib          5771.500
        96   03 Jun 2027 07:15:08.772   03 Jun 2027 07:20:06.274           297.502                  Delhi         37187.750
        97   03 Jun 2027 07:20:10.862   03 Jun 2027 07:20:35.969            25.107                Irkutsk          3138.375
        98   03 Jun 2027 07:25:19.607   03 Jun 2027 07:26:59.118            99.511                Novosib         12438.875
        99   03 Jun 2027 07:26:59.560   03 Jun 2027 07:30:31.208           211.648                Norilsk         26456.000
       100   03 Jun 2027 07:30:38.192   03 Jun 2027 07:32:23.127           104.935              Murmansk1         13116.875
       101   03 Jun 2027 08:51:16.098   03 Jun 2027 08:54:35.147           199.049                  Delhi         24881.125
       102   03 Jun 2027 08:54:44.247   03 Jun 2027 08:56:33.917           109.670                Novosib         13708.750
       103   03 Jun 2027 09:01:26.428   03 Jun 2027 09:01:43.335            16.907                Novosib          2113.375
       104   03 Jun 2027 09:01:56.501   03 Jun 2027 09:06:25.163           268.662                Norilsk         33582.750
       105   03 Jun 2027 09:06:26.698   03 Jun 2027 09:08:08.265           101.567              Murmansk1         12695.875
       106   03 Jun 2027 10:30:55.369   03 Jun 2027 10:32:19.401            84.032                 Moscow         10504.000
       107   03 Jun 2027 10:34:18.167   03 Jun 2027 10:35:30.965            72.798              Murmansk2          9099.750
       108   03 Jun 2027 10:35:30.965   03 Jun 2027 10:37:58.814           147.849              Murmansk1         18481.125
       109   03 Jun 2027 10:38:00.236   03 Jun 2027 10:40:28.622           148.386                 Moscow         18548.250
       110   03 Jun 2027 10:41:04.772   03 Jun 2027 10:44:05.552           180.780              Murmansk1         22597.500
       111   03 Jun 2027 10:47:09.561   03 Jun 2027 10:52:48.951           339.390                Anadyr1         42423.750
       112   03 Jun 2027 11:48:57.842   03 Jun 2027 11:53:56.321           298.479               CapeTown         37309.875
       113   03 Jun 2027 14:00:23.534   03 Jun 2027 14:02:49.256           145.722               Magadan2         18215.250
       114   03 Jun 2027 14:02:58.553   03 Jun 2027 14:04:45.075           106.522               Magadan1         13315.250
       115   03 Jun 2027 16:28:26.809   03 Jun 2027 16:34:48.340           381.531            RioGallegos         47691.375
       116   03 Jun 2027 17:15:51.860   03 Jun 2027 17:18:26.282           154.422                Irkutsk         19302.750
       117   03 Jun 2027 17:29:48.410   03 Jun 2027 17:33:48.237           239.827                Sumatra         29978.375
       118   03 Jun 2027 17:35:09.003   03 Jun 2027 17:36:24.800            75.797                Sumatra          9474.625
       119   03 Jun 2027 18:53:23.633   03 Jun 2027 18:53:44.454            20.821                Novosib          2602.625
       120   03 Jun 2027 18:59:43.565   03 Jun 2027 19:01:34.037           110.472                  Delhi         13809.000
       121   03 Jun 2027 19:05:24.635   03 Jun 2027 19:06:14.938            50.303                  Delhi          6287.875
       122   03 Jun 2027 20:31:43.849   03 Jun 2027 20:33:34.837           110.988                 Moscow         13873.500
       123   03 Jun 2027 22:01:33.582   03 Jun 2027 22:03:27.307           113.725              Murmansk2         10467.125
       124   04 Jun 2027 04:25:41.035   04 Jun 2027 04:28:40.446           179.411                Norilsk         22426.375
       125   04 Jun 2027 05:37:29.246   04 Jun 2027 05:39:22.536           113.290                Sumatra         14161.250
       126   04 Jun 2027 05:49:38.602   04 Jun 2027 05:50:20.533            41.931                  Delhi          5241.375
       127   04 Jun 2027 05:51:15.797   04 Jun 2027 05:53:01.072           105.275                  Delhi         13159.375
       128   04 Jun 2027 06:01:21.504   04 Jun 2027 06:03:05.599           104.095                Novosib         13011.875
       129   04 Jun 2027 06:03:09.530   04 Jun 2027 06:06:33.156           203.626                Norilsk         25453.250
       130   04 Jun 2027 06:06:46.442   04 Jun 2027 06:09:01.424           134.982              Murmansk2         16872.750
       131   04 Jun 2027 06:44:17.414   04 Jun 2027 06:48:11.944           234.530            RioGallegos         29316.250
       132   04 Jun 2027 07:19:03.079   04 Jun 2027 07:22:00.307           177.228                Sumatra         22153.500
       133   04 Jun 2027 07:27:03.468   04 Jun 2027 07:32:10.404           306.936                  Delhi         38367.000
       134   04 Jun 2027 07:32:11.457   04 Jun 2027 07:33:22.000            70.543                Irkutsk          8817.875
       135   04 Jun 2027 07:36:56.202   04 Jun 2027 07:38:57.408           121.206                Novosib         15150.750
       136   04 Jun 2027 07:39:06.782   04 Jun 2027 07:42:33.001           206.219                Norilsk         25777.375
       137   04 Jun 2027 07:42:38.453   04 Jun 2027 07:44:21.887           103.434              Murmansk2         12929.250
       138   04 Jun 2027 09:03:03.670   04 Jun 2027 09:05:55.367           171.697                  Delhi         21462.125
       139   04 Jun 2027 09:06:18.005   04 Jun 2027 09:08:37.748           139.743                Novosib         17467.875
       140   04 Jun 2027 09:12:55.049   04 Jun 2027 09:13:10.676            15.627                Novosib          1953.375
       141   04 Jun 2027 09:13:57.446   04 Jun 2027 09:18:24.393           266.947                Norilsk         33368.375
       142   04 Jun 2027 09:19:11.782   04 Jun 2027 09:20:09.403            57.621              Murmansk1          7202.625
       143   04 Jun 2027 10:23:42.510   04 Jun 2027 10:25:50.250           127.740               CapeTown         15967.500
       144   04 Jun 2027 10:42:53.664   04 Jun 2027 10:43:39.425            45.761                 Moscow          5720.125
       145   04 Jun 2027 10:46:31.347   04 Jun 2027 10:49:57.326           205.979              Murmansk2         25747.375
       146   04 Jun 2027 10:49:57.834   04 Jun 2027 10:52:26.103           148.269                 Moscow         18533.625
       147   04 Jun 2027 10:52:27.124   04 Jun 2027 10:56:07.170           220.046              Murmansk1         27505.750
       148   04 Jun 2027 10:58:50.894   04 Jun 2027 11:05:17.143           386.249                Anadyr1         48281.125
       149   04 Jun 2027 12:40:09.937   04 Jun 2027 12:40:26.948            17.011               Magadan2          2126.375
       150   04 Jun 2027 14:12:18.607   04 Jun 2027 14:15:05.336           166.729               Magadan1         20841.125
       151   04 Jun 2027 14:15:05.336   04 Jun 2027 14:16:40.884            95.548               Magadan2         11943.500
       152   04 Jun 2027 16:40:11.971   04 Jun 2027 16:42:28.838           136.867            RioGallegos         17108.375
       153   04 Jun 2027 16:43:27.110   04 Jun 2027 16:46:11.348           164.238            RioGallegos         20529.750
       154   04 Jun 2027 17:27:44.050   04 Jun 2027 17:29:31.031           106.981                Irkutsk         13372.625
       155   04 Jun 2027 17:29:59.034   04 Jun 2027 17:32:03.853           124.819                Novosib         15602.375
       156   04 Jun 2027 17:32:20.384   04 Jun 2027 17:32:51.812            31.428                Novosib          3928.500
       157   04 Jun 2027 17:41:30.955   04 Jun 2027 17:41:46.415            15.460                Sumatra          1932.500
       158   04 Jun 2027 17:43:17.724   04 Jun 2027 17:45:52.100           154.376                Sumatra         19297.000
       159   04 Jun 2027 19:03:29.328   04 Jun 2027 19:05:17.513           108.185                Novosib         13523.125
       160   04 Jun 2027 19:11:21.172   04 Jun 2027 19:12:44.155            82.983                  Delhi         10372.875
       161   04 Jun 2027 20:38:41.885   04 Jun 2027 20:39:12.935            31.050              Murmansk1          3881.250
       162   04 Jun 2027 20:41:40.571   04 Jun 2027 20:42:18.586            38.015              Murmansk2          4751.875
       163   04 Jun 2027 20:42:52.126   04 Jun 2027 20:45:34.054           161.928                 Moscow         13182.125
       164   05 Jun 2027 04:37:41.785   05 Jun 2027 04:42:41.132           299.347                Norilsk         37418.375
       165   05 Jun 2027 05:47:24.703   05 Jun 2027 05:47:37.891            13.188                Sumatra          1648.500
       166   05 Jun 2027 05:48:39.763   05 Jun 2027 05:50:11.107            91.344                Sumatra         11418.000
       167   05 Jun 2027 05:59:09.965   05 Jun 2027 06:00:19.044            69.079                  Delhi          8634.875
       168   05 Jun 2027 06:13:39.150   05 Jun 2027 06:13:59.067            19.917                Norilsk          2489.625
       169   05 Jun 2027 06:14:02.614   05 Jun 2027 06:18:34.803           272.189                Norilsk         34023.625
       170   05 Jun 2027 06:18:43.777   05 Jun 2027 06:20:56.163           132.386              Murmansk2         16548.250
       171   05 Jun 2027 06:56:11.044   05 Jun 2027 06:59:54.605           223.561            RioGallegos         27945.125
       172   05 Jun 2027 07:30:47.055   05 Jun 2027 07:33:07.678           140.623                Sumatra         17577.875
       173   05 Jun 2027 07:38:42.745   05 Jun 2027 07:40:00.353            77.608                Novosib          9701.000
       174   05 Jun 2027 07:41:02.856   05 Jun 2027 07:44:04.272           181.416                Irkutsk         22677.000
       175   05 Jun 2027 07:44:08.919   05 Jun 2027 07:44:23.833            14.914              Murmansk2          1864.250
       176   05 Jun 2027 07:44:33.167   05 Jun 2027 07:45:46.653            73.486                Irkutsk          9185.750
       177   05 Jun 2027 07:49:24.740   05 Jun 2027 07:50:54.659            89.919                Novosib         11239.875
       178   05 Jun 2027 07:50:55.607   05 Jun 2027 07:54:34.693           219.086                Norilsk         27385.750
       179   05 Jun 2027 07:54:38.354   05 Jun 2027 07:56:21.066           102.712              Murmansk1         12839.000
       180   05 Jun 2027 09:14:46.038   05 Jun 2027 09:16:53.889           127.851                  Delhi         15981.375
       181   05 Jun 2027 09:26:27.544   05 Jun 2027 09:30:22.762           235.218                Norilsk         29402.250
       182   05 Jun 2027 09:31:02.492   05 Jun 2027 09:32:10.690            68.198              Murmansk2          8524.750
       183   05 Jun 2027 10:36:15.072   05 Jun 2027 10:39:13.768           178.696               CapeTown         22337.000
       184   05 Jun 2027 10:54:50.921   05 Jun 2027 10:55:02.988            12.067                 Moscow          1508.375
       185   05 Jun 2027 10:58:32.952   05 Jun 2027 11:01:26.054           173.102              Murmansk1         21637.750
       186   05 Jun 2027 11:01:53.929   05 Jun 2027 11:04:22.384           148.455                 Moscow         18556.875
       187   05 Jun 2027 11:04:28.264   05 Jun 2027 11:08:08.709           220.445              Murmansk2         27555.625
       188   05 Jun 2027 11:10:38.192   05 Jun 2027 11:18:32.287           474.095                Anadyr1         59261.875
       189   05 Jun 2027 12:13:12.013   05 Jun 2027 12:18:01.963           289.950               CapeTown         36243.750
       190   05 Jun 2027 12:34:22.081   05 Jun 2027 12:37:16.812           174.731                 Moscow         21841.375
       191   05 Jun 2027 12:37:44.548   05 Jun 2027 12:43:26.039           341.491              Murmansk1         42686.375
       192   05 Jun 2027 12:46:21.688   05 Jun 2027 12:48:13.074           111.386                Anadyr2         13923.250
       193   05 Jun 2027 12:50:19.656   05 Jun 2027 12:54:56.063           276.407               Magadan2         34550.875
       194   05 Jun 2027 16:07:16.365   05 Jun 2027 16:09:31.374           135.009                Irkutsk         16876.125
       195   05 Jun 2027 16:52:00.817   05 Jun 2027 16:54:33.689           152.872            RioGallegos         19109.000
       196   05 Jun 2027 16:56:11.889   05 Jun 2027 16:56:23.229            11.340            RioGallegos          1417.500
       197   05 Jun 2027 17:39:38.276   05 Jun 2027 17:41:45.401           127.125                Irkutsk         15890.625
       198   05 Jun 2027 17:44:03.242   05 Jun 2027 17:47:13.621           190.379                Novosib         23797.375
       199   05 Jun 2027 19:23:05.036   05 Jun 2027 19:27:16.645           251.609                  Delhi         31451.125
       200   05 Jun 2027 20:50:30.204   05 Jun 2027 20:51:29.384            59.180              Murmansk2          7397.500
       201   05 Jun 2027 20:54:22.026   05 Jun 2027 20:57:34.062           192.036                 Moscow         23005.376
       202   06 Jun 2027 03:12:03.708   06 Jun 2027 03:13:00.793            57.085                Novosib          7135.625
       203   06 Jun 2027 03:13:12.523   06 Jun 2027 03:13:50.231            37.708               Magadan1          4713.500
       204   06 Jun 2027 03:13:55.119   06 Jun 2027 03:13:59.312             4.193              Murmansk1           524.125
       205   06 Jun 2027 04:49:42.766   06 Jun 2027 04:50:02.518            19.752                Norilsk          2469.000
       206   06 Jun 2027 04:50:03.517   06 Jun 2027 04:50:52.775            49.258                Novosib          6157.250
       207   06 Jun 2027 04:52:36.881   06 Jun 2027 04:54:29.659           112.778              Murmansk2         14097.250
       208   06 Jun 2027 04:54:29.659   06 Jun 2027 04:58:02.944           213.285              Murmansk1         26660.625
       209   06 Jun 2027 05:32:40.239   06 Jun 2027 05:37:07.850           267.611            RioGallegos         33451.375
       210   06 Jun 2027 06:06:48.683   06 Jun 2027 06:11:58.287           309.604                Sumatra         38700.500
       211   06 Jun 2027 06:13:12.015   06 Jun 2027 06:19:10.136           358.121                Irkutsk         44765.125
       212   06 Jun 2027 06:25:41.057   06 Jun 2027 06:25:44.578             3.521                Norilsk           440.125
       213   06 Jun 2027 06:25:50.825   06 Jun 2027 06:27:10.845            80.020                Novosib         10002.500
       214   06 Jun 2027 06:27:35.944   06 Jun 2027 06:30:36.547           180.603                Norilsk         22575.375
       215   06 Jun 2027 06:30:49.989   06 Jun 2027 06:32:51.582           121.593              Murmansk2         15199.125
       216   06 Jun 2027 07:08:02.455   06 Jun 2027 07:11:30.746           208.291            RioGallegos         26036.375
       217   06 Jun 2027 07:42:23.728   06 Jun 2027 07:43:45.693            81.965                Sumatra         10245.625
       218   06 Jun 2027 07:50:40.640   06 Jun 2027 07:56:08.767           328.127                  Delhi         41015.875
       219   06 Jun 2027 07:56:20.482   06 Jun 2027 07:57:13.854            53.372                Novosib          6671.500
       220   06 Jun 2027 08:01:07.828   06 Jun 2027 08:04:28.290           200.462                 Moscow         25057.750
       221   06 Jun 2027 08:04:31.468   06 Jun 2027 08:06:36.243           124.775                Norilsk         15596.875
       222   06 Jun 2027 08:06:37.862   06 Jun 2027 08:08:20.623           102.761              Murmansk1         12845.125
       223   06 Jun 2027 09:37:58.164   06 Jun 2027 09:42:19.965           261.801                Norilsk         32725.125
       224   06 Jun 2027 09:42:52.387   06 Jun 2027 09:44:12.111            79.724              Murmansk1          9965.500
       225   06 Jun 2027 11:06:46.936   06 Jun 2027 11:07:00.259            13.323                 Moscow          1665.375
       226   06 Jun 2027 11:10:34.471   06 Jun 2027 11:10:53.549            19.078              Murmansk2          2384.750
       227   06 Jun 2027 11:11:16.474   06 Jun 2027 11:16:17.233           300.759                 Moscow         37594.875
       228   06 Jun 2027 11:16:29.555   06 Jun 2027 11:20:10.140           220.585              Murmansk2         27573.125
       229   06 Jun 2027 11:23:53.006   06 Jun 2027 11:31:13.649           440.643                Anadyr1         55080.375
       230   06 Jun 2027 12:22:19.637   06 Jun 2027 12:29:57.312           457.675               CapeTown         57209.375
       231   06 Jun 2027 12:47:05.827   06 Jun 2027 12:55:55.314           529.487              Murmansk1         66185.875
       232   06 Jun 2027 12:57:54.131   06 Jun 2027 13:10:15.516           741.385                Anadyr1         92673.125
       233   06 Jun 2027 13:55:41.322   06 Jun 2027 13:56:42.286            60.964               CapeTown          7620.500
       234   06 Jun 2027 14:36:14.575   06 Jun 2027 14:38:31.855           137.280               Magadan2         17160.000
       235   06 Jun 2027 14:39:10.252   06 Jun 2027 14:41:29.079           138.827               Magadan1         17353.375
       236   06 Jun 2027 16:17:54.030   06 Jun 2027 16:23:26.880           332.850                Irkutsk         41606.250
       237   06 Jun 2027 17:52:46.384   06 Jun 2027 17:59:19.879           393.495                Novosib         49186.875
       238   06 Jun 2027 19:34:53.820   06 Jun 2027 19:36:59.340           125.520                  Delhi         15690.000
       239   06 Jun 2027 21:01:47.042   06 Jun 2027 21:02:19.800            32.758              Murmansk2          4094.750
       240   06 Jun 2027 21:06:01.395   06 Jun 2027 21:09:34.759           213.364                 Moscow         26670.500
       241   06 Jun 2027 23:07:10.378   06 Jun 2027 23:07:53.768            43.390               CapeTown          5423.750
       242   07 Jun 2027 03:24:42.133   07 Jun 2027 03:24:47.567             5.434               Magadan2           679.250
       243   07 Jun 2027 03:25:46.104   07 Jun 2027 03:25:48.563             2.459               Magadan1           307.375
       244   07 Jun 2027 03:25:56.431   07 Jun 2027 03:26:45.244            48.813                Norilsk          6101.625
       245   07 Jun 2027 03:26:46.567   07 Jun 2027 03:35:40.157           533.590              Murmansk1         66698.750
       246   07 Jun 2027 04:01:06.269   07 Jun 2027 04:03:23.949           137.680            RioGallegos         17210.000
       247   07 Jun 2027 04:39:58.593   07 Jun 2027 04:40:13.880            15.287                Sumatra          1910.875
       248   07 Jun 2027 04:42:48.911   07 Jun 2027 04:44:18.392            89.481                Sumatra         11185.125
       249   07 Jun 2027 05:01:43.943   07 Jun 2027 05:03:14.251            90.308                Norilsk         11288.500
       250   07 Jun 2027 05:04:29.288   07 Jun 2027 05:09:53.283           323.995              Murmansk2         40499.375
       251   07 Jun 2027 05:44:41.588   07 Jun 2027 05:49:05.537           263.949            RioGallegos         32993.625
       252   07 Jun 2027 06:19:09.171   07 Jun 2027 06:23:57.377           288.206                Sumatra         36025.750
       253   07 Jun 2027 06:27:32.075   07 Jun 2027 06:31:10.210           218.135                Irkutsk         27266.875
       254   07 Jun 2027 06:38:05.373   07 Jun 2027 06:42:38.367           272.994                Norilsk         34124.250
       255   07 Jun 2027 06:42:51.524   07 Jun 2027 06:44:47.661           116.137              Murmansk2         14517.125
       256   07 Jun 2027 07:19:51.026   07 Jun 2027 07:22:55.683           184.657            RioGallegos         23082.125
       257   07 Jun 2027 08:00:01.693   07 Jun 2027 08:08:02.735           481.042                  Delhi         60130.250
       258   07 Jun 2027 08:08:03.567   07 Jun 2027 08:08:28.961            25.394                Novosib          3174.250
       259   07 Jun 2027 08:08:40.585   07 Jun 2027 08:08:53.806            13.221              Murmansk2          1652.625
       260   07 Jun 2027 08:09:01.997   07 Jun 2027 08:09:05.084             3.087                Norilsk           385.875
       261   07 Jun 2027 08:13:16.699   07 Jun 2027 08:14:45.180            88.481                Novosib         11060.125
       262   07 Jun 2027 08:14:45.687   07 Jun 2027 08:16:33.730           108.043                 Moscow         13505.375
       263   07 Jun 2027 08:16:42.227   07 Jun 2027 08:18:37.603           115.376                Norilsk         14422.000
       264   07 Jun 2027 08:19:03.496   07 Jun 2027 08:20:20.528            77.032              Murmansk1          9629.000
       265   07 Jun 2027 09:42:43.063   07 Jun 2027 09:43:08.920            25.857                 Moscow          3232.125
       266   07 Jun 2027 09:49:57.700   07 Jun 2027 09:54:15.543           257.843                Norilsk         32230.375
       267   07 Jun 2027 09:54:41.575   07 Jun 2027 09:56:13.636            92.061              Murmansk2         11507.625
       268   07 Jun 2027 11:22:35.874   07 Jun 2027 11:24:17.654           101.780              Murmansk1         12722.500
       269   07 Jun 2027 11:24:39.678   07 Jun 2027 11:28:10.303           210.625                 Moscow         26328.125
       270   07 Jun 2027 11:28:30.982   07 Jun 2027 11:32:11.407           220.425              Murmansk2         27553.125
       271   07 Jun 2027 11:36:17.217   07 Jun 2027 11:43:50.160           452.943                Anadyr2         56617.875
       272   07 Jun 2027 12:32:21.242   07 Jun 2027 12:41:47.689           566.447               CapeTown         70805.875
       273   07 Jun 2027 12:59:42.532   07 Jun 2027 13:07:52.019           489.487              Murmansk2         61185.875
       274   07 Jun 2027 13:11:28.438   07 Jun 2027 13:22:27.646           659.208                Anadyr2         82401.000
       275   07 Jun 2027 14:48:58.660   07 Jun 2027 14:50:48.970           110.310               Magadan2         13788.750
       276   07 Jun 2027 14:52:23.513   07 Jun 2027 14:53:24.651            61.138               Magadan2          7642.250
       277   07 Jun 2027 14:55:03.718   07 Jun 2027 14:55:31.756            28.038               Magadan2          3504.750
       278   07 Jun 2027 15:44:15.311   07 Jun 2027 15:44:50.563            35.252            RioGallegos          4406.500
       279   07 Jun 2027 16:29:14.777   07 Jun 2027 16:36:36.121           441.344                Irkutsk         55168.000
       280   07 Jun 2027 16:45:02.498   07 Jun 2027 16:46:45.441           102.943                Sumatra         12867.875
       281   07 Jun 2027 16:48:23.591   07 Jun 2027 16:50:43.099           139.508                Sumatra         17438.500
       282   07 Jun 2027 18:06:06.690   07 Jun 2027 18:08:04.236           117.546                Novosib         14693.250
       283   07 Jun 2027 21:13:46.295   07 Jun 2027 21:15:15.061            88.766              Murmansk1         11095.750
       284   07 Jun 2027 21:17:46.364   07 Jun 2027 21:19:47.549           121.185                 Moscow         15148.125
       285   07 Jun 2027 21:21:36.091   07 Jun 2027 21:21:50.966            14.875                 Moscow          1859.375
       286   07 Jun 2027 21:23:52.462   07 Jun 2027 21:24:54.387            61.925                 Moscow          7740.625
       287   07 Jun 2027 21:44:43.450   07 Jun 2027 21:45:34.861            51.411               CapeTown          6426.375
       288   07 Jun 2027 21:48:03.097   07 Jun 2027 21:50:19.764           136.667               CapeTown         15950.125
       289   08 Jun 2027 03:36:38.254   08 Jun 2027 03:36:58.673            20.419                Norilsk          2552.375
       290   08 Jun 2027 03:37:50.352   08 Jun 2027 03:42:59.757           309.405                Norilsk         38675.625
       291   08 Jun 2027 03:43:13.995   08 Jun 2027 03:44:49.866            95.871              Murmansk1         11983.875
       292   08 Jun 2027 04:50:22.243   08 Jun 2027 04:52:32.869           130.626                Sumatra         16328.250
       293   08 Jun 2027 05:13:49.543   08 Jun 2027 05:15:04.005            74.462                Novosib          9307.750
       294   08 Jun 2027 05:16:22.444   08 Jun 2027 05:21:44.338           321.894              Murmansk2         40236.750
       295   08 Jun 2027 05:56:42.000   08 Jun 2027 06:01:01.838           259.838            RioGallegos         32479.750
       296   08 Jun 2027 06:31:22.561   08 Jun 2027 06:35:50.839           268.278                Sumatra         33534.750
       297   08 Jun 2027 06:38:33.536   08 Jun 2027 06:43:30.389           296.853                Irkutsk         37106.625
       298   08 Jun 2027 06:49:47.885   08 Jun 2027 06:51:52.720           124.835                 Moscow         15604.375
       299   08 Jun 2027 06:51:55.947   08 Jun 2027 06:54:40.235           164.288                Norilsk         20536.000
       300   08 Jun 2027 06:54:43.551   08 Jun 2027 06:56:44.355           120.804              Murmansk2         15100.500
       301   08 Jun 2027 07:31:35.818   08 Jun 2027 07:33:53.205           137.387            RioGallegos         17173.375
       302   08 Jun 2027 08:15:44.179   08 Jun 2027 08:19:52.745           248.566                  Delhi         31070.750
       303   08 Jun 2027 08:20:03.152   08 Jun 2027 08:20:28.293            25.141              Murmansk2          3142.625
       304   08 Jun 2027 08:25:19.400   08 Jun 2027 08:28:38.632           199.232                 Moscow         24904.000
       305   08 Jun 2027 08:28:49.353   08 Jun 2027 08:30:35.516           106.163              Murmansk1         13270.375
       306   08 Jun 2027 08:30:35.516   08 Jun 2027 08:32:20.740           105.224              Murmansk2         13153.000
       307   08 Jun 2027 09:56:53.349   08 Jun 2027 09:57:16.357            23.008                 Moscow          2876.000
       308   08 Jun 2027 10:00:21.665   08 Jun 2027 10:02:16.080           114.415              Murmansk2         14301.875
       309   08 Jun 2027 10:02:20.655   08 Jun 2027 10:04:45.314           144.659                 Moscow         18082.375
       310   08 Jun 2027 10:04:48.787   08 Jun 2027 10:06:08.737            79.950                Norilsk          9993.750
       311   08 Jun 2027 10:06:10.078   08 Jun 2027 10:08:15.236           125.158              Murmansk1         15644.750
       312   08 Jun 2027 11:34:37.106   08 Jun 2027 11:36:14.901            97.795              Murmansk1         12224.375
       313   08 Jun 2027 11:37:00.614   08 Jun 2027 11:40:01.111           180.497                 Moscow         22562.125
       314   08 Jun 2027 11:40:10.724   08 Jun 2027 11:44:12.473           241.749              Murmansk2         30218.625
       315   08 Jun 2027 11:49:44.952   08 Jun 2027 11:56:22.544           397.592                Anadyr1         49699.000
       316   08 Jun 2027 12:49:35.349   08 Jun 2027 12:53:32.921           237.572               CapeTown         29696.500
       317   08 Jun 2027 13:12:22.950   08 Jun 2027 13:19:47.087           444.137              Murmansk2         55517.125
       318   08 Jun 2027 13:24:55.272   08 Jun 2027 13:34:30.948           575.676                Anadyr2         71959.500
       319   08 Jun 2027 15:54:13.242   08 Jun 2027 15:59:25.615           312.373            RioGallegos         39046.625
       320   08 Jun 2027 16:40:48.961   08 Jun 2027 16:44:35.188           226.227                Irkutsk         28278.375
       321   08 Jun 2027 16:46:09.503   08 Jun 2027 16:47:29.199            79.696                Irkutsk          9962.000
       322   08 Jun 2027 16:55:50.430   08 Jun 2027 16:58:25.265           154.835                Sumatra         19354.375
       323   08 Jun 2027 17:00:20.736   08 Jun 2027 17:04:16.682           235.946                Sumatra         29493.250
       324   08 Jun 2027 18:26:25.430   08 Jun 2027 18:28:17.320           111.890                  Delhi         13986.250
       325   08 Jun 2027 18:30:29.692   08 Jun 2027 18:31:26.314            56.622                  Delhi          7077.750
       326   08 Jun 2027 21:29:35.111   08 Jun 2027 21:31:57.299           142.188                 Moscow         17773.500
       327   08 Jun 2027 21:33:10.283   08 Jun 2027 21:33:37.987            27.704                 Moscow          3463.000
       328   08 Jun 2027 21:55:45.741   08 Jun 2027 21:57:46.702           120.961               CapeTown         15120.125
       329   09 Jun 2027 03:49:50.200   09 Jun 2027 03:59:14.629           564.429              Murmansk1         70553.625
       330   09 Jun 2027 05:01:24.259   09 Jun 2027 05:04:17.798           173.539                Sumatra         21692.375
       331   09 Jun 2027 05:25:38.494   09 Jun 2027 05:25:46.774             8.280                Irkutsk          1035.000
       332   09 Jun 2027 05:25:59.659   09 Jun 2027 05:27:08.802            69.143                Novosib          8642.875
       333   09 Jun 2027 05:28:16.337   09 Jun 2027 05:33:36.129           319.792              Murmansk1         39974.000
       334   09 Jun 2027 06:08:41.376   09 Jun 2027 06:12:56.497           255.121            RioGallegos         31890.125
       335   09 Jun 2027 06:43:29.804   09 Jun 2027 06:47:38.333           248.529                Sumatra         31066.125
       336   09 Jun 2027 06:51:02.654   09 Jun 2027 06:51:38.143            35.489                Irkutsk          4436.125
       337   09 Jun 2027 06:52:45.673   09 Jun 2027 06:55:54.642           188.969                Irkutsk         23621.125
       338   09 Jun 2027 07:01:48.382   09 Jun 2027 07:04:04.407           136.025                 Moscow         17003.125
       339   09 Jun 2027 07:04:26.452   09 Jun 2027 07:06:53.969           147.517              Murmansk1         18439.625
       340   09 Jun 2027 07:06:53.969   09 Jun 2027 07:08:41.627           107.658              Murmansk2         13457.250
       341   09 Jun 2027 08:27:43.189   09 Jun 2027 08:31:38.090           234.901                  Delhi         29362.625
       342   09 Jun 2027 08:31:46.028   09 Jun 2027 08:32:36.386            50.358                 Moscow          6294.750
       343   09 Jun 2027 08:37:10.808   09 Jun 2027 08:38:28.088            77.280                Novosib          9660.000
       344   09 Jun 2027 08:38:35.263   09 Jun 2027 08:42:39.514           244.251                Norilsk         30531.375
       345   09 Jun 2027 08:42:41.639   09 Jun 2027 08:44:21.231            99.592              Murmansk2         12449.000
       346   09 Jun 2027 10:07:10.855   09 Jun 2027 10:08:33.900            83.045                 Moscow         10380.625
       347   09 Jun 2027 10:11:53.182   09 Jun 2027 10:14:18.443           145.261              Murmansk2         18157.625
       348   09 Jun 2027 10:14:22.147   09 Jun 2027 10:16:45.421           143.274                 Moscow         17909.250
       349   09 Jun 2027 10:16:45.953   09 Jun 2027 10:17:58.052            72.099                Norilsk          9012.375
       350   09 Jun 2027 10:18:04.942   09 Jun 2027 10:20:16.884           131.942              Murmansk1         16492.750
       351   09 Jun 2027 11:26:59.833   09 Jun 2027 11:29:44.069           164.236               CapeTown         20529.500
       352   09 Jun 2027 11:46:38.123   09 Jun 2027 11:47:59.547            81.424              Murmansk1         10178.000
       353   09 Jun 2027 11:49:04.262   09 Jun 2027 11:51:48.934           164.672                 Moscow         20584.000
       354   09 Jun 2027 11:51:53.256   09 Jun 2027 11:56:13.273           260.017              Murmansk2         32502.125
       355   09 Jun 2027 11:58:54.072   09 Jun 2027 11:59:55.050            60.978                Anadyr1          7622.250
       356   09 Jun 2027 12:00:44.953   09 Jun 2027 12:08:51.300           486.347                Anadyr2         60793.375
       357   09 Jun 2027 13:01:32.881   09 Jun 2027 13:05:12.663           219.782               CapeTown         27472.750
       358   09 Jun 2027 13:36:53.382   09 Jun 2027 13:38:51.765           118.383               Magadan2         14797.875
       359   09 Jun 2027 13:38:51.765   09 Jun 2027 13:40:51.292           119.527               Magadan1         14940.875
       360   09 Jun 2027 13:42:51.141   09 Jun 2027 13:44:10.385            79.244               Magadan2          9905.500
       361   09 Jun 2027 16:05:29.372   09 Jun 2027 16:08:53.127           203.755            RioGallegos         25469.375
       362   09 Jun 2027 16:11:34.532   09 Jun 2027 16:12:39.251            64.719            RioGallegos          8089.875
       363   09 Jun 2027 16:54:19.150   09 Jun 2027 16:56:28.704           129.554                Irkutsk         16194.250
       364   09 Jun 2027 16:58:34.212   09 Jun 2027 16:58:45.311            11.099                Irkutsk          1387.375
       365   09 Jun 2027 17:07:02.279   09 Jun 2027 17:11:51.826           289.547                Sumatra         36193.375
       366   09 Jun 2027 17:13:01.001   09 Jun 2027 17:14:54.076           113.075                Sumatra         14134.375
       367   09 Jun 2027 18:37:13.085   09 Jun 2027 18:39:38.145           145.060                  Delhi         18132.500
       368   09 Jun 2027 21:39:57.099   09 Jun 2027 21:42:23.939           146.840              Murmansk2         18355.000
       369   09 Jun 2027 21:45:44.477   09 Jun 2027 21:46:03.772            19.295                 Moscow          2411.875
       370   09 Jun 2027 21:48:30.931   09 Jun 2027 21:50:22.971           112.040                 Moscow          7508.501
       371   10 Jun 2027 04:00:41.178   10 Jun 2027 04:00:41.858             0.680               Magadan1            85.000
       372   10 Jun 2027 04:01:55.046   10 Jun 2027 04:06:56.984           301.938                Norilsk         37742.250
       373   10 Jun 2027 05:12:43.623   10 Jun 2027 05:13:19.160            35.537                Sumatra          4442.125
       374   10 Jun 2027 05:14:07.055   10 Jun 2027 05:16:07.541           120.486                Sumatra         15060.750
       375   10 Jun 2027 05:37:48.455   10 Jun 2027 05:42:44.913           296.458                Norilsk         37057.250
       376   10 Jun 2027 05:42:59.774   10 Jun 2027 05:45:28.676           148.902              Murmansk2         18612.750
       377   10 Jun 2027 06:20:39.611   10 Jun 2027 06:24:49.183           249.572            RioGallegos         31196.500
       378   10 Jun 2027 06:55:31.359   10 Jun 2027 06:59:19.142           227.783                Sumatra         28472.875
       379   10 Jun 2027 07:02:50.184   10 Jun 2027 07:08:49.668           359.484                Irkutsk         44935.500
       380   10 Jun 2027 07:13:19.326   10 Jun 2027 07:15:14.571           115.245                Novosib         14405.625
       381   10 Jun 2027 07:15:26.739   10 Jun 2027 07:18:44.017           197.278                Norilsk         24659.750
       382   10 Jun 2027 07:18:54.820   10 Jun 2027 07:20:39.439           104.619              Murmansk2         13077.375
       383   10 Jun 2027 08:39:38.761   10 Jun 2027 08:43:17.631           218.870                  Delhi         27358.750
       384   10 Jun 2027 08:43:22.699   10 Jun 2027 08:44:44.946            82.247                Novosib         10280.875
       385   10 Jun 2027 08:49:41.071   10 Jun 2027 08:50:15.169            34.098                Novosib          4262.250
       386   10 Jun 2027 08:50:44.855   10 Jun 2027 08:54:39.911           235.056                Norilsk         29382.000
       387   10 Jun 2027 08:54:46.848   10 Jun 2027 08:56:21.967            95.119              Murmansk2         11889.875
       388   10 Jun 2027 10:19:10.813   10 Jun 2027 10:20:39.992            89.179                 Moscow         11147.375
       389   10 Jun 2027 10:22:32.114   10 Jun 2027 10:26:15.948           223.834              Murmansk2         27979.250
       390   10 Jun 2027 10:26:19.642   10 Jun 2027 10:28:44.762           145.120                 Moscow         18140.000
       391   10 Jun 2027 10:29:30.103   10 Jun 2027 10:32:18.555           168.452              Murmansk2         21056.500
       392   10 Jun 2027 10:37:38.266   10 Jun 2027 10:39:54.018           135.752                Anadyr1         16969.000
       393   10 Jun 2027 11:37:16.222   10 Jun 2027 11:42:00.464           284.242               CapeTown         35530.250
       394   10 Jun 2027 11:58:38.857   10 Jun 2027 12:00:11.034            92.177              Murmansk2         11522.125
       395   10 Jun 2027 12:01:04.422   10 Jun 2027 12:02:03.945            59.523                 Moscow          7440.375
       396   10 Jun 2027 13:48:44.662   10 Jun 2027 13:53:01.747           257.085               Magadan1         32135.625
       397   10 Jun 2027 13:53:46.207   10 Jun 2027 13:54:22.142            35.935               Magadan2          4491.875
       398   10 Jun 2027 13:56:12.262   10 Jun 2027 13:57:38.229            85.967               Magadan1         10745.875
       399   10 Jun 2027 16:17:01.222   10 Jun 2027 16:20:43.787           222.565            RioGallegos         27820.625
       400   10 Jun 2027 16:22:17.120   10 Jun 2027 16:24:11.034           113.914            RioGallegos         14239.250
       401   10 Jun 2027 17:07:40.940   10 Jun 2027 17:08:24.014            43.074                Irkutsk          5384.250
       402   10 Jun 2027 17:18:27.732   10 Jun 2027 17:19:31.780            64.048                Sumatra          8006.000
       403   10 Jun 2027 17:20:07.681   10 Jun 2027 17:23:11.854           184.173                Sumatra         23021.625
       404   10 Jun 2027 17:24:05.294   10 Jun 2027 17:25:09.662            64.368                Sumatra          8046.000
       405   10 Jun 2027 18:41:12.173   10 Jun 2027 18:42:34.104            81.931                Novosib         10241.375
       406   10 Jun 2027 18:48:28.754   10 Jun 2027 18:51:46.038           197.284                  Delhi         24660.500
       407   10 Jun 2027 21:52:50.908   10 Jun 2027 21:52:51.737             0.829              Murmansk1           103.625
       408   10 Jun 2027 21:55:04.282   10 Jun 2027 21:57:42.870           158.588                 Moscow         19823.500
       409   10 Jun 2027 22:19:17.396   10 Jun 2027 22:19:54.590            37.194               CapeTown           243.501
       410   11 Jun 2027 04:13:51.901   11 Jun 2027 04:14:45.325            53.424                Novosib          6678.000
       411   11 Jun 2027 04:14:46.031   11 Jun 2027 04:15:15.265            29.234              Murmansk1          3654.250
       412   11 Jun 2027 05:24:14.209   11 Jun 2027 05:25:46.923            92.714                Sumatra         11589.250
       413   11 Jun 2027 05:49:50.192   11 Jun 2027 05:54:46.294           296.102                Norilsk         37012.750
       414   11 Jun 2027 05:55:01.808   11 Jun 2027 05:57:21.967           140.159              Murmansk2         17519.875
       415   11 Jun 2027 06:32:36.550   11 Jun 2027 06:36:39.394           242.844            RioGallegos         30355.500
       416   11 Jun 2027 07:07:27.341   11 Jun 2027 07:10:51.954           204.613                Sumatra         25576.625
       417   11 Jun 2027 07:14:32.988   11 Jun 2027 07:15:18.947            45.959                Novosib          5744.875
       418   11 Jun 2027 07:15:23.434   11 Jun 2027 07:20:20.985           297.551                  Delhi         37193.875
       419   11 Jun 2027 07:20:27.106   11 Jun 2027 07:20:50.500            23.394                Irkutsk          2924.250
       420   11 Jun 2027 07:25:35.563   11 Jun 2027 07:27:13.742            98.179                Novosib         12272.375
       421   11 Jun 2027 07:27:14.145   11 Jun 2027 07:30:45.871           211.726                Norilsk         26465.750
       422   11 Jun 2027 07:30:55.378   11 Jun 2027 07:32:37.748           102.370              Murmansk2         12796.250
       423   11 Jun 2027 08:51:30.592   11 Jun 2027 08:54:49.373           198.781                  Delhi         24847.625
       424   11 Jun 2027 08:54:57.413   11 Jun 2027 08:56:49.237           111.824                Novosib         13978.000
       425   11 Jun 2027 09:01:41.295   11 Jun 2027 09:01:57.721            16.426                Novosib          2053.250
       426   11 Jun 2027 09:02:11.127   11 Jun 2027 09:06:39.798           268.671                Norilsk         33583.875
       427   11 Jun 2027 09:06:41.609   11 Jun 2027 09:08:22.918           101.309              Murmansk2         12663.625
       428   11 Jun 2027 10:30:11.820   11 Jun 2027 10:32:33.449           141.629                 Moscow         17703.625
       429   11 Jun 2027 10:34:33.015   11 Jun 2027 10:38:13.983           220.968              Murmansk2         27621.000
       430   11 Jun 2027 10:38:14.831   11 Jun 2027 10:40:43.236           148.405                 Moscow         18550.625
       431   11 Jun 2027 10:41:36.405   11 Jun 2027 10:44:20.213           163.808              Murmansk1         20476.000
       432   11 Jun 2027 10:47:23.909   11 Jun 2027 10:53:04.362           340.453                Anadyr2         42556.625
       433   11 Jun 2027 11:49:12.466   11 Jun 2027 11:53:22.513           250.047               CapeTown         31255.875
       434   11 Jun 2027 14:00:38.101   11 Jun 2027 14:03:03.351           145.250               Magadan1         18156.250
       435   11 Jun 2027 14:03:13.518   11 Jun 2027 14:04:59.763           106.245               Magadan2         13280.625
       436   11 Jun 2027 14:08:11.714   11 Jun 2027 14:09:38.624            86.910               Magadan1         10863.750
       437   11 Jun 2027 16:28:41.234   11 Jun 2027 16:35:02.409           381.175            RioGallegos         47646.875
       438   11 Jun 2027 17:17:18.161   11 Jun 2027 17:18:41.167            83.006                Irkutsk         10375.750
       439   11 Jun 2027 17:30:02.783   11 Jun 2027 17:34:02.962           240.179                Sumatra         30022.375
       440   11 Jun 2027 18:51:48.340   11 Jun 2027 18:53:38.572           110.232                Novosib         13779.000
       441   11 Jun 2027 18:59:57.876   11 Jun 2027 19:01:48.803           110.927                  Delhi         13865.875
       442   11 Jun 2027 19:01:53.718   11 Jun 2027 19:03:37.461           103.743                  Delhi         12967.875
       443   11 Jun 2027 20:31:57.552   11 Jun 2027 20:33:49.789           112.237                 Moscow         14029.625
       444   11 Jun 2027 22:01:48.660   11 Jun 2027 22:02:35.583            46.923              Murmansk2          1473.750
       445   12 Jun 2027 04:25:55.752   12 Jun 2027 04:28:55.732           179.980                Norilsk         22497.500
       446   12 Jun 2027 05:37:43.709   12 Jun 2027 05:39:35.659           111.950                Sumatra         13993.750
       447   12 Jun 2027 05:49:52.830   12 Jun 2027 05:50:35.599            42.769                  Delhi          5346.125
       448   12 Jun 2027 05:51:30.718   12 Jun 2027 05:53:15.737           105.019                  Delhi         13127.375
       449   12 Jun 2027 06:01:42.417   12 Jun 2027 06:03:20.277            97.860                Novosib         12232.500
       450   12 Jun 2027 06:03:24.977   12 Jun 2027 06:06:47.815           202.838                Norilsk         25354.750
       451   12 Jun 2027 06:07:03.752   12 Jun 2027 06:09:15.992           132.240              Murmansk2         16530.000
       452   12 Jun 2027 06:44:31.963   12 Jun 2027 06:48:26.396           234.433            RioGallegos         29304.125
       453   12 Jun 2027 07:19:17.541   12 Jun 2027 07:22:14.396           176.855                Sumatra         22106.875
       454   12 Jun 2027 07:27:18.077   12 Jun 2027 07:32:25.074           306.997                  Delhi         38374.625
       455   12 Jun 2027 07:32:26.268   12 Jun 2027 07:33:39.905            73.637                Irkutsk          9204.625
       456   12 Jun 2027 07:37:48.342   12 Jun 2027 07:39:12.020            83.678                Novosib         10459.750
       457   12 Jun 2027 07:39:23.661   12 Jun 2027 07:42:47.662           204.001                Norilsk         25500.125
       458   12 Jun 2027 07:42:56.387   12 Jun 2027 07:44:36.514           100.127              Murmansk1         12515.875
       459   12 Jun 2027 09:03:18.106   12 Jun 2027 09:06:09.404           171.298                  Delhi         21412.250
       460   12 Jun 2027 09:06:33.401   12 Jun 2027 09:08:53.053           139.652                Novosib         17456.500
       461   12 Jun 2027 09:13:09.546   12 Jun 2027 09:13:29.187            19.641                Novosib          2455.125
       462   12 Jun 2027 09:14:12.066   12 Jun 2027 09:18:39.017           266.951                Norilsk         33368.875
       463   12 Jun 2027 09:19:28.866   12 Jun 2027 09:20:24.057            55.191              Murmansk2          6898.875
       464   12 Jun 2027 10:23:57.751   12 Jun 2027 10:26:06.258           128.507               CapeTown         16063.375
       465   12 Jun 2027 10:43:08.276   12 Jun 2027 10:43:53.603            45.327                 Moscow          5665.875
       466   12 Jun 2027 10:46:46.006   12 Jun 2027 10:50:12.506           206.500              Murmansk1         25812.500
       467   12 Jun 2027 10:50:12.879   12 Jun 2027 10:52:40.703           147.824                 Moscow         18478.000
       468   12 Jun 2027 10:52:41.857   12 Jun 2027 10:56:21.829           219.972              Murmansk2         27496.500
       469   12 Jun 2027 10:59:05.344   12 Jun 2027 11:05:32.425           387.081                Anadyr1         48385.125
       470   12 Jun 2027 12:40:15.509   12 Jun 2027 12:40:51.156            35.647               Magadan2          4455.875
       471   12 Jun 2027 14:12:33.193   12 Jun 2027 14:15:20.254           167.061               Magadan2         20882.625
       472   12 Jun 2027 14:16:55.911   12 Jun 2027 14:16:58.554             2.643               Magadan2           330.375
       473   12 Jun 2027 14:17:45.145   12 Jun 2027 14:17:57.462            12.317               Magadan2          1539.625
       474   12 Jun 2027 14:20:59.738   12 Jun 2027 14:21:39.445            39.707               Magadan1          4963.375
       475   12 Jun 2027 16:40:26.450   12 Jun 2027 16:46:25.623           359.173            RioGallegos         44896.625
       476   12 Jun 2027 17:29:45.986   12 Jun 2027 17:32:18.861           152.875                Irkutsk         19109.375
       477   12 Jun 2027 17:32:35.722   12 Jun 2027 17:34:42.113           126.391                Novosib         15798.875
       478   12 Jun 2027 17:43:32.124   12 Jun 2027 17:46:06.905           154.781                Sumatra         19347.625
       479   12 Jun 2027 19:06:00.544   12 Jun 2027 19:08:11.322           130.778                Novosib         16347.250
       480   12 Jun 2027 19:11:35.574   12 Jun 2027 19:12:59.202            83.628                  Delhi         10453.500
       481   12 Jun 2027 20:38:58.673   12 Jun 2027 20:39:12.187            13.514              Murmansk1          1689.250
       482   12 Jun 2027 20:41:54.184   12 Jun 2027 20:42:33.598            39.414              Murmansk1          4926.750
