uniorb/output/strategy_4/Drop/Drop_KinoSat_111610.txt

KinoSat_111610
-------------------------
    Access    *     Start Time (UTCG)     *     Stop Time (UTCG)  *   Duration (s)        *       Station  *  Data (Mbytes)
         1   01 Jun 2027 04:05:45.563   01 Jun 2027 04:06:12.655            27.092                Novosib           846.625
         2   01 Jun 2027 04:06:38.900   01 Jun 2027 04:07:49.107            70.207                 Moscow          2193.969
         3   01 Jun 2027 04:07:52.285   01 Jun 2027 04:08:23.080            30.795                Norilsk           962.344
         4   01 Jun 2027 04:08:24.765   01 Jun 2027 04:10:28.513           123.748              Murmansk2          3867.125
         5   01 Jun 2027 04:11:10.145   01 Jun 2027 04:14:12.029           181.884                 Moscow          5683.875
         6   01 Jun 2027 04:26:18.114   01 Jun 2027 04:34:48.216           510.102               CapeTown         15940.687
         7   01 Jun 2027 05:41:45.792   01 Jun 2027 05:42:08.944            23.152                Norilsk           723.500
         8   01 Jun 2027 05:42:10.189   01 Jun 2027 05:45:10.669           180.480              Murmansk2          5640.000
         9   01 Jun 2027 07:05:18.145   01 Jun 2027 07:06:01.618            43.473                Anadyr2          1358.531
        10   01 Jun 2027 07:06:16.657   01 Jun 2027 07:06:27.467            10.810                Norilsk           337.813
        11   01 Jun 2027 07:06:34.804   01 Jun 2027 07:08:30.301           115.497                Anadyr1          3609.281
        12   01 Jun 2027 07:09:56.324   01 Jun 2027 07:11:10.920            74.596                Anadyr1          2331.125
        13   01 Jun 2027 07:11:36.794   01 Jun 2027 07:11:55.072            18.278              Murmansk2           571.188
        14   01 Jun 2027 08:41:50.861   01 Jun 2027 08:43:03.548            72.687               Magadan2          2271.469
        15   01 Jun 2027 08:43:31.105   01 Jun 2027 08:46:39.739           188.634                Anadyr1          5894.812
        16   01 Jun 2027 10:17:37.753   01 Jun 2027 10:18:16.805            39.052               Magadan1          1220.375
        17   01 Jun 2027 10:18:33.207   01 Jun 2027 10:20:04.779            91.572                Irkutsk          2861.625
        18   01 Jun 2027 10:20:26.081   01 Jun 2027 10:20:59.696            33.615                Novosib          1050.469
        19   01 Jun 2027 10:21:03.701   01 Jun 2027 10:22:29.395            85.694                Irkutsk          2677.938
        20   01 Jun 2027 10:22:50.172   01 Jun 2027 10:23:35.729            45.557              Murmansk2          1423.656
        21   01 Jun 2027 10:23:35.729   01 Jun 2027 10:24:24.652            48.923              Murmansk1          1528.844
        22   01 Jun 2027 10:57:12.884   01 Jun 2027 10:59:30.521           137.637            RioGallegos          4301.156
        23   01 Jun 2027 11:32:20.435   01 Jun 2027 11:34:35.772           135.337                Sumatra          4229.281
        24   01 Jun 2027 11:53:36.975   01 Jun 2027 11:56:31.594           174.619                Novosib          5456.844
        25   01 Jun 2027 11:56:39.263   01 Jun 2027 11:57:15.617            36.354                Irkutsk          1136.063
        26   01 Jun 2027 11:57:29.808   01 Jun 2027 11:57:52.376            22.568              Murmansk1           705.250
        27   01 Jun 2027 11:57:58.384   01 Jun 2027 12:00:02.892           124.508                Novosib          3890.875
        28   01 Jun 2027 12:01:29.959   01 Jun 2027 12:02:10.708            40.749                Norilsk          1273.406
        29   01 Jun 2027 12:02:23.185   01 Jun 2027 12:02:44.163            20.978                Norilsk           655.562
        30   01 Jun 2027 12:03:16.310   01 Jun 2027 12:03:29.957            13.647                Norilsk           426.469
        31   01 Jun 2027 12:04:18.583   01 Jun 2027 12:04:32.606            14.023              Murmansk2           438.219
        32   01 Jun 2027 12:04:55.526   01 Jun 2027 12:05:50.268            54.742              Murmansk2          1710.687
        33   01 Jun 2027 12:35:40.540   01 Jun 2027 12:38:14.979           154.439            RioGallegos          4826.219
        34   01 Jun 2027 12:40:34.468   01 Jun 2027 12:41:09.467            34.999            RioGallegos          1093.719
        35   01 Jun 2027 12:41:36.668   01 Jun 2027 12:41:43.516             6.848            RioGallegos           214.000
        36   01 Jun 2027 12:44:06.781   01 Jun 2027 12:44:53.679            46.898            RioGallegos          1465.562
        37   01 Jun 2027 13:10:00.883   01 Jun 2027 13:12:10.083           129.200                Sumatra          4037.500
        38   01 Jun 2027 13:15:48.156   01 Jun 2027 13:18:08.517           140.361                Sumatra          4386.281
        39   01 Jun 2027 13:25:49.541   01 Jun 2027 13:30:06.851           257.310                Irkutsk          8040.937
        40   01 Jun 2027 13:32:24.600   01 Jun 2027 13:32:30.051             5.451                Irkutsk           170.344
        41   01 Jun 2027 13:40:51.402   01 Jun 2027 13:41:15.437            24.035              Murmansk1           751.094
        42   01 Jun 2027 14:55:45.280   01 Jun 2027 15:01:58.220           372.940                  Delhi         11654.375
        43   01 Jun 2027 15:04:12.589   01 Jun 2027 15:07:59.960           227.371                Novosib          7105.344
        44   01 Jun 2027 15:12:48.507   01 Jun 2027 15:14:01.821            73.314                Norilsk          2291.062
        45   01 Jun 2027 16:20:06.191   01 Jun 2027 16:22:02.248           116.057               CapeTown          3626.781
        46   01 Jun 2027 16:42:25.706   01 Jun 2027 16:42:47.809            22.103                 Moscow           690.719
        47   01 Jun 2027 16:43:17.781   01 Jun 2027 16:43:44.582            26.801                 Moscow           837.531
        48   01 Jun 2027 16:44:24.233   01 Jun 2027 16:45:42.394            78.161                 Moscow          2442.531
        49   01 Jun 2027 16:46:59.320   01 Jun 2027 16:47:42.792            43.472                 Moscow          1358.500
        50   01 Jun 2027 16:48:49.449   01 Jun 2027 16:49:15.488            26.039              Murmansk1           813.719
        51   01 Jun 2027 16:50:17.616   01 Jun 2027 16:50:57.949            40.333              Murmansk2          1260.406
        52   01 Jun 2027 16:51:52.717   01 Jun 2027 16:52:29.916            37.199              Murmansk2          1162.469
        53   01 Jun 2027 16:52:29.916   01 Jun 2027 16:53:04.584            34.668              Murmansk1          1083.375
        54   01 Jun 2027 16:58:34.678   01 Jun 2027 16:58:55.919            21.241                Anadyr1           663.781
        55   01 Jun 2027 16:59:19.192   01 Jun 2027 16:59:35.071            15.879                Anadyr2           496.219
        56   01 Jun 2027 17:00:00.780   01 Jun 2027 17:00:35.299            34.519                Anadyr2          1078.719
        57   01 Jun 2027 17:01:05.222   01 Jun 2027 17:01:39.911            34.689                Anadyr1          1084.031
        58   01 Jun 2027 17:02:29.720   01 Jun 2027 17:02:48.314            18.594                Anadyr1           581.062
        59   01 Jun 2027 17:56:34.758   01 Jun 2027 17:56:55.687            20.929               CapeTown           654.031
        60   01 Jun 2027 17:57:44.109   01 Jun 2027 17:58:04.592            20.483               CapeTown           640.094
        61   01 Jun 2027 17:58:53.830   01 Jun 2027 17:59:28.161            34.331               CapeTown          1072.844
        62   01 Jun 2027 18:00:00.865   01 Jun 2027 18:02:03.989           123.124               CapeTown          3847.625
        63   01 Jun 2027 18:19:34.853   01 Jun 2027 18:20:22.421            47.568                 Moscow          1486.500
        64   01 Jun 2027 18:21:26.947   01 Jun 2027 18:22:58.725            91.778              Murmansk2          2868.062
        65   01 Jun 2027 18:28:41.432   01 Jun 2027 18:28:55.056            13.624              Murmansk1           425.750
        66   01 Jun 2027 18:35:12.476   01 Jun 2027 18:35:30.933            18.457               Magadan1           576.781
        67   01 Jun 2027 18:36:05.590   01 Jun 2027 18:36:38.483            32.893               Magadan2          1027.906
        68   01 Jun 2027 18:38:52.935   01 Jun 2027 18:39:20.358            27.423               Magadan2           856.969
        69   01 Jun 2027 18:41:06.848   01 Jun 2027 18:41:15.302             8.454                Anadyr1           264.188
        70   01 Jun 2027 18:41:22.456   01 Jun 2027 18:41:27.664             5.208                Anadyr1           162.750
        71   01 Jun 2027 18:42:20.168   01 Jun 2027 18:42:32.006            11.838                Anadyr1           369.937
        72   01 Jun 2027 19:28:25.084   01 Jun 2027 19:29:55.359            90.275               CapeTown          2821.094
        73   01 Jun 2027 19:33:26.334   01 Jun 2027 19:33:55.719            29.385               CapeTown           918.281
        74   01 Jun 2027 20:06:41.254   01 Jun 2027 20:10:26.251           224.997                Anadyr1          7031.156
        75   01 Jun 2027 20:11:05.451   01 Jun 2027 20:11:36.403            30.952               Magadan1           967.250
        76   01 Jun 2027 20:13:26.197   01 Jun 2027 20:13:54.823            28.626               Magadan1           894.563
        77   01 Jun 2027 20:14:14.655   01 Jun 2027 20:14:34.643            19.988               Magadan2           624.625
        78   01 Jun 2027 20:15:36.368   01 Jun 2027 20:16:07.910            31.542               Magadan2           985.687
        79   01 Jun 2027 20:17:04.028   01 Jun 2027 20:17:20.737            16.709                Anadyr2           522.156
        80   01 Jun 2027 20:17:41.372   01 Jun 2027 20:18:07.628            26.256               Magadan1           820.500
        81   01 Jun 2027 20:19:13.651   01 Jun 2027 20:19:26.059            12.408               Magadan1           387.750
        82   01 Jun 2027 20:19:37.745   01 Jun 2027 20:19:46.618             8.873               Magadan1           277.281
        83   01 Jun 2027 21:42:35.793   01 Jun 2027 21:48:26.606           350.813                Anadyr2         10962.906
        84   01 Jun 2027 21:48:28.249   01 Jun 2027 21:48:43.459            15.210               Magadan1           475.313
        85   01 Jun 2027 21:48:49.926   01 Jun 2027 21:49:20.991            31.065                Norilsk           970.781
        86   01 Jun 2027 21:49:43.810   01 Jun 2027 21:50:09.455            25.645                Norilsk           801.406
        87   01 Jun 2027 21:50:46.017   01 Jun 2027 21:51:08.710            22.693               Magadan1           709.156
        88   01 Jun 2027 21:51:46.323   01 Jun 2027 21:52:00.856            14.533               Magadan2           454.156
        89   01 Jun 2027 21:52:06.908   01 Jun 2027 21:52:43.044            36.136               Magadan2          1129.250
        90   01 Jun 2027 21:53:37.316   01 Jun 2027 21:54:00.492            23.176                Irkutsk           724.250
        91   01 Jun 2027 21:56:15.907   01 Jun 2027 21:56:47.674            31.767               Magadan2           992.719
        92   01 Jun 2027 22:37:15.986   01 Jun 2027 22:38:02.826            46.840            RioGallegos          1463.750
        93   01 Jun 2027 22:39:06.707   01 Jun 2027 22:40:12.470            65.763            RioGallegos          2055.094
        94   01 Jun 2027 22:42:44.213   01 Jun 2027 22:42:58.115            13.902            RioGallegos           434.437
        95   01 Jun 2027 22:44:28.670   01 Jun 2027 22:45:04.293            35.623            RioGallegos          1113.219
        96   01 Jun 2027 22:47:24.582   01 Jun 2027 22:47:37.888            13.306            RioGallegos           415.812
        97   01 Jun 2027 22:47:55.045   01 Jun 2027 22:48:01.711             6.666            RioGallegos           208.312
        98   01 Jun 2027 23:18:10.029   01 Jun 2027 23:19:22.952            72.923                Anadyr1          2278.844
        99   01 Jun 2027 23:20:25.090   01 Jun 2027 23:22:06.115           101.025                Norilsk          3157.031
       100   01 Jun 2027 23:22:12.621   01 Jun 2027 23:22:42.420            29.799               Magadan1           931.219
       101   01 Jun 2027 23:24:32.843   01 Jun 2027 23:25:27.006            54.163                Irkutsk          1692.594
       102   01 Jun 2027 23:26:07.856   01 Jun 2027 23:26:13.061             5.205                Novosib           162.656
       103   01 Jun 2027 23:26:47.908   01 Jun 2027 23:27:16.193            28.285                Irkutsk           883.906
       104   01 Jun 2027 23:27:22.052   01 Jun 2027 23:29:14.431           112.379                Irkutsk          3511.844
       105   01 Jun 2027 23:43:39.887   01 Jun 2027 23:44:27.930            48.043                Sumatra          1501.344
       106   01 Jun 2027 23:46:38.870   01 Jun 2027 23:46:59.020            20.150                Sumatra           629.688
       107   01 Jun 2027 23:47:45.323   01 Jun 2027 23:48:17.459            32.136                Sumatra          1004.250
       108   02 Jun 2027 00:17:21.272   02 Jun 2027 00:17:41.953            20.681            RioGallegos           646.281
       109   02 Jun 2027 00:19:05.519   02 Jun 2027 00:20:00.785            55.266            RioGallegos          1727.063
       110   02 Jun 2027 00:23:58.802   02 Jun 2027 00:25:08.240            69.438            RioGallegos          2169.937
       111   02 Jun 2027 00:54:25.606   02 Jun 2027 00:55:14.351            48.745                Anadyr2          1523.281
       112   02 Jun 2027 00:56:23.590   02 Jun 2027 00:58:06.154           102.564                Norilsk          3205.125
       113   02 Jun 2027 00:59:26.672   02 Jun 2027 00:59:58.324            31.652               Magadan1           989.125
       114   02 Jun 2027 01:00:16.954   02 Jun 2027 01:02:16.393           119.439                Irkutsk          3732.469
       115   02 Jun 2027 01:04:25.144   02 Jun 2027 01:05:31.290            66.146                Irkutsk          2067.063
       116   02 Jun 2027 01:12:45.942   02 Jun 2027 01:12:48.934             2.992                Irkutsk            93.500
       117   02 Jun 2027 01:14:20.330   02 Jun 2027 01:15:03.160            42.830                  Delhi          1338.437
       118   02 Jun 2027 01:16:32.433   02 Jun 2027 01:18:04.499            92.066                Sumatra          2877.063
       119   02 Jun 2027 01:51:15.120   02 Jun 2027 01:51:53.661            38.541            RioGallegos          1204.406
       120   02 Jun 2027 01:52:51.005   02 Jun 2027 01:52:58.791             7.786            RioGallegos           243.312
       121   02 Jun 2027 01:54:37.347   02 Jun 2027 01:55:11.839            34.492            RioGallegos          1077.875
       122   02 Jun 2027 01:57:29.906   02 Jun 2027 01:58:32.095            62.189            RioGallegos          1943.406
       123   02 Jun 2027 02:29:26.861   02 Jun 2027 02:29:38.713            11.852                Anadyr2           370.375
       124   02 Jun 2027 02:30:00.861   02 Jun 2027 02:30:09.027             8.166                Anadyr2           255.188
       125   02 Jun 2027 02:31:55.531   02 Jun 2027 02:32:06.290            10.759                Anadyr2           336.219
       126   02 Jun 2027 02:32:20.768   02 Jun 2027 02:32:24.067             3.299                Anadyr1           103.094
       127   02 Jun 2027 02:32:27.127   02 Jun 2027 02:32:27.611             0.484               Magadan1            15.125
       128   02 Jun 2027 02:32:50.126   02 Jun 2027 02:33:56.326            66.200                Norilsk          2068.750
       129   02 Jun 2027 02:34:41.362   02 Jun 2027 02:35:31.809            50.447              Murmansk2          1576.469
       130   02 Jun 2027 02:35:57.100   02 Jun 2027 02:36:13.788            16.688              Murmansk1           521.500
       131   02 Jun 2027 02:36:15.353   02 Jun 2027 02:36:40.212            24.859                Novosib           776.844
       132   02 Jun 2027 02:36:57.882   02 Jun 2027 02:37:35.811            37.929                Irkutsk          1185.281
       133   02 Jun 2027 02:39:38.449   02 Jun 2027 02:39:51.357            12.908                Irkutsk           403.375
       134   02 Jun 2027 02:40:18.916   02 Jun 2027 02:40:19.971             1.055                Irkutsk            32.969
       135   02 Jun 2027 02:41:14.839   02 Jun 2027 02:42:33.238            78.399                Irkutsk          2449.969
       136   02 Jun 2027 02:48:22.164   02 Jun 2027 02:48:33.750            11.586                  Delhi           362.063
       137   02 Jun 2027 02:49:45.031   02 Jun 2027 02:51:18.884            93.853                  Delhi          2932.906
       138   02 Jun 2027 04:17:22.085   02 Jun 2027 04:18:52.735            90.650                Norilsk          2832.812
       139   02 Jun 2027 04:19:04.089   02 Jun 2027 04:19:32.379            28.290                Novosib           884.063
       140   02 Jun 2027 04:19:52.779   02 Jun 2027 04:20:14.123            21.344                Norilsk           667.000
       141   02 Jun 2027 04:20:34.056   02 Jun 2027 04:21:47.895            73.839              Murmansk2          2307.469
       142   02 Jun 2027 04:21:47.895   02 Jun 2027 04:22:44.116            56.221              Murmansk1          1756.906
       143   02 Jun 2027 04:22:59.603   02 Jun 2027 04:26:24.901           205.298                 Moscow          6415.563
       144   02 Jun 2027 05:41:59.483   02 Jun 2027 05:42:30.126            30.643               Magadan2           957.594
       145   02 Jun 2027 05:42:54.456   02 Jun 2027 05:43:31.677            37.221                Anadyr1          1163.156
       146   02 Jun 2027 05:43:57.876   02 Jun 2027 05:45:11.698            73.822                Anadyr1          2306.938
       147   02 Jun 2027 07:18:03.627   02 Jun 2027 07:20:02.190           118.563                Anadyr1          3705.094
       148   02 Jun 2027 07:20:04.864   02 Jun 2027 07:22:54.213           169.349               Magadan2          5292.156
       149   02 Jun 2027 08:53:23.539   02 Jun 2027 08:54:01.110            37.571                Anadyr1          1174.094
       150   02 Jun 2027 08:54:44.865   02 Jun 2027 08:58:32.063           227.198                Anadyr2          7099.938
       151   02 Jun 2027 10:28:46.059   02 Jun 2027 10:29:14.014            27.955                Irkutsk           873.594
       152   02 Jun 2027 10:30:26.785   02 Jun 2027 10:32:48.370           141.585               Magadan2          4424.531
       153   02 Jun 2027 10:33:13.498   02 Jun 2027 10:33:50.613            37.115                Irkutsk          1159.844
       154   02 Jun 2027 10:34:00.562   02 Jun 2027 10:34:48.308            47.746                Novosib          1492.062
       155   02 Jun 2027 11:09:37.609   02 Jun 2027 11:10:06.669            29.060            RioGallegos           908.125
       156   02 Jun 2027 11:14:30.991   02 Jun 2027 11:15:03.297            32.306            RioGallegos          1009.562
       157   02 Jun 2027 11:44:12.290   02 Jun 2027 11:44:47.946            35.656                Sumatra          1114.250
       158   02 Jun 2027 11:56:33.912   02 Jun 2027 11:56:39.460             5.548                Sumatra           173.375
       159   02 Jun 2027 11:57:14.466   02 Jun 2027 11:57:21.652             7.186                  Delhi           224.563
       160   02 Jun 2027 12:01:00.452   02 Jun 2027 12:02:19.576            79.124                  Delhi          2472.625
       161   02 Jun 2027 12:14:10.836   02 Jun 2027 12:15:00.696            49.860                Norilsk          1558.125
       162   02 Jun 2027 12:50:09.991   02 Jun 2027 12:52:16.782           126.791            RioGallegos          3962.219
       163   02 Jun 2027 13:24:49.535   02 Jun 2027 13:26:59.528           129.993                Sumatra          4062.281
       164   02 Jun 2027 13:39:11.638   02 Jun 2027 13:40:38.416            86.778                Irkutsk          2711.813
       165   02 Jun 2027 13:50:46.091   02 Jun 2027 13:50:47.754             1.663                Norilsk            51.969
       166   02 Jun 2027 15:10:19.633   02 Jun 2027 15:11:39.063            79.430                  Delhi          2482.188
       167   02 Jun 2027 15:12:48.466   02 Jun 2027 15:14:53.667           125.201                 Moscow          3912.531
       168   02 Jun 2027 15:16:02.034   02 Jun 2027 15:16:29.122            27.088                 Moscow           846.500
       169   02 Jun 2027 15:17:57.550   02 Jun 2027 15:20:27.356           149.806                Novosib          4681.438
       170   02 Jun 2027 15:23:28.892   02 Jun 2027 15:24:01.868            32.976                Norilsk          1030.500
       171   02 Jun 2027 15:24:25.470   02 Jun 2027 15:24:51.973            26.503                Norilsk           828.219
       172   02 Jun 2027 16:27:52.507   02 Jun 2027 16:28:44.895            52.388               CapeTown          1637.125
       173   02 Jun 2027 16:31:05.358   02 Jun 2027 16:31:39.630            34.272               CapeTown          1071.000
       174   02 Jun 2027 16:34:49.462   02 Jun 2027 16:34:59.318             9.856               CapeTown           308.000
       175   02 Jun 2027 16:35:51.350   02 Jun 2027 16:36:41.656            50.306               CapeTown          1572.063
       176   02 Jun 2027 16:49:40.884   02 Jun 2027 16:50:08.980            28.096                 Moscow           878.000
       177   02 Jun 2027 16:53:23.782   02 Jun 2027 16:53:38.214            14.432              Murmansk1           451.000
       178   02 Jun 2027 16:53:58.844   02 Jun 2027 16:54:27.325            28.481                 Moscow           890.031
       179   02 Jun 2027 16:55:56.411   02 Jun 2027 16:57:06.609            70.198              Murmansk1          2193.687
       180   02 Jun 2027 17:03:14.117   02 Jun 2027 17:04:24.717            70.600              Murmansk1          2206.250
       181   02 Jun 2027 17:08:55.761   02 Jun 2027 17:09:08.930            13.169                Anadyr2           411.531
       182   02 Jun 2027 17:09:36.044   02 Jun 2027 17:10:01.257            25.213                Anadyr2           787.906
       183   02 Jun 2027 17:12:06.154   02 Jun 2027 17:13:06.202            60.048                Anadyr1          1876.500
       184   02 Jun 2027 18:05:22.472   02 Jun 2027 18:06:07.386            44.914               CapeTown          1403.563
       185   02 Jun 2027 18:11:12.584   02 Jun 2027 18:11:35.843            23.259               CapeTown           726.844
       186   02 Jun 2027 18:31:56.525   02 Jun 2027 18:37:13.822           317.297              Murmansk2          9915.531
       187   02 Jun 2027 18:48:30.242   02 Jun 2027 18:48:39.149             8.907               Magadan2           278.344
       188   02 Jun 2027 18:49:35.412   02 Jun 2027 18:49:36.435             1.023               Magadan1            31.969
       189   02 Jun 2027 18:50:15.501   02 Jun 2027 18:50:21.369             5.868               Magadan1           183.375
       190   02 Jun 2027 18:50:36.976   02 Jun 2027 18:51:09.106            32.130               Magadan1          1004.063
       191   02 Jun 2027 19:40:35.676   02 Jun 2027 19:40:39.577             3.901               CapeTown           121.906
       192   02 Jun 2027 19:41:56.848   02 Jun 2027 19:42:22.122            25.274               CapeTown           789.812
       193   02 Jun 2027 19:44:48.362   02 Jun 2027 19:45:09.632            21.270               CapeTown           664.687
       194   02 Jun 2027 20:18:43.009   02 Jun 2027 20:22:33.569           230.560                Anadyr1          7205.000
       195   02 Jun 2027 20:23:04.805   02 Jun 2027 20:25:08.877           124.072               Magadan1          3877.250
       196   02 Jun 2027 20:31:47.992   02 Jun 2027 20:32:13.802            25.810               Magadan2           806.563
       197   02 Jun 2027 20:33:08.057   02 Jun 2027 20:33:15.037             6.980               Magadan1           218.125
       198   02 Jun 2027 21:54:36.342   02 Jun 2027 21:58:16.938           220.596                Anadyr1          6893.625
       199   02 Jun 2027 21:58:20.921   02 Jun 2027 22:01:19.212           178.291                Norilsk          5571.594
       200   02 Jun 2027 22:01:23.619   02 Jun 2027 22:02:09.670            46.051               Magadan1          1439.094
       201   02 Jun 2027 22:03:17.477   02 Jun 2027 22:03:53.955            36.478                Irkutsk          1139.938
       202   02 Jun 2027 22:05:03.061   02 Jun 2027 22:05:18.457            15.396                Irkutsk           481.125
       203   02 Jun 2027 22:48:47.192   02 Jun 2027 22:49:43.945            56.753            RioGallegos          1773.531
       204   02 Jun 2027 22:51:31.844   02 Jun 2027 22:51:46.997            15.153            RioGallegos           473.531
       205   02 Jun 2027 22:53:34.082   02 Jun 2027 22:53:53.568            19.486            RioGallegos           608.937
       206   02 Jun 2027 22:54:06.063   02 Jun 2027 22:54:52.887            46.824            RioGallegos          1463.250
       207   02 Jun 2027 22:58:16.695   02 Jun 2027 22:58:28.322            11.627            RioGallegos           363.344
       208   02 Jun 2027 23:30:05.838   02 Jun 2027 23:32:25.893           140.055                Anadyr2          4376.719
       209   02 Jun 2027 23:32:26.350   02 Jun 2027 23:32:35.090             8.740                Norilsk           273.125
       210   02 Jun 2027 23:33:00.643   02 Jun 2027 23:33:41.686            41.043               Magadan1          1282.594
       211   02 Jun 2027 23:33:53.063   02 Jun 2027 23:34:08.231            15.168                Norilsk           474.000
       212   02 Jun 2027 23:34:23.199   02 Jun 2027 23:34:46.957            23.758               Magadan1           742.437
       213   02 Jun 2027 23:35:50.889   02 Jun 2027 23:36:24.885            33.996               Magadan1          1062.375
       214   02 Jun 2027 23:36:24.885   02 Jun 2027 23:37:03.404            38.519               Magadan2          1203.719
       215   02 Jun 2027 23:37:31.559   02 Jun 2027 23:38:00.331            28.772                Irkutsk           899.125
       216   02 Jun 2027 23:38:16.476   02 Jun 2027 23:38:57.725            41.249                Novosib          1289.031
       217   02 Jun 2027 23:40:14.797   02 Jun 2027 23:40:30.346            15.549                Novosib           485.906
       218   02 Jun 2027 23:40:52.010   02 Jun 2027 23:41:57.998            65.988                Novosib          2062.125
       219   02 Jun 2027 23:50:10.404   02 Jun 2027 23:51:25.017            74.613                Sumatra          2331.656
       220   03 Jun 2027 00:26:24.407   03 Jun 2027 00:26:27.593             3.186            RioGallegos            99.562
       221   03 Jun 2027 00:27:33.096   03 Jun 2027 00:28:12.414            39.318            RioGallegos          1228.687
       222   03 Jun 2027 00:35:58.571   03 Jun 2027 00:36:09.697            11.126            RioGallegos           347.687
       223   03 Jun 2027 01:04:34.837   03 Jun 2027 01:05:39.337            64.500                Anadyr2          2015.625
       224   03 Jun 2027 01:06:18.429   03 Jun 2027 01:06:47.350            28.921                Anadyr2           903.781
       225   03 Jun 2027 01:07:18.724   03 Jun 2027 01:07:30.218            11.494                Anadyr2           359.188
       226   03 Jun 2027 01:08:25.900   03 Jun 2027 01:10:07.740           101.840                Norilsk          3182.500
       227   03 Jun 2027 01:11:04.038   03 Jun 2027 01:11:19.621            15.583               Magadan1           486.969
       228   03 Jun 2027 01:11:34.417   03 Jun 2027 01:12:00.959            26.542               Magadan1           829.437
       229   03 Jun 2027 01:12:19.130   03 Jun 2027 01:14:14.548           115.418                Novosib          3606.813
       230   03 Jun 2027 01:15:47.578   03 Jun 2027 01:15:59.018            11.440                Novosib           357.500
       231   03 Jun 2027 01:17:03.438   03 Jun 2027 01:17:14.104            10.666                Novosib           333.313
       232   03 Jun 2027 01:19:15.444   03 Jun 2027 01:19:57.074            41.630                Novosib          1300.938
       233   03 Jun 2027 01:21:31.864   03 Jun 2027 01:22:14.204            42.340                  Delhi          1323.125
       234   03 Jun 2027 01:27:42.650   03 Jun 2027 01:28:23.008            40.358                  Delhi          1261.188
       235   03 Jun 2027 01:33:03.334   03 Jun 2027 01:33:42.654            39.320                Sumatra          1228.750
       236   03 Jun 2027 02:01:00.932   03 Jun 2027 02:01:26.392            25.460            RioGallegos           795.625
       237   03 Jun 2027 02:04:55.174   03 Jun 2027 02:05:17.532            22.358            RioGallegos           698.687
       238   03 Jun 2027 02:07:34.130   03 Jun 2027 02:07:47.460            13.330            RioGallegos           416.562
       239   03 Jun 2027 02:37:58.332   03 Jun 2027 02:38:16.412            18.080                Anadyr2           565.000
       240   03 Jun 2027 02:39:56.827   03 Jun 2027 02:40:46.366            49.539                Anadyr2          1548.094
       241   03 Jun 2027 02:43:06.343   03 Jun 2027 02:43:57.142            50.799                Anadyr2          1587.469
       242   03 Jun 2027 02:44:12.211   03 Jun 2027 02:44:53.712            41.501               Magadan2          1296.906
       243   03 Jun 2027 02:45:44.785   03 Jun 2027 02:45:55.711            10.926                Norilsk           341.438
       244   03 Jun 2027 02:46:40.362   03 Jun 2027 02:48:00.068            79.706              Murmansk1          2490.812
       245   03 Jun 2027 02:48:15.380   03 Jun 2027 02:48:51.702            36.322                Novosib          1135.062
       246   03 Jun 2027 02:49:11.456   03 Jun 2027 02:49:54.682            43.226                Irkutsk          1350.812
       247   03 Jun 2027 02:56:16.722   03 Jun 2027 02:56:49.509            32.787                  Delhi          1024.594
       248   03 Jun 2027 02:59:35.198   03 Jun 2027 03:00:40.546            65.348                  Delhi          2042.125
       249   03 Jun 2027 04:30:28.798   03 Jun 2027 04:30:45.745            16.947                 Moscow           529.594
       250   03 Jun 2027 04:30:52.656   03 Jun 2027 04:33:07.168           134.512                Novosib          4203.500
       251   03 Jun 2027 04:33:16.370   03 Jun 2027 04:33:46.339            29.969                 Moscow           936.531
       252   03 Jun 2027 04:33:58.158   03 Jun 2027 04:34:48.442            50.284                 Moscow          1571.375
       253   03 Jun 2027 04:34:54.442   03 Jun 2027 04:34:57.738             3.296              Murmansk2           103.000
       254   03 Jun 2027 04:35:17.158   03 Jun 2027 04:36:46.011            88.853                 Moscow          2776.656
       255   03 Jun 2027 04:51:17.178   03 Jun 2027 04:52:05.780            48.602               CapeTown          1518.813
       256   03 Jun 2027 04:53:15.980   03 Jun 2027 04:53:24.342             8.362               CapeTown           261.313
       257   03 Jun 2027 05:53:00.635   03 Jun 2027 05:54:12.697            72.062               Magadan2          2251.937
       258   03 Jun 2027 05:54:43.221   03 Jun 2027 05:54:51.657             8.436               Magadan2           263.625
       259   03 Jun 2027 07:27:35.530   03 Jun 2027 07:28:43.114            67.584                Anadyr1          2112.000
       260   03 Jun 2027 07:28:59.056   03 Jun 2027 07:29:06.243             7.187               Magadan1           224.594
       261   03 Jun 2027 07:29:17.219   03 Jun 2027 07:30:07.633            50.414                Anadyr2          1575.437
       262   03 Jun 2027 07:30:07.633   03 Jun 2027 07:30:16.407             8.774                Anadyr1           274.188
       263   03 Jun 2027 07:30:40.256   03 Jun 2027 07:31:04.519            24.263               Magadan2           758.219
       264   03 Jun 2027 07:31:07.657   03 Jun 2027 07:31:08.570             0.913               Magadan1            28.531
       265   03 Jun 2027 07:31:28.638   03 Jun 2027 07:32:32.675            64.037                Anadyr2          2001.156
       266   03 Jun 2027 07:39:15.127   03 Jun 2027 07:39:40.043            24.916                 Moscow           778.625
       267   03 Jun 2027 09:01:58.711   03 Jun 2027 09:02:11.797            13.086               Magadan2           408.938
       268   03 Jun 2027 09:02:57.747   03 Jun 2027 09:03:01.794             4.047               Magadan2           126.469
       269   03 Jun 2027 09:03:04.866   03 Jun 2027 09:03:25.248            20.382                Anadyr1           636.937
       270   03 Jun 2027 09:03:59.822   03 Jun 2027 09:05:47.004           107.182                Anadyr2          3349.438
       271   03 Jun 2027 09:07:00.067   03 Jun 2027 09:07:42.074            42.007                Anadyr1          1312.719
       272   03 Jun 2027 09:07:48.148   03 Jun 2027 09:09:15.039            86.891                Anadyr1          2715.344
       273   03 Jun 2027 09:46:03.418   03 Jun 2027 09:47:00.065            56.647            RioGallegos          1770.219
       274   03 Jun 2027 09:48:03.426   03 Jun 2027 09:48:25.745            22.319            RioGallegos           697.469
       275   03 Jun 2027 09:53:57.282   03 Jun 2027 09:54:06.987             9.705            RioGallegos           303.281
       276   03 Jun 2027 10:25:04.191   03 Jun 2027 10:25:16.900            12.709                Sumatra           397.156
       277   03 Jun 2027 10:28:19.078   03 Jun 2027 10:28:48.916            29.838                Sumatra           932.438
       278   03 Jun 2027 10:40:06.666   03 Jun 2027 10:40:37.562            30.896                Irkutsk           965.500
       279   03 Jun 2027 10:40:59.267   03 Jun 2027 10:42:17.276            78.009               Magadan2          2437.781
       280   03 Jun 2027 10:42:17.276   03 Jun 2027 10:42:58.022            40.746               Magadan1          1273.313
       281   03 Jun 2027 10:43:11.380   03 Jun 2027 10:44:46.025            94.645               Magadan1          2957.656
       282   03 Jun 2027 10:45:04.643   03 Jun 2027 10:45:40.889            36.246                Irkutsk          1132.688
       283   03 Jun 2027 10:45:56.981   03 Jun 2027 10:45:59.770             2.789                Novosib            87.156
       284   03 Jun 2027 10:46:23.925   03 Jun 2027 10:46:37.693            13.768                Irkutsk           430.250
       285   03 Jun 2027 11:21:28.211   03 Jun 2027 11:21:59.694            31.483            RioGallegos           983.844
       286   03 Jun 2027 11:22:37.473   03 Jun 2027 11:23:19.261            41.788            RioGallegos          1305.875
       287   03 Jun 2027 11:56:09.934   03 Jun 2027 11:56:52.342            42.408                Sumatra          1325.250
       288   03 Jun 2027 11:58:49.664   03 Jun 2027 11:59:03.002            13.338                Sumatra           416.813
       289   03 Jun 2027 12:10:23.225   03 Jun 2027 12:11:44.637            81.412                Irkutsk          2544.125
       290   03 Jun 2027 12:12:58.014   03 Jun 2027 12:13:49.806            51.792                Irkutsk          1618.500
       291   03 Jun 2027 12:26:12.341   03 Jun 2027 12:26:53.061            40.720                Norilsk          1272.500
       292   03 Jun 2027 13:01:30.899   03 Jun 2027 13:02:02.977            32.078            RioGallegos          1002.438
       293   03 Jun 2027 13:04:16.507   03 Jun 2027 13:05:42.846            86.339            RioGallegos          2698.094
       294   03 Jun 2027 13:42:43.721   03 Jun 2027 13:43:29.619            45.898                  Delhi          1434.312
       295   03 Jun 2027 13:48:15.185   03 Jun 2027 13:49:19.992            64.807                Novosib          2025.219
       296   03 Jun 2027 13:50:12.301   03 Jun 2027 13:52:28.322           136.021                Novosib          4250.656
       297   03 Jun 2027 15:24:46.432   03 Jun 2027 15:28:04.378           197.946                 Moscow          6185.812
       298   03 Jun 2027 15:28:12.521   03 Jun 2027 15:29:28.325            75.804              Murmansk1          2368.875
       299   03 Jun 2027 15:32:09.375   03 Jun 2027 15:33:38.371            88.996                Norilsk          2781.125
       300   03 Jun 2027 15:35:26.839   03 Jun 2027 15:37:41.344           134.505                Norilsk          4203.281
       301   03 Jun 2027 16:43:56.989   03 Jun 2027 16:44:35.624            38.635               CapeTown          1207.344
       302   03 Jun 2027 17:02:05.805   03 Jun 2027 17:02:23.528            17.723                 Moscow           553.844
       303   03 Jun 2027 17:03:13.257   03 Jun 2027 17:03:38.910            25.653                 Moscow           801.656
       304   03 Jun 2027 17:04:33.512   03 Jun 2027 17:05:58.639            85.127                 Moscow          2660.219
       305   03 Jun 2027 17:12:03.274   03 Jun 2027 17:12:43.328            40.054                 Moscow          1251.688
       306   03 Jun 2027 17:19:16.181   03 Jun 2027 17:20:34.647            78.466                Anadyr2          2452.062
       307   03 Jun 2027 17:20:55.302   03 Jun 2027 17:21:44.955            49.653                Anadyr1          1551.656
       308   03 Jun 2027 17:27:53.834   03 Jun 2027 17:28:09.648            15.814                Anadyr2           494.188
       309   03 Jun 2027 18:16:04.642   03 Jun 2027 18:16:21.115            16.473               CapeTown           514.781
       310   03 Jun 2027 18:19:11.542   03 Jun 2027 18:20:01.736            50.194               CapeTown          1568.563
       311   03 Jun 2027 18:44:33.175   03 Jun 2027 18:45:25.244            52.069              Murmansk1          1627.156
       312   03 Jun 2027 18:45:29.281   03 Jun 2027 18:49:13.543           224.262              Murmansk2          7008.188
       313   03 Jun 2027 18:58:14.557   03 Jun 2027 18:59:35.451            80.894               Magadan1          2527.937
       314   03 Jun 2027 19:01:13.001   03 Jun 2027 19:01:18.656             5.655               Magadan1           176.719
       315   03 Jun 2027 19:54:28.617   03 Jun 2027 19:55:51.775            83.158               CapeTown          2598.687
       316   03 Jun 2027 20:30:44.743   03 Jun 2027 20:32:21.477            96.734                Anadyr2          3022.937
       317   03 Jun 2027 20:32:36.107   03 Jun 2027 20:34:35.613           119.506                Anadyr1          3734.563
       318   03 Jun 2027 20:35:12.249   03 Jun 2027 20:36:21.710            69.461               Magadan1          2170.656
       319   03 Jun 2027 20:36:21.710   03 Jun 2027 20:36:47.324            25.614               Magadan2           800.437
       320   03 Jun 2027 20:38:26.638   03 Jun 2027 20:38:32.542             5.904               Magadan2           184.500
       321   03 Jun 2027 20:41:06.147   03 Jun 2027 20:41:33.025            26.878               Magadan1           839.937
       322   03 Jun 2027 20:41:56.446   03 Jun 2027 20:42:21.222            24.776               Magadan1           774.250
       323   03 Jun 2027 21:29:15.815   03 Jun 2027 21:29:37.702            21.887            RioGallegos           683.969
       324   03 Jun 2027 22:06:36.542   03 Jun 2027 22:08:42.053           125.511                Anadyr2          3922.219
       325   03 Jun 2027 22:08:47.985   03 Jun 2027 22:12:37.898           229.913                Norilsk          7184.781
       326   03 Jun 2027 22:12:48.083   03 Jun 2027 22:14:07.354            79.271               Magadan2          2477.219
       327   03 Jun 2027 22:14:09.229   03 Jun 2027 22:14:18.052             8.823                Irkutsk           275.719
       328   03 Jun 2027 22:15:23.730   03 Jun 2027 22:16:02.199            38.469                Irkutsk          1202.156
       329   03 Jun 2027 22:19:15.575   03 Jun 2027 22:19:45.824            30.249                Irkutsk           945.281
       330   03 Jun 2027 22:30:04.021   03 Jun 2027 22:31:28.726            84.705                Sumatra          2647.031
       331   03 Jun 2027 22:32:20.953   03 Jun 2027 22:34:09.989           109.036                Sumatra          3407.375
       332   03 Jun 2027 23:42:00.661   03 Jun 2027 23:42:30.118            29.457                Anadyr1           920.531
       333   03 Jun 2027 23:42:55.615   03 Jun 2027 23:42:58.775             3.160                Anadyr2            98.750
       334   03 Jun 2027 23:43:24.577   03 Jun 2027 23:44:24.151            59.574                Anadyr1          1861.687
       335   03 Jun 2027 23:44:51.727   03 Jun 2027 23:45:12.748            21.021                Norilsk           656.906
       336   03 Jun 2027 23:45:49.245   03 Jun 2027 23:46:10.376            21.131                Norilsk           660.344
       337   03 Jun 2027 23:46:55.631   03 Jun 2027 23:48:01.127            65.496               Magadan2          2046.750
       338   03 Jun 2027 23:48:26.721   03 Jun 2027 23:49:32.814            66.093                Irkutsk          2065.406
       339   03 Jun 2027 23:49:55.382   03 Jun 2027 23:50:06.495            11.113                Novosib           347.281
       340   03 Jun 2027 23:50:57.305   03 Jun 2027 23:51:20.258            22.953                Novosib           717.281
       341   03 Jun 2027 23:52:31.463   03 Jun 2027 23:53:27.947            56.484                Novosib          1765.125
       342   03 Jun 2027 23:55:41.793   03 Jun 2027 23:55:45.965             4.172                Novosib           130.375
       343   04 Jun 2027 00:02:10.877   04 Jun 2027 00:02:16.497             5.620                Sumatra           175.625
       344   04 Jun 2027 00:04:22.250   04 Jun 2027 00:04:51.468            29.218                Sumatra           913.062
       345   04 Jun 2027 00:08:41.842   04 Jun 2027 00:10:19.049            97.207                Sumatra          3037.719
       346   04 Jun 2027 00:47:37.553   04 Jun 2027 00:47:57.747            20.194            RioGallegos           631.062
       347   04 Jun 2027 01:16:19.853   04 Jun 2027 01:16:58.193            38.340                Anadyr2          1198.125
       348   04 Jun 2027 01:16:58.193   04 Jun 2027 01:17:38.744            40.551                Anadyr1          1267.219
       349   04 Jun 2027 01:18:08.517   04 Jun 2027 01:18:30.292            21.775                Anadyr2           680.469
       350   04 Jun 2027 01:19:19.879   04 Jun 2027 01:19:20.366             0.487                Anadyr1            15.219
       351   04 Jun 2027 01:20:28.177   04 Jun 2027 01:22:26.873           118.696                Norilsk          3709.250
       352   04 Jun 2027 01:23:20.134   04 Jun 2027 01:23:29.880             9.746               Magadan2           304.563
       353   04 Jun 2027 01:23:48.032   04 Jun 2027 01:24:27.956            39.924              Murmansk1          1247.625
       354   04 Jun 2027 01:24:36.608   04 Jun 2027 01:25:58.316            81.708                Novosib          2553.375
       355   04 Jun 2027 01:26:07.775   04 Jun 2027 01:26:19.232            11.457                Irkutsk           358.031
       356   04 Jun 2027 01:27:46.799   04 Jun 2027 01:28:12.318            25.519                Novosib           797.469
       357   04 Jun 2027 01:31:42.451   04 Jun 2027 01:32:30.415            47.964                  Delhi          1498.875
       358   04 Jun 2027 01:38:32.678   04 Jun 2027 01:38:57.200            24.522                  Delhi           766.312
       359   04 Jun 2027 01:44:01.798   04 Jun 2027 01:44:22.277            20.479                  Delhi           639.969
       360   04 Jun 2027 02:13:14.432   04 Jun 2027 02:13:44.464            30.032            RioGallegos           938.500
       361   04 Jun 2027 02:14:27.895   04 Jun 2027 02:15:26.291            58.396            RioGallegos          1824.875
       362   04 Jun 2027 02:16:11.457   04 Jun 2027 02:17:40.438            88.981            RioGallegos          2780.656
       363   04 Jun 2027 02:52:38.955   04 Jun 2027 02:53:02.574            23.619                Anadyr1           738.094
       364   04 Jun 2027 02:53:29.489   04 Jun 2027 02:53:45.231            15.742                Anadyr1           491.937
       365   04 Jun 2027 02:55:52.575   04 Jun 2027 02:56:24.176            31.601               Magadan2           987.531
       366   04 Jun 2027 02:56:24.176   04 Jun 2027 02:56:44.427            20.251               Magadan1           632.844
       367   04 Jun 2027 02:57:06.749   04 Jun 2027 02:57:12.035             5.286                Norilsk           165.188
       368   04 Jun 2027 02:57:51.729   04 Jun 2027 02:57:54.680             2.951                Norilsk            92.219
       369   04 Jun 2027 02:58:40.103   04 Jun 2027 02:59:30.928            50.825              Murmansk2          1588.281
       370   04 Jun 2027 03:00:01.507   04 Jun 2027 03:00:16.947            15.440              Murmansk1           482.500
       371   04 Jun 2027 03:02:13.189   04 Jun 2027 03:02:39.267            26.078                Irkutsk           814.937
       372   04 Jun 2027 03:03:10.915   04 Jun 2027 03:03:51.481            40.566                Norilsk          1267.688
       373   04 Jun 2027 03:03:58.277   04 Jun 2027 03:07:19.963           201.686                Irkutsk          6302.687
       374   04 Jun 2027 03:10:32.213   04 Jun 2027 03:11:30.526            58.313                  Delhi          1822.281
       375   04 Jun 2027 04:43:10.374   04 Jun 2027 04:44:09.487            59.113                Novosib          1847.281
       376   04 Jun 2027 04:45:19.120   04 Jun 2027 04:45:57.372            38.252                 Moscow          1195.375
       377   04 Jun 2027 04:46:12.795   04 Jun 2027 04:46:31.678            18.883                 Moscow           590.094
       378   04 Jun 2027 04:47:20.033   04 Jun 2027 04:48:25.137            65.104                 Moscow          2034.500
       379   04 Jun 2027 05:01:43.920   04 Jun 2027 05:04:47.368           183.448               CapeTown          5732.750
       380   04 Jun 2027 05:58:24.957   04 Jun 2027 06:00:38.487           133.530                Anadyr1          4172.813
       381   04 Jun 2027 06:00:49.235   04 Jun 2027 06:02:15.907            86.672                Anadyr2          2708.500
       382   04 Jun 2027 06:04:56.631   04 Jun 2027 06:07:19.603           142.972               Magadan1          4467.875
       383   04 Jun 2027 06:07:35.239   04 Jun 2027 06:08:01.737            26.498                Anadyr2           828.062
       384   04 Jun 2027 06:08:29.985   04 Jun 2027 06:09:13.997            44.012                Anadyr1          1375.375
       385   04 Jun 2027 07:38:46.913   04 Jun 2027 07:39:43.053            56.140                Anadyr1          1754.375
       386   04 Jun 2027 07:40:12.021   04 Jun 2027 07:40:16.979             4.958                Anadyr2           154.937
       387   04 Jun 2027 07:40:35.085   04 Jun 2027 07:40:47.636            12.551               Magadan1           392.219
       388   04 Jun 2027 07:40:58.424   04 Jun 2027 07:41:15.777            17.353                Anadyr1           542.281
       389   04 Jun 2027 07:41:32.145   04 Jun 2027 07:42:00.966            28.821                Anadyr2           900.656
       390   04 Jun 2027 07:42:13.704   04 Jun 2027 07:43:29.355            75.651                Anadyr1          2364.094
       391   04 Jun 2027 07:43:39.932   04 Jun 2027 07:44:50.765            70.833               Magadan2          2213.531
       392   04 Jun 2027 08:25:33.332   04 Jun 2027 08:26:07.177            33.845            RioGallegos          1057.656
       393   04 Jun 2027 09:16:17.993   04 Jun 2027 09:16:44.477            26.484               Magadan1           827.625
       394   04 Jun 2027 09:16:45.184   04 Jun 2027 09:17:08.848            23.664               Magadan1           739.500
       395   04 Jun 2027 09:17:24.677   04 Jun 2027 09:17:37.065            12.388                Anadyr2           387.125
       396   04 Jun 2027 09:17:45.646   04 Jun 2027 09:19:04.673            79.027               Magadan2          2469.594
       397   04 Jun 2027 09:20:08.212   04 Jun 2027 09:20:30.694            22.482                Anadyr1           702.562
       398   04 Jun 2027 09:20:42.844   04 Jun 2027 09:21:05.069            22.225               Magadan1           694.531
       399   04 Jun 2027 09:21:13.853   04 Jun 2027 09:22:05.455            51.602                Anadyr1          1612.563
       400   04 Jun 2027 09:22:23.443   04 Jun 2027 09:22:43.246            19.803               Magadan2           618.844
       401   04 Jun 2027 09:57:49.756   04 Jun 2027 09:58:10.651            20.895            RioGallegos           652.969
       402   04 Jun 2027 09:58:38.862   04 Jun 2027 09:59:06.724            27.862            RioGallegos           870.687
       403   04 Jun 2027 10:03:20.892   04 Jun 2027 10:03:21.847             0.955            RioGallegos            29.844
       404   04 Jun 2027 10:35:22.097   04 Jun 2027 10:37:02.713           100.616                Sumatra          3144.250
       405   04 Jun 2027 10:51:49.008   04 Jun 2027 10:52:18.303            29.295               Magadan1           915.469
       406   04 Jun 2027 10:52:23.078   04 Jun 2027 10:52:25.544             2.466                Norilsk            77.063
       407   04 Jun 2027 10:52:58.363   04 Jun 2027 10:54:04.291            65.928               Magadan2          2060.250
       408   04 Jun 2027 10:55:06.570   04 Jun 2027 10:55:25.561            18.991                Irkutsk           593.469
       409   04 Jun 2027 10:55:27.362   04 Jun 2027 10:55:33.226             5.864                Norilsk           183.250
       410   04 Jun 2027 10:55:42.358   04 Jun 2027 10:56:08.939            26.581                Norilsk           830.656
       411   04 Jun 2027 10:56:14.775   04 Jun 2027 10:56:46.192            31.417                Novosib           981.781
       412   04 Jun 2027 10:57:21.083   04 Jun 2027 10:57:42.648            21.565                Norilsk           673.906
       413   04 Jun 2027 10:57:44.354   04 Jun 2027 10:57:44.501             0.147                Irkutsk             4.594
       414   04 Jun 2027 10:58:03.564   04 Jun 2027 10:58:17.439            13.875                Novosib           433.594
       415   04 Jun 2027 10:58:21.022   04 Jun 2027 10:58:37.199            16.177                Novosib           505.531
       416   04 Jun 2027 10:58:45.710   04 Jun 2027 10:59:16.699            30.989                Norilsk           968.406
       417   04 Jun 2027 11:33:41.498   04 Jun 2027 11:34:40.822            59.324            RioGallegos          1853.875
       418   04 Jun 2027 12:08:13.242   04 Jun 2027 12:09:48.628            95.386                Sumatra          2980.813
       419   04 Jun 2027 12:22:44.999   04 Jun 2027 12:23:51.061            66.062                Irkutsk          2064.437
       420   04 Jun 2027 12:25:26.855   04 Jun 2027 12:25:43.958            17.103                Novosib           534.469
       421   04 Jun 2027 12:28:52.628   04 Jun 2027 12:30:03.864            71.236                Novosib          2226.125
       422   04 Jun 2027 13:14:59.759   04 Jun 2027 13:16:15.036            75.277            RioGallegos          2352.406
       423   04 Jun 2027 13:16:58.122   04 Jun 2027 13:18:06.306            68.184            RioGallegos          2130.750
       424   04 Jun 2027 14:00:35.736   04 Jun 2027 14:01:23.688            47.952                  Delhi          1498.500
       425   04 Jun 2027 14:01:30.509   04 Jun 2027 14:02:07.063            36.554                Novosib          1142.312
       426   04 Jun 2027 14:03:02.797   04 Jun 2027 14:05:42.773           159.976                Novosib          4999.250
       427   04 Jun 2027 14:08:00.969   04 Jun 2027 14:09:25.193            84.224                Norilsk          2632.000
       428   04 Jun 2027 15:36:47.265   04 Jun 2027 15:39:32.871           165.606                 Moscow          5175.188
       429   04 Jun 2027 15:40:16.485   04 Jun 2027 15:41:26.367            69.882              Murmansk2          2183.813
       430   04 Jun 2027 15:44:54.810   04 Jun 2027 15:47:25.765           150.955                Norilsk          4717.344
       431   04 Jun 2027 15:47:38.156   04 Jun 2027 15:48:31.684            53.528                Norilsk          1672.750
       432   04 Jun 2027 17:01:00.102   04 Jun 2027 17:01:16.229            16.127               CapeTown           503.969
       433   04 Jun 2027 17:14:35.540   04 Jun 2027 17:15:12.153            36.613                 Moscow          1144.156
       434   04 Jun 2027 17:17:33.931   04 Jun 2027 17:19:34.192           120.261              Murmansk2          3758.156
       435   04 Jun 2027 17:21:34.989   04 Jun 2027 17:21:52.183            17.194              Murmansk1           537.312
       436   04 Jun 2027 17:26:59.268   04 Jun 2027 17:27:18.510            19.242              Murmansk2           601.312
       437   04 Jun 2027 17:31:11.832   04 Jun 2027 17:32:34.984            83.152                Anadyr1          2598.500
       438   04 Jun 2027 17:36:07.670   04 Jun 2027 17:36:12.446             4.776                Anadyr1           149.250
       439   04 Jun 2027 17:39:26.737   04 Jun 2027 17:39:33.779             7.042                Anadyr1           220.063
       440   04 Jun 2027 17:40:10.663   04 Jun 2027 17:40:19.002             8.339                Anadyr1           260.594
       441   04 Jun 2027 17:40:40.186   04 Jun 2027 17:40:43.648             3.462                Anadyr1           108.187
       442   04 Jun 2027 18:26:23.404   04 Jun 2027 18:27:03.007            39.603               CapeTown          1237.594
       443   04 Jun 2027 18:31:54.572   04 Jun 2027 18:32:05.046            10.474               CapeTown           327.313
       444   04 Jun 2027 18:34:23.719   04 Jun 2027 18:35:13.056            49.337               CapeTown          1541.781
       445   04 Jun 2027 18:57:13.432   04 Jun 2027 18:58:36.537            83.105              Murmansk2          2597.031
       446   04 Jun 2027 18:58:42.119   04 Jun 2027 19:01:12.497           150.378              Murmansk1          4699.313
       447   04 Jun 2027 19:01:36.813   04 Jun 2027 19:01:50.875            14.062              Murmansk1           439.438
       448   04 Jun 2027 19:09:59.110   04 Jun 2027 19:10:37.227            38.117               Magadan2          1191.156
       449   04 Jun 2027 19:10:37.227   04 Jun 2027 19:11:17.425            40.198               Magadan1          1256.187
       450   04 Jun 2027 19:12:57.579   04 Jun 2027 19:13:16.815            19.236               Magadan2           601.125
       451   04 Jun 2027 19:13:56.663   04 Jun 2027 19:14:15.089            18.426               Magadan2           575.812
       452   04 Jun 2027 19:17:22.636   04 Jun 2027 19:17:35.508            12.872               Magadan1           402.250
       453   04 Jun 2027 20:42:46.426   04 Jun 2027 20:44:21.781            95.355                Anadyr2          2979.844
       454   04 Jun 2027 20:44:27.341   04 Jun 2027 20:46:33.277           125.936                Anadyr1          3935.500
       455   04 Jun 2027 20:47:12.803   04 Jun 2027 20:48:52.503            99.700               Magadan1          3115.625
       456   04 Jun 2027 20:49:48.266   04 Jun 2027 20:49:57.516             9.250               Magadan1           289.063
       457   04 Jun 2027 20:50:05.634   04 Jun 2027 20:50:13.802             8.168                Anadyr1           255.250
       458   04 Jun 2027 20:50:29.238   04 Jun 2027 20:51:08.611            39.373               Magadan1          1230.406
       459   04 Jun 2027 20:52:01.799   04 Jun 2027 20:52:10.255             8.456               Magadan1           264.250
       460   04 Jun 2027 20:52:30.754   04 Jun 2027 20:52:30.995             0.241               Magadan1             7.531
       461   04 Jun 2027 20:52:34.412   04 Jun 2027 20:52:47.916            13.504               Magadan2           422.000
       462   04 Jun 2027 20:54:23.706   04 Jun 2027 20:55:11.381            47.675               Magadan2          1489.844
       463   04 Jun 2027 21:39:07.733   04 Jun 2027 21:41:30.487           142.754            RioGallegos          4461.063
       464   04 Jun 2027 21:43:53.054   04 Jun 2027 21:44:11.272            18.218            RioGallegos           569.312
       465   04 Jun 2027 22:18:36.330   04 Jun 2027 22:19:49.977            73.647                Anadyr2          2301.469
       466   04 Jun 2027 22:20:33.735   04 Jun 2027 22:20:55.523            21.788                Anadyr2           680.875
       467   04 Jun 2027 22:20:59.882   04 Jun 2027 22:22:59.982           120.100               Magadan1          3753.125
       468   04 Jun 2027 22:23:10.714   04 Jun 2027 22:23:18.526             7.812               Magadan2           244.125
       469   04 Jun 2027 22:23:28.153   04 Jun 2027 22:23:50.564            22.411               Magadan1           700.344
       470   04 Jun 2027 22:25:43.648   04 Jun 2027 22:26:14.483            30.835                Irkutsk           963.594
       471   04 Jun 2027 22:27:26.648   04 Jun 2027 22:28:05.103            38.455                Irkutsk          1201.719
       472   04 Jun 2027 22:34:19.758   04 Jun 2027 22:34:23.595             3.837                Irkutsk           119.906
       473   04 Jun 2027 22:40:49.345   04 Jun 2027 22:42:57.196           127.851                Sumatra          3995.344
       474   04 Jun 2027 22:46:39.020   04 Jun 2027 22:48:35.085           116.065                Sumatra          3627.031
       475   04 Jun 2027 23:53:54.415   04 Jun 2027 23:54:05.820            11.405                Anadyr1           356.406
       476   04 Jun 2027 23:55:25.649   04 Jun 2027 23:56:22.965            57.316                Anadyr2          1791.125
       477   04 Jun 2027 23:57:06.475   04 Jun 2027 23:57:59.032            52.557                Norilsk          1642.406
       478   04 Jun 2027 23:58:11.761   04 Jun 2027 23:58:12.507             0.746                Norilsk            23.313
       479   04 Jun 2027 23:58:32.890   04 Jun 2027 23:58:50.417            17.527               Magadan2           547.719
       480   04 Jun 2027 23:59:21.485   05 Jun 2027 00:00:02.233            40.748               Magadan1          1273.375
       481   05 Jun 2027 00:00:25.583   05 Jun 2027 00:01:30.881            65.298                Irkutsk          2040.563
       482   05 Jun 2027 00:02:04.310   05 Jun 2027 00:02:04.917             0.607                Novosib            18.969
