uniorb/output/strategy_4/Drop/Drop_KinoSat_110706.txt

KinoSat_110706
-------------------------
    Access    *     Start Time (UTCG)     *     Stop Time (UTCG)  *   Duration (s)        *       Station  *  Data (Mbytes)
         1   01 Jun 2027 03:29:14.981   01 Jun 2027 03:29:48.046            33.065                Anadyr2          1033.281
         2   01 Jun 2027 03:30:18.438   01 Jun 2027 03:31:20.347            61.909                Anadyr2          1934.656
         3   01 Jun 2027 03:31:37.272   01 Jun 2027 03:33:15.128            97.856               Magadan2          3058.000
         4   01 Jun 2027 03:33:43.057   01 Jun 2027 03:36:31.282           168.225               Magadan2          5257.031
         5   01 Jun 2027 03:36:31.453   01 Jun 2027 03:36:44.515            13.062                Anadyr2           408.188
         6   01 Jun 2027 05:04:42.515   01 Jun 2027 05:05:42.725            60.210               Magadan2          1881.563
         7   01 Jun 2027 05:05:51.139   01 Jun 2027 05:06:30.088            38.949               Magadan1          1217.156
         8   01 Jun 2027 05:06:30.088   01 Jun 2027 05:09:30.696           180.608               Magadan2          5644.000
         9   01 Jun 2027 05:09:30.696   01 Jun 2027 05:09:42.649            11.953               Magadan1           373.531
        10   01 Jun 2027 05:09:50.519   01 Jun 2027 05:11:41.962           111.443               Magadan1          3482.594
        11   01 Jun 2027 05:11:52.678   01 Jun 2027 05:12:04.905            12.227               Magadan1           382.094
        12   01 Jun 2027 05:12:04.905   01 Jun 2027 05:12:18.025            13.120               Magadan2           410.000
        13   01 Jun 2027 05:47:34.040   01 Jun 2027 05:50:01.869           147.829            RioGallegos          4619.656
        14   01 Jun 2027 05:50:46.434   01 Jun 2027 05:50:55.418             8.984            RioGallegos           280.750
        15   01 Jun 2027 06:26:11.163   01 Jun 2027 06:27:18.657            67.494                Sumatra          2109.187
        16   01 Jun 2027 06:42:21.336   01 Jun 2027 06:42:56.064            34.728                Irkutsk          1085.250
        17   01 Jun 2027 06:43:16.036   01 Jun 2027 06:44:40.665            84.629                Novosib          2644.656
        18   01 Jun 2027 06:44:43.313   01 Jun 2027 06:47:32.137           168.824                Irkutsk          5275.750
        19   01 Jun 2027 06:47:33.925   01 Jun 2027 06:48:07.074            33.149                Novosib          1035.906
        20   01 Jun 2027 06:48:35.936   01 Jun 2027 06:48:45.139             9.203              Murmansk1           287.594
        21   01 Jun 2027 07:23:04.852   01 Jun 2027 07:24:10.229            65.377            RioGallegos          2043.031
        22   01 Jun 2027 07:57:44.197   01 Jun 2027 07:58:39.596            55.399                Sumatra          1731.219
        23   01 Jun 2027 08:07:51.432   01 Jun 2027 08:10:00.117           128.685                  Delhi          4021.406
        24   01 Jun 2027 08:19:18.845   01 Jun 2027 08:20:01.590            42.745                Novosib          1335.781
        25   01 Jun 2027 08:20:50.722   01 Jun 2027 08:21:02.679            11.957                Norilsk           373.656
        26   01 Jun 2027 08:21:11.992   01 Jun 2027 08:22:24.748            72.756                 Moscow          2273.625
        27   01 Jun 2027 08:22:31.262   01 Jun 2027 08:25:14.547           163.285                Norilsk          5102.656
        28   01 Jun 2027 08:25:26.834   01 Jun 2027 08:25:42.603            15.769                Novosib           492.781
        29   01 Jun 2027 08:26:00.415   01 Jun 2027 08:26:01.508             1.093                 Moscow            34.156
        30   01 Jun 2027 08:28:10.312   01 Jun 2027 08:28:47.384            37.072              Murmansk1          1158.500
        31   01 Jun 2027 09:03:22.551   01 Jun 2027 09:03:55.175            32.624            RioGallegos          1019.500
        32   01 Jun 2027 09:04:47.878   01 Jun 2027 09:05:52.851            64.973            RioGallegos          2030.406
        33   01 Jun 2027 09:42:04.132   01 Jun 2027 09:44:20.379           136.247                  Delhi          4257.719
        34   01 Jun 2027 09:45:02.364   01 Jun 2027 09:46:05.117            62.753                  Delhi          1961.031
        35   01 Jun 2027 09:58:17.185   01 Jun 2027 09:58:22.354             5.169              Murmansk2           161.531
        36   01 Jun 2027 09:58:27.776   01 Jun 2027 10:00:44.059           136.283                Novosib          4258.844
        37   01 Jun 2027 10:00:51.908   01 Jun 2027 10:02:01.743            69.835                 Moscow          2182.344
        38   01 Jun 2027 11:31:37.617   01 Jun 2027 11:31:59.634            22.017                 Moscow           688.031
        39   01 Jun 2027 11:32:10.224   01 Jun 2027 11:32:52.926            42.702              Murmansk1          1334.438
        40   01 Jun 2027 11:33:04.289   01 Jun 2027 11:36:15.149           190.860              Murmansk2          5964.375
        41   01 Jun 2027 11:36:20.154   01 Jun 2027 11:37:46.231            86.077                 Moscow          2689.906
        42   01 Jun 2027 12:40:54.123   01 Jun 2027 12:43:39.968           165.845               CapeTown          5182.656
        43   01 Jun 2027 12:44:30.024   01 Jun 2027 12:47:36.372           186.348               CapeTown          5823.375
        44   01 Jun 2027 13:06:53.562   01 Jun 2027 13:08:43.260           109.698              Murmansk1          3428.062
        45   01 Jun 2027 13:20:51.446   01 Jun 2027 13:27:08.040           376.594                Anadyr2         11768.563
        46   01 Jun 2027 13:27:46.608   01 Jun 2027 13:30:24.390           157.782                Anadyr2          4930.687
        47   01 Jun 2027 14:56:24.258   01 Jun 2027 14:56:44.889            20.631                Anadyr2           644.719
        48   01 Jun 2027 14:57:47.106   01 Jun 2027 14:57:52.478             5.372                Anadyr2           167.875
        49   01 Jun 2027 14:58:21.304   01 Jun 2027 14:59:44.658            83.354                Anadyr1          2604.812
        50   01 Jun 2027 14:59:48.143   01 Jun 2027 15:06:17.956           389.813               Magadan1         12181.656
        51   01 Jun 2027 15:06:55.619   01 Jun 2027 15:07:39.950            44.331               Magadan2          1385.344
        52   01 Jun 2027 16:34:40.280   01 Jun 2027 16:36:24.615           104.335               Magadan2          3260.469
        53   01 Jun 2027 16:36:47.483   01 Jun 2027 16:38:11.017            83.534               Magadan1          2610.437
        54   01 Jun 2027 16:38:53.087   01 Jun 2027 16:39:17.184            24.097               Magadan1           753.031
        55   01 Jun 2027 17:30:04.562   01 Jun 2027 17:32:05.226           120.664            RioGallegos          3770.750
        56   01 Jun 2027 18:08:09.280   01 Jun 2027 18:09:33.781            84.501                Anadyr1          2640.656
        57   01 Jun 2027 18:10:00.520   01 Jun 2027 18:10:25.402            24.882                Anadyr2           777.563
        58   01 Jun 2027 18:10:31.428   01 Jun 2027 18:11:06.574            35.146               Magadan1          1098.313
        59   01 Jun 2027 18:11:06.574   01 Jun 2027 18:11:25.839            19.265               Magadan2           602.031
        60   01 Jun 2027 18:12:14.729   01 Jun 2027 18:17:26.560           311.831                Norilsk          9744.719
        61   01 Jun 2027 18:17:33.516   01 Jun 2027 18:23:13.558           340.042                Irkutsk         10626.313
        62   01 Jun 2027 18:31:20.565   01 Jun 2027 18:37:51.372           390.807                Sumatra         12212.719
        63   01 Jun 2027 19:53:04.453   01 Jun 2027 19:57:11.962           247.509                Novosib          7734.656
        64   01 Jun 2027 21:25:24.401   01 Jun 2027 21:29:16.124           231.723              Murmansk1          7241.344
        65   01 Jun 2027 22:57:14.958   01 Jun 2027 22:57:55.158            40.200               Magadan1          1256.250
        66   01 Jun 2027 22:59:05.049   01 Jun 2027 22:59:13.711             8.662               Magadan2           270.687
        67   01 Jun 2027 23:00:15.911   01 Jun 2027 23:01:54.940            99.029              Murmansk1          3094.656
        68   01 Jun 2027 23:02:03.944   01 Jun 2027 23:06:10.003           246.059              Murmansk2          7689.344
        69   01 Jun 2027 23:07:01.183   01 Jun 2027 23:11:45.162           283.979                 Moscow          8874.344
        70   01 Jun 2027 23:31:04.654   01 Jun 2027 23:36:15.134           310.480               CapeTown          9702.500
        71   02 Jun 2027 01:09:02.535   02 Jun 2027 01:10:37.868            95.333               CapeTown          2979.156
        72   02 Jun 2027 02:01:22.144   02 Jun 2027 02:02:01.616            39.472               Magadan2          1233.500
        73   02 Jun 2027 02:02:53.003   02 Jun 2027 02:03:20.201            27.198               Magadan2           849.937
        74   02 Jun 2027 02:05:55.311   02 Jun 2027 02:06:19.074            23.763               Magadan1           742.594
        75   02 Jun 2027 02:08:46.613   02 Jun 2027 02:08:56.957            10.344                Norilsk           323.250
        76   02 Jun 2027 02:10:41.059   02 Jun 2027 02:11:18.086            37.027                Norilsk          1157.094
        77   02 Jun 2027 02:12:06.495   02 Jun 2027 02:12:07.601             1.106              Murmansk2            34.563
        78   02 Jun 2027 02:12:14.766   02 Jun 2027 02:13:19.556            64.790              Murmansk1          2024.688
        79   02 Jun 2027 02:14:46.620   02 Jun 2027 02:15:05.569            18.949              Murmansk2           592.156
        80   02 Jun 2027 02:15:25.736   02 Jun 2027 02:15:36.469            10.733              Murmansk1           335.406
        81   02 Jun 2027 02:15:54.323   02 Jun 2027 02:16:18.842            24.519                 Moscow           766.219
        82   02 Jun 2027 02:17:17.127   02 Jun 2027 02:17:42.704            25.577                 Moscow           799.281
        83   02 Jun 2027 02:22:13.993   02 Jun 2027 02:23:33.027            79.034                 Moscow          2469.812
        84   02 Jun 2027 02:45:44.795   02 Jun 2027 02:45:57.794            12.999               CapeTown           406.219
        85   02 Jun 2027 02:46:23.547   02 Jun 2027 02:47:07.055            43.508               CapeTown          1359.625
        86   02 Jun 2027 03:42:16.975   02 Jun 2027 03:48:01.916           344.941                Anadyr2         10779.406
        87   02 Jun 2027 05:18:47.458   02 Jun 2027 05:19:06.742            19.284                Irkutsk           602.625
        88   02 Jun 2027 05:19:39.423   02 Jun 2027 05:24:15.374           275.951               Magadan1          8623.469
        89   02 Jun 2027 06:55:50.582   02 Jun 2027 06:56:23.697            33.115                Novosib          1034.844
        90   02 Jun 2027 06:56:39.265   02 Jun 2027 06:59:03.078           143.813                Irkutsk          4494.156
        91   02 Jun 2027 07:00:22.116   02 Jun 2027 07:01:34.355            72.239                Novosib          2257.469
        92   02 Jun 2027 08:32:34.640   02 Jun 2027 08:34:18.723           104.083                Irkutsk          3252.594
        93   02 Jun 2027 08:35:12.853   02 Jun 2027 08:35:43.024            30.171                Irkutsk           942.844
        94   02 Jun 2027 08:36:35.543   02 Jun 2027 08:37:43.814            68.271                Novosib          2133.469
        95   02 Jun 2027 09:17:04.662   02 Jun 2027 09:18:13.911            69.249            RioGallegos          2164.031
        96   02 Jun 2027 09:18:28.916   02 Jun 2027 09:18:39.869            10.953            RioGallegos           342.281
        97   02 Jun 2027 09:55:30.653   02 Jun 2027 09:56:55.088            84.435                  Delhi          2638.594
        98   02 Jun 2027 09:57:59.410   02 Jun 2027 09:58:21.516            22.106                  Delhi           690.812
        99   02 Jun 2027 10:07:59.943   02 Jun 2027 10:08:35.233            35.290                Novosib          1102.813
       100   02 Jun 2027 10:08:42.291   02 Jun 2027 10:08:51.463             9.172                Norilsk           286.625
       101   02 Jun 2027 10:09:48.874   02 Jun 2027 10:10:01.260            12.386                Novosib           387.062
       102   02 Jun 2027 10:10:30.770   02 Jun 2027 10:10:38.401             7.631                Norilsk           238.469
       103   02 Jun 2027 10:10:41.438   02 Jun 2027 10:10:52.433            10.995                Norilsk           343.594
       104   02 Jun 2027 10:11:00.932   02 Jun 2027 10:11:25.347            24.415                Norilsk           762.969
       105   02 Jun 2027 10:11:28.723   02 Jun 2027 10:11:48.729            20.006                Norilsk           625.188
       106   02 Jun 2027 11:48:49.108   02 Jun 2027 11:48:58.270             9.162              Murmansk2           286.313
       107   02 Jun 2027 13:16:16.593   02 Jun 2027 13:16:43.799            27.206                 Moscow           850.188
       108   02 Jun 2027 13:16:46.800   02 Jun 2027 13:17:02.763            15.963                 Moscow           498.844
       109   02 Jun 2027 13:18:08.528   02 Jun 2027 13:18:35.177            26.649                 Moscow           832.781
       110   02 Jun 2027 13:19:12.343   02 Jun 2027 13:20:54.352           102.009              Murmansk1          3187.781
       111   02 Jun 2027 13:21:07.013   02 Jun 2027 13:21:38.097            31.084              Murmansk1           971.375
       112   02 Jun 2027 13:22:20.516   02 Jun 2027 13:24:01.627           101.111              Murmansk2          3159.719
       113   02 Jun 2027 13:25:22.596   02 Jun 2027 13:25:23.010             0.414              Murmansk1            12.937
       114   02 Jun 2027 13:25:27.165   02 Jun 2027 13:26:04.292            37.127              Murmansk1          1160.219
       115   02 Jun 2027 13:29:01.950   02 Jun 2027 13:29:03.435             1.485              Murmansk1            46.406
       116   02 Jun 2027 13:32:46.840   02 Jun 2027 13:37:02.252           255.412                Anadyr1          7981.625
       117   02 Jun 2027 13:41:12.577   02 Jun 2027 13:42:56.284           103.707                Anadyr2          3240.844
       118   02 Jun 2027 14:58:58.215   02 Jun 2027 15:00:04.672            66.457              Murmansk2          2076.781
       119   02 Jun 2027 15:06:10.452   02 Jun 2027 15:06:16.109             5.657              Murmansk2           176.781
       120   02 Jun 2027 15:08:24.954   02 Jun 2027 15:10:50.156           145.202                Anadyr1          4537.562
       121   02 Jun 2027 15:11:32.943   02 Jun 2027 15:18:56.905           443.962               Magadan2         13873.812
       122   02 Jun 2027 16:46:39.425   02 Jun 2027 16:48:57.101           137.676               Magadan2          4302.375
       123   02 Jun 2027 17:40:35.584   02 Jun 2027 17:43:20.457           164.873            RioGallegos          5152.281
       124   02 Jun 2027 18:21:11.017   02 Jun 2027 18:21:29.782            18.765                Anadyr1           586.406
       125   02 Jun 2027 18:22:16.859   02 Jun 2027 18:22:26.689             9.830                Anadyr1           307.188
       126   02 Jun 2027 18:22:33.543   02 Jun 2027 18:25:33.532           179.989               Magadan1          5624.656
       127   02 Jun 2027 18:25:39.295   02 Jun 2027 18:26:29.502            50.207                Norilsk          1568.969
       128   02 Jun 2027 18:27:15.850   02 Jun 2027 18:30:47.561           211.711                Irkutsk          6615.969
       129   02 Jun 2027 18:32:56.077   02 Jun 2027 18:34:20.241            84.164                Irkutsk          2630.125
       130   02 Jun 2027 18:42:12.797   02 Jun 2027 18:44:41.104           148.307                Sumatra          4634.594
       131   02 Jun 2027 18:46:48.533   02 Jun 2027 18:48:32.680           104.147                Sumatra          3254.594
       132   02 Jun 2027 18:50:27.712   02 Jun 2027 18:50:52.984            25.272                Sumatra           789.750
       133   02 Jun 2027 20:03:48.151   02 Jun 2027 20:05:31.306           103.155                Novosib          3223.594
       134   02 Jun 2027 20:06:18.136   02 Jun 2027 20:06:30.436            12.300                Novosib           384.375
       135   02 Jun 2027 20:08:27.826   02 Jun 2027 20:08:52.773            24.947                Novosib           779.594
       136   02 Jun 2027 20:12:42.601   02 Jun 2027 20:14:34.928           112.327                  Delhi          3510.219
       137   02 Jun 2027 20:15:15.451   02 Jun 2027 20:16:06.312            50.861                  Delhi          1589.406
       138   02 Jun 2027 20:17:58.633   02 Jun 2027 20:18:10.381            11.748                  Delhi           367.125
       139   02 Jun 2027 21:37:04.106   02 Jun 2027 21:42:18.603           314.497              Murmansk1          9828.031
       140   02 Jun 2027 23:10:52.212   02 Jun 2027 23:11:12.842            20.630               Magadan1           644.687
       141   02 Jun 2027 23:11:26.023   02 Jun 2027 23:11:32.060             6.037               Magadan1           188.656
       142   02 Jun 2027 23:11:37.761   02 Jun 2027 23:12:14.223            36.462               Magadan1          1139.437
       143   02 Jun 2027 23:12:15.841   02 Jun 2027 23:13:05.439            49.598              Murmansk2          1549.938
       144   02 Jun 2027 23:13:05.439   02 Jun 2027 23:13:57.850            52.411              Murmansk1          1637.844
       145   02 Jun 2027 23:14:17.790   02 Jun 2027 23:15:42.361            84.571              Murmansk1          2642.844
       146   02 Jun 2027 23:15:52.370   02 Jun 2027 23:17:28.945            96.575              Murmansk1          3017.969
       147   02 Jun 2027 23:17:38.883   02 Jun 2027 23:19:05.648            86.765                 Moscow          2711.406
       148   02 Jun 2027 23:42:08.999   02 Jun 2027 23:44:34.807           145.808               CapeTown          4556.500
       149   02 Jun 2027 23:46:09.983   02 Jun 2027 23:48:08.255           118.272               CapeTown          3696.000
       150   03 Jun 2027 00:48:10.719   03 Jun 2027 00:49:29.343            78.624              Murmansk2          2457.000
       151   03 Jun 2027 00:54:19.102   03 Jun 2027 00:54:40.304            21.202                 Moscow           662.563
       152   03 Jun 2027 01:00:13.564   03 Jun 2027 01:00:16.289             2.725                 Moscow            85.156
       153   03 Jun 2027 01:02:07.025   03 Jun 2027 01:02:14.690             7.665                 Moscow           239.531
       154   03 Jun 2027 01:15:16.645   03 Jun 2027 01:15:59.714            43.069               CapeTown          1345.906
       155   03 Jun 2027 01:16:38.442   03 Jun 2027 01:17:35.611            57.169               CapeTown          1786.531
       156   03 Jun 2027 01:23:50.616   03 Jun 2027 01:24:11.971            21.355               CapeTown           667.344
       157   03 Jun 2027 02:12:02.821   03 Jun 2027 02:12:40.988            38.167                Anadyr1          1192.719
       158   03 Jun 2027 02:12:41.890   03 Jun 2027 02:12:57.231            15.341                Anadyr2           479.406
       159   03 Jun 2027 02:13:04.020   03 Jun 2027 02:13:38.059            34.039               Magadan2          1063.719
       160   03 Jun 2027 02:13:41.668   03 Jun 2027 02:14:55.700            74.032               Magadan1          2313.500
       161   03 Jun 2027 02:16:08.483   03 Jun 2027 02:16:18.723            10.240               Magadan1           320.000
       162   03 Jun 2027 02:19:01.978   03 Jun 2027 02:19:10.156             8.178               Magadan2           255.563
       163   03 Jun 2027 02:20:39.002   03 Jun 2027 02:20:49.882            10.880                Norilsk           340.000
       164   03 Jun 2027 02:24:04.529   03 Jun 2027 02:24:32.355            27.826               Magadan1           869.563
       165   03 Jun 2027 02:25:19.870   03 Jun 2027 02:25:49.492            29.622              Murmansk2           925.687
       166   03 Jun 2027 02:25:49.492   03 Jun 2027 02:26:13.499            24.007              Murmansk1           750.219
       167   03 Jun 2027 02:26:23.062   03 Jun 2027 02:26:40.380            17.318              Murmansk2           541.188
       168   03 Jun 2027 02:27:23.748   03 Jun 2027 02:27:33.772            10.024              Murmansk2           313.250
       169   03 Jun 2027 02:27:58.348   03 Jun 2027 02:28:40.152            41.804                 Moscow          1306.375
       170   03 Jun 2027 02:32:29.184   03 Jun 2027 02:33:32.732            63.548                 Moscow          1985.875
       171   03 Jun 2027 02:55:12.231   03 Jun 2027 02:57:26.077           133.846               CapeTown          4182.688
       172   03 Jun 2027 03:54:40.312   03 Jun 2027 03:58:12.762           212.450                Anadyr2          6639.062
       173   03 Jun 2027 03:58:20.902   03 Jun 2027 03:58:54.466            33.564               Magadan2          1048.875
       174   03 Jun 2027 04:38:17.956   03 Jun 2027 04:39:58.175           100.219            RioGallegos          3131.844
       175   03 Jun 2027 04:44:16.788   03 Jun 2027 04:44:53.403            36.615            RioGallegos          1144.219
       176   03 Jun 2027 05:30:51.275   03 Jun 2027 05:34:42.581           231.306                Irkutsk          7228.312
       177   03 Jun 2027 05:35:25.640   03 Jun 2027 05:35:56.778            31.138                Irkutsk           973.062
       178   03 Jun 2027 07:06:52.839   03 Jun 2027 07:07:16.439            23.600                Norilsk           737.500
       179   03 Jun 2027 07:07:50.972   03 Jun 2027 07:08:22.094            31.122                Novosib           972.562
       180   03 Jun 2027 07:08:27.309   03 Jun 2027 07:09:16.232            48.923                Novosib          1528.844
       181   03 Jun 2027 07:09:30.252   03 Jun 2027 07:10:36.683            66.431              Murmansk1          2075.969
       182   03 Jun 2027 07:12:51.082   03 Jun 2027 07:12:56.490             5.408              Murmansk2           169.000
       183   03 Jun 2027 07:18:32.355   03 Jun 2027 07:18:51.895            19.540              Murmansk1           610.625
       184   03 Jun 2027 07:48:21.101   03 Jun 2027 07:49:00.897            39.796            RioGallegos          1243.625
       185   03 Jun 2027 08:24:42.568   03 Jun 2027 08:25:53.910            71.342                Sumatra          2229.438
       186   03 Jun 2027 08:44:24.394   03 Jun 2027 08:44:39.997            15.603                Novosib           487.594
       187   03 Jun 2027 08:47:17.697   03 Jun 2027 08:47:33.502            15.805                Irkutsk           493.906
       188   03 Jun 2027 08:48:03.377   03 Jun 2027 08:48:06.883             3.506                Novosib           109.563
       189   03 Jun 2027 10:06:38.562   03 Jun 2027 10:10:29.428           230.866                  Delhi          7214.562
       190   03 Jun 2027 10:20:17.465   03 Jun 2027 10:20:58.469            41.004                Novosib          1281.375
       191   03 Jun 2027 10:21:07.097   03 Jun 2027 10:21:18.975            11.878                Norilsk           371.188
       192   03 Jun 2027 10:24:30.949   03 Jun 2027 10:24:33.603             2.654                Novosib            82.938
       193   03 Jun 2027 11:58:41.073   03 Jun 2027 11:59:05.962            24.889                 Moscow           777.781
       194   03 Jun 2027 12:01:13.708   03 Jun 2027 12:02:05.791            52.083                Norilsk          1627.594
       195   03 Jun 2027 13:28:52.865   03 Jun 2027 13:30:40.252           107.387                 Moscow          3355.844
       196   03 Jun 2027 13:32:04.624   03 Jun 2027 13:32:17.108            12.484              Murmansk1           390.125
       197   03 Jun 2027 13:32:29.328   03 Jun 2027 13:33:08.890            39.562                 Moscow          1236.313
       198   03 Jun 2027 13:34:27.612   03 Jun 2027 13:34:47.633            20.021              Murmansk1           625.656
       199   03 Jun 2027 13:36:12.304   03 Jun 2027 13:36:18.000             5.696              Murmansk1           178.000
       200   03 Jun 2027 13:36:21.818   03 Jun 2027 13:36:30.863             9.045                 Moscow           282.656
       201   03 Jun 2027 13:36:42.425   03 Jun 2027 13:36:55.497            13.072              Murmansk1           408.500
       202   03 Jun 2027 13:37:22.399   03 Jun 2027 13:38:05.421            43.022              Murmansk1          1344.437
       203   03 Jun 2027 13:40:13.647   03 Jun 2027 13:40:19.729             6.082              Murmansk2           190.063
       204   03 Jun 2027 13:40:44.582   03 Jun 2027 13:41:26.224            41.642              Murmansk2          1301.312
       205   03 Jun 2027 13:44:43.529   03 Jun 2027 13:46:47.881           124.352                Anadyr2          3886.000
       206   03 Jun 2027 13:47:56.021   03 Jun 2027 13:48:52.379            56.358                Anadyr2          1761.187
       207   03 Jun 2027 13:49:42.755   03 Jun 2027 13:50:57.237            74.482                Anadyr1          2327.562
       208   03 Jun 2027 15:11:43.753   03 Jun 2027 15:14:03.073           139.320              Murmansk2          4353.750
       209   03 Jun 2027 15:17:13.358   03 Jun 2027 15:17:51.207            37.849              Murmansk1          1182.781
       210   03 Jun 2027 15:20:25.867   03 Jun 2027 15:22:35.125           129.258                Anadyr2          4039.312
       211   03 Jun 2027 15:23:21.769   03 Jun 2027 15:28:51.996           330.227               Magadan2         10319.594
       212   03 Jun 2027 15:29:13.296   03 Jun 2027 15:30:58.493           105.197               Magadan1          3287.406
       213   03 Jun 2027 16:58:39.171   03 Jun 2027 16:59:11.257            32.086               Magadan1          1002.688
       214   03 Jun 2027 17:02:16.361   03 Jun 2027 17:02:31.559            15.198               Magadan2           474.938
       215   03 Jun 2027 17:02:31.559   03 Jun 2027 17:04:07.834            96.275               Magadan1          3008.594
       216   03 Jun 2027 17:51:54.673   03 Jun 2027 17:55:06.702           192.029            RioGallegos          6000.906
       217   03 Jun 2027 17:58:56.399   03 Jun 2027 17:59:17.084            20.685            RioGallegos           646.406
       218   03 Jun 2027 18:34:18.037   03 Jun 2027 18:35:46.582            88.545                Norilsk          2767.031
       219   03 Jun 2027 18:36:36.032   03 Jun 2027 18:37:41.093            65.061                Norilsk          2033.156
       220   03 Jun 2027 18:38:58.116   03 Jun 2027 18:40:07.087            68.971                Irkutsk          2155.344
       221   03 Jun 2027 18:41:40.933   03 Jun 2027 18:43:41.470           120.537                Irkutsk          3766.781
       222   03 Jun 2027 18:44:59.170   03 Jun 2027 18:45:12.703            13.533                Irkutsk           422.906
       223   03 Jun 2027 18:48:21.796   03 Jun 2027 18:48:46.191            24.395                Irkutsk           762.344
       224   03 Jun 2027 18:55:40.961   03 Jun 2027 18:59:05.968           205.007                Sumatra          6406.469
       225   03 Jun 2027 18:59:56.379   03 Jun 2027 19:00:36.183            39.804                Sumatra          1243.875
       226   03 Jun 2027 20:13:59.194   03 Jun 2027 20:14:58.692            59.498                Irkutsk          1859.313
       227   03 Jun 2027 20:15:14.952   03 Jun 2027 20:17:35.454           140.502                Novosib          4390.688
       228   03 Jun 2027 20:23:35.850   03 Jun 2027 20:27:50.350           254.500                  Delhi          7953.125
       229   03 Jun 2027 21:48:51.923   03 Jun 2027 21:54:56.178           364.255              Murmansk2         11382.969
       230   03 Jun 2027 23:23:00.214   03 Jun 2027 23:23:15.597            15.383               Magadan2           480.719
       231   03 Jun 2027 23:23:28.364   03 Jun 2027 23:23:38.796            10.432               Magadan1           326.000
       232   03 Jun 2027 23:24:16.226   03 Jun 2027 23:27:43.263           207.037              Murmansk1          6469.906
       233   03 Jun 2027 23:27:55.366   03 Jun 2027 23:30:42.232           166.866                 Moscow          5214.563
       234   03 Jun 2027 23:53:25.694   03 Jun 2027 23:55:01.023            95.329               CapeTown          2979.031
       235   03 Jun 2027 23:58:05.720   03 Jun 2027 23:58:36.679            30.959               CapeTown           967.469
       236   04 Jun 2027 00:00:04.872   04 Jun 2027 00:00:42.998            38.126               CapeTown          1191.438
       237   04 Jun 2027 00:59:42.722   04 Jun 2027 00:59:49.550             6.828               Magadan1           213.375
       238   04 Jun 2027 01:00:12.397   04 Jun 2027 01:01:36.793            84.396              Murmansk1          2637.375
       239   04 Jun 2027 01:02:27.893   04 Jun 2027 01:02:40.169            12.276              Murmansk2           383.625
       240   04 Jun 2027 01:02:53.955   04 Jun 2027 01:03:04.674            10.719                Novosib           334.969
       241   04 Jun 2027 01:03:24.777   04 Jun 2027 01:03:58.041            33.264                 Moscow          1039.500
       242   04 Jun 2027 01:07:06.903   04 Jun 2027 01:07:21.620            14.717                 Moscow           459.906
       243   04 Jun 2027 01:07:29.474   04 Jun 2027 01:07:45.213            15.739                 Moscow           491.844
       244   04 Jun 2027 01:12:24.927   04 Jun 2027 01:13:00.570            35.643                 Moscow          1113.844
       245   04 Jun 2027 01:27:21.206   04 Jun 2027 01:28:12.628            51.422               CapeTown          1606.938
       246   04 Jun 2027 01:35:55.447   04 Jun 2027 01:36:42.191            46.744               CapeTown          1460.750
       247   04 Jun 2027 02:24:08.325   04 Jun 2027 02:24:26.973            18.648                Anadyr1           582.750
       248   04 Jun 2027 02:24:38.452   04 Jun 2027 02:25:26.577            48.125                Anadyr2          1503.906
       249   04 Jun 2027 02:25:36.643   04 Jun 2027 02:27:25.771           109.128               Magadan1          3410.250
       250   04 Jun 2027 02:30:32.876   04 Jun 2027 02:30:52.772            19.896               Magadan2           621.750
       251   04 Jun 2027 02:33:44.986   04 Jun 2027 02:34:21.392            36.406               Magadan2          1137.688
       252   04 Jun 2027 02:36:08.304   04 Jun 2027 02:36:39.685            31.381              Murmansk1           980.656
       253   04 Jun 2027 02:37:48.006   04 Jun 2027 02:38:21.295            33.289              Murmansk2          1040.281
       254   04 Jun 2027 02:38:33.393   04 Jun 2027 02:38:59.403            26.010              Murmansk2           812.813
       255   04 Jun 2027 02:39:37.272   04 Jun 2027 02:40:42.909            65.637                 Moscow          2051.156
       256   04 Jun 2027 02:48:07.276   04 Jun 2027 02:49:02.331            55.055                 Moscow          1720.469
       257   04 Jun 2027 03:59:40.502   04 Jun 2027 04:00:09.701            29.199               Magadan1           912.469
       258   04 Jun 2027 04:06:37.726   04 Jun 2027 04:07:39.291            61.565                Anadyr2          1923.906
       259   04 Jun 2027 04:07:44.030   04 Jun 2027 04:10:13.876           149.846                Anadyr2          4682.687
       260   04 Jun 2027 04:49:43.741   04 Jun 2027 04:50:41.630            57.889            RioGallegos          1809.031
       261   04 Jun 2027 05:43:42.067   04 Jun 2027 05:47:28.293           226.226                Irkutsk          7069.563
       262   04 Jun 2027 07:19:59.210   04 Jun 2027 07:20:30.440            31.230                Novosib           975.938
       263   04 Jun 2027 07:21:17.950   04 Jun 2027 07:21:31.839            13.889              Murmansk2           434.031
       264   04 Jun 2027 07:22:59.995   04 Jun 2027 07:23:18.567            18.572                Irkutsk           580.375
       265   04 Jun 2027 07:23:19.969   04 Jun 2027 07:24:17.413            57.444                Irkutsk          1795.125
       266   04 Jun 2027 08:09:35.315   04 Jun 2027 08:09:54.206            18.891            RioGallegos           590.344
       267   04 Jun 2027 08:34:14.402   04 Jun 2027 08:35:19.100            64.698                Sumatra          2021.813
       268   04 Jun 2027 08:38:08.780   04 Jun 2027 08:39:01.650            52.870                Sumatra          1652.188
       269   04 Jun 2027 08:56:29.733   04 Jun 2027 08:56:35.985             6.252              Murmansk1           195.375
       270   04 Jun 2027 08:56:39.963   04 Jun 2027 08:57:08.582            28.619                Irkutsk           894.344
       271   04 Jun 2027 09:00:23.621   04 Jun 2027 09:00:35.059            11.438                Novosib           357.437
       272   04 Jun 2027 10:19:06.942   04 Jun 2027 10:22:02.591           175.649                  Delhi          5489.031
       273   04 Jun 2027 10:36:55.493   04 Jun 2027 10:37:20.712            25.219              Murmansk1           788.094
       274   04 Jun 2027 12:07:47.325   04 Jun 2027 12:08:30.729            43.404              Murmansk1          1356.375
       275   04 Jun 2027 12:08:41.218   04 Jun 2027 12:09:10.423            29.205              Murmansk2           912.656
       276   04 Jun 2027 12:09:34.206   04 Jun 2027 12:10:31.260            57.054              Murmansk2          1782.937
       277   04 Jun 2027 12:12:37.401   04 Jun 2027 12:14:26.048           108.647                Norilsk          3395.219
       278   04 Jun 2027 12:23:31.201   04 Jun 2027 12:25:33.501           122.300                Anadyr1          3821.875
       279   04 Jun 2027 13:44:18.638   04 Jun 2027 13:44:51.436            32.798              Murmansk2          1024.937
       280   04 Jun 2027 13:46:21.993   04 Jun 2027 13:46:29.272             7.279              Murmansk1           227.469
       281   04 Jun 2027 13:47:02.316   04 Jun 2027 13:47:59.139            56.823              Murmansk1          1775.719
       282   04 Jun 2027 13:52:14.151   04 Jun 2027 13:52:51.970            37.819              Murmansk1          1181.844
       283   04 Jun 2027 13:56:41.219   04 Jun 2027 13:59:57.138           195.919                Anadyr1          6122.469
       284   04 Jun 2027 14:00:09.307   04 Jun 2027 14:02:18.553           129.246                Anadyr1          4038.937
       285   04 Jun 2027 15:24:35.356   04 Jun 2027 15:26:04.949            89.593              Murmansk2          2799.781
       286   04 Jun 2027 15:32:26.957   04 Jun 2027 15:33:49.933            82.976                Anadyr2          2593.000
       287   04 Jun 2027 15:35:13.388   04 Jun 2027 15:38:08.120           174.732               Magadan1          5460.375
       288   04 Jun 2027 15:38:12.613   04 Jun 2027 15:39:12.211            59.598               Magadan2          1862.438
       289   04 Jun 2027 15:43:04.808   04 Jun 2027 15:44:39.770            94.962               Magadan1          2967.563
       290   04 Jun 2027 17:08:22.249   04 Jun 2027 17:09:00.091            37.842                Anadyr2          1182.563
       291   04 Jun 2027 17:10:39.428   04 Jun 2027 17:11:18.672            39.244               Magadan2          1226.375
       292   04 Jun 2027 17:12:50.379   04 Jun 2027 17:13:39.411            49.032               Magadan2          1532.250
       293   04 Jun 2027 17:14:06.258   04 Jun 2027 17:16:06.892           120.634               Magadan2          3769.812
       294   04 Jun 2027 18:03:27.891   04 Jun 2027 18:03:59.746            31.855            RioGallegos           995.469
       295   04 Jun 2027 18:04:06.240   04 Jun 2027 18:06:56.352           170.112            RioGallegos          5316.000
       296   04 Jun 2027 18:09:03.567   04 Jun 2027 18:10:11.978            68.411            RioGallegos          2137.844
       297   04 Jun 2027 18:46:16.549   04 Jun 2027 18:46:54.272            37.723                Norilsk          1178.844
       298   04 Jun 2027 18:47:57.225   04 Jun 2027 18:49:21.143            83.918                Norilsk          2622.437
       299   04 Jun 2027 18:50:44.901   04 Jun 2027 18:52:18.613            93.712                Irkutsk          2928.500
       300   04 Jun 2027 18:53:42.415   04 Jun 2027 18:54:51.233            68.818                Irkutsk          2150.563
       301   04 Jun 2027 19:01:06.700   04 Jun 2027 19:01:20.332            13.632                Irkutsk           426.000
       302   04 Jun 2027 19:04:53.688   04 Jun 2027 19:07:00.579           126.891                Sumatra          3965.344
       303   04 Jun 2027 19:08:16.048   04 Jun 2027 19:09:31.688            75.640                Sumatra          2363.750
       304   04 Jun 2027 19:09:47.010   04 Jun 2027 19:11:16.774            89.764                Sumatra          2805.125
       305   04 Jun 2027 20:25:59.797   04 Jun 2027 20:27:37.884            98.087                Irkutsk          3065.219
       306   04 Jun 2027 20:28:18.798   04 Jun 2027 20:29:37.233            78.435                Novosib          2451.094
       307   04 Jun 2027 20:34:53.770   04 Jun 2027 20:37:59.619           185.849                  Delhi          5807.781
       308   04 Jun 2027 20:42:01.108   04 Jun 2027 20:42:25.771            24.663                  Delhi           770.719
       309   04 Jun 2027 22:00:43.940   04 Jun 2027 22:04:46.053           242.113              Murmansk2          7566.031
       310   04 Jun 2027 22:05:56.739   04 Jun 2027 22:06:33.846            37.107              Murmansk1          1159.594
       311   04 Jun 2027 23:31:31.428   04 Jun 2027 23:31:41.620            10.192                Anadyr2           318.500
       312   04 Jun 2027 23:31:53.466   04 Jun 2027 23:32:21.892            28.426               Magadan2           888.313
       313   04 Jun 2027 23:32:21.892   04 Jun 2027 23:32:40.638            18.746               Magadan1           585.813
       314   04 Jun 2027 23:32:54.683   04 Jun 2027 23:32:57.650             2.967               Magadan1            92.719
       315   04 Jun 2027 23:33:48.215   04 Jun 2027 23:34:28.234            40.019               Magadan2          1250.594
       316   04 Jun 2027 23:35:15.859   04 Jun 2027 23:35:21.656             5.797               Magadan2           181.156
       317   04 Jun 2027 23:36:16.969   04 Jun 2027 23:37:43.896            86.927              Murmansk2          2716.469
       318   04 Jun 2027 23:37:44.328   04 Jun 2027 23:39:43.932           119.604              Murmansk1          3737.625
       319   04 Jun 2027 23:39:49.231   04 Jun 2027 23:40:46.563            57.332                 Moscow          1791.625
       320   04 Jun 2027 23:42:13.422   04 Jun 2027 23:43:09.805            56.383                 Moscow          1761.969
       321   04 Jun 2027 23:44:27.304   04 Jun 2027 23:45:32.443            65.139                 Moscow          2035.594
       322   05 Jun 2027 00:04:51.291   05 Jun 2027 00:07:28.700           157.409               CapeTown          4919.031
       323   05 Jun 2027 01:11:18.316   05 Jun 2027 01:11:45.385            27.069               Magadan2           845.906
       324   05 Jun 2027 01:12:14.066   05 Jun 2027 01:13:32.104            78.038              Murmansk2          2438.688
       325   05 Jun 2027 01:14:38.692   05 Jun 2027 01:15:22.325            43.633              Murmansk2          1363.531
       326   05 Jun 2027 01:15:26.418   05 Jun 2027 01:15:39.009            12.591                 Moscow           393.469
       327   05 Jun 2027 01:16:46.601   05 Jun 2027 01:16:50.954             4.353                 Moscow           136.031
       328   05 Jun 2027 01:17:51.138   05 Jun 2027 01:18:18.436            27.298                Novosib           853.062
       329   05 Jun 2027 01:20:50.999   05 Jun 2027 01:22:03.269            72.270                 Moscow          2258.438
       330   05 Jun 2027 01:39:31.031   05 Jun 2027 01:40:59.040            88.009               CapeTown          2750.281
       331   05 Jun 2027 02:36:15.934   05 Jun 2027 02:37:08.223            52.289                Anadyr1          1634.031
       332   05 Jun 2027 02:37:21.029   05 Jun 2027 02:37:24.456             3.427                Anadyr1           107.094
       333   05 Jun 2027 02:37:40.167   05 Jun 2027 02:38:17.926            37.759               Magadan2          1179.969
       334   05 Jun 2027 02:38:21.706   05 Jun 2027 02:39:32.404            70.698               Magadan1          2209.313
       335   05 Jun 2027 02:42:02.560   05 Jun 2027 02:42:34.332            31.772               Magadan2           992.875
       336   05 Jun 2027 02:46:59.881   05 Jun 2027 02:47:13.305            13.424               Magadan1           419.500
       337   05 Jun 2027 02:47:22.193   05 Jun 2027 02:47:25.364             3.171                Norilsk            99.094
       338   05 Jun 2027 02:48:08.870   05 Jun 2027 02:49:29.912            81.042              Murmansk2          2532.562
       339   05 Jun 2027 02:49:29.912   05 Jun 2027 02:50:02.517            32.605              Murmansk1          1018.906
       340   05 Jun 2027 02:51:42.966   05 Jun 2027 02:52:43.714            60.748                 Moscow          1898.375
       341   05 Jun 2027 04:19:20.032   05 Jun 2027 04:20:12.193            52.161               Magadan1          1630.031
       342   05 Jun 2027 04:20:18.894   05 Jun 2027 04:22:14.795           115.901                Anadyr1          3621.906
       343   05 Jun 2027 04:22:14.795   05 Jun 2027 04:22:59.862            45.067                Anadyr2          1408.344
       344   05 Jun 2027 05:01:13.598   05 Jun 2027 05:04:16.244           182.646            RioGallegos          5707.687
       345   05 Jun 2027 05:56:08.200   05 Jun 2027 05:59:09.905           181.705               Magadan1          5678.281
       346   05 Jun 2027 05:59:53.800   05 Jun 2027 05:59:59.780             5.980               Magadan1           186.875
       347   05 Jun 2027 07:32:33.081   05 Jun 2027 07:33:07.920            34.839                Novosib          1088.719
       348   05 Jun 2027 07:33:16.208   05 Jun 2027 07:34:21.540            65.332              Murmansk1          2041.625
       349   05 Jun 2027 07:35:22.866   05 Jun 2027 07:35:27.551             4.685                Norilsk           146.406
       350   05 Jun 2027 07:36:52.356   05 Jun 2027 07:36:55.422             3.066              Murmansk2            95.813
       351   05 Jun 2027 07:37:13.499   05 Jun 2027 07:38:17.401            63.902              Murmansk1          1996.937
       352   05 Jun 2027 08:16:03.563   05 Jun 2027 08:17:00.707            57.144            RioGallegos          1785.750
       353   05 Jun 2027 08:46:38.504   05 Jun 2027 08:47:11.998            33.494                Sumatra          1046.688
       354   05 Jun 2027 09:11:03.988   05 Jun 2027 09:11:18.476            14.488                Novosib           452.750
       355   05 Jun 2027 09:11:51.982   05 Jun 2027 09:12:14.546            22.564                Novosib           705.125
       356   05 Jun 2027 10:31:45.353   05 Jun 2027 10:34:32.276           166.923                  Delhi          5216.344
       357   05 Jun 2027 10:44:56.894   05 Jun 2027 10:45:17.476            20.582              Murmansk2           643.188
       358   05 Jun 2027 10:45:20.511   05 Jun 2027 10:45:36.413            15.902                Novosib           496.938
       359   05 Jun 2027 10:48:08.398   05 Jun 2027 10:48:08.535             0.137                Norilsk             4.281
       360   05 Jun 2027 10:49:00.530   05 Jun 2027 10:49:01.612             1.082                Norilsk            33.813
       361   05 Jun 2027 12:19:45.023   05 Jun 2027 12:20:17.366            32.343              Murmansk2          1010.719
       362   05 Jun 2027 12:20:21.605   05 Jun 2027 12:21:14.345            52.740              Murmansk1          1648.125
       363   05 Jun 2027 12:22:32.659   05 Jun 2027 12:22:57.077            24.418              Murmansk1           763.063
       364   05 Jun 2027 12:26:17.604   05 Jun 2027 12:27:11.300            53.696                Norilsk          1678.000
       365   05 Jun 2027 12:29:56.815   05 Jun 2027 12:30:02.350             5.535              Murmansk2           172.969
       366   05 Jun 2027 12:30:36.880   05 Jun 2027 12:30:50.203            13.323              Murmansk1           416.344
       367   05 Jun 2027 12:33:50.610   05 Jun 2027 12:37:25.171           214.561                Anadyr2          6705.031
       368   05 Jun 2027 12:39:21.029   05 Jun 2027 12:39:42.214            21.185                Anadyr1           662.031
       369   05 Jun 2027 13:37:34.068   05 Jun 2027 13:37:57.205            23.137               CapeTown           723.031
       370   05 Jun 2027 13:56:22.237   05 Jun 2027 13:58:30.841           128.604              Murmansk2          4018.875
       371   05 Jun 2027 13:58:39.688   05 Jun 2027 13:58:59.511            19.823              Murmansk1           619.469
       372   05 Jun 2027 14:00:32.524   05 Jun 2027 14:00:57.063            24.539              Murmansk1           766.844
       373   05 Jun 2027 14:02:35.347   05 Jun 2027 14:02:42.169             6.822              Murmansk2           213.188
       374   05 Jun 2027 14:04:06.777   05 Jun 2027 14:04:14.939             8.162              Murmansk2           255.062
       375   05 Jun 2027 14:04:48.052   05 Jun 2027 14:05:25.603            37.551              Murmansk2          1173.469
       376   05 Jun 2027 14:05:56.100   05 Jun 2027 14:06:19.081            22.981              Murmansk2           718.156
       377   05 Jun 2027 14:08:39.710   05 Jun 2027 14:10:46.221           126.511                Anadyr2          3953.469
       378   05 Jun 2027 14:11:58.097   05 Jun 2027 14:12:52.179            54.082                Anadyr2          1690.063
       379   05 Jun 2027 15:37:36.531   05 Jun 2027 15:39:56.076           139.545              Murmansk2          4360.781
       380   05 Jun 2027 15:41:02.632   05 Jun 2027 15:41:02.885             0.253              Murmansk1             7.906
       381   05 Jun 2027 15:44:28.165   05 Jun 2027 15:45:50.061            81.896                Anadyr1          2559.250
       382   05 Jun 2027 15:46:38.912   05 Jun 2027 15:47:39.615            60.703                Anadyr2          1896.969
       383   05 Jun 2027 15:48:07.920   05 Jun 2027 15:51:09.901           181.981               Magadan2          5686.906
       384   05 Jun 2027 15:52:19.507   05 Jun 2027 15:53:34.663            75.156               Magadan1          2348.625
       385   05 Jun 2027 15:55:27.769   05 Jun 2027 15:56:13.420            45.651               Magadan2          1426.594
       386   05 Jun 2027 17:22:28.309   05 Jun 2027 17:22:36.367             8.058                Anadyr2           251.812
       387   05 Jun 2027 17:22:40.126   05 Jun 2027 17:24:08.021            87.895               Magadan1          2746.719
       388   05 Jun 2027 17:24:38.152   05 Jun 2027 17:24:42.387             4.235               Magadan2           132.344
       389   05 Jun 2027 17:25:39.454   05 Jun 2027 17:25:58.267            18.813               Magadan1           587.906
       390   05 Jun 2027 17:25:58.267   05 Jun 2027 17:26:19.435            21.168               Magadan2           661.500
       391   05 Jun 2027 17:31:08.094   05 Jun 2027 17:31:10.897             2.803               Magadan2            87.594
       392   05 Jun 2027 17:31:25.313   05 Jun 2027 17:31:48.734            23.421               Magadan1           731.906
       393   05 Jun 2027 17:35:15.446   05 Jun 2027 17:35:35.184            19.738               Magadan2           616.813
       394   05 Jun 2027 18:15:08.737   05 Jun 2027 18:17:48.268           159.531            RioGallegos          4985.344
       395   05 Jun 2027 18:18:02.867   05 Jun 2027 18:19:43.475           100.608            RioGallegos          3144.000
       396   05 Jun 2027 18:20:43.300   05 Jun 2027 18:21:27.414            44.114            RioGallegos          1378.563
       397   05 Jun 2027 18:58:15.891   05 Jun 2027 19:00:06.172           110.281                Norilsk          3446.281
       398   05 Jun 2027 19:02:34.948   05 Jun 2027 19:05:42.302           187.354                Irkutsk          5854.812
       399   05 Jun 2027 19:11:31.072   05 Jun 2027 19:12:03.338            32.266                Irkutsk          1008.313
       400   05 Jun 2027 19:16:29.836   05 Jun 2027 19:17:55.218            85.382                Sumatra          2668.187
       401   05 Jun 2027 19:18:32.368   05 Jun 2027 19:20:12.406           100.038                Sumatra          3126.187
       402   05 Jun 2027 19:22:47.607   05 Jun 2027 19:23:00.746            13.139                Sumatra           410.594
       403   05 Jun 2027 20:38:17.403   05 Jun 2027 20:38:42.420            25.017                Novosib           781.781
       404   05 Jun 2027 20:39:20.236   05 Jun 2027 20:40:11.494            51.258                Novosib          1601.812
       405   05 Jun 2027 20:42:21.789   05 Jun 2027 20:43:59.712            97.923                Novosib          3060.094
       406   05 Jun 2027 20:46:24.233   05 Jun 2027 20:49:16.269           172.036                  Delhi          5376.125
       407   05 Jun 2027 20:52:34.377   05 Jun 2027 20:54:02.810            88.433                  Delhi          2763.531
       408   05 Jun 2027 22:12:38.560   05 Jun 2027 22:16:44.771           246.211              Murmansk1          7694.094
       409   05 Jun 2027 22:17:14.886   05 Jun 2027 22:19:07.492           112.606              Murmansk2          3518.938
       410   05 Jun 2027 22:19:22.460   05 Jun 2027 22:22:35.474           193.014                 Moscow          6031.688
       411   05 Jun 2027 23:48:17.996   05 Jun 2027 23:48:31.853            13.857              Murmansk2           433.031
       412   05 Jun 2027 23:49:33.908   05 Jun 2027 23:49:42.605             8.697              Murmansk1           271.781
       413   05 Jun 2027 23:51:44.718   05 Jun 2027 23:53:57.206           132.488                 Moscow          4140.250
       414   06 Jun 2027 00:00:00.129   06 Jun 2027 00:00:13.905            13.776                 Moscow           430.500
       415   06 Jun 2027 00:03:32.102   06 Jun 2027 00:03:49.031            16.929                 Moscow           529.031
       416   06 Jun 2027 00:16:24.059   06 Jun 2027 00:19:49.793           205.734               CapeTown          6429.188
       417   06 Jun 2027 01:18:36.432   06 Jun 2027 01:18:46.999            10.567               Magadan1           330.219
       418   06 Jun 2027 01:22:46.360   06 Jun 2027 01:23:20.322            33.962               Magadan2          1061.312
       419   06 Jun 2027 01:24:15.696   06 Jun 2027 01:25:33.694            77.998              Murmansk1          2437.438
       420   06 Jun 2027 01:27:28.611   06 Jun 2027 01:28:27.961            59.350                 Moscow          1854.687
       421   06 Jun 2027 01:30:50.905   06 Jun 2027 01:31:14.254            23.349                 Moscow           729.656
       422   06 Jun 2027 01:35:52.969   06 Jun 2027 01:36:10.917            17.948                 Moscow           560.875
       423   06 Jun 2027 01:37:21.224   06 Jun 2027 01:37:45.709            24.485                 Moscow           765.156
       424   06 Jun 2027 01:51:46.577   06 Jun 2027 01:52:48.737            62.160               CapeTown          1942.500
       425   06 Jun 2027 02:02:31.861   06 Jun 2027 02:03:03.243            31.382               CapeTown           980.688
       426   06 Jun 2027 02:48:21.556   06 Jun 2027 02:51:03.440           161.884               Magadan1          5058.875
       427   06 Jun 2027 02:53:43.042   06 Jun 2027 02:53:52.587             9.545               Magadan2           298.281
       428   06 Jun 2027 02:55:49.129   06 Jun 2027 02:55:59.540            10.411               Magadan2           325.344
       429   06 Jun 2027 02:56:12.399   06 Jun 2027 02:56:34.128            21.729                Norilsk           679.031
       430   06 Jun 2027 02:58:19.935   06 Jun 2027 02:58:29.930             9.995                Norilsk           312.344
       431   06 Jun 2027 02:58:35.475   06 Jun 2027 02:59:05.728            30.253                Norilsk           945.406
       432   06 Jun 2027 03:43:38.653   06 Jun 2027 03:44:03.131            24.478            RioGallegos           764.938
       433   06 Jun 2027 04:30:25.093   06 Jun 2027 04:31:54.140            89.047                Irkutsk          2782.719
       434   06 Jun 2027 04:32:49.751   06 Jun 2027 04:33:42.655            52.904                Irkutsk          1653.250
       435   06 Jun 2027 06:07:49.890   06 Jun 2027 06:08:13.722            23.832                Irkutsk           744.750
       436   06 Jun 2027 06:09:06.541   06 Jun 2027 06:10:53.247           106.706               Magadan1          3334.563
       437   06 Jun 2027 06:10:53.247   06 Jun 2027 06:11:27.483            34.236               Magadan2          1069.875
       438   06 Jun 2027 06:11:45.378   06 Jun 2027 06:11:50.767             5.389               Magadan1           168.406
       439   06 Jun 2027 06:16:28.323   06 Jun 2027 06:16:33.672             5.349                Norilsk           167.156
       440   06 Jun 2027 06:19:39.289   06 Jun 2027 06:20:12.953            33.664              Murmansk1          1052.000
       441   06 Jun 2027 07:42:49.646   06 Jun 2027 07:42:57.697             8.051                Irkutsk           251.594
       442   06 Jun 2027 07:43:50.287   06 Jun 2027 07:44:09.613            19.326                Irkutsk           603.938
       443   06 Jun 2027 07:44:18.853   06 Jun 2027 07:44:24.583             5.730                Novosib           179.063
       444   06 Jun 2027 07:44:52.526   06 Jun 2027 07:45:35.733            43.207              Murmansk2          1350.219
       445   06 Jun 2027 07:46:15.091   06 Jun 2027 07:46:48.465            33.374              Murmansk2          1042.937
       446   06 Jun 2027 07:47:24.622   06 Jun 2027 07:47:37.895            13.273                Norilsk           414.781
       447   06 Jun 2027 07:48:53.333   06 Jun 2027 07:48:56.335             3.002              Murmansk1            93.813
       448   06 Jun 2027 07:49:12.436   06 Jun 2027 07:50:13.130            60.694              Murmansk1          1896.688
       449   06 Jun 2027 08:25:00.295   06 Jun 2027 08:25:19.333            19.038            RioGallegos           594.937
       450   06 Jun 2027 08:25:30.731   06 Jun 2027 08:25:51.560            20.829            RioGallegos           650.906
       451   06 Jun 2027 08:59:35.988   06 Jun 2027 08:59:50.929            14.941                Sumatra           466.906
       452   06 Jun 2027 09:03:06.414   06 Jun 2027 09:03:38.663            32.249                Sumatra          1007.781
       453   06 Jun 2027 09:07:48.964   06 Jun 2027 09:08:38.222            49.258                Sumatra          1539.313
       454   06 Jun 2027 09:20:11.761   06 Jun 2027 09:20:48.401            36.640                Novosib          1145.000
       455   06 Jun 2027 09:20:51.081   06 Jun 2027 09:21:37.312            46.231                Novosib          1444.719
       456   06 Jun 2027 09:22:10.928   06 Jun 2027 09:22:26.155            15.227                Novosib           475.844
       457   06 Jun 2027 09:22:58.305   06 Jun 2027 09:23:00.794             2.489                Novosib            77.781
       458   06 Jun 2027 09:23:07.236   06 Jun 2027 09:23:16.708             9.472                Novosib           296.000
       459   06 Jun 2027 09:23:50.426   06 Jun 2027 09:24:02.528            12.102                Novosib           378.188
       460   06 Jun 2027 10:44:38.180   06 Jun 2027 10:48:03.673           205.493                  Delhi          6421.656
       461   06 Jun 2027 10:56:48.949   06 Jun 2027 10:56:51.124             2.175                Novosib            67.969
       462   06 Jun 2027 10:57:09.310   06 Jun 2027 10:57:18.508             9.198              Murmansk2           287.438
       463   06 Jun 2027 11:02:34.423   06 Jun 2027 11:02:39.050             4.627                Norilsk           144.594
       464   06 Jun 2027 12:27:58.846   06 Jun 2027 12:28:32.592            33.746                 Moscow          1054.563
       465   06 Jun 2027 12:29:37.762   06 Jun 2027 12:30:39.201            61.439                 Moscow          1919.969
       466   06 Jun 2027 12:30:52.822   06 Jun 2027 12:31:05.205            12.383                 Moscow           386.969
       467   06 Jun 2027 12:31:25.966   06 Jun 2027 12:31:50.271            24.305              Murmansk2           759.531
       468   06 Jun 2027 12:31:55.207   06 Jun 2027 12:31:58.870             3.663                 Moscow           114.469
       469   06 Jun 2027 12:32:07.123   06 Jun 2027 12:32:21.139            14.016              Murmansk2           438.000
       470   06 Jun 2027 12:32:27.985   06 Jun 2027 12:33:01.774            33.789              Murmansk2          1055.906
       471   06 Jun 2027 12:33:16.006   06 Jun 2027 12:33:23.910             7.904              Murmansk2           247.000
       472   06 Jun 2027 12:33:47.911   06 Jun 2027 12:34:34.179            46.268              Murmansk1          1445.875
       473   06 Jun 2027 12:34:34.179   06 Jun 2027 12:34:45.080            10.901              Murmansk2           340.656
       474   06 Jun 2027 12:35:02.815   06 Jun 2027 12:35:30.426            27.611              Murmansk2           862.844
       475   06 Jun 2027 12:35:42.637   06 Jun 2027 12:35:50.715             8.078              Murmansk1           252.437
       476   06 Jun 2027 12:40:33.143   06 Jun 2027 12:40:55.413            22.270              Murmansk1           695.938
       477   06 Jun 2027 12:45:33.075   06 Jun 2027 12:49:19.087           226.012                Anadyr1          7062.875
       478   06 Jun 2027 12:50:42.066   06 Jun 2027 12:51:52.553            70.487                Anadyr2          2202.719
       479   06 Jun 2027 14:08:50.450   06 Jun 2027 14:09:08.485            18.035              Murmansk1           563.594
       480   06 Jun 2027 14:09:08.934   06 Jun 2027 14:09:30.823            21.889              Murmansk2           684.031
       481   06 Jun 2027 14:09:55.623   06 Jun 2027 14:10:24.416            28.793              Murmansk2           899.781
       482   06 Jun 2027 14:16:08.461   06 Jun 2027 14:16:15.980             7.519              Murmansk2           234.969
