uniorb/output/strategy_4/Drop/Drop_KinoSat_110906.txt

KinoSat_110906
-------------------------
    Access    *     Start Time (UTCG)     *     Stop Time (UTCG)  *   Duration (s)        *       Station  *  Data (Mbytes)
         1   01 Jun 2027 03:22:38.003   01 Jun 2027 03:23:14.376            36.373                Anadyr2          1136.656
         2   01 Jun 2027 03:23:21.523   01 Jun 2027 03:24:47.173            85.650                Anadyr2          2676.562
         3   01 Jun 2027 03:24:47.173   01 Jun 2027 03:25:47.414            60.241                Anadyr1          1882.531
         4   01 Jun 2027 03:25:47.414   01 Jun 2027 03:25:57.192             9.778                Anadyr2           305.563
         5   01 Jun 2027 03:26:24.921   01 Jun 2027 03:26:29.602             4.681                Anadyr2           146.281
         6   01 Jun 2027 04:59:45.748   01 Jun 2027 05:00:53.479            67.731                Anadyr1          2116.594
         7   01 Jun 2027 05:01:02.720   01 Jun 2027 05:02:20.634            77.914                Anadyr1          2434.813
         8   01 Jun 2027 05:02:20.634   01 Jun 2027 05:03:29.125            68.491                Anadyr2          2140.344
         9   01 Jun 2027 05:03:29.125   01 Jun 2027 05:04:18.701            49.576                Anadyr1          1549.250
        10   01 Jun 2027 06:33:30.428   01 Jun 2027 06:34:20.227            49.799               Magadan1          1556.219
        11   01 Jun 2027 06:34:20.227   01 Jun 2027 06:34:41.608            21.381               Magadan2           668.156
        12   01 Jun 2027 06:34:50.094   01 Jun 2027 06:37:59.755           189.661                Anadyr2          5926.906
        13   01 Jun 2027 06:38:02.262   01 Jun 2027 06:38:29.649            27.387                Anadyr1           855.844
        14   01 Jun 2027 06:38:38.341   01 Jun 2027 06:38:54.661            16.320              Murmansk1           510.000
        15   01 Jun 2027 06:39:06.559   01 Jun 2027 06:39:35.042            28.483                Irkutsk           890.094
        16   01 Jun 2027 06:39:40.047   01 Jun 2027 06:41:51.929           131.882                Norilsk          4121.313
        17   01 Jun 2027 06:42:37.194   01 Jun 2027 06:43:19.336            42.142              Murmansk1          1316.937
        18   01 Jun 2027 07:14:46.354   01 Jun 2027 07:17:40.521           174.167            RioGallegos          5442.719
        19   01 Jun 2027 07:51:15.862   01 Jun 2027 07:52:41.605            85.743                Sumatra          2679.469
        20   01 Jun 2027 08:11:38.722   01 Jun 2027 08:14:29.511           170.789                Irkutsk          5337.156
        21   01 Jun 2027 08:14:30.392   01 Jun 2027 08:15:31.587            61.195                Novosib          1912.344
        22   01 Jun 2027 08:16:05.492   01 Jun 2027 08:16:41.528            36.036              Murmansk2          1126.125
        23   01 Jun 2027 08:17:52.988   01 Jun 2027 08:18:41.159            48.171              Murmansk1          1505.344
        24   01 Jun 2027 08:51:17.537   01 Jun 2027 08:52:11.926            54.389            RioGallegos          1699.656
        25   01 Jun 2027 08:55:56.055   01 Jun 2027 08:56:24.272            28.217            RioGallegos           881.781
        26   01 Jun 2027 09:25:37.718   01 Jun 2027 09:27:20.423           102.705                Sumatra          3209.531
        27   01 Jun 2027 09:34:24.628   01 Jun 2027 09:36:27.689           123.061                  Delhi          3845.656
        28   01 Jun 2027 09:47:48.797   01 Jun 2027 09:48:37.534            48.737                Irkutsk          1523.031
        29   01 Jun 2027 09:48:53.037   01 Jun 2027 09:50:34.944           101.907                Irkutsk          3184.594
        30   01 Jun 2027 09:51:16.035   01 Jun 2027 09:51:32.816            16.781                Norilsk           524.406
        31   01 Jun 2027 09:51:44.240   01 Jun 2027 09:53:21.378            97.138                Novosib          3035.562
        32   01 Jun 2027 11:10:26.696   01 Jun 2027 11:14:13.838           227.142                  Delhi          7098.187
        33   01 Jun 2027 11:24:58.497   01 Jun 2027 11:25:23.879            25.382                Novosib           793.187
        34   01 Jun 2027 11:25:31.627   01 Jun 2027 11:25:55.461            23.834                Novosib           744.812
        35   01 Jun 2027 11:26:25.521   01 Jun 2027 11:29:25.253           179.732                Norilsk          5616.625
        36   01 Jun 2027 11:29:31.134   01 Jun 2027 11:30:09.102            37.968              Murmansk1          1186.500
        37   01 Jun 2027 11:30:47.510   01 Jun 2027 11:30:50.912             3.402                 Moscow           106.313
        38   01 Jun 2027 11:31:13.987   01 Jun 2027 11:32:46.648            92.661                Norilsk          2895.656
        39   01 Jun 2027 12:54:03.751   01 Jun 2027 12:58:35.359           271.608                 Moscow          8487.750
        40   01 Jun 2027 12:58:39.278   01 Jun 2027 13:02:02.658           203.380              Murmansk2          6355.625
        41   01 Jun 2027 13:02:19.614   01 Jun 2027 13:02:55.282            35.668              Murmansk1          1114.625
        42   01 Jun 2027 13:03:22.234   01 Jun 2027 13:04:29.106            66.872                Norilsk          2089.750
        43   01 Jun 2027 13:14:39.624   01 Jun 2027 13:16:54.137           134.513                Anadyr2          4203.531
        44   01 Jun 2027 14:07:53.919   01 Jun 2027 14:09:20.734            86.815               CapeTown          2712.969
        45   01 Jun 2027 14:10:06.365   01 Jun 2027 14:10:52.454            46.089               CapeTown          1440.281
        46   01 Jun 2027 14:11:37.126   01 Jun 2027 14:11:38.206             1.080               CapeTown            33.750
        47   01 Jun 2027 14:35:14.562   01 Jun 2027 14:37:59.921           165.359              Murmansk2          5167.469
        48   01 Jun 2027 14:48:19.703   01 Jun 2027 14:52:16.873           237.170                Anadyr2          7411.563
        49   01 Jun 2027 16:15:29.945   01 Jun 2027 16:16:40.813            70.868              Murmansk2          2214.625
        50   01 Jun 2027 16:18:04.932   01 Jun 2027 16:18:26.557            21.625              Murmansk1           675.781
        51   01 Jun 2027 16:18:26.557   01 Jun 2027 16:19:19.704            53.147              Murmansk2          1660.844
        52   01 Jun 2027 16:24:02.944   01 Jun 2027 16:27:00.602           177.658                Anadyr1          5551.813
        53   01 Jun 2027 16:27:25.465   01 Jun 2027 16:30:18.580           173.115               Magadan1          5409.844
        54   01 Jun 2027 17:59:58.419   01 Jun 2027 18:01:40.296           101.877                Anadyr1          3183.656
        55   01 Jun 2027 18:02:06.241   01 Jun 2027 18:04:02.195           115.954                Anadyr2          3623.562
        56   01 Jun 2027 18:04:09.307   01 Jun 2027 18:05:35.178            85.871               Magadan2          2683.469
        57   01 Jun 2027 18:05:35.178   01 Jun 2027 18:06:37.053            61.875               Magadan1          1933.594
        58   01 Jun 2027 18:08:38.373   01 Jun 2027 18:09:20.427            42.054               Magadan2          1314.188
        59   01 Jun 2027 18:55:25.032   01 Jun 2027 18:58:32.286           187.254            RioGallegos          5851.687
        60   01 Jun 2027 19:02:33.828   01 Jun 2027 19:02:38.265             4.437            RioGallegos           138.656
        61   01 Jun 2027 19:35:44.245   01 Jun 2027 19:35:50.723             6.478                Anadyr2           202.437
        62   01 Jun 2027 19:37:54.230   01 Jun 2027 19:41:53.873           239.643                Norilsk          7488.844
        63   01 Jun 2027 19:42:31.840   01 Jun 2027 19:44:07.885            96.045                Irkutsk          3001.406
        64   01 Jun 2027 19:44:44.285   01 Jun 2027 19:45:00.912            16.627                Irkutsk           519.594
        65   01 Jun 2027 19:52:10.996   01 Jun 2027 19:52:30.604            19.608                Irkutsk           612.750
        66   01 Jun 2027 19:56:56.163   01 Jun 2027 19:59:51.216           175.053                Sumatra          5470.406
        67   01 Jun 2027 20:01:10.107   01 Jun 2027 20:02:29.083            78.976                Sumatra          2468.000
        68   01 Jun 2027 20:03:45.498   01 Jun 2027 20:04:11.822            26.324                Sumatra           822.625
        69   01 Jun 2027 21:14:41.468   01 Jun 2027 21:15:25.423            43.955                Norilsk          1373.594
        70   01 Jun 2027 21:17:36.149   01 Jun 2027 21:18:37.995            61.846                Irkutsk          1932.688
        71   01 Jun 2027 21:18:58.592   01 Jun 2027 21:21:49.875           171.283                Novosib          5352.594
        72   01 Jun 2027 21:27:02.748   01 Jun 2027 21:29:40.556           157.808                  Delhi          4931.500
        73   01 Jun 2027 21:33:15.784   01 Jun 2027 21:34:45.488            89.704                  Delhi          2803.250
        74   01 Jun 2027 22:50:12.235   01 Jun 2027 22:50:52.727            40.492               Magadan2          1265.375
        75   01 Jun 2027 22:52:26.453   01 Jun 2027 22:57:11.268           284.815              Murmansk1          8900.469
        76   01 Jun 2027 22:57:11.268   01 Jun 2027 22:58:57.956           106.688              Murmansk2          3334.000
        77   02 Jun 2027 00:23:12.834   02 Jun 2027 00:23:17.530             4.696                Anadyr2           146.750
        78   02 Jun 2027 00:23:55.035   02 Jun 2027 00:25:26.814            91.779               Magadan1          2868.094
        79   02 Jun 2027 00:25:47.452   02 Jun 2027 00:25:57.723            10.271               Magadan2           320.969
        80   02 Jun 2027 00:26:49.603   02 Jun 2027 00:27:16.258            26.655               Magadan2           832.969
        81   02 Jun 2027 00:27:53.095   02 Jun 2027 00:30:13.333           140.238              Murmansk1          4382.437
        82   02 Jun 2027 00:31:30.750   02 Jun 2027 00:33:11.788           101.038                 Moscow          3157.437
        83   02 Jun 2027 00:33:58.604   02 Jun 2027 00:34:18.597            19.993                 Moscow           624.781
        84   02 Jun 2027 00:35:45.134   02 Jun 2027 00:37:22.684            97.550                 Moscow          3048.438
        85   02 Jun 2027 00:56:55.182   02 Jun 2027 00:58:02.823            67.641               CapeTown          2113.781
        86   02 Jun 2027 01:03:17.117   02 Jun 2027 01:04:01.776            44.659               CapeTown          1395.594
        87   02 Jun 2027 01:54:16.980   02 Jun 2027 01:54:30.047            13.067                Anadyr2           408.344
        88   02 Jun 2027 01:54:49.595   02 Jun 2027 01:54:53.646             4.051                Anadyr1           126.594
        89   02 Jun 2027 01:55:33.205   02 Jun 2027 01:56:45.903            72.698               Magadan2          2271.813
        90   02 Jun 2027 01:57:04.092   02 Jun 2027 01:57:11.146             7.054               Magadan1           220.438
        91   02 Jun 2027 01:57:38.283   02 Jun 2027 01:58:16.333            38.050               Magadan2          1189.062
        92   02 Jun 2027 02:03:49.621   02 Jun 2027 02:04:29.512            39.891              Murmansk2          1246.594
        93   02 Jun 2027 02:04:29.512   02 Jun 2027 02:05:29.814            60.302              Murmansk1          1884.437
        94   02 Jun 2027 02:05:51.809   02 Jun 2027 02:05:58.432             6.623              Murmansk2           206.969
        95   02 Jun 2027 02:06:34.543   02 Jun 2027 02:06:51.882            17.339                Novosib           541.844
        96   02 Jun 2027 02:07:01.999   02 Jun 2027 02:07:52.853            50.854                 Moscow          1589.188
        97   02 Jun 2027 02:16:18.842   02 Jun 2027 02:16:37.902            19.060                 Moscow           595.625
        98   02 Jun 2027 02:17:42.704   02 Jun 2027 02:18:02.040            19.336                 Moscow           604.250
        99   02 Jun 2027 02:30:59.673   02 Jun 2027 02:31:35.806            36.133               CapeTown          1129.156
       100   02 Jun 2027 02:37:44.573   02 Jun 2027 02:39:20.511            95.938               CapeTown          2998.062
       101   02 Jun 2027 03:33:39.289   02 Jun 2027 03:36:08.687           149.398               Magadan1          4668.687
       102   02 Jun 2027 03:36:10.296   02 Jun 2027 03:36:47.256            36.960                Anadyr2          1155.000
       103   02 Jun 2027 03:36:47.256   02 Jun 2027 03:37:13.803            26.547                Anadyr1           829.594
       104   02 Jun 2027 03:37:39.193   02 Jun 2027 03:37:51.034            11.841                Anadyr1           370.031
       105   02 Jun 2027 03:39:06.556   02 Jun 2027 03:39:39.730            33.174               Magadan1          1036.687
       106   02 Jun 2027 05:12:52.566   02 Jun 2027 05:13:04.524            11.958                Anadyr2           373.688
       107   02 Jun 2027 05:13:04.524   02 Jun 2027 05:14:40.851            96.327                Anadyr1          3010.219
       108   02 Jun 2027 05:14:40.851   02 Jun 2027 05:16:16.170            95.319                Anadyr2          2978.719
       109   02 Jun 2027 06:49:03.415   02 Jun 2027 06:51:21.856           138.441               Magadan2          4326.281
       110   02 Jun 2027 06:51:32.984   02 Jun 2027 06:51:42.515             9.531               Magadan1           297.844
       111   02 Jun 2027 08:23:55.164   02 Jun 2027 08:26:36.062           160.898                Irkutsk          5028.062
       112   02 Jun 2027 08:26:59.983   02 Jun 2027 08:27:46.952            46.969                Irkutsk          1467.781
       113   02 Jun 2027 10:00:53.046   02 Jun 2027 10:01:03.736            10.690                Novosib           334.062
       114   02 Jun 2027 10:01:13.627   02 Jun 2027 10:01:18.254             4.627                Norilsk           144.594
       115   02 Jun 2027 10:01:24.492   02 Jun 2027 10:02:15.390            50.898                Novosib          1590.562
       116   02 Jun 2027 10:02:21.209   02 Jun 2027 10:02:36.393            15.184                Novosib           474.500
       117   02 Jun 2027 10:02:50.257   02 Jun 2027 10:02:51.838             1.581                Irkutsk            49.406
       118   02 Jun 2027 10:02:54.009   02 Jun 2027 10:02:55.081             1.072                Irkutsk            33.500
       119   02 Jun 2027 10:03:10.380   02 Jun 2027 10:03:32.525            22.145                Novosib           692.031
       120   02 Jun 2027 11:22:50.673   02 Jun 2027 11:25:52.159           181.486                  Delhi          5671.437
       121   02 Jun 2027 11:37:08.458   02 Jun 2027 11:37:21.709            13.251                Norilsk           414.094
       122   02 Jun 2027 11:38:17.503   02 Jun 2027 11:38:50.608            33.105                Norilsk          1034.531
       123   02 Jun 2027 11:39:05.980   02 Jun 2027 11:39:22.557            16.577                Novosib           518.031
       124   02 Jun 2027 13:06:11.592   02 Jun 2027 13:06:17.301             5.709                 Moscow           178.406
       125   02 Jun 2027 13:06:32.619   02 Jun 2027 13:07:06.624            34.005                 Moscow          1062.656
       126   02 Jun 2027 13:07:34.475   02 Jun 2027 13:07:47.581            13.106                 Moscow           409.562
       127   02 Jun 2027 13:08:56.393   02 Jun 2027 13:10:23.955            87.562                 Moscow          2736.313
       128   02 Jun 2027 13:10:33.127   02 Jun 2027 13:11:09.056            35.929              Murmansk2          1122.781
       129   02 Jun 2027 13:11:21.815   02 Jun 2027 13:12:36.028            74.213              Murmansk1          2319.156
       130   02 Jun 2027 13:13:18.662   02 Jun 2027 13:13:39.387            20.725              Murmansk1           647.656
       131   02 Jun 2027 13:13:39.387   02 Jun 2027 13:14:30.609            51.222              Murmansk2          1600.688
       132   02 Jun 2027 13:16:28.018   02 Jun 2027 13:16:54.601            26.583                Norilsk           830.719
       133   02 Jun 2027 13:18:33.204   02 Jun 2027 13:18:57.502            24.298                Norilsk           759.312
       134   02 Jun 2027 13:25:47.978   02 Jun 2027 13:27:19.751            91.773                Anadyr1          2867.906
       135   02 Jun 2027 13:28:42.566   02 Jun 2027 13:29:34.069            51.503                Anadyr2          1609.469
       136   02 Jun 2027 14:21:13.453   02 Jun 2027 14:22:15.364            61.911               CapeTown          1934.719
       137   02 Jun 2027 14:45:22.786   02 Jun 2027 14:45:42.681            19.895                 Moscow           621.719
       138   02 Jun 2027 14:47:38.326   02 Jun 2027 14:47:57.235            18.909              Murmansk1           590.906
       139   02 Jun 2027 14:48:38.931   02 Jun 2027 14:50:28.950           110.019              Murmansk2          3438.094
       140   02 Jun 2027 15:00:17.628   02 Jun 2027 15:04:03.567           225.939                Anadyr1          7060.594
       141   02 Jun 2027 16:28:23.002   02 Jun 2027 16:31:05.027           162.025              Murmansk1          5063.281
       142   02 Jun 2027 16:36:04.115   02 Jun 2027 16:37:57.580           113.465                Anadyr2          3545.781
       143   02 Jun 2027 16:38:48.708   02 Jun 2027 16:42:36.949           228.241               Magadan1          7132.531
       144   02 Jun 2027 18:11:59.482   02 Jun 2027 18:15:10.577           191.095                Anadyr1          5971.719
       145   02 Jun 2027 18:15:12.041   02 Jun 2027 18:16:06.746            54.705               Magadan1          1709.531
       146   02 Jun 2027 18:16:27.236   02 Jun 2027 18:17:12.149            44.913               Magadan2          1403.531
       147   02 Jun 2027 18:18:23.892   02 Jun 2027 18:18:36.616            12.724               Magadan1           397.625
       148   02 Jun 2027 18:19:48.839   02 Jun 2027 18:21:15.713            86.874               Magadan2          2714.812
       149   02 Jun 2027 19:07:00.207   02 Jun 2027 19:09:37.806           157.599            RioGallegos          4924.969
       150   02 Jun 2027 19:10:21.689   02 Jun 2027 19:10:53.256            31.567            RioGallegos           986.469
       151   02 Jun 2027 19:11:38.145   02 Jun 2027 19:13:08.991            90.846            RioGallegos          2838.938
       152   02 Jun 2027 19:50:15.828   02 Jun 2027 19:51:19.633            63.805               Magadan2          1993.906
       153   02 Jun 2027 19:51:37.162   02 Jun 2027 19:53:54.382           137.220                Norilsk          4288.125
       154   02 Jun 2027 19:54:19.430   02 Jun 2027 19:56:13.405           113.975                Irkutsk          3561.719
       155   02 Jun 2027 19:57:00.110   02 Jun 2027 19:57:53.782            53.672                Irkutsk          1677.250
       156   02 Jun 2027 20:08:25.143   02 Jun 2027 20:09:48.783            83.640                Sumatra          2613.750
       157   02 Jun 2027 20:11:41.258   02 Jun 2027 20:12:49.793            68.535                Sumatra          2141.719
       158   02 Jun 2027 20:14:40.541   02 Jun 2027 20:15:12.420            31.879                Sumatra           996.219
       159   02 Jun 2027 21:29:58.675   02 Jun 2027 21:31:27.127            88.452                Novosib          2764.125
       160   02 Jun 2027 21:34:10.911   02 Jun 2027 21:35:51.757           100.846                Novosib          3151.438
       161   02 Jun 2027 21:38:44.162   02 Jun 2027 21:39:28.280            44.118                  Delhi          1378.687
       162   02 Jun 2027 21:40:48.659   02 Jun 2027 21:41:25.345            36.686                  Delhi          1146.437
       163   02 Jun 2027 21:45:12.806   02 Jun 2027 21:45:32.812            20.006                  Delhi           625.188
       164   02 Jun 2027 23:01:45.452   02 Jun 2027 23:03:25.083            99.631                Norilsk          3113.469
       165   02 Jun 2027 23:03:28.527   02 Jun 2027 23:04:10.243            41.716               Magadan1          1303.625
       166   02 Jun 2027 23:04:19.203   02 Jun 2027 23:09:21.497           302.294              Murmansk1          9446.688
       167   03 Jun 2027 00:29:49.026   03 Jun 2027 00:29:57.413             8.387                Anadyr2           262.094
       168   03 Jun 2027 00:31:01.584   03 Jun 2027 00:31:11.033             9.449                Anadyr1           295.281
       169   03 Jun 2027 00:31:17.604   03 Jun 2027 00:31:46.940            29.336                Anadyr1           916.750
       170   03 Jun 2027 00:32:43.235   03 Jun 2027 00:33:07.649            24.414                Anadyr2           762.938
       171   03 Jun 2027 00:35:24.930   03 Jun 2027 00:36:39.222            74.292               Magadan1          2321.625
       172   03 Jun 2027 00:36:48.509   03 Jun 2027 00:37:04.334            15.825               Magadan1           494.531
       173   03 Jun 2027 00:37:25.664   03 Jun 2027 00:37:45.774            20.110               Magadan2           628.438
       174   03 Jun 2027 00:38:03.357   03 Jun 2027 00:38:50.980            47.623               Magadan2          1488.219
       175   03 Jun 2027 00:39:53.958   03 Jun 2027 00:42:14.277           140.319              Murmansk1          4384.969
       176   03 Jun 2027 00:43:25.029   03 Jun 2027 00:43:50.241            25.212                 Moscow           787.875
       177   03 Jun 2027 00:44:02.953   03 Jun 2027 00:44:26.807            23.854                 Moscow           745.438
       178   03 Jun 2027 00:45:03.469   03 Jun 2027 00:45:39.935            36.466                 Moscow          1139.562
       179   03 Jun 2027 00:48:22.701   03 Jun 2027 00:49:16.154            53.453                 Moscow          1670.406
       180   03 Jun 2027 01:08:22.312   03 Jun 2027 01:09:30.727            68.415               CapeTown          2137.969
       181   03 Jun 2027 01:13:02.050   03 Jun 2027 01:13:46.769            44.719               CapeTown          1397.469
       182   03 Jun 2027 02:04:10.450   03 Jun 2027 02:04:49.817            39.367                Anadyr2          1230.219
       183   03 Jun 2027 02:05:59.534   03 Jun 2027 02:06:20.345            20.811                Anadyr1           650.344
       184   03 Jun 2027 02:07:05.391   03 Jun 2027 02:08:14.302            68.911               Magadan1          2153.469
       185   03 Jun 2027 02:08:14.302   03 Jun 2027 02:08:39.575            25.273               Magadan2           789.781
       186   03 Jun 2027 02:12:06.626   03 Jun 2027 02:12:26.647            20.021               Magadan2           625.656
       187   03 Jun 2027 02:15:51.332   03 Jun 2027 02:17:50.917           119.585              Murmansk2          3737.031
       188   03 Jun 2027 02:18:53.236   03 Jun 2027 02:19:24.614            31.378                Novosib           980.563
       189   03 Jun 2027 02:22:19.129   03 Jun 2027 02:22:31.938            12.809                 Moscow           400.281
       190   03 Jun 2027 02:24:39.711   03 Jun 2027 02:24:41.471             1.760                 Moscow            55.000
       191   03 Jun 2027 02:26:00.149   03 Jun 2027 02:26:01.309             1.160                 Moscow            36.250
       192   03 Jun 2027 02:27:08.739   03 Jun 2027 02:27:58.348            49.609                 Moscow          1550.281
       193   03 Jun 2027 02:43:33.980   03 Jun 2027 02:43:49.574            15.594               CapeTown           487.312
       194   03 Jun 2027 02:46:00.834   03 Jun 2027 02:46:19.560            18.726               CapeTown           585.187
       195   03 Jun 2027 02:52:58.055   03 Jun 2027 02:53:19.144            21.089               CapeTown           659.031
       196   03 Jun 2027 03:40:08.112   03 Jun 2027 03:40:19.691            11.579               Magadan2           361.844
       197   03 Jun 2027 03:42:55.607   03 Jun 2027 03:43:00.544             4.937                Anadyr2           154.281
       198   03 Jun 2027 03:43:04.611   03 Jun 2027 03:43:09.338             4.727               Magadan2           147.719
       199   03 Jun 2027 03:44:30.692   03 Jun 2027 03:44:42.820            12.128                Anadyr1           379.000
       200   03 Jun 2027 03:45:40.054   03 Jun 2027 03:48:12.048           151.994               Magadan1          4749.813
       201   03 Jun 2027 03:48:37.292   03 Jun 2027 03:51:47.066           189.774                Anadyr1          5930.438
       202   03 Jun 2027 03:51:47.066   03 Jun 2027 03:52:35.745            48.679                Anadyr2          1521.219
       203   03 Jun 2027 05:24:17.707   03 Jun 2027 05:26:15.658           117.951                Irkutsk          3685.969
       204   03 Jun 2027 06:59:36.583   03 Jun 2027 07:00:05.812            29.229                Novosib           913.406
       205   03 Jun 2027 07:00:08.482   03 Jun 2027 07:00:18.313             9.831               Magadan1           307.219
       206   03 Jun 2027 07:00:19.631   03 Jun 2027 07:00:20.590             0.959               Magadan2            29.969
       207   03 Jun 2027 07:00:37.239   03 Jun 2027 07:01:14.917            37.678                Irkutsk          1177.437
       208   03 Jun 2027 07:01:35.624   03 Jun 2027 07:02:40.943            65.319                Irkutsk          2041.219
       209   03 Jun 2027 07:03:10.593   03 Jun 2027 07:03:12.362             1.769               Magadan2            55.281
       210   03 Jun 2027 07:03:20.500   03 Jun 2027 07:03:32.278            11.778               Magadan2           368.063
       211   03 Jun 2027 07:03:44.425   03 Jun 2027 07:03:50.144             5.719              Murmansk2           178.719
       212   03 Jun 2027 07:09:29.719   03 Jun 2027 07:09:30.252             0.533              Murmansk1            16.656
       213   03 Jun 2027 07:38:37.330   03 Jun 2027 07:39:19.980            42.650            RioGallegos          1332.813
       214   03 Jun 2027 08:20:43.998   03 Jun 2027 08:20:50.007             6.009                Sumatra           187.781
       215   03 Jun 2027 08:23:32.240   03 Jun 2027 08:23:52.926            20.686                Sumatra           646.438
       216   03 Jun 2027 08:34:46.343   03 Jun 2027 08:35:05.646            19.303                Irkutsk           603.219
       217   03 Jun 2027 08:35:13.690   03 Jun 2027 08:35:52.162            38.472                Irkutsk          1202.250
       218   03 Jun 2027 08:35:57.234   03 Jun 2027 08:36:01.860             4.626                Irkutsk           144.563
       219   03 Jun 2027 08:36:51.369   03 Jun 2027 08:37:02.829            11.460                Novosib           358.125
       220   03 Jun 2027 08:37:40.981   03 Jun 2027 08:37:48.581             7.600                Norilsk           237.500
       221   03 Jun 2027 08:38:06.788   03 Jun 2027 08:38:28.663            21.875                Irkutsk           683.594
       222   03 Jun 2027 08:38:32.095   03 Jun 2027 08:39:20.382            48.287                Irkutsk          1508.969
       223   03 Jun 2027 08:39:41.448   03 Jun 2027 08:39:44.135             2.687              Murmansk2            83.969
       224   03 Jun 2027 09:16:09.800   03 Jun 2027 09:16:26.521            16.721            RioGallegos           522.531
       225   03 Jun 2027 09:17:16.724   03 Jun 2027 09:18:06.305            49.581            RioGallegos          1549.406
       226   03 Jun 2027 09:20:06.306   03 Jun 2027 09:20:29.341            23.035            RioGallegos           719.844
       227   03 Jun 2027 09:50:21.532   03 Jun 2027 09:51:08.796            47.264                Sumatra          1477.000
       228   03 Jun 2027 09:53:30.496   03 Jun 2027 09:54:02.874            32.378                Sumatra          1011.812
       229   03 Jun 2027 10:01:19.602   03 Jun 2027 10:01:26.631             7.029                  Delhi           219.656
       230   03 Jun 2027 10:02:34.488   03 Jun 2027 10:02:39.440             4.952                  Delhi           154.750
       231   03 Jun 2027 10:05:49.987   03 Jun 2027 10:06:08.160            18.173                  Delhi           567.906
       232   03 Jun 2027 10:11:20.744   03 Jun 2027 10:11:35.663            14.919                Novosib           466.219
       233   03 Jun 2027 10:11:41.450   03 Jun 2027 10:12:12.814            31.364                Novosib           980.125
       234   03 Jun 2027 10:12:21.797   03 Jun 2027 10:13:00.232            38.435                Novosib          1201.094
       235   03 Jun 2027 10:13:10.781   03 Jun 2027 10:13:25.482            14.701                Novosib           459.406
       236   03 Jun 2027 10:14:23.901   03 Jun 2027 10:14:26.469             2.568                Novosib            80.250
       237   03 Jun 2027 10:14:31.665   03 Jun 2027 10:14:53.154            21.489                Norilsk           671.531
       238   03 Jun 2027 10:15:12.908   03 Jun 2027 10:15:13.772             0.864                Novosib            27.000
       239   03 Jun 2027 10:15:21.367   03 Jun 2027 10:15:23.399             2.032                Norilsk            63.500
       240   03 Jun 2027 10:15:28.159   03 Jun 2027 10:15:30.128             1.969                Novosib            61.531
       241   03 Jun 2027 10:15:43.388   03 Jun 2027 10:16:25.111            41.723                Norilsk          1303.844
       242   03 Jun 2027 11:35:31.564   03 Jun 2027 11:37:07.887            96.323                  Delhi          3010.094
       243   03 Jun 2027 11:38:28.497   03 Jun 2027 11:39:58.733            90.236                  Delhi          2819.875
       244   03 Jun 2027 11:48:54.958   03 Jun 2027 11:48:59.064             4.106                Novosib           128.312
       245   03 Jun 2027 11:52:09.062   03 Jun 2027 11:52:30.899            21.837                Norilsk           682.406
       246   03 Jun 2027 13:18:22.653   03 Jun 2027 13:18:48.875            26.222                 Moscow           819.437
       247   03 Jun 2027 13:19:24.258   03 Jun 2027 13:19:45.255            20.997                 Moscow           656.156
       248   03 Jun 2027 13:22:15.504   03 Jun 2027 13:22:48.972            33.468                 Moscow          1045.875
       249   03 Jun 2027 13:26:44.866   03 Jun 2027 13:27:14.827            29.961              Murmansk1           936.281
       250   03 Jun 2027 13:28:16.263   03 Jun 2027 13:28:55.959            39.696              Murmansk1          1240.500
       251   03 Jun 2027 13:30:27.375   03 Jun 2027 13:30:34.183             6.808              Murmansk1           212.750
       252   03 Jun 2027 13:31:33.312   03 Jun 2027 13:32:04.624            31.312              Murmansk1           978.500
       253   03 Jun 2027 13:32:48.477   03 Jun 2027 13:33:08.011            19.534              Murmansk1           610.437
       254   03 Jun 2027 13:34:21.123   03 Jun 2027 13:34:27.612             6.489              Murmansk1           202.781
       255   03 Jun 2027 13:37:22.890   03 Jun 2027 13:38:20.520            57.630                Anadyr2          1800.938
       256   03 Jun 2027 13:39:36.324   03 Jun 2027 13:40:50.234            73.910                Anadyr1          2309.688
       257   03 Jun 2027 13:43:10.602   03 Jun 2027 13:43:31.441            20.839                Anadyr1           651.219
       258   03 Jun 2027 14:31:38.565   03 Jun 2027 14:32:19.604            41.039               CapeTown          1282.469
       259   03 Jun 2027 14:35:38.809   03 Jun 2027 14:35:59.733            20.924               CapeTown           653.875
       260   03 Jun 2027 14:38:48.851   03 Jun 2027 14:39:47.735            58.884               CapeTown          1840.125
       261   03 Jun 2027 14:43:41.478   03 Jun 2027 14:44:20.156            38.678               CapeTown          1208.688
       262   03 Jun 2027 15:00:04.527   03 Jun 2027 15:00:40.797            36.270              Murmansk1          1133.438
       263   03 Jun 2027 15:00:46.291   03 Jun 2027 15:01:01.578            15.287              Murmansk2           477.719
       264   03 Jun 2027 15:02:30.522   03 Jun 2027 15:02:46.470            15.948              Murmansk1           498.375
       265   03 Jun 2027 15:04:27.154   03 Jun 2027 15:04:44.987            17.833              Murmansk2           557.281
       266   03 Jun 2027 15:04:49.734   03 Jun 2027 15:04:55.864             6.130              Murmansk1           191.563
       267   03 Jun 2027 15:05:20.968   03 Jun 2027 15:05:34.798            13.830              Murmansk1           432.188
       268   03 Jun 2027 15:06:45.383   03 Jun 2027 15:07:02.635            17.252              Murmansk2           539.125
       269   03 Jun 2027 15:07:02.635   03 Jun 2027 15:07:44.618            41.983              Murmansk1          1311.969
       270   03 Jun 2027 15:12:16.319   03 Jun 2027 15:13:53.859            97.540                Anadyr2          3048.125
       271   03 Jun 2027 15:14:01.485   03 Jun 2027 15:14:09.483             7.998                Anadyr2           249.937
       272   03 Jun 2027 15:14:09.483   03 Jun 2027 15:14:28.023            18.540                Anadyr1           579.375
       273   03 Jun 2027 15:15:48.220   03 Jun 2027 15:17:27.074            98.854                Anadyr2          3089.188
       274   03 Jun 2027 16:41:26.817   03 Jun 2027 16:44:34.103           187.286              Murmansk1          5852.688
       275   03 Jun 2027 16:48:05.396   03 Jun 2027 16:49:52.819           107.423                Anadyr1          3356.969
       276   03 Jun 2027 16:50:42.825   03 Jun 2027 16:51:01.851            19.026               Magadan1           594.563
       277   03 Jun 2027 16:51:24.595   03 Jun 2027 16:53:16.750           112.155               Magadan2          3504.844
       278   03 Jun 2027 16:56:19.706   03 Jun 2027 16:56:27.040             7.334               Magadan1           229.188
       279   03 Jun 2027 16:56:38.459   03 Jun 2027 16:56:57.544            19.085               Magadan2           596.406
       280   03 Jun 2027 16:59:11.257   03 Jun 2027 17:00:13.736            62.479               Magadan2          1952.469
       281   03 Jun 2027 18:24:00.363   03 Jun 2027 18:27:00.163           179.800                Anadyr1          5618.750
       282   03 Jun 2027 18:27:03.879   03 Jun 2027 18:27:11.453             7.574                Anadyr1           236.688
       283   03 Jun 2027 18:27:13.074   03 Jun 2027 18:29:44.497           151.423                Norilsk          4731.969
       284   03 Jun 2027 18:37:10.588   03 Jun 2027 18:37:24.705            14.117               Magadan2           441.156
       285   03 Jun 2027 19:18:42.283   03 Jun 2027 19:21:02.876           140.593            RioGallegos          4393.531
       286   03 Jun 2027 19:22:13.743   03 Jun 2027 19:22:39.320            25.577            RioGallegos           799.281
       287   03 Jun 2027 19:24:02.591   03 Jun 2027 19:25:00.410            57.819            RioGallegos          1806.844
       288   03 Jun 2027 20:01:52.562   03 Jun 2027 20:02:04.066            11.504                Norilsk           359.500
       289   03 Jun 2027 20:02:18.081   03 Jun 2027 20:02:38.287            20.206                Norilsk           631.438
       290   03 Jun 2027 20:02:55.876   03 Jun 2027 20:03:52.678            56.802               Magadan1          1775.062
       291   03 Jun 2027 20:04:24.304   03 Jun 2027 20:05:08.644            44.340               Magadan1          1385.625
       292   03 Jun 2027 20:05:46.251   03 Jun 2027 20:06:10.927            24.676               Magadan1           771.125
       293   03 Jun 2027 20:06:26.489   03 Jun 2027 20:09:20.554           174.065                Irkutsk          5439.531
       294   03 Jun 2027 20:10:11.884   03 Jun 2027 20:11:05.062            53.178                Novosib          1661.813
       295   03 Jun 2027 20:20:02.924   03 Jun 2027 20:21:11.186            68.262                Sumatra          2133.188
       296   03 Jun 2027 20:21:33.326   03 Jun 2027 20:22:13.618            40.292                Sumatra          1259.125
       297   03 Jun 2027 20:23:44.732   03 Jun 2027 20:24:21.203            36.471                Sumatra          1139.719
       298   03 Jun 2027 20:24:52.540   03 Jun 2027 20:25:09.515            16.975                Sumatra           530.469
       299   03 Jun 2027 21:38:24.412   03 Jun 2027 21:39:03.728            39.316               Magadan1          1228.625
       300   03 Jun 2027 21:40:02.347   03 Jun 2027 21:40:49.983            47.636               Magadan2          1488.625
       301   03 Jun 2027 21:41:38.659   03 Jun 2027 21:42:39.570            60.911                Irkutsk          1903.469
       302   03 Jun 2027 21:43:06.918   03 Jun 2027 21:44:10.198            63.280                Novosib          1977.500
       303   03 Jun 2027 21:44:39.603   03 Jun 2027 21:45:46.464            66.861                Novosib          2089.406
       304   03 Jun 2027 21:49:56.209   03 Jun 2027 21:52:05.873           129.664                  Delhi          4052.000
       305   03 Jun 2027 21:58:41.752   03 Jun 2027 21:59:14.274            32.522                  Delhi          1016.312
       306   03 Jun 2027 23:14:02.797   03 Jun 2027 23:15:40.315            97.518               Magadan2          3047.438
       307   03 Jun 2027 23:15:40.315   03 Jun 2027 23:16:03.140            22.825               Magadan1           713.281
       308   03 Jun 2027 23:16:14.327   03 Jun 2027 23:20:59.784           285.457              Murmansk1          8920.531
       309   03 Jun 2027 23:21:42.213   03 Jun 2027 23:22:22.632            40.419                 Moscow          1263.094
       310   03 Jun 2027 23:26:14.329   03 Jun 2027 23:26:32.146            17.817                 Moscow           556.781
       311   04 Jun 2027 00:43:16.744   04 Jun 2027 00:43:32.948            16.204                Anadyr1           506.375
       312   04 Jun 2027 00:46:08.687   04 Jun 2027 00:47:12.544            63.857                Anadyr1          1995.531
       313   04 Jun 2027 00:48:03.712   04 Jun 2027 00:48:30.230            26.518               Magadan1           828.687
       314   04 Jun 2027 00:48:34.888   04 Jun 2027 00:48:43.620             8.732               Magadan1           272.875
       315   04 Jun 2027 00:48:54.361   04 Jun 2027 00:49:24.450            30.089               Magadan2           940.281
       316   04 Jun 2027 00:49:48.011   04 Jun 2027 00:50:06.039            18.028               Magadan2           563.375
       317   04 Jun 2027 00:50:39.325   04 Jun 2027 00:50:52.787            13.462               Magadan1           420.688
       318   04 Jun 2027 00:51:55.089   04 Jun 2027 00:56:14.135           259.046              Murmansk1          8095.187
       319   04 Jun 2027 01:19:56.376   04 Jun 2027 01:20:33.526            37.150               CapeTown          1160.937
       320   04 Jun 2027 01:20:55.676   04 Jun 2027 01:21:11.413            15.737               CapeTown           491.781
       321   04 Jun 2027 01:28:12.628   04 Jun 2027 01:28:46.547            33.919               CapeTown          1059.969
       322   04 Jun 2027 02:15:55.039   04 Jun 2027 02:16:47.123            52.084                Anadyr1          1627.625
       323   04 Jun 2027 02:17:01.818   04 Jun 2027 02:17:42.954            41.136                Anadyr1          1285.500
       324   04 Jun 2027 02:18:39.010   04 Jun 2027 02:18:57.148            18.138               Magadan1           566.813
       325   04 Jun 2027 02:19:42.153   04 Jun 2027 02:20:41.471            59.318               Magadan2          1853.687
       326   04 Jun 2027 02:21:21.792   04 Jun 2027 02:21:43.266            21.474               Magadan1           671.063
       327   04 Jun 2027 02:25:31.077   04 Jun 2027 02:25:46.831            15.754                Norilsk           492.313
       328   04 Jun 2027 02:27:14.030   04 Jun 2027 02:27:38.227            24.197                Norilsk           756.156
       329   04 Jun 2027 02:27:53.000   04 Jun 2027 02:28:44.543            51.543              Murmansk2          1610.719
       330   04 Jun 2027 02:28:56.537   04 Jun 2027 02:29:48.653            52.116              Murmansk1          1628.625
       331   04 Jun 2027 02:31:23.609   04 Jun 2027 02:31:30.769             7.160                 Moscow           223.750
       332   04 Jun 2027 02:31:44.847   04 Jun 2027 02:32:19.712            34.865                 Moscow          1089.531
       333   04 Jun 2027 02:37:24.839   04 Jun 2027 02:37:39.879            15.040                 Moscow           470.000
       334   04 Jun 2027 02:41:30.591   04 Jun 2027 02:41:41.723            11.132                 Moscow           347.875
       335   04 Jun 2027 02:42:18.788   04 Jun 2027 02:43:44.045            85.257                 Moscow          2664.281
       336   04 Jun 2027 03:55:39.285   04 Jun 2027 03:55:55.361            16.076               Magadan1           502.375
       337   04 Jun 2027 03:57:06.038   04 Jun 2027 03:57:26.243            20.205                Anadyr2           631.406
       338   04 Jun 2027 03:57:59.160   04 Jun 2027 03:58:08.279             9.119               Magadan2           284.969
       339   04 Jun 2027 03:58:13.869   04 Jun 2027 03:59:36.945            83.076               Magadan2          2596.125
       340   04 Jun 2027 03:59:36.945   04 Jun 2027 03:59:40.502             3.557               Magadan1           111.156
       341   04 Jun 2027 04:00:09.701   04 Jun 2027 04:00:43.590            33.889               Magadan2          1059.031
       342   04 Jun 2027 04:00:43.590   04 Jun 2027 04:01:57.863            74.273               Magadan1          2321.031
       343   04 Jun 2027 04:02:20.820   04 Jun 2027 04:02:35.848            15.028               Magadan1           469.625
       344   04 Jun 2027 04:02:46.988   04 Jun 2027 04:03:56.445            69.457               Magadan1          2170.531
       345   04 Jun 2027 04:48:07.683   04 Jun 2027 04:48:45.794            38.111            RioGallegos          1190.969
       346   04 Jun 2027 05:37:03.357   04 Jun 2027 05:38:51.838           108.481                Irkutsk          3390.031
       347   04 Jun 2027 07:10:30.118   04 Jun 2027 07:10:41.548            11.430               Magadan1           357.187
       348   04 Jun 2027 07:11:42.947   04 Jun 2027 07:12:03.661            20.714                Novosib           647.313
       349   04 Jun 2027 07:12:20.552   04 Jun 2027 07:12:24.556             4.004               Magadan1           125.125
       350   04 Jun 2027 07:12:46.141   04 Jun 2027 07:13:58.560            72.419               Magadan2          2263.094
       351   04 Jun 2027 07:14:21.788   04 Jun 2027 07:14:50.045            28.257               Magadan2           883.031
       352   04 Jun 2027 07:15:05.082   04 Jun 2027 07:15:25.921            20.839               Magadan1           651.219
       353   04 Jun 2027 07:15:42.025   04 Jun 2027 07:15:52.018             9.993              Murmansk1           312.281
       354   04 Jun 2027 07:16:05.472   04 Jun 2027 07:16:45.564            40.092                Novosib          1252.875
       355   04 Jun 2027 08:00:33.591   04 Jun 2027 08:01:08.026            34.435            RioGallegos          1076.094
       356   04 Jun 2027 08:27:05.612   04 Jun 2027 08:28:22.964            77.352                Sumatra          2417.250
       357   04 Jun 2027 08:46:53.748   04 Jun 2027 08:47:25.879            32.131                Irkutsk          1004.094
       358   04 Jun 2027 08:47:28.998   04 Jun 2027 08:47:58.494            29.496                Irkutsk           921.750
       359   04 Jun 2027 08:48:29.510   04 Jun 2027 08:48:56.203            26.693                Irkutsk           834.156
       360   04 Jun 2027 08:49:44.155   04 Jun 2027 08:49:56.706            12.551                Irkutsk           392.219
       361   04 Jun 2027 08:50:07.662   04 Jun 2027 08:50:24.339            16.677                Irkutsk           521.156
       362   04 Jun 2027 08:50:27.234   04 Jun 2027 08:50:54.702            27.468                Novosib           858.375
       363   04 Jun 2027 08:51:28.864   04 Jun 2027 08:51:52.755            23.891                Irkutsk           746.594
       364   04 Jun 2027 09:28:44.816   04 Jun 2027 09:29:05.406            20.590            RioGallegos           643.438
       365   04 Jun 2027 09:29:42.697   04 Jun 2027 09:29:44.715             2.018            RioGallegos            63.063
       366   04 Jun 2027 09:30:13.334   04 Jun 2027 09:30:46.559            33.225            RioGallegos          1038.281
       367   04 Jun 2027 10:02:58.470   04 Jun 2027 10:03:06.237             7.767                Sumatra           242.719
       368   04 Jun 2027 10:06:17.145   04 Jun 2027 10:06:46.273            29.128                Sumatra           910.250
       369   04 Jun 2027 10:09:37.914   04 Jun 2027 10:10:24.635            46.721                Sumatra          1460.031
       370   04 Jun 2027 10:18:20.916   04 Jun 2027 10:18:42.175            21.259                  Delhi           664.344
       371   04 Jun 2027 10:24:06.460   04 Jun 2027 10:24:11.326             4.866                Novosib           152.062
       372   04 Jun 2027 10:25:17.132   04 Jun 2027 10:25:25.805             8.673                Novosib           271.031
       373   04 Jun 2027 10:25:40.289   04 Jun 2027 10:26:40.976            60.687                Novosib          1896.469
       374   04 Jun 2027 10:26:55.970   04 Jun 2027 10:26:58.674             2.704                Novosib            84.500
       375   04 Jun 2027 10:27:16.672   04 Jun 2027 10:27:19.454             2.782                Novosib            86.937
       376   04 Jun 2027 10:27:30.425   04 Jun 2027 10:27:49.522            19.097                Novosib           596.781
       377   04 Jun 2027 11:48:28.325   04 Jun 2027 11:50:22.363           114.038                  Delhi          3563.687
       378   04 Jun 2027 11:50:49.260   04 Jun 2027 11:52:29.134            99.874                  Delhi          3121.062
       379   04 Jun 2027 12:00:45.727   04 Jun 2027 12:01:32.059            46.332                Novosib          1447.875
       380   04 Jun 2027 12:03:01.102   04 Jun 2027 12:03:29.949            28.847                Novosib           901.469
       381   04 Jun 2027 12:04:58.218   04 Jun 2027 12:05:04.887             6.669                Norilsk           208.406
       382   04 Jun 2027 12:05:44.012   04 Jun 2027 12:05:49.677             5.665                Norilsk           177.031
       383   04 Jun 2027 12:06:43.267   04 Jun 2027 12:08:44.150           120.883                Norilsk          3777.594
       384   04 Jun 2027 13:31:15.764   04 Jun 2027 13:31:26.455            10.691                 Moscow           334.094
       385   04 Jun 2027 13:34:03.732   04 Jun 2027 13:34:42.978            39.246              Murmansk1          1226.438
       386   04 Jun 2027 13:34:56.512   04 Jun 2027 13:35:04.652             8.140                 Moscow           254.375
       387   04 Jun 2027 13:35:18.073   04 Jun 2027 13:35:33.650            15.577              Murmansk1           486.781
       388   04 Jun 2027 13:35:48.594   04 Jun 2027 13:35:49.717             1.123              Murmansk2            35.094
       389   04 Jun 2027 13:36:46.910   04 Jun 2027 13:36:53.452             6.542              Murmansk1           204.438
       390   04 Jun 2027 13:38:47.035   04 Jun 2027 13:38:58.247            11.212              Murmansk1           350.375
       391   04 Jun 2027 13:39:47.753   04 Jun 2027 13:40:31.276            43.523              Murmansk2          1360.094
       392   04 Jun 2027 13:42:23.807   04 Jun 2027 13:42:56.663            32.856              Murmansk2          1026.750
       393   04 Jun 2027 13:43:21.358   04 Jun 2027 13:43:56.573            35.215              Murmansk1          1100.469
       394   04 Jun 2027 13:45:44.607   04 Jun 2027 13:45:56.046            11.439              Murmansk2           357.469
       395   04 Jun 2027 13:49:06.861   04 Jun 2027 13:51:17.745           130.884                Anadyr1          4090.125
       396   04 Jun 2027 13:52:15.813   04 Jun 2027 13:53:24.118            68.305                Anadyr2          2134.531
       397   04 Jun 2027 13:55:11.120   04 Jun 2027 13:55:38.694            27.574                Anadyr2           861.687
       398   04 Jun 2027 15:11:31.624   04 Jun 2027 15:11:45.088            13.464                 Moscow           420.750
       399   04 Jun 2027 15:12:33.311   04 Jun 2027 15:14:19.067           105.756              Murmansk1          3304.875
       400   04 Jun 2027 15:15:14.172   04 Jun 2027 15:16:29.058            74.886              Murmansk2          2340.187
       401   04 Jun 2027 15:22:18.650   04 Jun 2027 15:22:20.049             1.399              Murmansk2            43.719
       402   04 Jun 2027 15:24:15.624   04 Jun 2027 15:26:02.534           106.910                Anadyr1          3340.937
       403   04 Jun 2027 15:27:31.914   04 Jun 2027 15:28:49.594            77.680                Anadyr2          2427.500
       404   04 Jun 2027 15:29:22.745   04 Jun 2027 15:31:22.412           119.667               Magadan2          3739.594
       405   04 Jun 2027 15:31:22.412   04 Jun 2027 15:31:40.220            17.808               Magadan1           556.500
       406   04 Jun 2027 16:55:06.891   04 Jun 2027 16:56:05.275            58.384              Murmansk2          1824.500
       407   04 Jun 2027 16:56:05.275   04 Jun 2027 16:56:14.534             9.259              Murmansk1           289.344
       408   04 Jun 2027 17:00:06.763   04 Jun 2027 17:01:46.402            99.639                Anadyr1          3113.719
       409   04 Jun 2027 17:02:38.467   04 Jun 2027 17:04:12.327            93.860               Magadan2          2933.125
       410   04 Jun 2027 17:04:52.066   04 Jun 2027 17:05:20.643            28.577               Magadan2           893.031
       411   04 Jun 2027 17:09:37.200   04 Jun 2027 17:09:46.703             9.503               Magadan2           296.969
       412   04 Jun 2027 17:13:39.411   04 Jun 2027 17:13:52.971            13.560               Magadan2           423.750
       413   04 Jun 2027 18:36:01.021   04 Jun 2027 18:40:09.062           248.041                Anadyr2          7751.281
       414   04 Jun 2027 18:40:15.358   04 Jun 2027 18:42:36.729           141.371                Norilsk          4417.844
       415   04 Jun 2027 18:50:59.940   04 Jun 2027 18:51:01.473             1.533               Magadan2            47.906
       416   04 Jun 2027 19:30:28.936   04 Jun 2027 19:34:07.904           218.968            RioGallegos          6842.750
       417   04 Jun 2027 19:39:32.463   04 Jun 2027 19:39:55.209            22.746            RioGallegos           710.812
       418   04 Jun 2027 20:13:52.720   04 Jun 2027 20:16:15.127           142.407                Norilsk          4450.219
       419   04 Jun 2027 20:17:44.105   04 Jun 2027 20:17:56.480            12.375                Norilsk           386.719
       420   04 Jun 2027 20:18:03.116   04 Jun 2027 20:18:37.147            34.031                Irkutsk          1063.469
       421   04 Jun 2027 20:18:45.073   04 Jun 2027 20:19:05.966            20.893                Norilsk           652.906
       422   04 Jun 2027 20:19:20.408   04 Jun 2027 20:19:31.597            11.189                Norilsk           349.656
       423   04 Jun 2027 20:19:41.118   04 Jun 2027 20:20:01.046            19.928                Irkutsk           622.750
       424   04 Jun 2027 20:20:01.227   04 Jun 2027 20:21:49.221           107.994                Novosib          3374.813
       425   04 Jun 2027 20:24:44.260   04 Jun 2027 20:25:06.557            22.297                Novosib           696.781
       426   04 Jun 2027 20:31:47.857   04 Jun 2027 20:32:58.473            70.616                Sumatra          2206.750
       427   04 Jun 2027 20:33:36.625   04 Jun 2027 20:34:30.549            53.924                Sumatra          1685.125
       428   04 Jun 2027 20:42:18.076   04 Jun 2027 20:44:04.137           106.061                Sumatra          3314.406
       429   04 Jun 2027 21:53:08.183   04 Jun 2027 21:53:26.269            18.086                Norilsk           565.188
       430   04 Jun 2027 21:53:41.128   04 Jun 2027 21:54:23.689            42.561                Irkutsk          1330.031
       431   04 Jun 2027 21:55:37.512   04 Jun 2027 21:56:15.572            38.060                Novosib          1189.375
       432   04 Jun 2027 21:56:52.514   04 Jun 2027 21:57:31.769            39.255                Novosib          1226.719
       433   04 Jun 2027 22:01:36.248   04 Jun 2027 22:05:08.477           212.229                  Delhi          6632.156
       434   04 Jun 2027 23:22:15.454   04 Jun 2027 23:22:30.226            14.772                Anadyr2           461.625
       435   04 Jun 2027 23:25:48.375   04 Jun 2027 23:27:29.071           100.696                Norilsk          3146.750
       436   04 Jun 2027 23:27:56.522   04 Jun 2027 23:28:03.232             6.710               Magadan1           209.687
       437   04 Jun 2027 23:28:11.104   04 Jun 2027 23:30:31.324           140.220              Murmansk2          4381.875
       438   04 Jun 2027 23:30:58.730   04 Jun 2027 23:32:08.685            69.955              Murmansk1          2186.094
       439   04 Jun 2027 23:33:01.062   04 Jun 2027 23:35:55.170           174.108                 Moscow          5440.875
       440   04 Jun 2027 23:38:49.344   04 Jun 2027 23:39:46.432            57.088                 Moscow          1784.000
       441   05 Jun 2027 00:58:21.620   05 Jun 2027 00:59:28.642            67.022               Magadan1          2094.437
       442   05 Jun 2027 01:00:19.193   05 Jun 2027 01:00:53.268            34.075               Magadan2          1064.844
       443   05 Jun 2027 01:01:48.019   05 Jun 2027 01:01:50.064             2.045               Magadan2            63.906
       444   05 Jun 2027 01:02:08.721   05 Jun 2027 01:02:54.907            46.186               Magadan1          1443.312
       445   05 Jun 2027 01:03:56.424   05 Jun 2027 01:04:17.467            21.043              Murmansk1           657.594
       446   05 Jun 2027 01:05:05.440   05 Jun 2027 01:06:56.765           111.325              Murmansk2          3478.906
       447   05 Jun 2027 01:08:00.738   05 Jun 2027 01:09:09.130            68.392                 Moscow          2137.250
       448   05 Jun 2027 01:31:36.477   05 Jun 2027 01:32:53.954            77.477               CapeTown          2421.156
       449   05 Jun 2027 02:27:51.504   05 Jun 2027 02:29:27.408            95.904                Anadyr2          2997.000
       450   05 Jun 2027 02:29:27.408   05 Jun 2027 02:29:47.969            20.561                Anadyr1           642.531
       451   05 Jun 2027 02:30:14.174   05 Jun 2027 02:31:35.279            81.105               Magadan2          2534.531
       452   05 Jun 2027 02:35:23.621   05 Jun 2027 02:36:11.002            47.381               Magadan2          1480.656
       453   05 Jun 2027 02:39:54.589   05 Jun 2027 02:41:09.462            74.873              Murmansk2          2339.781
       454   05 Jun 2027 02:41:51.780   05 Jun 2027 02:42:08.282            16.502              Murmansk1           515.688
       455   05 Jun 2027 02:43:09.026   05 Jun 2027 02:43:54.076            45.050                 Moscow          1407.813
       456   05 Jun 2027 02:48:30.053   05 Jun 2027 02:48:42.973            12.920                 Moscow           403.750
       457   05 Jun 2027 02:50:19.142   05 Jun 2027 02:50:35.658            16.516                 Moscow           516.125
       458   05 Jun 2027 02:53:41.731   05 Jun 2027 02:54:44.603            62.872                 Moscow          1964.750
       459   05 Jun 2027 03:14:05.591   05 Jun 2027 03:14:34.383            28.792               CapeTown           899.750
       460   05 Jun 2027 04:09:06.425   05 Jun 2027 04:09:34.583            28.158                Anadyr2           879.938
       461   05 Jun 2027 04:09:40.256   05 Jun 2027 04:11:57.146           136.890               Magadan2          4277.813
       462   05 Jun 2027 04:12:12.187   05 Jun 2027 04:15:16.780           184.593               Magadan1          5768.531
       463   05 Jun 2027 04:15:16.780   05 Jun 2027 04:15:53.103            36.323               Magadan2          1135.094
       464   05 Jun 2027 04:16:17.702   05 Jun 2027 04:16:36.785            19.083                Anadyr1           596.344
       465   05 Jun 2027 05:46:14.799   05 Jun 2027 05:46:38.754            23.955                Irkutsk           748.594
       466   05 Jun 2027 05:46:54.290   05 Jun 2027 05:47:21.695            27.405                Irkutsk           856.406
       467   05 Jun 2027 05:48:16.962   05 Jun 2027 05:50:07.433           110.471               Magadan1          3452.219
       468   05 Jun 2027 05:50:30.872   05 Jun 2027 05:51:08.172            37.300                Irkutsk          1165.625
       469   05 Jun 2027 07:22:15.056   05 Jun 2027 07:22:33.323            18.267               Magadan1           570.844
       470   05 Jun 2027 07:22:33.323   05 Jun 2027 07:23:12.522            39.199               Magadan2          1224.969
       471   05 Jun 2027 07:23:25.226   05 Jun 2027 07:23:32.083             6.857               Magadan1           214.281
       472   05 Jun 2027 07:23:33.404   05 Jun 2027 07:23:45.052            11.648               Magadan2           364.000
       473   05 Jun 2027 07:23:45.052   05 Jun 2027 07:24:15.174            30.122               Magadan1           941.313
       474   05 Jun 2027 07:24:22.531   05 Jun 2027 07:25:40.104            77.573               Magadan1          2424.156
       475   05 Jun 2027 07:25:53.069   05 Jun 2027 07:26:42.925            49.856                Irkutsk          1558.000
       476   05 Jun 2027 07:27:00.074   05 Jun 2027 07:27:13.168            13.094               Magadan2           409.188
       477   05 Jun 2027 07:27:53.738   05 Jun 2027 07:28:46.078            52.340              Murmansk2          1635.625
       478   05 Jun 2027 08:05:06.844   05 Jun 2027 08:05:56.070            49.226            RioGallegos          1538.312
       479   05 Jun 2027 08:37:42.695   05 Jun 2027 08:38:49.663            66.968                Sumatra          2092.750
       480   05 Jun 2027 08:58:44.905   05 Jun 2027 08:58:59.926            15.021                Irkutsk           469.406
       481   05 Jun 2027 08:59:01.705   05 Jun 2027 08:59:36.257            34.552                Irkutsk          1079.750
       482   05 Jun 2027 08:59:58.865   05 Jun 2027 09:00:53.557            54.692                Irkutsk          1709.125
