uniorb/output/strategy_4/Drop/Drop_KinoSat_111103.txt

KinoSat_111103
-------------------------
    Access    *     Start Time (UTCG)     *     Stop Time (UTCG)  *   Duration (s)        *       Station  *  Data (Mbytes)
         1   01 Jun 2027 03:44:27.866   01 Jun 2027 03:45:56.590            88.724               Magadan1          2772.625
         2   01 Jun 2027 03:55:47.754   01 Jun 2027 03:56:07.222            19.468                Norilsk           608.375
         3   01 Jun 2027 03:56:09.370   01 Jun 2027 03:56:23.616            14.246              Murmansk2           445.187
         4   01 Jun 2027 03:59:00.151   01 Jun 2027 03:59:23.223            23.072              Murmansk1           721.000
         5   01 Jun 2027 03:59:23.223   01 Jun 2027 03:59:33.022             9.799              Murmansk2           306.219
         6   01 Jun 2027 05:18:06.956   01 Jun 2027 05:18:56.787            49.831                Anadyr1          1557.219
         7   01 Jun 2027 05:19:19.434   01 Jun 2027 05:24:30.062           310.628               Magadan1          9707.125
         8   01 Jun 2027 06:53:32.272   01 Jun 2027 06:54:10.347            38.075                Irkutsk          1189.844
         9   01 Jun 2027 06:54:19.374   01 Jun 2027 06:54:38.629            19.255                Anadyr1           601.719
        10   01 Jun 2027 06:55:05.473   01 Jun 2027 06:58:28.189           202.716               Magadan2          6334.875
        11   01 Jun 2027 06:58:38.138   01 Jun 2027 06:58:53.664            15.526                Norilsk           485.188
        12   01 Jun 2027 06:59:07.863   01 Jun 2027 07:00:39.866            92.003                Novosib          2875.094
        13   01 Jun 2027 07:00:45.716   01 Jun 2027 07:02:10.590            84.874              Murmansk1          2652.313
        14   01 Jun 2027 07:02:10.590   01 Jun 2027 07:03:13.623            63.033              Murmansk2          1969.781
        15   01 Jun 2027 07:03:21.296   01 Jun 2027 07:03:45.937            24.641              Murmansk2           770.031
        16   01 Jun 2027 07:04:11.886   01 Jun 2027 07:04:19.346             7.460              Murmansk1           233.125
        17   01 Jun 2027 07:36:18.398   01 Jun 2027 07:37:54.003            95.605            RioGallegos          2987.656
        18   01 Jun 2027 08:31:18.894   01 Jun 2027 08:34:56.043           217.149               Magadan2          6785.906
        19   01 Jun 2027 08:34:56.043   01 Jun 2027 08:35:22.525            26.482               Magadan1           827.562
        20   01 Jun 2027 08:36:10.387   01 Jun 2027 08:36:32.135            21.748                Norilsk           679.625
        21   01 Jun 2027 08:36:38.331   01 Jun 2027 08:36:44.159             5.828                Irkutsk           182.125
        22   01 Jun 2027 08:37:23.911   01 Jun 2027 08:37:38.809            14.898                Norilsk           465.562
        23   01 Jun 2027 08:40:01.922   01 Jun 2027 08:40:08.273             6.351                Norilsk           198.469
        24   01 Jun 2027 09:11:31.300   01 Jun 2027 09:13:25.083           113.783            RioGallegos          3555.719
        25   01 Jun 2027 09:15:44.443   01 Jun 2027 09:15:59.298            14.855            RioGallegos           464.219
        26   01 Jun 2027 09:20:05.507   01 Jun 2027 09:20:25.074            19.567            RioGallegos           611.469
        27   01 Jun 2027 09:20:47.752   01 Jun 2027 09:21:06.263            18.511            RioGallegos           578.469
        28   01 Jun 2027 09:46:18.223   01 Jun 2027 09:49:23.397           185.174                Sumatra          5786.688
        29   01 Jun 2027 09:56:52.877   01 Jun 2027 09:56:56.479             3.602                  Delhi           112.563
        30   01 Jun 2027 10:08:16.647   01 Jun 2027 10:10:08.009           111.362                Novosib          3480.063
        31   01 Jun 2027 10:10:11.679   01 Jun 2027 10:10:22.931            11.252                Irkutsk           351.625
        32   01 Jun 2027 10:10:26.367   01 Jun 2027 10:11:56.407            90.040              Murmansk2          2813.750
        33   01 Jun 2027 10:12:00.590   01 Jun 2027 10:12:42.525            41.935                 Moscow          1310.469
        34   01 Jun 2027 10:13:39.646   01 Jun 2027 10:13:49.229             9.583                Norilsk           299.469
        35   01 Jun 2027 10:51:09.107   01 Jun 2027 10:51:30.008            20.901            RioGallegos           653.156
        36   01 Jun 2027 11:31:04.360   01 Jun 2027 11:32:51.071           106.711                  Delhi          3334.719
        37   01 Jun 2027 11:46:33.759   01 Jun 2027 11:49:01.906           148.147              Murmansk2          4629.594
        38   01 Jun 2027 11:50:05.814   01 Jun 2027 11:51:33.689            87.875                 Moscow          2746.094
        39   01 Jun 2027 13:15:50.526   01 Jun 2027 13:16:08.440            17.914                 Moscow           559.813
        40   01 Jun 2027 13:16:25.899   01 Jun 2027 13:18:14.102           108.203                 Moscow          3381.344
        41   01 Jun 2027 13:18:19.052   01 Jun 2027 13:20:25.215           126.163              Murmansk2          3942.594
        42   01 Jun 2027 13:20:45.039   01 Jun 2027 13:21:40.440            55.401              Murmansk2          1731.281
        43   01 Jun 2027 13:21:56.737   01 Jun 2027 13:22:07.790            11.053              Murmansk2           345.406
        44   01 Jun 2027 13:23:20.957   01 Jun 2027 13:24:04.178            43.221                Norilsk          1350.656
        45   01 Jun 2027 13:25:41.697   01 Jun 2027 13:26:07.452            25.755                Norilsk           804.844
        46   01 Jun 2027 13:26:20.717   01 Jun 2027 13:27:49.115            88.398                Norilsk          2762.438
        47   01 Jun 2027 14:29:44.716   01 Jun 2027 14:31:22.039            97.323               CapeTown          3041.344
        48   01 Jun 2027 14:36:20.591   01 Jun 2027 14:36:38.905            18.314               CapeTown           572.312
        49   01 Jun 2027 14:38:58.900   01 Jun 2027 14:39:26.225            27.325               CapeTown           853.906
        50   01 Jun 2027 14:55:15.538   01 Jun 2027 14:57:38.813           143.275              Murmansk1          4477.344
        51   01 Jun 2027 15:03:19.268   01 Jun 2027 15:03:51.853            32.585              Murmansk1          1018.281
        52   01 Jun 2027 15:04:09.273   01 Jun 2027 15:04:59.032            49.759              Murmansk1          1554.969
        53   01 Jun 2027 15:05:44.286   01 Jun 2027 15:06:33.835            49.549              Murmansk2          1548.406
        54   01 Jun 2027 15:09:28.274   01 Jun 2027 15:11:25.610           117.336                Anadyr2          3666.750
        55   01 Jun 2027 15:12:38.962   01 Jun 2027 15:13:01.237            22.275                Anadyr2           696.094
        56   01 Jun 2027 15:13:57.528   01 Jun 2027 15:14:13.351            15.823                Anadyr1           494.469
        57   01 Jun 2027 15:14:40.812   01 Jun 2027 15:15:34.532            53.720                Anadyr2          1678.750
        58   01 Jun 2027 15:17:16.254   01 Jun 2027 15:17:58.244            41.990                Anadyr2          1312.187
        59   01 Jun 2027 16:14:30.320   01 Jun 2027 16:15:02.407            32.087               CapeTown          1002.719
        60   01 Jun 2027 16:16:34.515   01 Jun 2027 16:16:56.812            22.297               CapeTown           696.781
        61   01 Jun 2027 16:34:24.864   01 Jun 2027 16:36:08.172           103.308              Murmansk2          3228.375
        62   01 Jun 2027 16:36:35.326   01 Jun 2027 16:37:06.427            31.101              Murmansk1           971.906
        63   01 Jun 2027 16:38:14.665   01 Jun 2027 16:39:15.691            61.026              Murmansk1          1907.062
        64   01 Jun 2027 16:41:36.177   01 Jun 2027 16:42:12.813            36.636              Murmansk1          1144.875
        65   01 Jun 2027 16:44:57.322   01 Jun 2027 16:46:11.156            73.834                Anadyr1          2307.313
        66   01 Jun 2027 16:47:02.970   01 Jun 2027 16:47:39.859            36.889                Anadyr2          1152.781
        67   01 Jun 2027 16:48:34.093   01 Jun 2027 16:50:41.744           127.651               Magadan2          3989.094
        68   01 Jun 2027 16:51:19.986   01 Jun 2027 16:51:40.323            20.337               Magadan1           635.531
        69   01 Jun 2027 16:51:46.040   01 Jun 2027 16:51:58.953            12.913               Magadan1           403.531
        70   01 Jun 2027 16:53:48.263   01 Jun 2027 16:54:27.325            39.062               Magadan1          1220.687
        71   01 Jun 2027 18:20:51.572   01 Jun 2027 18:24:55.801           244.229                Anadyr1          7632.156
        72   01 Jun 2027 18:25:16.678   01 Jun 2027 18:27:03.797           107.119               Magadan1          3347.469
        73   01 Jun 2027 18:28:20.646   01 Jun 2027 18:28:31.134            10.488               Magadan2           327.750
        74   01 Jun 2027 18:28:38.815   01 Jun 2027 18:28:47.441             8.626               Magadan2           269.562
        75   01 Jun 2027 18:28:57.667   01 Jun 2027 18:29:43.945            46.278               Magadan2          1446.188
        76   01 Jun 2027 18:32:30.413   01 Jun 2027 18:32:37.577             7.164               Magadan2           223.875
        77   01 Jun 2027 18:33:20.855   01 Jun 2027 18:34:05.279            44.424               Magadan1          1388.250
        78   01 Jun 2027 18:35:02.466   01 Jun 2027 18:35:30.933            28.467               Magadan2           889.594
        79   01 Jun 2027 19:56:43.506   01 Jun 2027 19:58:44.724           121.218                Anadyr1          3788.062
        80   01 Jun 2027 19:58:51.438   01 Jun 2027 20:00:50.587           119.149                Anadyr2          3723.406
        81   01 Jun 2027 20:01:00.366   01 Jun 2027 20:02:09.667            69.301               Magadan2          2165.656
        82   01 Jun 2027 20:02:21.468   01 Jun 2027 20:02:42.332            20.864                Norilsk           652.000
        83   01 Jun 2027 20:03:04.099   01 Jun 2027 20:04:02.420            58.321               Magadan1          1822.531
        84   01 Jun 2027 20:04:35.551   01 Jun 2027 20:05:17.731            42.180                Irkutsk          1318.125
        85   01 Jun 2027 20:07:00.106   01 Jun 2027 20:07:39.929            39.823                Irkutsk          1244.469
        86   01 Jun 2027 20:08:19.497   01 Jun 2027 20:08:30.578            11.081                Irkutsk           346.281
        87   01 Jun 2027 20:09:08.269   01 Jun 2027 20:10:29.117            80.848                Irkutsk          2526.500
        88   01 Jun 2027 20:21:07.451   01 Jun 2027 20:23:08.403           120.952                Sumatra          3779.750
        89   01 Jun 2027 20:24:39.703   01 Jun 2027 20:25:15.922            36.219                Sumatra          1131.844
        90   01 Jun 2027 21:34:35.957   01 Jun 2027 21:36:36.797           120.840                Norilsk          3776.250
        91   01 Jun 2027 21:37:35.433   01 Jun 2027 21:37:57.303            21.870               Magadan2           683.437
        92   01 Jun 2027 21:38:35.871   01 Jun 2027 21:40:04.293            88.422                Irkutsk          2763.188
        93   01 Jun 2027 21:42:59.727   01 Jun 2027 21:43:36.745            37.018                Novosib          1156.812
        94   01 Jun 2027 21:44:19.148   01 Jun 2027 21:45:47.234            88.086                Novosib          2752.688
        95   01 Jun 2027 21:52:17.718   01 Jun 2027 21:52:59.508            41.790                Sumatra          1305.937
        96   01 Jun 2027 21:56:28.661   01 Jun 2027 21:56:34.163             5.502                Sumatra           171.938
        97   01 Jun 2027 21:58:27.524   01 Jun 2027 21:59:02.222            34.698                Sumatra          1084.313
        98   01 Jun 2027 22:38:49.025   01 Jun 2027 22:39:06.707            17.682            RioGallegos           552.562
        99   01 Jun 2027 23:06:33.172   01 Jun 2027 23:07:22.825            49.653                Anadyr2          1551.656
       100   01 Jun 2027 23:07:22.825   01 Jun 2027 23:08:45.547            82.722                Anadyr1          2585.063
       101   01 Jun 2027 23:10:35.196   01 Jun 2027 23:11:00.066            24.870                Norilsk           777.188
       102   01 Jun 2027 23:11:11.784   01 Jun 2027 23:12:36.399            84.615               Magadan1          2644.219
       103   01 Jun 2027 23:13:21.437   01 Jun 2027 23:13:40.491            19.054               Magadan1           595.438
       104   01 Jun 2027 23:14:19.010   01 Jun 2027 23:15:18.734            59.724              Murmansk1          1866.375
       105   01 Jun 2027 23:16:01.060   01 Jun 2027 23:16:59.207            58.147              Murmansk2          1817.094
       106   01 Jun 2027 23:21:53.273   01 Jun 2027 23:23:32.677            99.404                  Delhi          3106.375
       107   01 Jun 2027 23:27:58.407   01 Jun 2027 23:28:11.107            12.700                  Delhi           396.875
       108   01 Jun 2027 23:28:50.134   01 Jun 2027 23:29:50.332            60.198                  Delhi          1881.188
       109   02 Jun 2027 00:07:35.503   02 Jun 2027 00:07:49.172            13.669            RioGallegos           427.156
       110   02 Jun 2027 00:09:12.275   02 Jun 2027 00:09:27.268            14.993            RioGallegos           468.531
       111   02 Jun 2027 00:11:47.030   02 Jun 2027 00:11:55.566             8.536            RioGallegos           266.750
       112   02 Jun 2027 00:39:55.020   02 Jun 2027 00:41:17.257            82.237                Anadyr1          2569.906
       113   02 Jun 2027 00:42:21.078   02 Jun 2027 00:42:37.162            16.084                Anadyr1           502.625
       114   02 Jun 2027 00:42:44.605   02 Jun 2027 00:42:48.556             3.951                Anadyr2           123.469
       115   02 Jun 2027 00:44:07.188   02 Jun 2027 00:44:55.404            48.216                Anadyr1          1506.750
       116   02 Jun 2027 00:46:05.101   02 Jun 2027 00:47:28.467            83.366               Magadan2          2605.188
       117   02 Jun 2027 00:48:21.167   02 Jun 2027 00:48:30.385             9.218                Norilsk           288.062
       118   02 Jun 2027 00:48:30.408   02 Jun 2027 00:48:51.896            21.488               Magadan2           671.500
       119   02 Jun 2027 00:48:56.673   02 Jun 2027 00:51:27.435           150.762              Murmansk2          4711.312
       120   02 Jun 2027 00:52:36.614   02 Jun 2027 00:52:54.022            17.408              Murmansk2           544.000
       121   02 Jun 2027 00:52:56.459   02 Jun 2027 00:53:24.101            27.642                 Moscow           863.813
       122   02 Jun 2027 00:57:32.724   02 Jun 2027 00:57:47.290            14.566                 Moscow           455.187
       123   02 Jun 2027 01:00:08.820   02 Jun 2027 01:01:06.690            57.870                  Delhi          1808.438
       124   02 Jun 2027 01:20:27.161   02 Jun 2027 01:21:23.816            56.655               CapeTown          1770.469
       125   02 Jun 2027 01:21:47.796   02 Jun 2027 01:21:54.249             6.453               CapeTown           201.656
       126   02 Jun 2027 01:23:33.097   02 Jun 2027 01:23:35.060             1.963               CapeTown            61.344
       127   02 Jun 2027 01:23:49.294   02 Jun 2027 01:24:31.358            42.064               CapeTown          1314.500
       128   02 Jun 2027 02:13:32.216   02 Jun 2027 02:13:59.704            27.488                Anadyr1           859.000
       129   02 Jun 2027 02:14:23.450   02 Jun 2027 02:14:59.618            36.168                Anadyr2          1130.250
       130   02 Jun 2027 02:15:58.310   02 Jun 2027 02:16:10.705            12.395                Anadyr2           387.344
       131   02 Jun 2027 02:16:50.016   02 Jun 2027 02:16:58.016             8.000                Anadyr2           250.000
       132   02 Jun 2027 02:17:56.836   02 Jun 2027 02:19:16.756            79.920               Magadan1          2497.500
       133   02 Jun 2027 02:21:45.565   02 Jun 2027 02:22:06.349            20.784               Magadan1           649.500
       134   02 Jun 2027 02:22:06.349   02 Jun 2027 02:22:32.913            26.564               Magadan2           830.125
       135   02 Jun 2027 02:24:41.382   02 Jun 2027 02:25:35.093            53.711              Murmansk1          1678.469
       136   02 Jun 2027 02:25:35.093   02 Jun 2027 02:25:57.244            22.151              Murmansk2           692.219
       137   02 Jun 2027 02:26:19.096   02 Jun 2027 02:27:17.878            58.782              Murmansk1          1836.938
       138   02 Jun 2027 02:30:35.532   02 Jun 2027 02:31:18.261            42.729                Novosib          1335.281
       139   02 Jun 2027 02:36:10.852   02 Jun 2027 02:36:23.316            12.464                 Moscow           389.500
       140   02 Jun 2027 02:36:33.940   02 Jun 2027 02:37:15.197            41.257                 Moscow          1289.281
       141   02 Jun 2027 02:56:26.034   02 Jun 2027 02:57:58.854            92.820               CapeTown          2900.625
       142   02 Jun 2027 03:55:18.445   02 Jun 2027 03:56:35.919            77.474               Magadan2          2421.063
       143   02 Jun 2027 03:56:35.919   02 Jun 2027 03:58:47.912           131.993               Magadan1          4124.781
       144   02 Jun 2027 03:58:47.912   02 Jun 2027 04:00:26.161            98.249               Magadan2          3070.281
       145   02 Jun 2027 05:31:35.526   02 Jun 2027 05:32:00.601            25.075                Anadyr2           783.594
       146   02 Jun 2027 05:32:15.567   02 Jun 2027 05:35:10.807           175.240               Magadan2          5476.250
       147   02 Jun 2027 05:35:18.776   02 Jun 2027 05:35:43.970            25.194                Anadyr2           787.313
       148   02 Jun 2027 05:35:43.970   02 Jun 2027 05:35:53.201             9.231                Anadyr1           288.469
       149   02 Jun 2027 05:36:18.050   02 Jun 2027 05:36:35.618            17.568               Magadan2           549.000
       150   02 Jun 2027 05:36:51.552   02 Jun 2027 05:37:18.341            26.789                Anadyr1           837.156
       151   02 Jun 2027 07:06:47.538   02 Jun 2027 07:07:47.907            60.369                Irkutsk          1886.531
       152   02 Jun 2027 07:08:27.645   02 Jun 2027 07:10:06.055            98.410                Anadyr1          3075.312
       153   02 Jun 2027 07:10:06.864   02 Jun 2027 07:11:47.454           100.590               Magadan2          3143.437
       154   02 Jun 2027 07:11:47.454   02 Jun 2027 07:12:51.284            63.830               Magadan1          1994.688
       155   02 Jun 2027 08:44:13.858   02 Jun 2027 08:46:52.802           158.944               Magadan1          4967.000
       156   02 Jun 2027 08:46:52.802   02 Jun 2027 08:47:08.890            16.088               Magadan2           502.750
       157   02 Jun 2027 08:47:45.673   02 Jun 2027 08:48:30.934            45.261                Irkutsk          1414.406
       158   02 Jun 2027 08:48:35.743   02 Jun 2027 08:49:00.359            24.616                Novosib           769.250
       159   02 Jun 2027 10:18:24.846   02 Jun 2027 10:18:39.490            14.644                  Delhi           457.625
       160   02 Jun 2027 10:19:09.172   02 Jun 2027 10:19:37.922            28.750                Irkutsk           898.437
       161   02 Jun 2027 10:20:46.234   02 Jun 2027 10:21:00.359            14.125                Irkutsk           441.406
       162   02 Jun 2027 10:21:32.428   02 Jun 2027 10:22:10.251            37.823                Irkutsk          1181.969
       163   02 Jun 2027 10:22:24.413   02 Jun 2027 10:22:33.175             8.762                Novosib           273.813
       164   02 Jun 2027 10:22:49.191   02 Jun 2027 10:22:56.133             6.942                Irkutsk           216.938
       165   02 Jun 2027 10:22:57.872   02 Jun 2027 10:22:58.686             0.814                Novosib            25.437
       166   02 Jun 2027 10:23:18.249   02 Jun 2027 10:24:17.374            59.125                Novosib          1847.656
       167   02 Jun 2027 10:24:28.055   02 Jun 2027 10:25:21.353            53.298                Novosib          1665.562
       168   02 Jun 2027 11:04:22.552   02 Jun 2027 11:04:53.588            31.036            RioGallegos           969.875
       169   02 Jun 2027 11:42:41.744   02 Jun 2027 11:43:11.899            30.155                  Delhi           942.344
       170   02 Jun 2027 11:45:34.226   02 Jun 2027 11:46:23.618            49.392                  Delhi          1543.500
       171   02 Jun 2027 11:51:28.809   02 Jun 2027 11:52:28.515            59.706                  Delhi          1865.812
       172   02 Jun 2027 11:56:57.845   02 Jun 2027 11:58:02.796            64.951                Norilsk          2029.719
       173   02 Jun 2027 11:58:11.334   02 Jun 2027 11:58:38.487            27.153                Novosib           848.531
       174   02 Jun 2027 11:58:47.563   02 Jun 2027 11:59:34.469            46.906                Norilsk          1465.812
       175   02 Jun 2027 11:59:55.102   02 Jun 2027 12:00:09.145            14.043              Murmansk2           438.844
       176   02 Jun 2027 12:00:41.188   02 Jun 2027 12:00:53.772            12.584                Norilsk           393.250
       177   02 Jun 2027 12:02:03.399   02 Jun 2027 12:02:38.187            34.788                Norilsk          1087.125
       178   02 Jun 2027 12:04:06.049   02 Jun 2027 12:04:31.290            25.241                Norilsk           788.781
       179   02 Jun 2027 13:26:54.125   02 Jun 2027 13:27:14.683            20.558                 Moscow           642.437
       180   02 Jun 2027 13:28:13.623   02 Jun 2027 13:28:24.320            10.697                 Moscow           334.281
       181   02 Jun 2027 13:29:17.669   02 Jun 2027 13:30:56.784            99.115                 Moscow          3097.344
       182   02 Jun 2027 13:31:02.306   02 Jun 2027 13:31:29.200            26.894              Murmansk2           840.438
       183   02 Jun 2027 13:31:55.342   02 Jun 2027 13:32:22.438            27.096              Murmansk2           846.750
       184   02 Jun 2027 13:33:42.070   02 Jun 2027 13:34:36.178            54.108              Murmansk2          1690.875
       185   02 Jun 2027 13:34:42.803   02 Jun 2027 13:37:40.365           177.562                Norilsk          5548.813
       186   02 Jun 2027 13:38:09.791   02 Jun 2027 13:39:19.308            69.517                Norilsk          2172.406
       187   02 Jun 2027 14:41:20.056   02 Jun 2027 14:42:46.776            86.720               CapeTown          2710.000
       188   02 Jun 2027 14:43:32.685   02 Jun 2027 14:44:34.646            61.961               CapeTown          1936.281
       189   02 Jun 2027 14:46:29.160   02 Jun 2027 14:47:08.590            39.430               CapeTown          1232.188
       190   02 Jun 2027 15:07:33.011   02 Jun 2027 15:07:55.259            22.248              Murmansk1           695.250
       191   02 Jun 2027 15:08:10.086   02 Jun 2027 15:08:37.537            27.451              Murmansk1           857.844
       192   02 Jun 2027 15:11:58.738   02 Jun 2027 15:12:18.839            20.101              Murmansk2           628.156
       193   02 Jun 2027 15:13:41.184   02 Jun 2027 15:13:53.451            12.267              Murmansk2           383.344
       194   02 Jun 2027 15:15:25.296   02 Jun 2027 15:15:44.763            19.467              Murmansk1           608.344
       195   02 Jun 2027 15:17:22.900   02 Jun 2027 15:17:26.590             3.690              Murmansk1           115.313
       196   02 Jun 2027 15:18:49.194   02 Jun 2027 15:19:15.800            26.606              Murmansk1           831.437
       197   02 Jun 2027 15:21:22.770   02 Jun 2027 15:22:17.468            54.698                Anadyr2          1709.313
       198   02 Jun 2027 15:22:20.029   02 Jun 2027 15:23:04.367            44.338                Anadyr1          1385.563
       199   02 Jun 2027 15:25:38.164   02 Jun 2027 15:25:48.799            10.635                Anadyr1           332.344
       200   02 Jun 2027 15:25:55.207   02 Jun 2027 15:26:12.155            16.948                Anadyr1           529.625
       201   02 Jun 2027 15:26:42.120   02 Jun 2027 15:27:20.289            38.169                Anadyr2          1192.781
       202   02 Jun 2027 15:30:41.663   02 Jun 2027 15:30:53.956            12.293                Anadyr2           384.156
       203   02 Jun 2027 16:24:25.896   02 Jun 2027 16:24:50.098            24.202               CapeTown           756.313
       204   02 Jun 2027 16:26:42.628   02 Jun 2027 16:26:53.574            10.946               CapeTown           342.063
       205   02 Jun 2027 16:47:03.269   02 Jun 2027 16:49:39.917           156.648              Murmansk2          4895.250
       206   02 Jun 2027 16:54:20.127   02 Jun 2027 16:54:54.561            34.434              Murmansk1          1076.062
       207   02 Jun 2027 16:56:57.974   02 Jun 2027 16:57:54.553            56.579                Anadyr2          1768.094
       208   02 Jun 2027 16:58:29.468   02 Jun 2027 16:58:35.816             6.348                Anadyr1           198.375
       209   02 Jun 2027 16:59:20.185   02 Jun 2027 16:59:46.165            25.980                Anadyr1           811.875
       210   02 Jun 2027 17:00:15.325   02 Jun 2027 17:01:42.623            87.298               Magadan1          2728.063
       211   02 Jun 2027 17:02:13.055   02 Jun 2027 17:02:31.074            18.019               Magadan2           563.094
       212   02 Jun 2027 17:03:11.240   02 Jun 2027 17:03:38.452            27.212               Magadan1           850.375
       213   02 Jun 2027 17:04:36.694   02 Jun 2027 17:04:45.516             8.822               Magadan2           275.688
       214   02 Jun 2027 17:06:09.360   02 Jun 2027 17:06:38.624            29.264               Magadan2           914.500
       215   02 Jun 2027 18:32:53.019   02 Jun 2027 18:35:11.383           138.364                Anadyr2          4323.875
       216   02 Jun 2027 18:35:13.416   02 Jun 2027 18:37:27.050           133.634               Magadan1          4176.063
       217   02 Jun 2027 18:37:59.426   02 Jun 2027 18:38:31.114            31.688               Magadan2           990.250
       218   02 Jun 2027 18:40:11.208   02 Jun 2027 18:40:40.237            29.029               Magadan1           907.156
       219   02 Jun 2027 18:45:19.104   02 Jun 2027 18:46:07.934            48.830               Magadan2          1525.938
       220   02 Jun 2027 19:29:53.356   02 Jun 2027 19:31:54.235           120.879            RioGallegos          3777.469
       221   02 Jun 2027 20:08:43.234   02 Jun 2027 20:09:07.302            24.068                Anadyr1           752.125
       222   02 Jun 2027 20:10:28.903   02 Jun 2027 20:11:08.613            39.710                Anadyr2          1240.938
       223   02 Jun 2027 20:11:09.676   02 Jun 2027 20:14:40.884           211.208                Norilsk          6600.250
       224   02 Jun 2027 20:16:04.098   02 Jun 2027 20:19:03.469           179.371                Irkutsk          5605.344
       225   02 Jun 2027 20:21:08.502   02 Jun 2027 20:21:32.866            24.364                Irkutsk           761.375
       226   02 Jun 2027 20:31:28.117   02 Jun 2027 20:33:21.030           112.913                Sumatra          3528.531
       227   02 Jun 2027 20:34:27.468   02 Jun 2027 20:35:25.431            57.963                Sumatra          1811.344
       228   02 Jun 2027 21:46:10.082   02 Jun 2027 21:46:25.765            15.683                Anadyr2           490.094
       229   02 Jun 2027 21:46:58.335   02 Jun 2027 21:47:15.568            17.233                Norilsk           538.531
       230   02 Jun 2027 21:47:59.069   02 Jun 2027 21:48:08.221             9.152                Norilsk           286.000
       231   02 Jun 2027 21:48:22.203   02 Jun 2027 21:48:36.617            14.414                Norilsk           450.437
       232   02 Jun 2027 21:49:58.485   02 Jun 2027 21:50:37.720            39.235               Magadan1          1226.094
       233   02 Jun 2027 21:51:22.742   02 Jun 2027 21:52:49.571            86.829                Novosib          2713.406
       234   02 Jun 2027 21:58:19.269   02 Jun 2027 21:58:43.738            24.469                Novosib           764.656
       235   02 Jun 2027 22:00:21.746   02 Jun 2027 22:00:47.239            25.493                Novosib           796.656
       236   02 Jun 2027 22:02:45.627   02 Jun 2027 22:03:21.498            35.871                  Delhi          1120.969
       237   02 Jun 2027 22:04:24.022   02 Jun 2027 22:05:04.586            40.564                  Delhi          1267.625
       238   02 Jun 2027 23:18:17.524   02 Jun 2027 23:19:06.321            48.797                Anadyr1          1524.906
       239   02 Jun 2027 23:19:11.490   02 Jun 2027 23:20:28.806            77.316                Anadyr2          2416.125
       240   02 Jun 2027 23:22:37.189   02 Jun 2027 23:22:51.012            13.823                Norilsk           431.969
       241   02 Jun 2027 23:23:09.762   02 Jun 2027 23:24:32.145            82.383                Norilsk          2574.469
       242   02 Jun 2027 23:25:47.853   02 Jun 2027 23:28:19.788           151.935              Murmansk1          4747.969
       243   02 Jun 2027 23:28:19.788   02 Jun 2027 23:30:05.061           105.273              Murmansk2          3289.781
       244   02 Jun 2027 23:42:01.643   02 Jun 2027 23:42:41.080            39.437                  Delhi          1232.406
       245   03 Jun 2027 00:19:07.520   03 Jun 2027 00:19:49.624            42.104            RioGallegos          1315.750
       246   03 Jun 2027 00:51:36.421   03 Jun 2027 00:51:56.756            20.335                Anadyr1           635.469
       247   03 Jun 2027 00:51:56.756   03 Jun 2027 00:51:57.627             0.871                Anadyr2            27.219
       248   03 Jun 2027 00:52:38.771   03 Jun 2027 00:53:18.532            39.761                Anadyr2          1242.531
       249   03 Jun 2027 00:54:15.133   03 Jun 2027 00:54:32.409            17.276                Anadyr1           539.875
       250   03 Jun 2027 00:54:41.429   03 Jun 2027 00:54:49.075             7.646                Anadyr2           238.937
       251   03 Jun 2027 00:57:14.485   03 Jun 2027 00:57:43.183            28.698                Anadyr1           896.813
       252   03 Jun 2027 00:57:43.231   03 Jun 2027 01:00:22.253           159.022               Magadan2          4969.437
       253   03 Jun 2027 01:00:48.985   03 Jun 2027 01:03:10.316           141.331              Murmansk1          4416.594
       254   03 Jun 2027 01:09:48.524   03 Jun 2027 01:10:16.524            28.000              Murmansk1           875.000
       255   03 Jun 2027 01:12:02.436   03 Jun 2027 01:13:21.515            79.079                 Moscow          2471.219
       256   03 Jun 2027 01:34:12.462   03 Jun 2027 01:34:35.470            23.008               CapeTown           719.000
       257   03 Jun 2027 02:25:21.088   03 Jun 2027 02:26:49.148            88.060                Anadyr2          2751.875
       258   03 Jun 2027 02:27:41.519   03 Jun 2027 02:27:57.754            16.235                Anadyr1           507.344
       259   03 Jun 2027 02:29:25.792   03 Jun 2027 02:30:45.491            79.699               Magadan1          2490.594
       260   03 Jun 2027 02:33:08.016   03 Jun 2027 02:33:12.980             4.964               Magadan1           155.125
       261   03 Jun 2027 02:33:20.543   03 Jun 2027 02:34:08.966            48.423               Magadan1          1513.219
       262   03 Jun 2027 02:36:43.157   03 Jun 2027 02:37:57.248            74.091              Murmansk2          2315.344
       263   03 Jun 2027 02:38:23.323   03 Jun 2027 02:38:39.684            16.361              Murmansk1           511.281
       264   03 Jun 2027 02:39:07.928   03 Jun 2027 02:39:50.899            42.971                Novosib          1342.844
       265   03 Jun 2027 02:42:57.144   03 Jun 2027 02:43:29.520            32.376                Novosib          1011.750
       266   03 Jun 2027 02:52:15.852   03 Jun 2027 02:52:50.396            34.544                 Moscow          1079.500
       267   03 Jun 2027 03:08:32.988   03 Jun 2027 03:08:54.524            21.536               CapeTown           673.000
       268   03 Jun 2027 03:12:42.988   03 Jun 2027 03:12:45.723             2.735               CapeTown            85.469
       269   03 Jun 2027 03:13:16.483   03 Jun 2027 03:13:25.239             8.756               CapeTown           273.625
       270   03 Jun 2027 03:14:18.724   03 Jun 2027 03:15:59.236           100.512               CapeTown          3141.000
       271   03 Jun 2027 04:06:57.678   03 Jun 2027 04:07:20.053            22.375               Magadan1           699.219
       272   03 Jun 2027 04:07:25.335   03 Jun 2027 04:07:43.254            17.919               Magadan1           559.969
       273   03 Jun 2027 04:07:57.694   03 Jun 2027 04:08:21.971            24.277                Anadyr2           758.656
       274   03 Jun 2027 04:08:27.224   03 Jun 2027 04:11:10.334           163.110               Magadan1          5097.188
       275   03 Jun 2027 04:11:14.108   03 Jun 2027 04:12:58.691           104.583               Magadan1          3268.219
       276   03 Jun 2027 05:45:15.551   03 Jun 2027 05:45:24.262             8.711               Magadan2           272.219
       277   03 Jun 2027 05:45:26.404   03 Jun 2027 05:49:07.131           220.727               Magadan2          6897.719
       278   03 Jun 2027 07:18:08.363   03 Jun 2027 07:18:27.488            19.125               Magadan1           597.656
       279   03 Jun 2027 07:18:27.488   03 Jun 2027 07:18:45.954            18.466               Magadan2           577.063
       280   03 Jun 2027 07:18:50.087   03 Jun 2027 07:18:56.571             6.484               Magadan1           202.625
       281   03 Jun 2027 07:18:58.427   03 Jun 2027 07:19:43.514            45.087                Anadyr1          1408.969
       282   03 Jun 2027 07:19:54.452   03 Jun 2027 07:20:30.065            35.613                Anadyr2          1112.906
       283   03 Jun 2027 07:20:50.792   03 Jun 2027 07:21:53.561            62.769                Anadyr2          1961.531
       284   03 Jun 2027 07:22:10.491   03 Jun 2027 07:22:27.800            17.309               Magadan1           540.906
       285   03 Jun 2027 07:22:33.786   03 Jun 2027 07:23:20.983            47.197                Anadyr1          1474.906
       286   03 Jun 2027 07:23:33.188   03 Jun 2027 07:24:01.720            28.532                Irkutsk           891.625
       287   03 Jun 2027 07:24:22.274   03 Jun 2027 07:24:24.576             2.302                Irkutsk            71.938
       288   03 Jun 2027 07:26:20.288   03 Jun 2027 07:26:49.093            28.805                Norilsk           900.156
       289   03 Jun 2027 07:59:51.163   03 Jun 2027 08:00:11.962            20.799            RioGallegos           649.969
       290   03 Jun 2027 08:00:28.714   03 Jun 2027 08:00:46.154            17.440            RioGallegos           545.000
       291   03 Jun 2027 08:11:01.527   03 Jun 2027 08:12:02.270            60.743            RioGallegos          1898.219
       292   03 Jun 2027 08:39:54.604   03 Jun 2027 08:40:42.482            47.878                Sumatra          1496.187
       293   03 Jun 2027 08:55:29.931   03 Jun 2027 08:55:58.517            28.586               Magadan2           893.313
       294   03 Jun 2027 08:56:09.628   03 Jun 2027 08:57:30.282            80.654               Magadan1          2520.438
       295   03 Jun 2027 08:58:08.179   03 Jun 2027 08:59:18.881            70.702                Novosib          2209.438
       296   03 Jun 2027 08:59:43.083   03 Jun 2027 09:00:14.571            31.488                Novosib           984.000
       297   03 Jun 2027 09:00:38.718   03 Jun 2027 09:00:40.547             1.829                Novosib            57.156
       298   03 Jun 2027 09:00:48.849   03 Jun 2027 09:00:49.463             0.614                Irkutsk            19.187
       299   03 Jun 2027 09:35:57.811   03 Jun 2027 09:36:42.266            44.455            RioGallegos          1389.219
       300   03 Jun 2027 09:38:16.191   03 Jun 2027 09:38:32.499            16.308            RioGallegos           509.625
       301   03 Jun 2027 09:38:46.233   03 Jun 2027 09:38:54.603             8.370            RioGallegos           261.562
       302   03 Jun 2027 09:40:32.759   03 Jun 2027 09:40:40.758             7.999            RioGallegos           249.969
       303   03 Jun 2027 09:43:06.481   03 Jun 2027 09:43:15.915             9.434            RioGallegos           294.813
       304   03 Jun 2027 10:10:24.660   03 Jun 2027 10:10:37.038            12.378                Sumatra           386.813
       305   03 Jun 2027 10:13:22.701   03 Jun 2027 10:14:51.772            89.071                Sumatra          2783.469
       306   03 Jun 2027 10:21:09.219   03 Jun 2027 10:21:14.107             4.888                  Delhi           152.750
       307   03 Jun 2027 10:30:48.114   03 Jun 2027 10:30:57.879             9.765                  Delhi           305.156
       308   03 Jun 2027 10:34:20.529   03 Jun 2027 10:34:27.007             6.478                Novosib           202.437
       309   03 Jun 2027 10:34:57.310   03 Jun 2027 10:35:03.567             6.257                Irkutsk           195.531
       310   03 Jun 2027 10:35:05.401   03 Jun 2027 10:35:22.981            17.580                Novosib           549.375
       311   03 Jun 2027 10:35:41.550   03 Jun 2027 10:36:14.396            32.846                Irkutsk          1026.437
       312   03 Jun 2027 10:36:22.040   03 Jun 2027 10:36:25.440             3.400                Novosib           106.250
       313   03 Jun 2027 10:37:10.725   03 Jun 2027 10:37:12.268             1.543                Novosib            48.219
       314   03 Jun 2027 11:18:49.992   03 Jun 2027 11:19:43.490            53.498            RioGallegos          1671.812
       315   03 Jun 2027 11:54:57.863   03 Jun 2027 11:56:23.947            86.084                  Delhi          2690.125
       316   03 Jun 2027 11:59:40.993   03 Jun 2027 11:59:41.590             0.597                  Delhi            18.656
       317   03 Jun 2027 12:04:10.034   03 Jun 2027 12:04:35.435            25.401                Novosib           793.781
       318   03 Jun 2027 12:06:30.676   03 Jun 2027 12:06:47.769            17.093                Novosib           534.156
       319   03 Jun 2027 12:07:32.073   03 Jun 2027 12:07:49.474            17.401                Novosib           543.781
       320   03 Jun 2027 12:10:07.581   03 Jun 2027 12:10:42.501            34.920                Novosib          1091.250
       321   03 Jun 2027 12:17:29.917   03 Jun 2027 12:17:32.966             3.049                Norilsk            95.281
       322   03 Jun 2027 13:38:56.364   03 Jun 2027 13:40:18.291            81.927                 Moscow          2560.219
       323   03 Jun 2027 13:41:07.241   03 Jun 2027 13:42:06.889            59.648                 Moscow          1864.000
       324   03 Jun 2027 13:42:43.131   03 Jun 2027 13:42:49.817             6.686              Murmansk2           208.937
       325   03 Jun 2027 13:42:49.817   03 Jun 2027 13:43:20.583            30.766              Murmansk1           961.438
       326   03 Jun 2027 13:46:06.730   03 Jun 2027 13:46:37.291            30.561              Murmansk1           955.031
       327   03 Jun 2027 13:47:31.033   03 Jun 2027 13:49:36.815           125.782                Norilsk          3930.688
       328   03 Jun 2027 13:50:12.082   03 Jun 2027 13:51:45.543            93.461                Norilsk          2920.656
       329   03 Jun 2027 14:54:40.877   03 Jun 2027 14:54:57.118            16.241               CapeTown           507.531
       330   03 Jun 2027 14:55:27.171   03 Jun 2027 14:56:27.788            60.617               CapeTown          1894.281
       331   03 Jun 2027 15:02:52.463   03 Jun 2027 15:03:32.536            40.073               CapeTown          1252.281
       332   03 Jun 2027 15:18:28.256   03 Jun 2027 15:18:55.505            27.249                 Moscow           851.531
       333   03 Jun 2027 15:21:41.587   03 Jun 2027 15:21:57.768            16.181              Murmansk1           505.656
       334   03 Jun 2027 15:23:38.973   03 Jun 2027 15:23:59.791            20.818              Murmansk1           650.562
       335   03 Jun 2027 15:25:34.258   03 Jun 2027 15:25:43.109             8.851              Murmansk2           276.594
       336   03 Jun 2027 15:26:42.780   03 Jun 2027 15:27:26.929            44.149              Murmansk1          1379.656
       337   03 Jun 2027 15:29:44.258   03 Jun 2027 15:30:33.898            49.640              Murmansk1          1551.250
       338   03 Jun 2027 15:33:18.805   03 Jun 2027 15:34:18.798            59.993                Anadyr2          1874.781
       339   03 Jun 2027 15:34:30.814   03 Jun 2027 15:35:50.030            79.216                Anadyr2          2475.500
       340   03 Jun 2027 15:42:49.564   03 Jun 2027 15:42:54.673             5.109                Anadyr2           159.656
       341   03 Jun 2027 15:43:30.658   03 Jun 2027 15:43:40.329             9.671                Anadyr2           302.219
       342   03 Jun 2027 16:35:57.448   03 Jun 2027 16:36:18.429            20.981               CapeTown           655.656
       343   03 Jun 2027 16:37:13.721   03 Jun 2027 16:38:19.509            65.788               CapeTown          2055.875
       344   03 Jun 2027 16:59:45.656   03 Jun 2027 17:01:41.438           115.782              Murmansk1          3618.187
       345   03 Jun 2027 17:05:40.335   03 Jun 2027 17:06:48.917            68.582              Murmansk1          2143.188
       346   03 Jun 2027 17:10:11.614   03 Jun 2027 17:10:37.172            25.558                Anadyr1           798.687
       347   03 Jun 2027 17:12:01.872   03 Jun 2027 17:12:30.558            28.686               Magadan2           896.437
       348   03 Jun 2027 17:14:18.307   03 Jun 2027 17:15:24.868            66.561               Magadan1          2080.031
       349   03 Jun 2027 17:16:57.073   03 Jun 2027 17:17:48.850            51.777               Magadan2          1618.031
       350   03 Jun 2027 18:44:54.397   03 Jun 2027 18:46:51.954           117.557                Anadyr1          3673.656
       351   03 Jun 2027 18:47:10.358   03 Jun 2027 18:48:12.020            61.662                Anadyr2          1926.937
       352   03 Jun 2027 18:48:40.588   03 Jun 2027 18:48:48.063             7.475                Anadyr2           233.594
       353   03 Jun 2027 18:48:57.126   03 Jun 2027 18:50:18.106            80.980               Magadan1          2530.625
       354   03 Jun 2027 18:50:18.106   03 Jun 2027 18:51:04.857            46.751               Magadan2          1460.969
       355   03 Jun 2027 18:51:57.885   03 Jun 2027 18:51:59.728             1.843               Magadan1            57.594
       356   03 Jun 2027 18:52:38.125   03 Jun 2027 18:53:02.958            24.833               Magadan1           776.031
       357   03 Jun 2027 18:56:13.158   03 Jun 2027 18:56:25.834            12.676               Magadan1           396.125
       358   03 Jun 2027 18:57:15.448   03 Jun 2027 18:57:38.051            22.603               Magadan2           706.344
       359   03 Jun 2027 18:58:10.614   03 Jun 2027 18:58:14.557             3.943               Magadan1           123.219
       360   03 Jun 2027 18:58:20.901   03 Jun 2027 18:59:09.198            48.297               Magadan2          1509.281
       361   03 Jun 2027 19:40:52.093   03 Jun 2027 19:43:34.659           162.566            RioGallegos          5080.187
       362   03 Jun 2027 20:22:13.089   03 Jun 2027 20:22:29.196            16.107                Anadyr1           503.344
       363   03 Jun 2027 20:22:52.439   03 Jun 2027 20:26:11.617           199.178                Norilsk          6224.313
       364   03 Jun 2027 20:27:42.385   03 Jun 2027 20:29:01.790            79.405                Irkutsk          2481.406
       365   03 Jun 2027 20:30:27.525   03 Jun 2027 20:30:37.190             9.665                Norilsk           302.031
       366   03 Jun 2027 20:30:43.607   03 Jun 2027 20:31:08.553            24.946                Irkutsk           779.562
       367   03 Jun 2027 20:32:06.720   03 Jun 2027 20:33:09.620            62.900                Irkutsk          1965.625
       368   03 Jun 2027 20:42:29.270   03 Jun 2027 20:44:19.151           109.881                Sumatra          3433.781
       369   03 Jun 2027 20:46:55.082   03 Jun 2027 20:48:20.617            85.535                Sumatra          2672.969
       370   03 Jun 2027 21:58:38.970   03 Jun 2027 21:59:15.181            36.211                Norilsk          1131.594
       371   03 Jun 2027 22:00:24.371   03 Jun 2027 22:00:54.490            30.119               Magadan1           941.219
       372   03 Jun 2027 22:02:33.028   03 Jun 2027 22:03:56.350            83.322                Irkutsk          2603.813
       373   03 Jun 2027 22:04:10.840   03 Jun 2027 22:06:48.893           158.053                Novosib          4939.156
       374   03 Jun 2027 22:12:48.885   03 Jun 2027 22:13:27.215            38.330                  Delhi          1197.812
       375   03 Jun 2027 22:17:31.425   03 Jun 2027 22:18:01.202            29.777                  Delhi           930.531
       376   03 Jun 2027 23:33:49.291   03 Jun 2027 23:34:49.440            60.149                Anadyr1          1879.656
       377   03 Jun 2027 23:35:11.715   03 Jun 2027 23:36:32.222            80.507               Magadan1          2515.844
       378   03 Jun 2027 23:37:31.611   03 Jun 2027 23:39:17.637           106.026              Murmansk2          3313.312
       379   03 Jun 2027 23:39:57.476   03 Jun 2027 23:42:04.633           127.157              Murmansk1          3973.656
       380   03 Jun 2027 23:50:02.428   03 Jun 2027 23:51:38.656            96.228                  Delhi          3007.125
       381   04 Jun 2027 01:03:18.284   04 Jun 2027 01:03:40.506            22.222                Anadyr2           694.437
       382   04 Jun 2027 01:03:46.018   04 Jun 2027 01:03:46.667             0.649                Anadyr1            20.281
       383   04 Jun 2027 01:04:15.881   04 Jun 2027 01:04:17.285             1.404                Anadyr1            43.875
       384   04 Jun 2027 01:04:39.640   04 Jun 2027 01:05:19.856            40.216                Anadyr1          1256.750
       385   04 Jun 2027 01:06:01.474   04 Jun 2027 01:06:25.578            24.104                Anadyr2           753.250
       386   04 Jun 2027 01:08:42.180   04 Jun 2027 01:09:14.239            32.059                Anadyr1          1001.844
       387   04 Jun 2027 01:09:17.609   04 Jun 2027 01:11:04.893           107.284               Magadan1          3352.625
       388   04 Jun 2027 01:11:23.507   04 Jun 2027 01:13:02.646            99.139               Magadan2          3098.094
       389   04 Jun 2027 01:13:24.720   04 Jun 2027 01:15:05.254           100.534              Murmansk1          3141.688
       390   04 Jun 2027 01:24:55.691   04 Jun 2027 01:25:35.052            39.361                  Delhi          1230.031
       391   04 Jun 2027 01:42:27.469   04 Jun 2027 01:43:40.705            73.236               CapeTown          2288.625
       392   04 Jun 2027 02:37:11.387   04 Jun 2027 02:39:46.125           154.738                Anadyr2          4835.563
       393   04 Jun 2027 02:40:55.680   04 Jun 2027 02:41:23.726            28.046               Magadan2           876.437
       394   04 Jun 2027 02:42:24.396   04 Jun 2027 02:42:41.101            16.705               Magadan2           522.031
       395   04 Jun 2027 02:44:48.232   04 Jun 2027 02:45:08.903            20.671               Magadan2           645.969
       396   04 Jun 2027 02:46:26.294   04 Jun 2027 02:46:38.445            12.151                Norilsk           379.719
       397   04 Jun 2027 02:48:44.964   04 Jun 2027 02:49:05.946            20.982              Murmansk2           655.687
       398   04 Jun 2027 02:49:09.930   04 Jun 2027 02:50:25.979            76.049              Murmansk1          2376.531
       399   04 Jun 2027 02:51:19.855   04 Jun 2027 02:51:38.458            18.603                Novosib           581.344
       400   04 Jun 2027 02:52:00.082   04 Jun 2027 02:52:44.892            44.810                Novosib          1400.313
       401   04 Jun 2027 03:15:51.449   04 Jun 2027 03:16:26.215            34.766               CapeTown          1086.437
       402   04 Jun 2027 04:19:20.000   04 Jun 2027 04:19:50.518            30.518               Magadan2           953.687
       403   04 Jun 2027 04:19:58.831   04 Jun 2027 04:20:07.302             8.471                Anadyr2           264.719
       404   04 Jun 2027 04:20:08.058   04 Jun 2027 04:22:10.218           122.160               Magadan1          3817.500
       405   04 Jun 2027 05:57:31.797   04 Jun 2027 05:59:04.402            92.605                Anadyr2          2893.906
       406   04 Jun 2027 07:30:37.003   04 Jun 2027 07:30:42.222             5.219               Magadan2           163.094
       407   04 Jun 2027 07:30:42.222   04 Jun 2027 07:30:44.629             2.407               Magadan1            75.219
       408   04 Jun 2027 07:30:49.683   04 Jun 2027 07:31:25.566            35.883               Magadan1          1121.344
       409   04 Jun 2027 07:31:32.253   04 Jun 2027 07:32:02.880            30.627               Magadan1           957.094
       410   04 Jun 2027 07:32:02.880   04 Jun 2027 07:33:05.465            62.585               Magadan2          1955.781
       411   04 Jun 2027 07:33:29.940   04 Jun 2027 07:33:34.855             4.915               Magadan2           153.594
       412   04 Jun 2027 07:33:54.528   04 Jun 2027 07:35:05.018            70.490                Anadyr2          2202.813
       413   04 Jun 2027 07:35:09.639   04 Jun 2027 07:35:33.823            24.184                Irkutsk           755.750
       414   04 Jun 2027 07:35:34.615   04 Jun 2027 07:35:52.875            18.260              Murmansk2           570.625
       415   04 Jun 2027 07:36:00.080   04 Jun 2027 07:36:00.134             0.054                Irkutsk             1.688
       416   04 Jun 2027 07:36:09.113   04 Jun 2027 07:36:21.041            11.928               Magadan1           372.750
       417   04 Jun 2027 07:36:40.934   04 Jun 2027 07:36:44.445             3.511               Magadan2           109.719
       418   04 Jun 2027 07:37:59.530   04 Jun 2027 07:38:17.858            18.328                Norilsk           572.750
       419   04 Jun 2027 07:40:01.088   04 Jun 2027 07:40:07.176             6.088              Murmansk2           190.250
       420   04 Jun 2027 07:40:43.382   04 Jun 2027 07:41:26.654            43.272              Murmansk2          1352.250
       421   04 Jun 2027 08:11:57.938   04 Jun 2027 08:12:23.764            25.826            RioGallegos           807.062
       422   04 Jun 2027 08:48:07.042   04 Jun 2027 08:48:55.671            48.629                Sumatra          1519.656
       423   04 Jun 2027 09:08:58.885   04 Jun 2027 09:09:32.848            33.963                Irkutsk          1061.344
       424   04 Jun 2027 09:10:14.359   04 Jun 2027 09:11:18.123            63.764                Novosib          1992.625
       425   04 Jun 2027 09:11:53.214   04 Jun 2027 09:11:57.778             4.564                Novosib           142.625
       426   04 Jun 2027 09:12:28.294   04 Jun 2027 09:12:29.356             1.062                Irkutsk            33.188
       427   04 Jun 2027 09:13:29.500   04 Jun 2027 09:14:14.153            44.653                Novosib          1395.406
       428   04 Jun 2027 09:48:17.305   04 Jun 2027 09:48:26.014             8.709            RioGallegos           272.156
       429   04 Jun 2027 09:52:28.060   04 Jun 2027 09:52:41.426            13.366            RioGallegos           417.688
       430   04 Jun 2027 09:54:45.006   04 Jun 2027 09:55:14.639            29.633            RioGallegos           926.031
       431   04 Jun 2027 10:22:36.741   04 Jun 2027 10:23:50.178            73.437                Sumatra          2294.906
       432   04 Jun 2027 10:43:48.124   04 Jun 2027 10:44:33.681            45.557                Novosib          1423.656
       433   04 Jun 2027 10:44:38.213   04 Jun 2027 10:45:12.228            34.015                Irkutsk          1062.969
       434   04 Jun 2027 10:45:51.311   04 Jun 2027 10:45:54.177             2.866                Irkutsk            89.562
       435   04 Jun 2027 10:46:03.476   04 Jun 2027 10:46:15.591            12.115                Novosib           378.594
       436   04 Jun 2027 10:46:20.893   04 Jun 2027 10:46:29.073             8.180                Novosib           255.625
       437   04 Jun 2027 10:46:35.933   04 Jun 2027 10:46:46.160            10.227                Norilsk           319.594
       438   04 Jun 2027 10:46:57.566   04 Jun 2027 10:47:37.646            40.080                Irkutsk          1252.500
       439   04 Jun 2027 10:48:21.593   04 Jun 2027 10:48:26.216             4.623                Novosib           144.469
       440   04 Jun 2027 12:07:20.979   04 Jun 2027 12:11:18.029           237.050                  Delhi          7407.812
       441   04 Jun 2027 12:16:58.176   04 Jun 2027 12:17:25.760            27.584                Novosib           862.000
       442   04 Jun 2027 12:25:54.727   04 Jun 2027 12:26:13.314            18.587                Norilsk           580.844
       443   04 Jun 2027 13:51:01.578   04 Jun 2027 13:54:14.671           193.093                 Moscow          6034.156
       444   04 Jun 2027 13:54:33.081   04 Jun 2027 13:55:12.941            39.860              Murmansk2          1245.625
       445   04 Jun 2027 13:56:05.033   04 Jun 2027 13:56:21.007            15.974              Murmansk2           499.187
       446   04 Jun 2027 13:56:34.275   04 Jun 2027 13:57:16.967            42.692              Murmansk1          1334.125
       447   04 Jun 2027 13:59:40.547   04 Jun 2027 14:00:09.668            29.121              Murmansk2           910.031
       448   04 Jun 2027 14:00:26.103   04 Jun 2027 14:02:14.289           108.186                Norilsk          3380.812
       449   04 Jun 2027 14:11:23.456   04 Jun 2027 14:12:18.732            55.276                Anadyr2          1727.375
       450   04 Jun 2027 14:13:03.042   04 Jun 2027 14:14:09.878            66.836                Anadyr2          2088.625
       451   04 Jun 2027 15:08:17.854   04 Jun 2027 15:08:24.117             6.263               CapeTown           195.719
       452   04 Jun 2027 15:14:16.347   04 Jun 2027 15:15:28.198            71.851               CapeTown          2245.344
       453   04 Jun 2027 15:32:14.426   04 Jun 2027 15:32:34.101            19.675              Murmansk1           614.844
       454   04 Jun 2027 15:32:44.963   04 Jun 2027 15:33:42.641            57.678              Murmansk2          1802.438
       455   04 Jun 2027 15:37:53.328   04 Jun 2027 15:38:34.879            41.551              Murmansk1          1298.469
       456   04 Jun 2027 15:45:16.020   04 Jun 2027 15:47:27.415           131.395                Anadyr2          4106.094
       457   04 Jun 2027 16:42:49.019   04 Jun 2027 16:44:48.054           119.035               CapeTown          3719.844
       458   04 Jun 2027 17:12:32.956   04 Jun 2027 17:13:11.336            38.380              Murmansk1          1199.375
       459   04 Jun 2027 17:13:42.726   04 Jun 2027 17:14:29.333            46.607              Murmansk1          1456.469
       460   04 Jun 2027 17:15:09.965   04 Jun 2027 17:15:48.053            38.088              Murmansk1          1190.250
       461   04 Jun 2027 17:20:59.997   04 Jun 2027 17:21:40.846            40.849                Anadyr1          1276.531
       462   04 Jun 2027 17:21:53.222   04 Jun 2027 17:22:12.326            19.104                Anadyr2           597.000
       463   04 Jun 2027 17:22:36.650   04 Jun 2027 17:23:18.194            41.544                Anadyr2          1298.250
       464   04 Jun 2027 17:23:51.925   04 Jun 2027 17:25:41.104           109.179               Magadan1          3411.844
       465   04 Jun 2027 17:32:31.828   04 Jun 2027 17:33:09.259            37.431               Magadan1          1169.719
       466   04 Jun 2027 18:56:55.658   04 Jun 2027 18:58:53.538           117.880                Anadyr1          3683.750
       467   04 Jun 2027 18:58:58.373   04 Jun 2027 19:00:36.569            98.196                Anadyr2          3068.625
       468   04 Jun 2027 19:00:36.619   04 Jun 2027 19:01:59.270            82.651               Magadan2          2582.844
       469   04 Jun 2027 19:04:30.106   04 Jun 2027 19:04:41.199            11.093               Magadan2           346.656
       470   04 Jun 2027 19:09:39.795   04 Jun 2027 19:09:59.110            19.315               Magadan2           603.594
       471   04 Jun 2027 19:52:17.511   04 Jun 2027 19:55:20.185           182.674            RioGallegos          5708.563
       472   04 Jun 2027 19:58:52.549   04 Jun 2027 19:59:15.012            22.463            RioGallegos           701.969
       473   04 Jun 2027 20:32:41.304   04 Jun 2027 20:33:10.784            29.480                Anadyr1           921.250
       474   04 Jun 2027 20:34:50.455   04 Jun 2027 20:38:05.155           194.700                Norilsk          6084.375
       475   04 Jun 2027 20:38:08.613   04 Jun 2027 20:38:40.329            31.716                Norilsk           991.125
       476   04 Jun 2027 20:41:01.120   04 Jun 2027 20:42:25.744            84.624                Irkutsk          2644.500
       477   04 Jun 2027 20:47:37.049   04 Jun 2027 20:48:25.661            48.612                Irkutsk          1519.125
       478   04 Jun 2027 20:53:48.204   04 Jun 2027 20:55:01.787            73.583                Sumatra          2299.469
       479   04 Jun 2027 20:56:39.453   04 Jun 2027 20:57:42.935            63.482                Sumatra          1983.813
       480   04 Jun 2027 21:00:25.889   04 Jun 2027 21:00:41.551            15.662                Sumatra           489.438
       481   04 Jun 2027 22:10:40.747   04 Jun 2027 22:11:12.746            31.999                Norilsk           999.969
       482   04 Jun 2027 22:11:17.412   04 Jun 2027 22:11:42.033            24.621               Magadan1           769.406
