uniorb/output/strategy_4/Drop/Drop_KinoSat_111205.txt

KinoSat_111205
-------------------------
    Access    *     Start Time (UTCG)     *     Stop Time (UTCG)  *   Duration (s)        *       Station  *  Data (Mbytes)
         1   01 Jun 2027 03:34:21.627   01 Jun 2027 03:36:20.440           118.813              Murmansk2          3712.906
         2   01 Jun 2027 03:36:20.440   01 Jun 2027 03:36:41.932            21.492              Murmansk1           671.625
         3   01 Jun 2027 04:56:14.753   01 Jun 2027 05:00:11.459           236.706               Magadan1          7397.063
         4   01 Jun 2027 05:00:26.117   01 Jun 2027 05:00:53.479            27.362                Anadyr2           855.063
         5   01 Jun 2027 06:33:20.536   01 Jun 2027 06:34:15.166            54.630                Irkutsk          1707.188
         6   01 Jun 2027 06:34:20.227   01 Jun 2027 06:36:13.232           113.005               Magadan1          3531.406
         7   01 Jun 2027 06:36:33.862   01 Jun 2027 06:37:21.746            47.884                Anadyr1          1496.375
         8   01 Jun 2027 08:08:46.465   01 Jun 2027 08:08:51.503             5.038                Irkutsk           157.438
         9   01 Jun 2027 08:08:58.276   01 Jun 2027 08:09:16.662            18.386                Novosib           574.562
        10   01 Jun 2027 08:09:24.004   01 Jun 2027 08:11:38.722           134.718                Irkutsk          4209.937
        11   01 Jun 2027 08:11:51.449   01 Jun 2027 08:12:12.918            21.469                Novosib           670.906
        12   01 Jun 2027 08:12:16.761   01 Jun 2027 08:14:10.016           113.255              Murmansk1          3539.219
        13   01 Jun 2027 08:14:10.016   01 Jun 2027 08:14:11.758             1.742              Murmansk2            54.438
        14   01 Jun 2027 08:15:01.402   01 Jun 2027 08:15:22.278            20.876              Murmansk2           652.375
        15   01 Jun 2027 08:15:22.278   01 Jun 2027 08:16:05.492            43.214              Murmansk1          1350.438
        16   01 Jun 2027 08:48:25.751   01 Jun 2027 08:49:27.807            62.056            RioGallegos          1939.250
        17   01 Jun 2027 08:50:46.645   01 Jun 2027 08:51:01.900            15.255            RioGallegos           476.719
        18   01 Jun 2027 09:00:15.980   01 Jun 2027 09:00:34.923            18.943            RioGallegos           591.969
        19   01 Jun 2027 09:24:23.798   01 Jun 2027 09:25:37.718            73.920                Sumatra          2310.000
        20   01 Jun 2027 09:45:52.876   01 Jun 2027 09:49:30.707           217.831                Irkutsk          6807.219
        21   01 Jun 2027 10:59:42.082   01 Jun 2027 11:01:15.130            93.048                Sumatra          2907.750
        22   01 Jun 2027 11:22:43.147   01 Jun 2027 11:24:40.825           117.678                Irkutsk          3677.437
        23   01 Jun 2027 11:25:23.879   01 Jun 2027 11:27:06.911           103.032                Novosib          3219.750
        24   01 Jun 2027 12:45:45.575   01 Jun 2027 12:46:12.005            26.430                  Delhi           825.938
        25   01 Jun 2027 12:48:12.692   01 Jun 2027 12:49:42.770            90.078                  Delhi          2814.937
        26   01 Jun 2027 12:53:02.252   01 Jun 2027 12:53:08.035             5.783                Novosib           180.719
        27   01 Jun 2027 12:53:52.599   01 Jun 2027 12:55:18.773            86.174                Novosib          2692.937
        28   01 Jun 2027 12:56:26.612   01 Jun 2027 12:57:37.290            70.678                Novosib          2208.688
        29   01 Jun 2027 12:59:12.931   01 Jun 2027 12:59:49.616            36.685                Norilsk          1146.406
        30   01 Jun 2027 14:27:57.498   01 Jun 2027 14:29:51.742           114.244                 Moscow          3570.125
        31   01 Jun 2027 14:31:28.781   01 Jun 2027 14:35:17.137           228.356              Murmansk1          7136.125
        32   01 Jun 2027 14:38:13.467   01 Jun 2027 14:40:45.224           151.757                Norilsk          4742.406
        33   01 Jun 2027 14:47:30.513   01 Jun 2027 14:48:19.703            49.190                Anadyr2          1537.187
        34   01 Jun 2027 14:49:10.602   01 Jun 2027 14:50:10.257            59.655                Anadyr1          1864.219
        35   01 Jun 2027 15:41:29.679   01 Jun 2027 15:42:34.672            64.993               CapeTown          2031.031
        36   01 Jun 2027 16:07:24.459   01 Jun 2027 16:08:03.224            38.765                 Moscow          1211.406
        37   01 Jun 2027 16:09:24.478   01 Jun 2027 16:10:53.932            89.454              Murmansk1          2795.438
        38   01 Jun 2027 16:18:04.932   01 Jun 2027 16:18:26.557            21.625              Murmansk1           675.781
        39   01 Jun 2027 16:22:02.746   01 Jun 2027 16:24:21.841           139.095                Anadyr2          4346.719
        40   01 Jun 2027 16:27:00.602   01 Jun 2027 16:27:14.004            13.402                Anadyr1           418.812
        41   01 Jun 2027 16:27:14.004   01 Jun 2027 16:27:27.678            13.674                Anadyr2           427.312
        42   01 Jun 2027 17:17:50.870   01 Jun 2027 17:19:17.409            86.539               CapeTown          2704.344
        43   01 Jun 2027 17:22:42.070   01 Jun 2027 17:23:17.982            35.912               CapeTown          1122.250
        44   01 Jun 2027 17:50:09.105   01 Jun 2027 17:54:37.008           267.903              Murmansk2          8371.969
        45   01 Jun 2027 17:57:49.722   01 Jun 2027 17:58:03.440            13.718                Anadyr2           428.687
        46   01 Jun 2027 17:58:28.848   01 Jun 2027 17:58:34.996             6.148                Anadyr2           192.125
        47   01 Jun 2027 17:59:15.116   01 Jun 2027 17:59:15.511             0.395                Anadyr1            12.344
        48   01 Jun 2027 17:59:53.787   01 Jun 2027 17:59:58.419             4.632                Anadyr1           144.750
        49   01 Jun 2027 18:00:33.547   01 Jun 2027 18:01:45.603            72.056               Magadan2          2251.750
        50   01 Jun 2027 18:03:30.001   01 Jun 2027 18:04:09.307            39.306               Magadan2          1228.312
        51   01 Jun 2027 18:05:15.632   01 Jun 2027 18:05:35.178            19.546               Magadan1           610.813
        52   01 Jun 2027 18:06:02.851   01 Jun 2027 18:06:37.053            34.202               Magadan1          1068.813
        53   01 Jun 2027 19:33:45.388   01 Jun 2027 19:37:52.810           247.422                Anadyr1          7731.938
        54   01 Jun 2027 19:37:58.886   01 Jun 2027 19:39:39.379           100.493               Magadan1          3140.406
        55   01 Jun 2027 19:39:39.379   01 Jun 2027 19:40:17.695            38.316               Magadan2          1197.375
        56   01 Jun 2027 19:40:24.032   01 Jun 2027 19:40:36.186            12.154               Magadan2           379.813
        57   01 Jun 2027 19:41:16.897   01 Jun 2027 19:41:38.053            21.156               Magadan2           661.125
        58   01 Jun 2027 20:28:44.351   01 Jun 2027 20:31:30.851           166.500            RioGallegos          5203.125
        59   01 Jun 2027 20:31:32.206   01 Jun 2027 20:31:55.930            23.724            RioGallegos           741.375
        60   01 Jun 2027 20:35:10.855   01 Jun 2027 20:35:18.439             7.584            RioGallegos           237.000
        61   01 Jun 2027 21:09:28.548   01 Jun 2027 21:10:04.839            36.291                Anadyr1          1134.094
        62   01 Jun 2027 21:11:37.844   01 Jun 2027 21:12:26.937            49.093                Norilsk          1534.156
        63   01 Jun 2027 21:13:02.312   01 Jun 2027 21:14:19.085            76.773               Magadan1          2399.156
        64   01 Jun 2027 21:14:19.085   01 Jun 2027 21:15:15.372            56.287               Magadan2          1758.969
        65   01 Jun 2027 21:16:04.190   01 Jun 2027 21:19:32.896           208.706                Irkutsk          6522.062
        66   01 Jun 2027 21:25:25.516   01 Jun 2027 21:25:31.178             5.662                Irkutsk           176.937
        67   01 Jun 2027 21:30:09.724   01 Jun 2027 21:33:15.342           185.618                Sumatra          5800.562
        68   01 Jun 2027 22:44:28.806   01 Jun 2027 22:46:21.137           112.331                Anadyr2          3510.344
        69   01 Jun 2027 22:46:53.971   01 Jun 2027 22:47:06.753            12.782                Anadyr2           399.437
        70   01 Jun 2027 22:47:30.953   01 Jun 2027 22:47:35.317             4.364                Norilsk           136.375
        71   01 Jun 2027 22:48:08.658   01 Jun 2027 22:49:37.204            88.546               Magadan1          2767.062
        72   01 Jun 2027 22:49:37.204   01 Jun 2027 22:49:46.978             9.774               Magadan2           305.438
        73   01 Jun 2027 22:50:03.248   01 Jun 2027 22:50:13.343            10.095               Magadan2           315.469
        74   01 Jun 2027 22:51:22.695   01 Jun 2027 22:52:57.107            94.412                Irkutsk          2950.375
        75   01 Jun 2027 22:53:15.238   01 Jun 2027 22:53:30.219            14.981                Novosib           468.156
        76   01 Jun 2027 22:54:40.940   01 Jun 2027 22:55:15.603            34.663                Irkutsk          1083.219
        77   01 Jun 2027 23:00:07.819   01 Jun 2027 23:02:50.991           163.172                  Delhi          5099.125
        78   01 Jun 2027 23:44:35.326   01 Jun 2027 23:45:20.225            44.899            RioGallegos          1403.094
        79   02 Jun 2027 00:18:16.001   02 Jun 2027 00:18:22.730             6.729                Anadyr2           210.281
        80   02 Jun 2027 00:18:51.905   02 Jun 2027 00:20:37.682           105.777                Anadyr1          3305.531
        81   02 Jun 2027 00:23:31.148   02 Jun 2027 00:23:47.961            16.813                Norilsk           525.406
        82   02 Jun 2027 00:23:56.061   02 Jun 2027 00:25:26.814            90.753               Magadan2          2836.031
        83   02 Jun 2027 00:25:43.390   02 Jun 2027 00:25:57.723            14.333               Magadan1           447.906
        84   02 Jun 2027 00:26:00.723   02 Jun 2027 00:26:15.789            15.066               Magadan2           470.812
        85   02 Jun 2027 00:26:33.225   02 Jun 2027 00:27:53.095            79.870              Murmansk1          2495.937
        86   02 Jun 2027 00:28:06.051   02 Jun 2027 00:29:44.235            98.184                Novosib          3068.250
        87   02 Jun 2027 00:29:54.215   02 Jun 2027 00:30:13.333            19.118              Murmansk2           597.437
        88   02 Jun 2027 00:31:54.486   02 Jun 2027 00:32:05.973            11.487              Murmansk1           358.969
        89   02 Jun 2027 00:33:11.788   02 Jun 2027 00:33:57.687            45.899                 Moscow          1434.344
        90   02 Jun 2027 00:38:22.253   02 Jun 2027 00:38:54.878            32.625                  Delhi          1019.531
        91   02 Jun 2027 00:43:57.768   02 Jun 2027 00:44:18.663            20.895                  Delhi           652.969
        92   02 Jun 2027 01:17:30.232   02 Jun 2027 01:17:38.119             7.887            RioGallegos           246.469
        93   02 Jun 2027 01:17:47.613   02 Jun 2027 01:18:10.903            23.290            RioGallegos           727.813
        94   02 Jun 2027 01:20:56.181   02 Jun 2027 01:21:24.980            28.799            RioGallegos           899.969
        95   02 Jun 2027 01:51:34.452   02 Jun 2027 01:52:49.456            75.004                Anadyr2          2343.875
        96   02 Jun 2027 01:54:16.980   02 Jun 2027 01:54:49.595            32.615                Anadyr1          1019.219
        97   02 Jun 2027 01:56:48.881   02 Jun 2027 01:57:16.154            27.273                Anadyr1           852.281
        98   02 Jun 2027 01:57:38.283   02 Jun 2027 01:58:25.059            46.776               Magadan1          1461.750
        99   02 Jun 2027 01:59:14.010   02 Jun 2027 02:00:04.962            50.952               Magadan1          1592.250
       100   02 Jun 2027 02:01:39.255   02 Jun 2027 02:02:42.131            62.876              Murmansk2          1964.875
       101   02 Jun 2027 02:03:32.264   02 Jun 2027 02:04:32.237            59.973                Novosib          1874.156
       102   02 Jun 2027 02:08:02.751   02 Jun 2027 02:09:14.092            71.341                Novosib          2229.406
       103   02 Jun 2027 02:16:54.901   02 Jun 2027 02:16:57.764             2.863                 Moscow            89.469
       104   02 Jun 2027 02:30:59.673   02 Jun 2027 02:31:16.721            17.048               CapeTown           532.750
       105   02 Jun 2027 02:33:01.239   02 Jun 2027 02:34:05.461            64.222               CapeTown          2006.938
       106   02 Jun 2027 03:35:26.685   02 Jun 2027 03:35:40.113            13.428               Magadan2           419.625
       107   02 Jun 2027 03:36:35.953   02 Jun 2027 03:36:47.256            11.303                Anadyr1           353.219
       108   02 Jun 2027 03:46:31.350   02 Jun 2027 03:47:52.261            80.911              Murmansk1          2528.469
       109   02 Jun 2027 03:47:54.595   02 Jun 2027 03:50:31.489           156.894              Murmansk1          4902.937
       110   02 Jun 2027 03:51:37.841   02 Jun 2027 03:52:09.001            31.160                 Moscow           973.750
       111   02 Jun 2027 03:52:54.629   02 Jun 2027 03:53:35.904            41.275                 Moscow          1289.844
       112   02 Jun 2027 05:08:20.667   02 Jun 2027 05:08:52.417            31.750               Magadan2           992.188
       113   02 Jun 2027 05:09:13.662   02 Jun 2027 05:12:08.944           175.282               Magadan1          5477.563
       114   02 Jun 2027 05:12:13.283   02 Jun 2027 05:14:00.407           107.124               Magadan1          3347.625
       115   02 Jun 2027 05:14:11.225   02 Jun 2027 05:14:21.666            10.441                Anadyr1           326.281
       116   02 Jun 2027 06:46:20.459   02 Jun 2027 06:46:51.974            31.515                Irkutsk           984.844
       117   02 Jun 2027 06:47:02.937   02 Jun 2027 06:47:24.594            21.657                Irkutsk           676.781
       118   02 Jun 2027 08:22:29.773   02 Jun 2027 08:22:59.043            29.270               Magadan1           914.688
       119   02 Jun 2027 08:23:55.164   02 Jun 2027 08:24:24.137            28.973                Irkutsk           905.406
       120   02 Jun 2027 08:24:38.952   02 Jun 2027 08:25:33.998            55.046                Irkutsk          1720.187
       121   02 Jun 2027 09:00:23.013   02 Jun 2027 09:01:36.483            73.470            RioGallegos          2295.937
       122   02 Jun 2027 09:35:57.822   02 Jun 2027 09:37:48.795           110.973                Sumatra          3467.906
       123   02 Jun 2027 09:41:11.884   02 Jun 2027 09:42:13.846            61.962                Sumatra          1936.313
       124   02 Jun 2027 09:57:54.859   02 Jun 2027 09:57:57.125             2.266                Irkutsk            70.812
       125   02 Jun 2027 09:58:05.533   02 Jun 2027 09:58:06.749             1.216                Novosib            38.000
       126   02 Jun 2027 09:58:18.277   02 Jun 2027 09:58:23.081             4.804                Novosib           150.125
       127   02 Jun 2027 09:58:31.857   02 Jun 2027 09:59:28.231            56.374                Irkutsk          1761.688
       128   02 Jun 2027 09:59:37.096   02 Jun 2027 09:59:53.936            16.840                Irkutsk           526.250
       129   02 Jun 2027 10:00:21.881   02 Jun 2027 10:00:47.736            25.855                Novosib           807.969
       130   02 Jun 2027 10:00:53.046   02 Jun 2027 10:01:03.736            10.690                Novosib           334.062
       131   02 Jun 2027 10:01:18.254   02 Jun 2027 10:01:46.340            28.086                Norilsk           877.688
       132   02 Jun 2027 10:37:56.441   02 Jun 2027 10:38:38.559            42.118            RioGallegos          1316.188
       133   02 Jun 2027 11:12:08.589   02 Jun 2027 11:13:13.568            64.979                Sumatra          2030.594
       134   02 Jun 2027 11:21:25.431   02 Jun 2027 11:22:35.978            70.547                  Delhi          2204.594
       135   02 Jun 2027 11:33:55.558   02 Jun 2027 11:34:16.687            21.129                Novosib           660.281
       136   02 Jun 2027 11:35:22.885   02 Jun 2027 11:35:24.493             1.608                Novosib            50.250
       137   02 Jun 2027 11:35:45.937   02 Jun 2027 11:36:12.566            26.629                Novosib           832.156
       138   02 Jun 2027 11:36:29.834   02 Jun 2027 11:36:55.027            25.193                Norilsk           787.281
       139   02 Jun 2027 11:37:08.458   02 Jun 2027 11:37:21.709            13.251                Norilsk           414.094
       140   02 Jun 2027 12:57:18.985   02 Jun 2027 12:59:09.251           110.266                  Delhi          3445.813
       141   02 Jun 2027 12:59:42.815   02 Jun 2027 13:00:31.672            48.857                  Delhi          1526.781
       142   02 Jun 2027 13:01:24.524   02 Jun 2027 13:02:08.269            43.745                  Delhi          1367.031
       143   02 Jun 2027 13:05:20.738   02 Jun 2027 13:06:11.592            50.854                 Moscow          1589.188
       144   02 Jun 2027 13:07:23.093   02 Jun 2027 13:09:42.936           139.843              Murmansk2          4370.094
       145   02 Jun 2027 13:16:23.493   02 Jun 2027 13:16:28.018             4.525                Norilsk           141.406
       146   02 Jun 2027 13:16:54.601   02 Jun 2027 13:18:33.204            98.603                Norilsk          3081.344
       147   02 Jun 2027 14:22:15.364   02 Jun 2027 14:22:54.811            39.447               CapeTown          1232.719
       148   02 Jun 2027 14:40:08.764   02 Jun 2027 14:41:50.990           102.226                 Moscow          3194.563
       149   02 Jun 2027 14:43:38.423   02 Jun 2027 14:46:37.734           179.311              Murmansk1          5603.469
       150   02 Jun 2027 14:59:06.464   02 Jun 2027 15:00:17.628            71.164                Anadyr1          2223.875
       151   02 Jun 2027 15:00:55.866   02 Jun 2027 15:01:15.919            20.053                Anadyr2           626.656
       152   02 Jun 2027 15:01:37.609   02 Jun 2027 15:02:10.074            32.465                Anadyr2          1014.531
       153   02 Jun 2027 15:53:24.009   02 Jun 2027 15:53:51.194            27.185               CapeTown           849.531
       154   02 Jun 2027 15:57:09.696   02 Jun 2027 15:57:31.543            21.847               CapeTown           682.719
       155   02 Jun 2027 16:00:21.622   02 Jun 2027 16:01:17.228            55.606               CapeTown          1737.687
       156   02 Jun 2027 16:20:05.628   02 Jun 2027 16:20:15.105             9.477                 Moscow           296.156
       157   02 Jun 2027 16:21:50.859   02 Jun 2027 16:22:18.304            27.445              Murmansk1           857.656
       158   02 Jun 2027 16:22:28.485   02 Jun 2027 16:22:56.007            27.522              Murmansk2           860.063
       159   02 Jun 2027 16:24:07.359   02 Jun 2027 16:24:37.544            30.185              Murmansk1           943.281
       160   02 Jun 2027 16:26:17.976   02 Jun 2027 16:26:35.856            17.880              Murmansk2           558.750
       161   02 Jun 2027 16:31:05.027   02 Jun 2027 16:31:48.136            43.109              Murmansk2          1347.156
       162   02 Jun 2027 16:34:01.609   02 Jun 2027 16:35:13.589            71.980                Anadyr2          2249.375
       163   02 Jun 2027 16:35:13.589   02 Jun 2027 16:35:48.350            34.761                Anadyr1          1086.281
       164   02 Jun 2027 16:45:34.296   02 Jun 2027 16:45:39.629             5.333                Anadyr1           166.656
       165   02 Jun 2027 17:30:11.526   02 Jun 2027 17:31:23.373            71.847               CapeTown          2245.219
       166   02 Jun 2027 17:36:31.285   02 Jun 2027 17:37:08.787            37.502               CapeTown          1171.937
       167   02 Jun 2027 18:03:12.931   02 Jun 2027 18:06:52.774           219.843              Murmansk1          6870.094
       168   02 Jun 2027 18:09:51.140   02 Jun 2027 18:10:26.129            34.989                Anadyr2          1093.406
       169   02 Jun 2027 18:11:02.324   02 Jun 2027 18:11:11.967             9.643                Anadyr1           301.344
       170   02 Jun 2027 18:11:14.389   02 Jun 2027 18:11:51.732            37.343                Anadyr2          1166.969
       171   02 Jun 2027 18:12:27.887   02 Jun 2027 18:13:09.346            41.459               Magadan2          1295.594
       172   02 Jun 2027 18:13:44.931   02 Jun 2027 18:13:56.864            11.933               Magadan2           372.906
       173   02 Jun 2027 18:16:04.477   02 Jun 2027 18:16:06.746             2.269               Magadan1            70.906
       174   02 Jun 2027 18:17:12.149   02 Jun 2027 18:17:24.712            12.563               Magadan2           392.594
       175   02 Jun 2027 18:18:23.892   02 Jun 2027 18:18:28.068             4.176               Magadan2           130.500
       176   02 Jun 2027 18:19:48.839   02 Jun 2027 18:20:09.908            21.069               Magadan1           658.406
       177   02 Jun 2027 18:23:16.681   02 Jun 2027 18:23:25.020             8.339               Magadan1           260.594
       178   02 Jun 2027 19:45:46.384   02 Jun 2027 19:49:43.252           236.868                Anadyr1          7402.125
       179   02 Jun 2027 19:49:53.005   02 Jun 2027 19:51:37.162           104.157                Norilsk          3254.906
       180   02 Jun 2027 19:51:48.619   02 Jun 2027 19:52:31.034            42.415               Magadan2          1325.469
       181   02 Jun 2027 19:54:17.993   02 Jun 2027 19:54:24.350             6.357               Magadan2           198.656
       182   02 Jun 2027 19:55:08.031   02 Jun 2027 19:55:11.992             3.961               Magadan1           123.781
       183   02 Jun 2027 19:56:06.198   02 Jun 2027 19:56:59.750            53.552               Magadan1          1673.500
       184   02 Jun 2027 20:40:26.822   02 Jun 2027 20:43:09.534           162.712            RioGallegos          5084.750
       185   02 Jun 2027 20:49:44.976   02 Jun 2027 20:49:50.580             5.604            RioGallegos           175.125
       186   02 Jun 2027 21:21:26.200   02 Jun 2027 21:22:06.462            40.262                Anadyr1          1258.187
       187   02 Jun 2027 21:23:37.601   02 Jun 2027 21:24:28.807            51.206                Norilsk          1600.187
       188   02 Jun 2027 21:24:33.109   02 Jun 2027 21:25:52.920            79.811               Magadan2          2494.094
       189   02 Jun 2027 21:27:30.175   02 Jun 2027 21:28:29.304            59.129               Magadan1          1847.781
       190   02 Jun 2027 21:28:38.953   02 Jun 2027 21:29:16.878            37.925                Irkutsk          1185.156
       191   02 Jun 2027 21:30:55.502   02 Jun 2027 21:31:01.442             5.940                Irkutsk           185.625
       192   02 Jun 2027 21:31:27.127   02 Jun 2027 21:32:42.801            75.674                Novosib          2364.812
       193   02 Jun 2027 21:33:36.822   02 Jun 2027 21:33:44.745             7.923                Irkutsk           247.594
       194   02 Jun 2027 21:41:47.866   02 Jun 2027 21:42:32.211            44.345                Sumatra          1385.781
       195   02 Jun 2027 21:42:56.339   02 Jun 2027 21:45:09.561           133.222                Sumatra          4163.187
       196   02 Jun 2027 22:58:55.753   02 Jun 2027 22:59:09.783            14.030                Anadyr2           438.438
       197   02 Jun 2027 22:59:32.973   02 Jun 2027 23:00:57.263            84.290                Norilsk          2634.062
       198   02 Jun 2027 23:01:33.645   02 Jun 2027 23:01:45.452            11.807                Norilsk           368.969
       199   02 Jun 2027 23:02:22.522   02 Jun 2027 23:02:58.066            35.544               Magadan2          1110.750
       200   02 Jun 2027 23:03:38.532   02 Jun 2027 23:04:44.958            66.426                Novosib          2075.813
       201   02 Jun 2027 23:05:39.118   02 Jun 2027 23:06:19.645            40.527                Novosib          1266.469
       202   02 Jun 2027 23:08:48.435   02 Jun 2027 23:10:02.894            74.459                Novosib          2326.844
       203   02 Jun 2027 23:11:40.696   02 Jun 2027 23:12:02.315            21.619                  Delhi           675.594
       204   02 Jun 2027 23:12:29.563   02 Jun 2027 23:12:54.971            25.408                  Delhi           794.000
       205   02 Jun 2027 23:13:02.419   02 Jun 2027 23:14:49.257           106.838                  Delhi          3338.687
       206   03 Jun 2027 00:31:01.584   03 Jun 2027 00:31:46.940            45.356                Anadyr1          1417.375
       207   03 Jun 2027 00:35:11.762   03 Jun 2027 00:35:44.531            32.769                Anadyr2          1024.031
       208   03 Jun 2027 00:35:50.038   03 Jun 2027 00:36:20.444            30.406                Norilsk           950.188
       209   03 Jun 2027 00:36:29.740   03 Jun 2027 00:37:45.774            76.034               Magadan2          2376.063
       210   03 Jun 2027 00:37:58.963   03 Jun 2027 00:40:43.428           164.465              Murmansk2          5139.531
       211   03 Jun 2027 00:42:53.652   03 Jun 2027 00:43:58.755            65.103              Murmansk1          2034.469
       212   03 Jun 2027 00:44:02.953   03 Jun 2027 00:44:26.807            23.854                 Moscow           745.438
       213   03 Jun 2027 00:45:03.469   03 Jun 2027 00:45:19.188            15.719                 Moscow           491.219
       214   03 Jun 2027 00:45:44.779   03 Jun 2027 00:45:57.264            12.485                 Moscow           390.156
       215   03 Jun 2027 00:56:29.743   03 Jun 2027 00:56:32.618             2.875                  Delhi            89.844
       216   03 Jun 2027 00:57:16.642   03 Jun 2027 00:57:23.467             6.825                  Delhi           213.281
       217   03 Jun 2027 02:03:18.518   03 Jun 2027 02:06:20.345           181.827                Anadyr1          5682.094
       218   03 Jun 2027 02:06:20.345   03 Jun 2027 02:06:30.546            10.201                Anadyr2           318.781
       219   03 Jun 2027 02:08:39.575   03 Jun 2027 02:10:22.991           103.416               Magadan2          3231.750
       220   03 Jun 2027 02:13:40.539   03 Jun 2027 02:14:31.502            50.963              Murmansk1          1592.594
       221   03 Jun 2027 02:15:38.473   03 Jun 2027 02:17:25.859           107.386                Novosib          3355.812
       222   03 Jun 2027 02:20:00.827   03 Jun 2027 02:20:04.959             4.132                 Moscow           129.125
       223   03 Jun 2027 02:22:51.149   03 Jun 2027 02:23:10.516            19.367                Novosib           605.219
       224   03 Jun 2027 02:27:58.348   03 Jun 2027 02:28:10.349            12.001                 Moscow           375.031
       225   03 Jun 2027 02:41:41.355   03 Jun 2027 02:42:10.989            29.634               CapeTown           926.062
       226   03 Jun 2027 02:43:33.980   03 Jun 2027 02:43:49.574            15.594               CapeTown           487.312
       227   03 Jun 2027 02:46:00.834   03 Jun 2027 02:46:19.560            18.726               CapeTown           585.187
       228   03 Jun 2027 02:50:59.679   03 Jun 2027 02:51:45.942            46.263               CapeTown          1445.719
       229   03 Jun 2027 03:42:55.607   03 Jun 2027 03:43:00.544             4.937                Anadyr2           154.281
       230   03 Jun 2027 03:45:42.415   03 Jun 2027 03:46:30.014            47.599                Anadyr2          1487.469
       231   03 Jun 2027 03:58:12.039   03 Jun 2027 04:00:38.568           146.529              Murmansk2          4579.031
       232   03 Jun 2027 04:00:38.568   03 Jun 2027 04:01:09.911            31.343              Murmansk1           979.469
       233   03 Jun 2027 05:20:35.417   03 Jun 2027 05:20:56.921            21.504                Anadyr2           672.000
       234   03 Jun 2027 05:21:07.729   03 Jun 2027 05:22:12.521            64.792               Magadan2          2024.750
       235   03 Jun 2027 05:22:20.322   03 Jun 2027 05:26:02.965           222.643               Magadan2          6957.594
       236   03 Jun 2027 06:58:02.601   03 Jun 2027 06:58:12.826            10.225                Anadyr1           319.531
       237   03 Jun 2027 06:58:12.826   03 Jun 2027 06:58:54.907            42.081                Anadyr2          1315.031
       238   03 Jun 2027 06:58:57.699   03 Jun 2027 06:59:55.131            57.432               Magadan1          1794.750
       239   03 Jun 2027 08:31:13.922   03 Jun 2027 08:32:29.378            75.456               Magadan1          2358.000
       240   03 Jun 2027 08:33:14.233   03 Jun 2027 08:33:31.375            17.142               Magadan2           535.687
       241   03 Jun 2027 08:33:35.146   03 Jun 2027 08:33:37.037             1.891               Magadan1            59.094
       242   03 Jun 2027 08:33:46.980   03 Jun 2027 08:34:32.018            45.038               Magadan2          1407.438
       243   03 Jun 2027 08:35:02.735   03 Jun 2027 08:36:09.874            67.139               Magadan1          2098.094
       244   03 Jun 2027 08:36:16.853   03 Jun 2027 08:37:06.041            49.188               Magadan2          1537.125
       245   03 Jun 2027 08:37:10.783   03 Jun 2027 08:37:34.771            23.988                Norilsk           749.625
       246   03 Jun 2027 08:37:40.981   03 Jun 2027 08:37:48.581             7.600                Norilsk           237.500
       247   03 Jun 2027 09:12:23.546   03 Jun 2027 09:13:16.166            52.620            RioGallegos          1644.375
       248   03 Jun 2027 09:13:43.965   03 Jun 2027 09:13:49.030             5.065            RioGallegos           158.281
       249   03 Jun 2027 09:15:29.275   03 Jun 2027 09:15:41.435            12.160            RioGallegos           380.000
       250   03 Jun 2027 09:47:39.684   03 Jun 2027 09:48:28.713            49.029                Sumatra          1532.156
       251   03 Jun 2027 09:50:09.327   03 Jun 2027 09:50:21.532            12.205                Sumatra           381.406
       252   03 Jun 2027 10:00:50.099   03 Jun 2027 10:01:19.602            29.503                  Delhi           921.969
       253   03 Jun 2027 10:09:38.649   03 Jun 2027 10:09:45.584             6.935                Novosib           216.719
       254   03 Jun 2027 10:10:08.285   03 Jun 2027 10:10:29.786            21.501                Novosib           671.906
       255   03 Jun 2027 10:10:42.402   03 Jun 2027 10:11:20.052            37.650                Irkutsk          1176.562
       256   03 Jun 2027 10:11:41.450   03 Jun 2027 10:12:12.814            31.364                Novosib           980.125
       257   03 Jun 2027 10:12:21.797   03 Jun 2027 10:13:00.232            38.435                Novosib          1201.094
       258   03 Jun 2027 10:13:04.789   03 Jun 2027 10:13:18.125            13.336                Norilsk           416.750
       259   03 Jun 2027 10:13:25.482   03 Jun 2027 10:14:26.469            60.987                Novosib          1905.844
       260   03 Jun 2027 10:50:31.806   03 Jun 2027 10:50:51.262            19.456            RioGallegos           608.000
       261   03 Jun 2027 11:24:46.271   03 Jun 2027 11:25:21.189            34.918                Sumatra          1091.187
       262   03 Jun 2027 11:27:42.194   03 Jun 2027 11:28:20.174            37.980                Sumatra          1186.875
       263   03 Jun 2027 11:46:15.359   03 Jun 2027 11:47:23.133            67.774                Novosib          2117.937
       264   03 Jun 2027 11:48:19.342   03 Jun 2027 11:48:27.297             7.955                Novosib           248.594
       265   03 Jun 2027 11:48:43.292   03 Jun 2027 11:48:54.958            11.666                Novosib           364.562
       266   03 Jun 2027 11:48:56.723   03 Jun 2027 11:49:10.337            13.614                Norilsk           425.437
       267   03 Jun 2027 13:10:16.664   03 Jun 2027 13:14:16.012           239.348                  Delhi          7479.625
       268   03 Jun 2027 13:19:21.664   03 Jun 2027 13:19:41.452            19.788              Murmansk1           618.375
       269   03 Jun 2027 13:20:42.923   03 Jun 2027 13:21:04.833            21.910              Murmansk1           684.687
       270   03 Jun 2027 13:21:08.612   03 Jun 2027 13:21:52.428            43.816              Murmansk1          1369.250
       271   03 Jun 2027 13:21:57.165   03 Jun 2027 13:22:48.215            51.050                Norilsk          1595.312
       272   03 Jun 2027 13:28:17.997   03 Jun 2027 13:28:56.592            38.595                Norilsk          1206.094
       273   03 Jun 2027 14:32:19.604   03 Jun 2027 14:34:24.821           125.217               CapeTown          3913.031
       274   03 Jun 2027 14:37:25.061   03 Jun 2027 14:38:35.661            70.600               CapeTown          2206.250
       275   03 Jun 2027 14:55:49.884   03 Jun 2027 14:58:10.356           140.472              Murmansk2          4389.750
       276   03 Jun 2027 15:07:44.618   03 Jun 2027 15:08:15.411            30.793              Murmansk1           962.281
       277   03 Jun 2027 15:10:51.017   03 Jun 2027 15:13:15.357           144.340                Anadyr1          4510.625
       278   03 Jun 2027 16:09:01.638   03 Jun 2027 16:09:13.962            12.324               CapeTown           385.125
       279   03 Jun 2027 16:11:17.453   03 Jun 2027 16:12:13.125            55.672               CapeTown          1739.750
       280   03 Jun 2027 16:33:19.628   03 Jun 2027 16:33:57.303            37.675                 Moscow          1177.344
       281   03 Jun 2027 16:34:19.835   03 Jun 2027 16:35:01.484            41.649              Murmansk2          1301.531
       282   03 Jun 2027 16:35:53.489   03 Jun 2027 16:36:39.018            45.529              Murmansk1          1422.781
       283   03 Jun 2027 16:37:27.742   03 Jun 2027 16:38:16.004            48.262              Murmansk1          1508.187
       284   03 Jun 2027 16:46:01.078   03 Jun 2027 16:47:55.289           114.211                Anadyr1          3569.094
       285   03 Jun 2027 16:47:55.289   03 Jun 2027 16:47:57.033             1.744                Anadyr2            54.500
       286   03 Jun 2027 16:51:01.851   03 Jun 2027 16:52:42.970           101.119               Magadan1          3159.969
       287   03 Jun 2027 16:53:16.074   03 Jun 2027 16:53:19.478             3.404               Magadan1           106.375
       288   03 Jun 2027 17:44:07.330   03 Jun 2027 17:44:12.603             5.273               CapeTown           164.781
       289   03 Jun 2027 17:44:30.964   03 Jun 2027 17:45:08.286            37.322               CapeTown          1166.313
       290   03 Jun 2027 18:16:51.850   03 Jun 2027 18:18:03.283            71.433              Murmansk2          2232.281
       291   03 Jun 2027 18:21:52.638   03 Jun 2027 18:25:13.485           200.847                Anadyr2          6276.469
       292   03 Jun 2027 18:25:21.511   03 Jun 2027 18:26:58.604            97.093               Magadan1          3034.156
       293   03 Jun 2027 18:28:37.830   03 Jun 2027 18:28:47.462             9.632               Magadan1           301.000
       294   03 Jun 2027 18:29:20.642   03 Jun 2027 18:29:36.029            15.387               Magadan1           480.844
       295   03 Jun 2027 19:57:47.161   03 Jun 2027 20:01:34.529           227.368                Anadyr1          7105.250
       296   03 Jun 2027 20:01:35.468   03 Jun 2027 20:03:49.727           134.259                Norilsk          4195.594
       297   03 Jun 2027 20:03:52.678   03 Jun 2027 20:04:34.708            42.030               Magadan1          1313.438
       298   03 Jun 2027 20:07:47.167   03 Jun 2027 20:07:52.520             5.353               Magadan2           167.281
       299   03 Jun 2027 20:10:53.843   03 Jun 2027 20:11:23.435            29.592               Magadan1           924.750
       300   03 Jun 2027 20:52:13.794   03 Jun 2027 20:55:12.861           179.067            RioGallegos          5595.844
       301   03 Jun 2027 21:34:04.502   03 Jun 2027 21:35:40.137            95.635                Anadyr1          2988.594
       302   03 Jun 2027 21:36:07.451   03 Jun 2027 21:38:22.058           134.607               Magadan1          4206.469
       303   03 Jun 2027 21:39:48.365   03 Jun 2027 21:40:05.654            17.289                Irkutsk           540.281
       304   03 Jun 2027 21:40:22.581   03 Jun 2027 21:40:53.223            30.642                Irkutsk           957.562
       305   03 Jun 2027 21:41:37.004   03 Jun 2027 21:42:39.570            62.566                Irkutsk          1955.188
       306   03 Jun 2027 21:43:33.831   03 Jun 2027 21:43:53.238            19.407                Novosib           606.469
       307   03 Jun 2027 21:44:00.385   03 Jun 2027 21:44:10.198             9.813                Novosib           306.656
       308   03 Jun 2027 21:44:39.603   03 Jun 2027 21:45:46.464            66.861                Novosib          2089.406
       309   03 Jun 2027 21:53:33.147   03 Jun 2027 21:54:23.747            50.600                Sumatra          1581.250
       310   03 Jun 2027 21:56:38.356   03 Jun 2027 21:57:09.422            31.066                Sumatra           970.812
       311   03 Jun 2027 23:08:06.275   03 Jun 2027 23:09:21.587            75.312                Anadyr1          2353.500
       312   03 Jun 2027 23:09:21.587   03 Jun 2027 23:09:33.764            12.177                Anadyr2           380.531
       313   03 Jun 2027 23:10:27.019   03 Jun 2027 23:10:41.190            14.171                Anadyr1           442.844
       314   03 Jun 2027 23:10:53.355   03 Jun 2027 23:10:54.929             1.574                Anadyr1            49.187
       315   03 Jun 2027 23:11:35.044   03 Jun 2027 23:11:58.626            23.582                Norilsk           736.938
       316   03 Jun 2027 23:12:13.274   03 Jun 2027 23:13:01.794            48.520               Magadan1          1516.250
       317   03 Jun 2027 23:13:11.320   03 Jun 2027 23:13:39.417            28.097               Magadan2           878.031
       318   03 Jun 2027 23:14:57.755   03 Jun 2027 23:15:18.262            20.507               Magadan1           640.844
       319   03 Jun 2027 23:15:27.194   03 Jun 2027 23:15:49.721            22.527                Irkutsk           703.969
       320   03 Jun 2027 23:15:58.226   03 Jun 2027 23:16:42.335            44.109                Novosib          1378.406
       321   03 Jun 2027 23:16:51.124   03 Jun 2027 23:17:31.987            40.863                Novosib          1276.969
       322   03 Jun 2027 23:23:21.123   03 Jun 2027 23:25:02.762           101.639                  Delhi          3176.219
       323   03 Jun 2027 23:29:54.136   03 Jun 2027 23:30:29.800            35.664                  Delhi          1114.500
       324   03 Jun 2027 23:34:08.235   03 Jun 2027 23:34:46.135            37.900                  Delhi          1184.375
       325   04 Jun 2027 00:41:38.528   04 Jun 2027 00:41:51.650            13.122                Anadyr1           410.062
       326   04 Jun 2027 00:41:51.650   04 Jun 2027 00:41:56.033             4.383                Anadyr2           136.969
       327   04 Jun 2027 00:42:16.634   04 Jun 2027 00:43:16.744            60.110                Anadyr2          1878.438
       328   04 Jun 2027 00:43:32.948   04 Jun 2027 00:44:10.767            37.819                Anadyr2          1181.844
       329   04 Jun 2027 00:47:12.544   04 Jun 2027 00:47:26.833            14.289                Anadyr1           446.531
       330   04 Jun 2027 00:47:34.301   04 Jun 2027 00:47:52.242            17.941                Norilsk           560.656
       331   04 Jun 2027 00:48:01.251   04 Jun 2027 00:48:08.876             7.625                Norilsk           238.281
       332   04 Jun 2027 00:48:30.230   04 Jun 2027 00:50:06.039            95.809               Magadan1          2994.031
       333   04 Jun 2027 00:50:36.530   04 Jun 2027 00:53:05.801           149.271              Murmansk2          4664.719
       334   04 Jun 2027 00:53:30.244   04 Jun 2027 00:53:39.889             9.645              Murmansk2           301.406
       335   04 Jun 2027 00:53:51.709   04 Jun 2027 00:54:15.007            23.298              Murmansk2           728.063
       336   04 Jun 2027 00:56:22.456   04 Jun 2027 00:57:07.771            45.315                 Moscow          1416.094
       337   04 Jun 2027 01:06:40.795   04 Jun 2027 01:07:29.517            48.722                  Delhi          1522.562
       338   04 Jun 2027 02:15:03.605   04 Jun 2027 02:17:42.954           159.349                Anadyr2          4979.656
       339   04 Jun 2027 02:20:07.452   04 Jun 2027 02:21:06.714            59.262               Magadan2          1851.938
       340   04 Jun 2027 02:21:21.792   04 Jun 2027 02:21:32.193            10.401               Magadan2           325.031
       341   04 Jun 2027 02:23:21.675   04 Jun 2027 02:23:53.097            31.422                Norilsk           981.937
       342   04 Jun 2027 02:25:42.019   04 Jun 2027 02:26:24.650            42.631              Murmansk1          1332.219
       343   04 Jun 2027 02:26:29.101   04 Jun 2027 02:26:33.154             4.053              Murmansk2           126.656
       344   04 Jun 2027 02:26:58.637   04 Jun 2027 02:27:53.000            54.363              Murmansk2          1698.844
       345   04 Jun 2027 02:29:03.498   04 Jun 2027 02:29:36.066            32.568                 Moscow          1017.750
       346   04 Jun 2027 02:30:24.323   04 Jun 2027 02:31:06.169            41.846                 Moscow          1307.687
       347   04 Jun 2027 02:41:06.023   04 Jun 2027 02:41:30.591            24.568                 Moscow           767.750
       348   04 Jun 2027 02:53:21.701   04 Jun 2027 02:54:11.297            49.596               CapeTown          1549.875
       349   04 Jun 2027 02:57:27.444   04 Jun 2027 02:57:52.890            25.446               CapeTown           795.188
       350   04 Jun 2027 03:56:27.128   04 Jun 2027 03:57:40.402            73.274               Magadan1          2289.812
       351   04 Jun 2027 05:32:35.192   04 Jun 2027 05:38:15.836           340.644                Anadyr2         10645.125
       352   04 Jun 2027 05:38:15.836   04 Jun 2027 05:38:22.947             7.111                Anadyr1           222.219
       353   04 Jun 2027 07:08:32.722   04 Jun 2027 07:09:04.940            32.218               Magadan2          1006.813
       354   04 Jun 2027 07:09:21.443   04 Jun 2027 07:10:14.599            53.156               Magadan2          1661.125
       355   04 Jun 2027 07:10:16.631   04 Jun 2027 07:10:31.934            15.303                Anadyr1           478.219
       356   04 Jun 2027 07:10:41.548   04 Jun 2027 07:11:09.957            28.409               Magadan2           887.781
       357   04 Jun 2027 07:11:27.089   04 Jun 2027 07:11:28.125             1.036                Norilsk            32.375
       358   04 Jun 2027 07:11:43.137   04 Jun 2027 07:12:35.060            51.923                Anadyr2          1622.594
       359   04 Jun 2027 08:43:14.140   04 Jun 2027 08:44:29.632            75.492               Magadan1          2359.125
       360   04 Jun 2027 08:45:25.575   04 Jun 2027 08:45:40.799            15.224               Magadan1           475.750
       361   04 Jun 2027 08:45:47.511   04 Jun 2027 08:45:51.730             4.219                Irkutsk           131.844
       362   04 Jun 2027 08:46:01.934   04 Jun 2027 08:46:12.076            10.142                Norilsk           316.937
       363   04 Jun 2027 08:46:45.386   04 Jun 2027 08:47:09.033            23.647               Magadan2           738.969
       364   04 Jun 2027 08:47:25.879   04 Jun 2027 08:47:28.998             3.119                Irkutsk            97.469
       365   04 Jun 2027 08:47:58.494   04 Jun 2027 08:48:29.510            31.016                Irkutsk           969.250
       366   04 Jun 2027 08:48:56.203   04 Jun 2027 08:49:24.636            28.433                Irkutsk           888.531
       367   04 Jun 2027 08:54:12.564   04 Jun 2027 08:54:17.281             4.717                Norilsk           147.406
       368   04 Jun 2027 09:24:27.452   04 Jun 2027 09:24:48.807            21.355            RioGallegos           667.344
       369   04 Jun 2027 09:25:34.196   04 Jun 2027 09:26:39.921            65.725            RioGallegos          2053.906
       370   04 Jun 2027 09:59:28.159   04 Jun 2027 09:59:59.209            31.050                Sumatra           970.313
       371   04 Jun 2027 10:02:47.903   04 Jun 2027 10:02:58.470            10.567                Sumatra           330.219
       372   04 Jun 2027 10:11:06.249   04 Jun 2027 10:12:50.822           104.573                  Delhi          3267.906
       373   04 Jun 2027 10:21:52.000   04 Jun 2027 10:21:56.238             4.238                Irkutsk           132.438
       374   04 Jun 2027 10:22:46.312   04 Jun 2027 10:23:24.873            38.561                Novosib          1205.031
       375   04 Jun 2027 10:23:36.978   04 Jun 2027 10:23:58.614            21.636                Novosib           676.125
       376   04 Jun 2027 10:24:01.873   04 Jun 2027 10:24:29.807            27.934                Irkutsk           872.937
       377   04 Jun 2027 10:24:50.407   04 Jun 2027 10:24:58.669             8.262                Norilsk           258.188
       378   04 Jun 2027 10:25:10.233   04 Jun 2027 10:25:36.218            25.985                Irkutsk           812.031
       379   04 Jun 2027 10:25:40.289   04 Jun 2027 10:26:40.976            60.687                Novosib          1896.469
       380   04 Jun 2027 11:08:00.042   04 Jun 2027 11:08:38.585            38.543            RioGallegos          1204.469
       381   04 Jun 2027 11:38:05.734   04 Jun 2027 11:39:31.749            86.015                Sumatra          2687.969
       382   04 Jun 2027 11:57:41.587   04 Jun 2027 11:57:47.311             5.724                Irkutsk           178.875
       383   04 Jun 2027 11:58:13.729   04 Jun 2027 11:59:22.599            68.870                Novosib          2152.188
       384   04 Jun 2027 11:59:36.246   04 Jun 2027 12:00:31.751            55.505                Novosib          1734.531
       385   04 Jun 2027 12:04:49.792   04 Jun 2027 12:05:04.887            15.095                Norilsk           471.719
       386   04 Jun 2027 12:05:44.012   04 Jun 2027 12:05:49.677             5.665                Norilsk           177.031
       387   04 Jun 2027 13:23:47.620   04 Jun 2027 13:26:59.744           192.124                  Delhi          6003.875
       388   04 Jun 2027 13:29:36.755   04 Jun 2027 13:30:54.923            78.168                 Moscow          2442.750
       389   04 Jun 2027 13:31:12.920   04 Jun 2027 13:31:26.455            13.535                 Moscow           422.969
       390   04 Jun 2027 13:31:38.538   04 Jun 2027 13:32:38.696            60.158              Murmansk1          1879.937
       391   04 Jun 2027 13:33:34.129   04 Jun 2027 13:34:29.731            55.602                Novosib          1737.563
       392   04 Jun 2027 13:37:13.191   04 Jun 2027 13:37:38.930            25.739                Norilsk           804.344
       393   04 Jun 2027 13:38:49.686   04 Jun 2027 13:39:12.508            22.822                Norilsk           713.188
       394   04 Jun 2027 13:40:32.808   04 Jun 2027 13:40:58.329            25.521                Norilsk           797.531
       395   04 Jun 2027 14:43:26.011   04 Jun 2027 14:46:03.159           157.148               CapeTown          4910.875
       396   04 Jun 2027 14:47:56.681   04 Jun 2027 14:49:22.501            85.820               CapeTown          2681.875
       397   04 Jun 2027 15:08:57.449   04 Jun 2027 15:09:11.035            13.586              Murmansk1           424.563
       398   04 Jun 2027 15:10:30.301   04 Jun 2027 15:11:18.068            47.767                 Moscow          1492.719
       399   04 Jun 2027 15:14:48.113   04 Jun 2027 15:15:14.172            26.059              Murmansk1           814.344
       400   04 Jun 2027 15:16:50.637   04 Jun 2027 15:18:11.413            80.776              Murmansk1          2524.250
       401   04 Jun 2027 15:22:40.297   04 Jun 2027 15:23:47.729            67.432                Anadyr1          2107.250
       402   04 Jun 2027 15:26:02.534   04 Jun 2027 15:26:12.092             9.558                Anadyr2           298.687
       403   04 Jun 2027 15:26:20.250   04 Jun 2027 15:26:29.012             8.762                Anadyr1           273.812
       404   04 Jun 2027 15:30:44.657   04 Jun 2027 15:30:57.499            12.842                Anadyr2           401.312
       405   04 Jun 2027 16:21:21.065   04 Jun 2027 16:21:34.849            13.784               CapeTown           430.750
       406   04 Jun 2027 16:23:13.106   04 Jun 2027 16:23:23.598            10.492               CapeTown           327.875
       407   04 Jun 2027 16:26:19.375   04 Jun 2027 16:26:58.326            38.951               CapeTown          1217.219
       408   04 Jun 2027 16:46:51.594   04 Jun 2027 16:47:49.834            58.240              Murmansk1          1820.000
       409   04 Jun 2027 16:48:10.036   04 Jun 2027 16:48:40.259            30.223              Murmansk2           944.469
       410   04 Jun 2027 16:49:34.411   04 Jun 2027 16:50:12.833            38.422              Murmansk2          1200.687
       411   04 Jun 2027 16:51:13.405   04 Jun 2027 16:51:52.369            38.964              Murmansk2          1217.625
       412   04 Jun 2027 16:58:01.039   04 Jun 2027 16:59:42.792           101.753                Anadyr1          3179.781
       413   04 Jun 2027 17:01:46.402   04 Jun 2027 17:02:11.655            25.253                Anadyr2           789.156
       414   04 Jun 2027 17:03:20.634   04 Jun 2027 17:07:17.110           236.476               Magadan1          7389.875
       415   04 Jun 2027 18:33:54.169   04 Jun 2027 18:36:30.939           156.770                Anadyr1          4899.062
       416   04 Jun 2027 18:36:41.016   04 Jun 2027 18:37:16.498            35.482               Magadan1          1108.812
       417   04 Jun 2027 18:38:41.853   04 Jun 2027 18:39:30.869            49.016               Magadan2          1531.750
       418   04 Jun 2027 18:41:38.296   04 Jun 2027 18:42:16.407            38.111               Magadan2          1190.969
       419   04 Jun 2027 20:09:47.659   04 Jun 2027 20:11:52.934           125.275                Anadyr1          3914.844
       420   04 Jun 2027 20:12:02.285   04 Jun 2027 20:13:34.085            91.800                Anadyr2          2868.750
       421   04 Jun 2027 20:13:49.982   04 Jun 2027 20:16:19.214           149.232               Magadan1          4663.500
       422   04 Jun 2027 20:16:51.687   04 Jun 2027 20:17:44.105            52.418                Norilsk          1638.063
       423   04 Jun 2027 20:18:37.147   04 Jun 2027 20:19:01.112            23.965                Irkutsk           748.906
       424   04 Jun 2027 20:19:41.118   04 Jun 2027 20:20:43.409            62.291                Irkutsk          1946.594
       425   04 Jun 2027 20:21:49.815   04 Jun 2027 20:21:53.665             3.850                Irkutsk           120.312
       426   04 Jun 2027 21:04:04.042   04 Jun 2027 21:04:35.494            31.452            RioGallegos           982.875
       427   04 Jun 2027 21:04:41.949   04 Jun 2027 21:05:29.051            47.102            RioGallegos          1471.938
       428   04 Jun 2027 21:09:52.768   04 Jun 2027 21:10:08.814            16.046            RioGallegos           501.438
       429   04 Jun 2027 21:12:43.497   04 Jun 2027 21:12:52.273             8.776            RioGallegos           274.250
       430   04 Jun 2027 21:13:32.533   04 Jun 2027 21:14:09.994            37.461            RioGallegos          1170.656
       431   04 Jun 2027 21:45:19.210   04 Jun 2027 21:45:27.427             8.217                Anadyr1           256.781
       432   04 Jun 2027 21:45:33.682   04 Jun 2027 21:45:47.311            13.629                Anadyr1           425.906
       433   04 Jun 2027 21:46:20.169   04 Jun 2027 21:47:39.100            78.931                Anadyr1          2466.594
       434   04 Jun 2027 21:47:59.096   04 Jun 2027 21:48:17.828            18.732                Norilsk           585.375
       435   04 Jun 2027 21:48:25.229   04 Jun 2027 21:49:11.325            46.096               Magadan2          1440.500
       436   04 Jun 2027 21:49:11.325   04 Jun 2027 21:49:29.914            18.589               Magadan1           580.906
       437   04 Jun 2027 21:49:46.593   04 Jun 2027 21:49:51.953             5.360               Magadan1           167.500
       438   04 Jun 2027 21:51:43.499   04 Jun 2027 21:52:38.234            54.735                Irkutsk          1710.469
       439   04 Jun 2027 21:53:07.654   04 Jun 2027 21:53:44.015            36.361                Novosib          1136.281
       440   04 Jun 2027 21:54:05.538   04 Jun 2027 21:55:37.512            91.974                Novosib          2874.188
       441   04 Jun 2027 22:12:14.452   04 Jun 2027 22:13:36.046            81.594                Sumatra          2549.812
       442   04 Jun 2027 22:17:38.569   04 Jun 2027 22:17:56.736            18.167                Sumatra           567.719
       443   04 Jun 2027 23:19:53.075   04 Jun 2027 23:20:05.575            12.500                Anadyr1           390.625
       444   04 Jun 2027 23:20:18.225   04 Jun 2027 23:21:22.801            64.576                Anadyr1          2018.000
       445   04 Jun 2027 23:22:11.042   04 Jun 2027 23:22:15.454             4.412                Anadyr2           137.875
       446   04 Jun 2027 23:22:18.458   04 Jun 2027 23:22:30.226            11.768                Anadyr2           367.750
       447   04 Jun 2027 23:23:37.137   04 Jun 2027 23:23:58.622            21.485                Norilsk           671.406
       448   04 Jun 2027 23:24:15.068   04 Jun 2027 23:25:19.234            64.166               Magadan1          2005.187
       449   04 Jun 2027 23:25:19.234   04 Jun 2027 23:25:41.647            22.413               Magadan2           700.406
       450   04 Jun 2027 23:27:30.609   04 Jun 2027 23:28:18.357            47.748                Irkutsk          1492.125
       451   04 Jun 2027 23:28:45.323   04 Jun 2027 23:30:08.363            83.040                Novosib          2595.000
       452   04 Jun 2027 23:35:07.220   04 Jun 2027 23:36:50.835           103.615                  Delhi          3237.969
       453   04 Jun 2027 23:39:31.118   04 Jun 2027 23:41:22.530           111.412                  Delhi          3481.625
       454   05 Jun 2027 00:53:19.544   05 Jun 2027 00:53:52.618            33.074                Anadyr1          1033.562
       455   05 Jun 2027 00:54:53.160   05 Jun 2027 00:55:16.330            23.170                Anadyr1           724.062
       456   05 Jun 2027 00:55:57.840   05 Jun 2027 00:56:05.336             7.496                Anadyr2           234.250
       457   05 Jun 2027 00:59:00.717   05 Jun 2027 00:59:15.254            14.537                Anadyr2           454.281
       458   05 Jun 2027 00:59:18.143   05 Jun 2027 00:59:21.649             3.506                Anadyr2           109.563
       459   05 Jun 2027 00:59:28.642   05 Jun 2027 01:01:48.019           139.377               Magadan1          4355.531
       460   05 Jun 2027 01:01:54.195   05 Jun 2027 01:04:00.581           126.386              Murmansk2          3949.562
       461   05 Jun 2027 01:07:17.976   05 Jun 2027 01:08:00.738            42.762                 Moscow          1336.313
       462   05 Jun 2027 01:15:39.324   05 Jun 2027 01:15:55.838            16.514                  Delhi           516.063
       463   05 Jun 2027 01:17:05.851   05 Jun 2027 01:17:36.421            30.570                  Delhi           955.312
       464   05 Jun 2027 01:21:08.508   05 Jun 2027 01:21:24.603            16.095                  Delhi           502.969
       465   05 Jun 2027 01:35:43.610   05 Jun 2027 01:36:41.256            57.646               CapeTown          1801.437
       466   05 Jun 2027 02:26:49.831   05 Jun 2027 02:27:51.504            61.673                Anadyr2          1927.281
       467   05 Jun 2027 02:27:54.032   05 Jun 2027 02:28:49.404            55.372                Anadyr1          1730.375
       468   05 Jun 2027 02:31:35.279   05 Jun 2027 02:32:37.720            62.441               Magadan2          1951.281
       469   05 Jun 2027 02:33:07.504   05 Jun 2027 02:33:45.576            38.072               Magadan2          1189.750
       470   05 Jun 2027 02:37:03.019   05 Jun 2027 02:37:49.252            46.233                Norilsk          1444.781
       471   05 Jun 2027 02:38:16.309   05 Jun 2027 02:39:06.704            50.395              Murmansk2          1574.844
       472   05 Jun 2027 02:39:53.062   05 Jun 2027 02:40:13.545            20.483                Novosib           640.094
       473   05 Jun 2027 02:40:20.316   05 Jun 2027 02:41:35.799            75.483                Novosib          2358.844
       474   05 Jun 2027 02:48:23.149   05 Jun 2027 02:48:35.256            12.107                Novosib           378.344
       475   05 Jun 2027 02:52:43.714   05 Jun 2027 02:52:46.151             2.437                 Moscow            76.156
       476   05 Jun 2027 03:05:07.533   05 Jun 2027 03:06:08.773            61.240               CapeTown          1913.750
       477   05 Jun 2027 03:15:39.059   05 Jun 2027 03:15:46.818             7.759               CapeTown           242.469
       478   05 Jun 2027 04:08:19.499   05 Jun 2027 04:10:41.833           142.334               Magadan2          4447.938
       479   05 Jun 2027 04:10:43.255   05 Jun 2027 04:11:02.754            19.499                Anadyr2           609.344
       480   05 Jun 2027 04:11:02.754   05 Jun 2027 04:11:15.034            12.280                Anadyr1           383.750
       481   05 Jun 2027 04:12:39.599   05 Jun 2027 04:13:29.870            50.271                Anadyr1          1570.969
       482   05 Jun 2027 05:44:34.442   05 Jun 2027 05:46:03.717            89.275                Anadyr1          2789.844
