uniorb/output/strategy_4/Drop/Drop_KinoSat_110608.txt

KinoSat_110608
-------------------------
    Access    *     Start Time (UTCG)     *     Stop Time (UTCG)  *   Duration (s)        *       Station  *  Data (Mbytes)
         1   01 Jun 2027 03:16:14.608   01 Jun 2027 03:16:26.047            11.439               Magadan2           357.469
         2   01 Jun 2027 03:16:33.932   01 Jun 2027 03:17:18.269            44.337               Magadan2          1385.531
         3   01 Jun 2027 03:17:18.269   01 Jun 2027 03:18:23.118            64.849               Magadan1          2026.531
         4   01 Jun 2027 03:18:30.523   01 Jun 2027 03:19:49.921            79.398               Magadan1          2481.188
         5   01 Jun 2027 03:19:49.921   01 Jun 2027 03:20:51.089            61.168               Magadan2          1911.500
         6   01 Jun 2027 03:21:07.416   01 Jun 2027 03:21:13.713             6.297                Anadyr1           196.781
         7   01 Jun 2027 03:21:13.713   01 Jun 2027 03:21:47.344            33.631                Anadyr2          1050.969
         8   01 Jun 2027 04:50:29.232   01 Jun 2027 04:50:35.350             6.118               Magadan1           191.188
         9   01 Jun 2027 04:50:44.825   01 Jun 2027 04:51:16.091            31.266               Magadan2           977.062
        10   01 Jun 2027 04:51:16.091   01 Jun 2027 04:52:21.077            64.986               Magadan1          2030.812
        11   01 Jun 2027 04:52:29.845   01 Jun 2027 04:54:30.482           120.637               Magadan1          3769.906
        12   01 Jun 2027 04:54:35.835   01 Jun 2027 04:55:29.141            53.306               Magadan1          1665.812
        13   01 Jun 2027 04:55:38.655   01 Jun 2027 04:56:14.753            36.098               Magadan1          1128.062
        14   01 Jun 2027 04:56:14.753   01 Jun 2027 04:56:17.878             3.125               Magadan2            97.656
        15   01 Jun 2027 04:56:23.844   01 Jun 2027 04:56:31.341             7.497               Magadan2           234.281
        16   01 Jun 2027 04:56:43.168   01 Jun 2027 04:56:57.512            14.344                Irkutsk           448.250
        17   01 Jun 2027 04:56:57.872   01 Jun 2027 04:57:18.073            20.201               Magadan2           631.281
        18   01 Jun 2027 04:57:20.278   01 Jun 2027 04:57:28.891             8.613              Murmansk1           269.156
        19   01 Jun 2027 04:57:28.891   01 Jun 2027 04:58:03.210            34.319              Murmansk2          1072.469
        20   01 Jun 2027 04:58:13.594   01 Jun 2027 04:59:24.190            70.596                Norilsk          2206.125
        21   01 Jun 2027 05:32:19.893   01 Jun 2027 05:33:53.655            93.762            RioGallegos          2930.063
        22   01 Jun 2027 05:34:35.389   01 Jun 2027 05:35:11.067            35.678            RioGallegos          1114.938
        23   01 Jun 2027 06:09:16.141   01 Jun 2027 06:11:48.967           152.826                Sumatra          4775.812
        24   01 Jun 2027 06:14:03.508   01 Jun 2027 06:15:51.264           107.756                Sumatra          3367.375
        25   01 Jun 2027 06:28:04.534   01 Jun 2027 06:30:08.554           124.020               Magadan1          3875.625
        26   01 Jun 2027 06:30:16.562   01 Jun 2027 06:30:34.197            17.635               Magadan1           551.094
        27   01 Jun 2027 06:30:43.963   01 Jun 2027 06:31:51.133            67.170                Irkutsk          2099.063
        28   01 Jun 2027 06:31:55.895   01 Jun 2027 06:33:15.819            79.924                Norilsk          2497.625
        29   01 Jun 2027 06:33:25.740   01 Jun 2027 06:33:31.191             5.451              Murmansk1           170.344
        30   01 Jun 2027 06:33:54.215   01 Jun 2027 06:34:28.252            34.037              Murmansk1          1063.656
        31   01 Jun 2027 06:34:28.541   01 Jun 2027 06:34:32.207             3.666                Norilsk           114.562
        32   01 Jun 2027 07:08:32.023   01 Jun 2027 07:09:03.892            31.869            RioGallegos           995.906
        33   01 Jun 2027 07:10:38.980   01 Jun 2027 07:11:16.622            37.642            RioGallegos          1176.312
        34   01 Jun 2027 07:42:57.128   01 Jun 2027 07:44:39.225           102.097                Sumatra          3190.531
        35   01 Jun 2027 07:46:29.436   01 Jun 2027 07:46:57.305            27.869                Sumatra           870.906
        36   01 Jun 2027 07:52:08.079   01 Jun 2027 07:53:36.780            88.701                  Delhi          2771.906
        37   01 Jun 2027 07:53:43.972   01 Jun 2027 07:55:37.086           113.114                  Delhi          3534.812
        38   01 Jun 2027 08:05:22.596   01 Jun 2027 08:05:32.192             9.596                Irkutsk           299.875
        39   01 Jun 2027 08:05:35.677   01 Jun 2027 08:06:26.552            50.875                 Moscow          1589.844
        40   01 Jun 2027 08:06:32.463   01 Jun 2027 08:07:05.521            33.058                 Moscow          1033.063
        41   01 Jun 2027 08:07:08.848   01 Jun 2027 08:08:23.542            74.694              Murmansk1          2334.188
        42   01 Jun 2027 08:08:28.407   01 Jun 2027 08:09:57.053            88.646              Murmansk1          2770.188
        43   01 Jun 2027 09:27:32.397   01 Jun 2027 09:28:20.483            48.086                  Delhi          1502.688
        44   01 Jun 2027 09:30:49.510   01 Jun 2027 09:31:16.865            27.355                  Delhi           854.844
        45   01 Jun 2027 09:43:10.631   01 Jun 2027 09:44:44.157            93.526              Murmansk1          2922.687
        46   01 Jun 2027 09:44:51.587   01 Jun 2027 09:45:23.138            31.551                Novosib           985.969
        47   01 Jun 2027 09:45:28.258   01 Jun 2027 09:46:18.538            50.280              Murmansk1          1571.250
        48   01 Jun 2027 09:46:43.100   01 Jun 2027 09:47:15.430            32.330              Murmansk2          1010.312
        49   01 Jun 2027 09:48:53.022   01 Jun 2027 09:48:54.859             1.837                Norilsk            57.406
        50   01 Jun 2027 09:49:18.767   01 Jun 2027 09:49:32.953            14.186                Norilsk           443.312
        51   01 Jun 2027 09:49:47.699   01 Jun 2027 09:50:00.511            12.812                Norilsk           400.375
        52   01 Jun 2027 09:50:39.560   01 Jun 2027 09:51:04.844            25.284              Murmansk1           790.125
        53   01 Jun 2027 11:19:19.824   01 Jun 2027 11:23:32.084           252.260              Murmansk2          7883.125
        54   01 Jun 2027 11:23:46.242   01 Jun 2027 11:24:53.196            66.954                Norilsk          2092.312
        55   01 Jun 2027 12:25:30.394   01 Jun 2027 12:27:16.897           106.503               CapeTown          3328.219
        56   01 Jun 2027 12:29:24.341   01 Jun 2027 12:31:04.464           100.123               CapeTown          3128.844
        57   01 Jun 2027 12:36:53.983   01 Jun 2027 12:37:11.182            17.199               CapeTown           537.469
        58   01 Jun 2027 12:52:27.583   01 Jun 2027 12:52:53.678            26.095              Murmansk1           815.469
        59   01 Jun 2027 12:52:53.678   01 Jun 2027 12:54:12.062            78.384              Murmansk2          2449.500
        60   01 Jun 2027 12:56:48.216   01 Jun 2027 12:57:05.537            17.321              Murmansk1           541.281
        61   01 Jun 2027 12:57:06.040   01 Jun 2027 12:57:32.146            26.106              Murmansk2           815.813
        62   01 Jun 2027 12:57:57.265   01 Jun 2027 12:58:09.515            12.250              Murmansk1           382.813
        63   01 Jun 2027 12:58:09.515   01 Jun 2027 12:58:33.736            24.221              Murmansk2           756.906
        64   01 Jun 2027 12:58:39.278   01 Jun 2027 12:59:08.410            29.132              Murmansk1           910.375
        65   01 Jun 2027 13:05:49.559   01 Jun 2027 13:07:49.392           119.833                Anadyr2          3744.781
        66   01 Jun 2027 13:08:02.556   01 Jun 2027 13:12:02.060           239.504                Anadyr1          7484.500
        67   01 Jun 2027 13:13:58.943   01 Jun 2027 13:15:21.803            82.860                Anadyr1          2589.375
        68   01 Jun 2027 14:41:29.954   01 Jun 2027 14:42:42.974            73.020                Anadyr2          2281.875
        69   01 Jun 2027 14:42:53.838   01 Jun 2027 14:44:06.582            72.744                Anadyr1          2273.250
        70   01 Jun 2027 14:44:31.304   01 Jun 2027 14:50:37.507           366.203               Magadan1         11443.844
        71   01 Jun 2027 14:50:37.507   01 Jun 2027 14:53:50.298           192.791               Magadan2          6024.719
        72   01 Jun 2027 16:19:43.777   01 Jun 2027 16:21:09.414            85.637               Magadan2          2676.156
        73   01 Jun 2027 17:13:16.373   01 Jun 2027 17:19:50.836           394.463            RioGallegos         12326.969
        74   01 Jun 2027 17:57:02.662   01 Jun 2027 18:03:32.095           389.433                Norilsk         12169.781
        75   01 Jun 2027 18:03:53.634   01 Jun 2027 18:07:55.528           241.894                Irkutsk          7559.188
        76   01 Jun 2027 18:14:51.374   01 Jun 2027 18:23:20.152           508.778                Sumatra         15899.313
        77   01 Jun 2027 19:39:38.113   01 Jun 2027 19:39:44.222             6.109                Novosib           190.906
        78   01 Jun 2027 19:45:07.772   01 Jun 2027 19:52:01.235           413.463                  Delhi         12920.719
        79   01 Jun 2027 21:10:01.743   01 Jun 2027 21:15:51.263           349.520              Murmansk1         10922.500
        80   01 Jun 2027 22:48:43.475   01 Jun 2027 22:49:19.936            36.461              Murmansk2          1139.406
        81   01 Jun 2027 22:51:04.880   01 Jun 2027 22:52:08.071            63.191                 Moscow          1974.719
        82   01 Jun 2027 22:52:21.520   01 Jun 2027 22:54:50.688           149.168              Murmansk1          4661.500
        83   01 Jun 2027 22:57:00.235   01 Jun 2027 22:57:23.445            23.210                 Moscow           725.312
        84   01 Jun 2027 23:17:20.899   01 Jun 2027 23:22:29.061           308.162               CapeTown          9630.062
        85   02 Jun 2027 01:45:59.830   02 Jun 2027 01:46:21.812            21.982               Magadan2           686.938
        86   02 Jun 2027 01:47:12.254   02 Jun 2027 01:47:28.191            15.937               Magadan2           498.031
        87   02 Jun 2027 01:47:28.191   02 Jun 2027 01:47:38.239            10.048               Magadan1           314.000
        88   02 Jun 2027 01:50:04.872   02 Jun 2027 01:50:27.776            22.904               Magadan2           715.750
        89   02 Jun 2027 01:53:39.260   02 Jun 2027 01:53:48.222             8.962                Norilsk           280.063
        90   02 Jun 2027 01:54:10.109   02 Jun 2027 01:54:18.961             8.852               Magadan1           276.625
        91   02 Jun 2027 01:54:18.961   02 Jun 2027 01:54:29.790            10.829               Magadan2           338.406
        92   02 Jun 2027 01:56:45.903   02 Jun 2027 01:57:04.092            18.189               Magadan1           568.406
        93   02 Jun 2027 01:57:12.470   02 Jun 2027 01:57:47.905            35.435              Murmansk2          1107.344
        94   02 Jun 2027 01:57:47.905   02 Jun 2027 01:57:53.160             5.255              Murmansk1           164.219
        95   02 Jun 2027 01:58:07.364   02 Jun 2027 01:58:39.980            32.616              Murmansk2          1019.250
        96   02 Jun 2027 02:00:39.248   02 Jun 2027 02:01:32.773            53.525                 Moscow          1672.656
        97   02 Jun 2027 02:02:20.301   02 Jun 2027 02:03:04.448            44.147                 Moscow          1379.594
        98   02 Jun 2027 02:09:31.298   02 Jun 2027 02:10:18.049            46.751                 Moscow          1460.969
        99   02 Jun 2027 02:29:20.763   02 Jun 2027 02:30:07.056            46.293               CapeTown          1446.656
       100   02 Jun 2027 03:25:27.947   02 Jun 2027 03:25:48.320            20.373                Anadyr1           636.656
       101   02 Jun 2027 03:26:32.537   02 Jun 2027 03:26:54.477            21.940               Magadan2           685.625
       102   02 Jun 2027 03:27:36.199   02 Jun 2027 03:28:31.396            55.197               Magadan2          1724.906
       103   02 Jun 2027 03:28:35.712   02 Jun 2027 03:30:54.771           139.059                Anadyr2          4345.594
       104   02 Jun 2027 03:30:54.771   02 Jun 2027 03:31:37.288            42.517                Anadyr1          1328.656
       105   02 Jun 2027 03:32:41.332   02 Jun 2027 03:33:45.337            64.005                Anadyr1          2000.156
       106   02 Jun 2027 05:04:06.127   02 Jun 2027 05:05:32.425            86.298                Irkutsk          2696.812
       107   02 Jun 2027 05:05:43.825   02 Jun 2027 05:07:37.378           113.553                Anadyr2          3548.531
       108   02 Jun 2027 05:08:02.206   02 Jun 2027 05:09:13.662            71.456               Magadan1          2233.000
       109   02 Jun 2027 06:41:01.875   02 Jun 2027 06:41:14.936            13.061                Irkutsk           408.156
       110   02 Jun 2027 06:41:15.342   02 Jun 2027 06:41:40.733            25.391                Novosib           793.469
       111   02 Jun 2027 06:42:02.068   02 Jun 2027 06:42:37.290            35.222                Irkutsk          1100.687
       112   02 Jun 2027 06:42:56.318   02 Jun 2027 06:44:25.381            89.063                Novosib          2783.219
       113   02 Jun 2027 06:44:38.820   02 Jun 2027 06:45:21.692            42.872                Irkutsk          1339.750
       114   02 Jun 2027 06:45:45.786   02 Jun 2027 06:46:15.266            29.480                Novosib           921.250
       115   02 Jun 2027 08:19:23.037   02 Jun 2027 08:20:15.756            52.719                Irkutsk          1647.469
       116   02 Jun 2027 08:20:25.566   02 Jun 2027 08:20:31.826             6.260                Irkutsk           195.625
       117   02 Jun 2027 08:23:38.444   02 Jun 2027 08:23:45.290             6.846                 Moscow           213.937
       118   02 Jun 2027 08:25:15.470   02 Jun 2027 08:25:44.593            29.123                Norilsk           910.094
       119   02 Jun 2027 08:27:22.374   02 Jun 2027 08:27:55.157            32.783              Murmansk1          1024.469
       120   02 Jun 2027 08:28:10.119   02 Jun 2027 08:28:14.410             4.291              Murmansk1           134.094
       121   02 Jun 2027 09:44:22.697   02 Jun 2027 09:47:03.163           160.466                  Delhi          5014.562
       122   02 Jun 2027 09:54:08.633   02 Jun 2027 09:54:15.652             7.019                Novosib           219.344
       123   02 Jun 2027 09:57:10.651   02 Jun 2027 09:57:28.323            17.672                Novosib           552.250
       124   02 Jun 2027 12:37:18.172   02 Jun 2027 12:41:02.912           224.740               CapeTown          7023.125
       125   02 Jun 2027 12:48:41.349   02 Jun 2027 12:49:29.738            48.389               CapeTown          1512.156
       126   02 Jun 2027 13:04:49.721   02 Jun 2027 13:05:30.316            40.595              Murmansk1          1268.594
       127   02 Jun 2027 13:06:05.433   02 Jun 2027 13:06:54.158            48.725              Murmansk2          1522.656
       128   02 Jun 2027 13:07:07.697   02 Jun 2027 13:07:20.003            12.306              Murmansk2           384.563
       129   02 Jun 2027 13:08:49.821   02 Jun 2027 13:08:55.412             5.591              Murmansk1           174.719
       130   02 Jun 2027 13:09:05.226   02 Jun 2027 13:09:20.139            14.913              Murmansk1           466.031
       131   02 Jun 2027 13:13:39.387   02 Jun 2027 13:14:30.609            51.222              Murmansk2          1600.688
       132   02 Jun 2027 13:17:46.783   02 Jun 2027 13:18:47.066            60.283                Anadyr1          1883.844
       133   02 Jun 2027 13:18:47.066   02 Jun 2027 13:22:03.361           196.295                Anadyr2          6134.219
       134   02 Jun 2027 13:22:54.395   02 Jun 2027 13:24:21.321            86.926                Anadyr2          2716.438
       135   02 Jun 2027 14:53:30.953   02 Jun 2027 14:56:03.078           152.125                Anadyr2          4753.906
       136   02 Jun 2027 14:56:21.683   02 Jun 2027 15:02:26.671           364.988               Magadan1         11405.875
       137   02 Jun 2027 15:02:39.268   02 Jun 2027 15:06:25.721           226.453               Magadan1          7076.656
       138   02 Jun 2027 17:24:44.091   02 Jun 2027 17:32:00.970           436.879            RioGallegos         13652.469
       139   02 Jun 2027 18:11:55.326   02 Jun 2027 18:15:07.135           191.809                Irkutsk          5994.031
       140   02 Jun 2027 18:15:27.301   02 Jun 2027 18:18:00.239           152.938                Irkutsk          4779.313
       141   02 Jun 2027 18:29:18.288   02 Jun 2027 18:33:29.743           251.455                Sumatra          7857.969
       142   02 Jun 2027 19:47:31.156   02 Jun 2027 19:48:36.157            65.001                Novosib          2031.281
       143   02 Jun 2027 19:49:35.708   02 Jun 2027 19:50:26.844            51.136                Novosib          1598.000
       144   02 Jun 2027 19:56:16.463   02 Jun 2027 20:05:04.255           527.792                  Delhi         16493.500
       145   02 Jun 2027 21:21:51.995   02 Jun 2027 21:28:40.034           408.039              Murmansk2         12751.219
       146   02 Jun 2027 23:03:11.420   02 Jun 2027 23:03:27.261            15.841                 Moscow           495.031
       147   02 Jun 2027 23:07:44.424   02 Jun 2027 23:09:27.530           103.106                 Moscow          3222.063
       148   02 Jun 2027 23:10:14.052   02 Jun 2027 23:10:26.706            12.654                 Moscow           395.437
       149   02 Jun 2027 23:27:01.700   02 Jun 2027 23:28:53.531           111.831               CapeTown          3494.719
       150   02 Jun 2027 23:30:42.712   02 Jun 2027 23:33:17.634           154.922               CapeTown          4841.313
       151   03 Jun 2027 01:03:31.821   03 Jun 2027 01:04:13.595            41.774               CapeTown          1305.438
       152   03 Jun 2027 01:57:44.691   03 Jun 2027 01:59:30.347           105.656               Magadan2          3301.750
       153   03 Jun 2027 02:00:04.268   03 Jun 2027 02:00:36.704            32.436               Magadan1          1013.625
       154   03 Jun 2027 02:05:30.666   03 Jun 2027 02:05:33.304             2.638                Norilsk            82.437
       155   03 Jun 2027 02:05:37.143   03 Jun 2027 02:06:01.948            24.805                Norilsk           775.156
       156   03 Jun 2027 02:07:34.083   03 Jun 2027 02:07:38.775             4.692                Norilsk           146.625
       157   03 Jun 2027 02:09:13.137   03 Jun 2027 02:10:21.182            68.045              Murmansk2          2126.406
       158   03 Jun 2027 02:11:05.960   03 Jun 2027 02:11:22.095            16.135              Murmansk1           504.219
       159   03 Jun 2027 02:12:00.329   03 Jun 2027 02:12:22.729            22.400              Murmansk2           700.000
       160   03 Jun 2027 02:12:44.649   03 Jun 2027 02:13:59.258            74.609                 Moscow          2331.531
       161   03 Jun 2027 03:35:20.651   03 Jun 2027 03:36:10.294            49.643                Anadyr2          1551.344
       162   03 Jun 2027 03:37:28.523   03 Jun 2027 03:38:49.125            80.602                Anadyr2          2518.813
       163   03 Jun 2027 03:39:28.892   03 Jun 2027 03:40:08.112            39.220               Magadan2          1225.625
       164   03 Jun 2027 03:40:15.005   03 Jun 2027 03:42:55.607           160.602                Anadyr1          5018.812
       165   03 Jun 2027 03:43:00.544   03 Jun 2027 03:43:21.517            20.973                Anadyr1           655.406
       166   03 Jun 2027 03:44:13.781   03 Jun 2027 03:44:25.637            11.856               Magadan2           370.500
       167   03 Jun 2027 03:44:42.820   03 Jun 2027 03:45:06.030            23.210                Anadyr1           725.313
       168   03 Jun 2027 04:26:54.516   03 Jun 2027 04:27:24.178            29.662            RioGallegos           926.938
       169   03 Jun 2027 04:27:34.925   03 Jun 2027 04:27:39.044             4.119            RioGallegos           128.719
       170   03 Jun 2027 05:16:33.712   03 Jun 2027 05:17:30.281            56.569                Irkutsk          1767.781
       171   03 Jun 2027 05:18:20.783   03 Jun 2027 05:18:42.677            21.894                Irkutsk           684.188
       172   03 Jun 2027 05:19:14.841   03 Jun 2027 05:20:16.120            61.279                Irkutsk          1914.969
       173   03 Jun 2027 05:20:19.380   03 Jun 2027 05:21:07.729            48.349               Magadan2          1510.906
       174   03 Jun 2027 05:22:08.792   03 Jun 2027 05:22:16.463             7.671                Novosib           239.719
       175   03 Jun 2027 06:57:45.071   03 Jun 2027 06:58:02.961            17.890                Norilsk           559.062
       176   03 Jun 2027 06:58:16.179   03 Jun 2027 06:58:49.925            33.746                Novosib          1054.563
       177   03 Jun 2027 08:29:55.661   03 Jun 2027 08:30:07.100            11.439              Murmansk1           357.469
       178   03 Jun 2027 08:30:18.638   03 Jun 2027 08:30:33.119            14.481              Murmansk1           452.531
       179   03 Jun 2027 08:30:39.460   03 Jun 2027 08:30:40.405             0.945              Murmansk1            29.531
       180   03 Jun 2027 08:33:09.582   03 Jun 2027 08:33:13.723             4.141                Norilsk           129.406
       181   03 Jun 2027 09:55:15.950   03 Jun 2027 09:56:47.071            91.121                  Delhi          2847.531
       182   03 Jun 2027 09:57:54.097   03 Jun 2027 09:59:18.611            84.514                  Delhi          2641.062
       183   03 Jun 2027 10:06:02.217   03 Jun 2027 10:06:16.151            13.934                Novosib           435.438
       184   03 Jun 2027 10:09:26.141   03 Jun 2027 10:09:30.822             4.681                Novosib           146.281
       185   03 Jun 2027 13:00:23.388   03 Jun 2027 13:00:43.655            20.267               CapeTown           633.344
       186   03 Jun 2027 13:15:07.140   03 Jun 2027 13:16:56.866           109.726                 Moscow          3428.938
       187   03 Jun 2027 13:17:14.207   03 Jun 2027 13:19:21.664           127.457              Murmansk1          3983.031
       188   03 Jun 2027 13:19:41.452   03 Jun 2027 13:20:42.923            61.471              Murmansk1          1920.969
       189   03 Jun 2027 13:26:44.866   03 Jun 2027 13:26:58.812            13.946              Murmansk1           435.812
       190   03 Jun 2027 13:29:44.900   03 Jun 2027 13:31:22.304            97.404                Anadyr2          3043.875
       191   03 Jun 2027 13:31:58.855   03 Jun 2027 13:35:28.639           209.784                Anadyr1          6555.750
       192   03 Jun 2027 13:36:37.961   03 Jun 2027 13:36:56.103            18.142                Anadyr1           566.937
       193   03 Jun 2027 14:58:10.356   03 Jun 2027 14:59:10.378            60.022              Murmansk2          1875.688
       194   03 Jun 2027 15:00:40.797   03 Jun 2027 15:00:46.291             5.494              Murmansk2           171.687
       195   03 Jun 2027 15:01:01.578   03 Jun 2027 15:01:32.461            30.883              Murmansk2           965.094
       196   03 Jun 2027 15:05:32.094   03 Jun 2027 15:06:42.040            69.946                Anadyr1          2185.813
       197   03 Jun 2027 15:07:57.397   03 Jun 2027 15:08:49.769            52.372                Anadyr2          1636.625
       198   03 Jun 2027 15:08:57.695   03 Jun 2027 15:14:13.736           316.041               Magadan2          9876.281
       199   03 Jun 2027 15:16:13.610   03 Jun 2027 15:18:56.212           162.602               Magadan2          5081.312
       200   03 Jun 2027 16:43:44.261   03 Jun 2027 16:44:00.232            15.971               Magadan1           499.094
       201   03 Jun 2027 16:46:01.772   03 Jun 2027 16:47:00.565            58.793               Magadan1          1837.281
       202   03 Jun 2027 16:48:08.684   03 Jun 2027 16:49:04.801            56.117               Magadan1          1753.656
       203   03 Jun 2027 17:36:21.736   03 Jun 2027 17:42:51.032           389.296            RioGallegos         12165.500
       204   03 Jun 2027 18:19:20.698   03 Jun 2027 18:24:37.442           316.744                Norilsk          9898.250
       205   03 Jun 2027 18:24:41.481   03 Jun 2027 18:24:58.450            16.969                Irkutsk           530.281
       206   03 Jun 2027 18:25:43.576   03 Jun 2027 18:27:09.437            85.861                Irkutsk          2683.156
       207   03 Jun 2027 18:37:44.755   03 Jun 2027 18:39:15.035            90.280                Sumatra          2821.250
       208   03 Jun 2027 18:39:25.341   03 Jun 2027 18:41:24.177           118.836                Sumatra          3713.625
       209   03 Jun 2027 18:43:10.726   03 Jun 2027 18:44:27.674            76.948                Sumatra          2404.625
       210   03 Jun 2027 20:00:49.156   03 Jun 2027 20:01:50.290            61.134                Novosib          1910.438
       211   03 Jun 2027 20:07:41.704   03 Jun 2027 20:08:57.170            75.466                  Delhi          2358.313
       212   03 Jun 2027 20:09:37.056   03 Jun 2027 20:14:51.261           314.205                  Delhi          9818.906
       213   03 Jun 2027 21:33:45.480   03 Jun 2027 21:39:26.660           341.180              Murmansk2         10661.875
       214   03 Jun 2027 21:39:40.029   03 Jun 2027 21:41:23.493           103.464              Murmansk1          3233.250
       215   03 Jun 2027 23:14:53.962   03 Jun 2027 23:15:14.938            20.976                 Moscow           655.500
       216   03 Jun 2027 23:15:19.637   03 Jun 2027 23:16:37.264            77.627                 Moscow          2425.844
       217   03 Jun 2027 23:37:40.769   03 Jun 2027 23:39:02.038            81.269               CapeTown          2539.656
       218   03 Jun 2027 23:41:03.558   03 Jun 2027 23:43:11.613           128.055               CapeTown          4001.719
       219   03 Jun 2027 23:43:26.581   03 Jun 2027 23:44:24.905            58.324               CapeTown          1822.625
       220   04 Jun 2027 00:48:32.002   04 Jun 2027 00:49:42.719            70.717                 Moscow          2209.906
       221   04 Jun 2027 00:57:07.771   04 Jun 2027 00:57:40.679            32.908                 Moscow          1028.375
       222   04 Jun 2027 01:12:42.902   04 Jun 2027 01:13:48.352            65.450               CapeTown          2045.313
       223   04 Jun 2027 01:20:33.526   04 Jun 2027 01:20:55.676            22.150               CapeTown           692.187
       224   04 Jun 2027 02:09:25.289   04 Jun 2027 02:09:41.282            15.993                Anadyr2           499.781
       225   04 Jun 2027 02:10:19.500   04 Jun 2027 02:10:36.986            17.486                Anadyr2           546.438
       226   04 Jun 2027 02:10:37.808   04 Jun 2027 02:12:17.020            99.212               Magadan1          3100.375
       227   04 Jun 2027 02:14:46.010   04 Jun 2027 02:15:05.011            19.001               Magadan2           593.781
       228   04 Jun 2027 02:17:21.469   04 Jun 2027 02:17:36.516            15.047                Norilsk           470.219
       229   04 Jun 2027 02:18:34.496   04 Jun 2027 02:18:39.010             4.514               Magadan1           141.062
       230   04 Jun 2027 02:19:16.809   04 Jun 2027 02:19:22.694             5.885                Norilsk           183.906
       231   04 Jun 2027 02:20:01.438   04 Jun 2027 02:20:03.744             2.306                Norilsk            72.062
       232   04 Jun 2027 02:21:03.571   04 Jun 2027 02:21:25.259            21.688                Norilsk           677.750
       233   04 Jun 2027 02:21:33.486   04 Jun 2027 02:21:54.699            21.213              Murmansk1           662.906
       234   04 Jun 2027 02:22:38.730   04 Jun 2027 02:23:29.514            50.784              Murmansk2          1587.000
       235   04 Jun 2027 02:24:50.636   04 Jun 2027 02:25:38.922            48.286                 Moscow          1508.938
       236   04 Jun 2027 02:26:18.535   04 Jun 2027 02:27:03.408            44.873                 Moscow          1402.281
       237   04 Jun 2027 02:31:44.847   04 Jun 2027 02:32:19.712            34.865                 Moscow          1089.531
       238   04 Jun 2027 03:49:12.081   04 Jun 2027 03:49:48.667            36.586               Magadan1          1143.313
       239   04 Jun 2027 03:51:56.434   04 Jun 2027 03:52:09.410            12.976               Magadan1           405.500
       240   04 Jun 2027 03:52:09.410   04 Jun 2027 03:57:40.402           330.992               Magadan2         10343.500
       241   04 Jun 2027 04:37:04.152   04 Jun 2027 04:39:24.753           140.601            RioGallegos          4393.781
       242   04 Jun 2027 04:39:40.372   04 Jun 2027 04:40:36.185            55.813            RioGallegos          1744.156
       243   04 Jun 2027 04:41:34.010   04 Jun 2027 04:42:35.986            61.976            RioGallegos          1936.750
       244   04 Jun 2027 05:30:26.548   04 Jun 2027 05:32:01.577            95.029               Magadan1          2969.656
       245   04 Jun 2027 05:32:01.577   04 Jun 2027 05:32:59.846            58.269               Magadan2          1820.906
       246   04 Jun 2027 05:37:46.151   04 Jun 2027 05:38:12.666            26.515                Norilsk           828.594
       247   04 Jun 2027 07:09:25.081   04 Jun 2027 07:09:41.288            16.207                Norilsk           506.469
       248   04 Jun 2027 07:50:37.673   04 Jun 2027 07:51:28.008            50.335            RioGallegos          1572.969
       249   04 Jun 2027 08:27:05.612   04 Jun 2027 08:28:22.964            77.352                Sumatra          2417.250
       250   04 Jun 2027 08:45:22.657   04 Jun 2027 08:45:40.617            17.960                Novosib           561.250
       251   04 Jun 2027 10:05:15.175   04 Jun 2027 10:08:28.447           193.272                  Delhi          6039.750
       252   04 Jun 2027 10:21:16.127   04 Jun 2027 10:21:29.808            13.681                Norilsk           427.531
       253   04 Jun 2027 10:23:09.344   04 Jun 2027 10:23:19.240             9.896                Norilsk           309.250
       254   04 Jun 2027 12:02:40.175   04 Jun 2027 12:02:42.234             2.059              Murmansk2            64.344
       255   04 Jun 2027 12:03:15.337   04 Jun 2027 12:03:18.809             3.472              Murmansk2           108.500
       256   04 Jun 2027 12:06:45.209   04 Jun 2027 12:13:16.206           390.997                Anadyr2         12218.656
       257   04 Jun 2027 13:32:53.251   04 Jun 2027 13:33:04.815            11.564              Murmansk2           361.375
       258   04 Jun 2027 13:33:38.326   04 Jun 2027 13:33:51.204            12.878              Murmansk2           402.438
       259   04 Jun 2027 13:34:42.978   04 Jun 2027 13:35:18.073            35.095              Murmansk1          1096.719
       260   04 Jun 2027 13:37:30.753   04 Jun 2027 13:38:33.846            63.093              Murmansk2          1971.656
       261   04 Jun 2027 13:41:43.727   04 Jun 2027 13:43:14.304            90.577                Anadyr2          2830.531
       262   04 Jun 2027 13:43:35.866   04 Jun 2027 13:45:36.232           120.366                Anadyr1          3761.437
       263   04 Jun 2027 13:50:33.804   04 Jun 2027 13:52:15.813           102.009                Anadyr2          3187.781
       264   04 Jun 2027 15:13:01.741   04 Jun 2027 15:13:33.207            31.466              Murmansk1           983.313
       265   04 Jun 2027 15:17:33.342   04 Jun 2027 15:18:42.219            68.877                Anadyr1          2152.406
       266   04 Jun 2027 15:19:51.033   04 Jun 2027 15:20:23.205            32.172                Anadyr1          1005.375
       267   04 Jun 2027 15:21:13.091   04 Jun 2027 15:21:23.124            10.033                Anadyr2           313.531
       268   04 Jun 2027 15:21:27.278   04 Jun 2027 15:25:58.757           271.479               Magadan2          8483.719
       269   04 Jun 2027 15:26:57.333   04 Jun 2027 15:27:07.000             9.667               Magadan2           302.094
       270   04 Jun 2027 15:28:36.167   04 Jun 2027 15:29:22.745            46.578               Magadan2          1455.562
       271   04 Jun 2027 16:55:08.707   04 Jun 2027 16:55:55.394            46.687                Anadyr2          1458.969
       272   04 Jun 2027 16:56:37.242   04 Jun 2027 16:56:46.874             9.632                Norilsk           301.000
       273   04 Jun 2027 16:56:53.249   04 Jun 2027 16:56:59.709             6.460               Magadan1           201.875
       274   04 Jun 2027 16:57:51.948   04 Jun 2027 16:59:26.637            94.689               Magadan1          2959.031
       275   04 Jun 2027 17:00:01.288   04 Jun 2027 17:00:10.531             9.243               Magadan1           288.844
       276   04 Jun 2027 17:01:04.657   04 Jun 2027 17:01:33.110            28.453               Magadan1           889.156
       277   04 Jun 2027 17:04:45.419   04 Jun 2027 17:04:52.066             6.647               Magadan2           207.719
       278   04 Jun 2027 17:48:05.371   04 Jun 2027 17:54:13.919           368.548            RioGallegos         11517.125
       279   04 Jun 2027 18:32:27.125   04 Jun 2027 18:35:42.940           195.815                Norilsk          6119.219
       280   04 Jun 2027 18:36:43.078   04 Jun 2027 18:39:12.509           149.431                Irkutsk          4669.719
       281   04 Jun 2027 18:39:15.856   04 Jun 2027 18:41:38.992           143.136                Novosib          4473.000
       282   04 Jun 2027 18:51:00.670   04 Jun 2027 18:53:24.339           143.669                Sumatra          4489.656
       283   04 Jun 2027 20:11:19.568   04 Jun 2027 20:11:33.159            13.591                Novosib           424.719
       284   04 Jun 2027 20:13:27.674   04 Jun 2027 20:14:22.768            55.094                Novosib          1721.687
       285   04 Jun 2027 20:19:16.779   04 Jun 2027 20:22:56.217           219.438                  Delhi          6857.438
       286   04 Jun 2027 20:23:38.224   04 Jun 2027 20:25:51.466           133.242                  Delhi          4163.812
       287   04 Jun 2027 21:45:41.089   04 Jun 2027 21:54:02.767           501.678              Murmansk1         15677.437
       288   04 Jun 2027 21:55:39.050   04 Jun 2027 21:56:25.748            46.698                 Moscow          1459.312
       289   04 Jun 2027 23:23:29.015   04 Jun 2027 23:23:56.895            27.880              Murmansk1           871.250
       290   04 Jun 2027 23:24:47.435   04 Jun 2027 23:25:45.216            57.781                 Moscow          1805.656
       291   04 Jun 2027 23:29:08.570   04 Jun 2027 23:29:14.935             6.365                 Moscow           198.906
       292   04 Jun 2027 23:32:15.004   04 Jun 2027 23:33:01.062            46.058                 Moscow          1439.312
       293   04 Jun 2027 23:35:55.170   04 Jun 2027 23:36:48.539            53.369                 Moscow          1667.781
       294   04 Jun 2027 23:49:18.311   04 Jun 2027 23:50:59.560           101.249               CapeTown          3164.031
       295   04 Jun 2027 23:52:57.224   04 Jun 2027 23:53:46.094            48.870               CapeTown          1527.187
       296   05 Jun 2027 00:57:21.026   05 Jun 2027 00:58:16.251            55.225              Murmansk1          1725.781
       297   05 Jun 2027 01:00:34.444   05 Jun 2027 01:01:28.132            53.688                 Moscow          1677.750
       298   05 Jun 2027 01:04:24.198   05 Jun 2027 01:04:49.334            25.136                 Moscow           785.500
       299   05 Jun 2027 01:09:09.130   05 Jun 2027 01:09:30.374            21.244                 Moscow           663.875
       300   05 Jun 2027 01:10:44.084   05 Jun 2027 01:12:55.705           131.621                 Moscow          4113.156
       301   05 Jun 2027 02:21:20.564   05 Jun 2027 02:23:06.297           105.733               Magadan2          3304.156
       302   05 Jun 2027 02:23:32.369   05 Jun 2027 02:23:55.631            23.262               Magadan1           726.938
       303   05 Jun 2027 02:25:09.216   05 Jun 2027 02:25:18.716             9.500               Magadan2           296.875
       304   05 Jun 2027 02:26:14.718   05 Jun 2027 02:26:34.648            19.930               Magadan2           622.812
       305   05 Jun 2027 02:29:11.715   05 Jun 2027 02:29:40.437            28.722                Norilsk           897.562
       306   05 Jun 2027 02:33:13.677   05 Jun 2027 02:34:27.302            73.625              Murmansk1          2300.781
       307   05 Jun 2027 02:35:42.208   05 Jun 2027 02:35:50.775             8.567              Murmansk2           267.719
       308   05 Jun 2027 02:36:40.170   05 Jun 2027 02:37:31.946            51.776              Murmansk1          1618.000
       309   05 Jun 2027 02:39:35.489   05 Jun 2027 02:40:02.968            27.479                 Moscow           858.719
       310   05 Jun 2027 02:40:12.240   05 Jun 2027 02:41:34.281            82.041                 Moscow          2563.781
       311   05 Jun 2027 03:15:34.827   05 Jun 2027 03:16:33.909            59.082            RioGallegos          1846.313
       312   05 Jun 2027 03:17:53.463   05 Jun 2027 03:18:38.847            45.384            RioGallegos          1418.250
       313   05 Jun 2027 04:03:36.383   05 Jun 2027 04:06:22.582           166.199               Magadan1          5193.719
       314   05 Jun 2027 04:06:22.582   05 Jun 2027 04:08:01.606            99.024               Magadan2          3094.500
       315   05 Jun 2027 04:48:16.010   05 Jun 2027 04:48:45.712            29.702            RioGallegos           928.187
       316   05 Jun 2027 04:50:30.023   05 Jun 2027 04:51:24.305            54.282            RioGallegos          1696.313
       317   05 Jun 2027 05:40:50.781   05 Jun 2027 05:45:22.853           272.072                Irkutsk          8502.250
       318   05 Jun 2027 07:20:42.128   05 Jun 2027 07:21:13.320            31.192                 Moscow           974.750
       319   05 Jun 2027 08:01:57.026   05 Jun 2027 08:02:29.655            32.629            RioGallegos          1019.656
       320   05 Jun 2027 08:32:40.756   05 Jun 2027 08:34:34.529           113.773                Sumatra          3555.406
       321   05 Jun 2027 08:57:07.271   05 Jun 2027 08:57:24.056            16.785                Novosib           524.531
       322   05 Jun 2027 10:18:19.196   05 Jun 2027 10:21:02.275           163.079                  Delhi          5096.219
       323   05 Jun 2027 10:33:43.953   05 Jun 2027 10:33:59.608            15.655                Norilsk           489.219
       324   05 Jun 2027 12:04:26.579   05 Jun 2027 12:04:40.085            13.506              Murmansk1           422.063
       325   05 Jun 2027 12:05:40.881   05 Jun 2027 12:05:58.562            17.681              Murmansk2           552.531
       326   05 Jun 2027 12:08:04.555   05 Jun 2027 12:08:11.575             7.020              Murmansk1           219.375
       327   05 Jun 2027 12:10:12.419   05 Jun 2027 12:10:46.226            33.807              Murmansk1          1056.469
       328   05 Jun 2027 12:10:46.226   05 Jun 2027 12:11:04.787            18.561              Murmansk2           580.031
       329   05 Jun 2027 12:11:34.865   05 Jun 2027 12:11:58.720            23.855              Murmansk2           745.469
       330   05 Jun 2027 12:12:57.028   05 Jun 2027 12:13:20.645            23.617              Murmansk2           738.031
       331   05 Jun 2027 12:18:30.867   05 Jun 2027 12:22:27.145           236.278                Anadyr1          7383.688
       332   05 Jun 2027 12:22:29.831   05 Jun 2027 12:24:37.259           127.428                Anadyr2          3982.125
       333   05 Jun 2027 12:25:03.557   05 Jun 2027 12:26:06.110            62.553                Anadyr1          1954.781
       334   05 Jun 2027 13:48:55.095   05 Jun 2027 13:49:27.450            32.355              Murmansk2          1011.094
       335   05 Jun 2027 13:50:54.462   05 Jun 2027 13:50:58.086             3.624              Murmansk2           113.250
       336   05 Jun 2027 13:53:43.130   05 Jun 2027 13:55:08.471            85.341                Anadyr2          2666.906
       337   05 Jun 2027 13:55:48.230   05 Jun 2027 13:57:36.690           108.460                Anadyr1          3389.375
       338   05 Jun 2027 13:58:27.009   05 Jun 2027 14:02:13.907           226.898               Magadan2          7090.562
       339   05 Jun 2027 15:29:34.660   05 Jun 2027 15:31:42.631           127.971                Anadyr2          3999.094
       340   05 Jun 2027 15:32:04.983   05 Jun 2027 15:33:50.463           105.480               Magadan1          3296.250
       341   05 Jun 2027 15:35:50.148   05 Jun 2027 15:36:19.035            28.887               Magadan1           902.719
       342   05 Jun 2027 15:37:41.792   05 Jun 2027 15:38:08.231            26.439               Magadan1           826.219
       343   05 Jun 2027 15:39:04.761   05 Jun 2027 15:40:38.601            93.840               Magadan1          2932.500
       344   05 Jun 2027 17:07:45.873   05 Jun 2027 17:08:11.485            25.612                Anadyr1           800.375
       345   05 Jun 2027 17:08:31.597   05 Jun 2027 17:08:33.382             1.785                Norilsk            55.781
       346   05 Jun 2027 17:09:32.084   05 Jun 2027 17:11:23.022           110.938                Norilsk          3466.813
       347   05 Jun 2027 17:11:40.747   05 Jun 2027 17:12:35.189            54.442                Norilsk          1701.313
       348   05 Jun 2027 17:59:53.111   05 Jun 2027 18:03:17.139           204.028            RioGallegos          6375.875
       349   05 Jun 2027 18:09:20.067   05 Jun 2027 18:10:23.892            63.825            RioGallegos          1994.531
       350   05 Jun 2027 18:43:20.617   05 Jun 2027 18:44:41.830            81.213                Norilsk          2537.906
       351   05 Jun 2027 18:47:21.712   05 Jun 2027 18:47:50.363            28.651                Norilsk           895.344
       352   05 Jun 2027 18:48:24.606   05 Jun 2027 18:49:51.997            87.391                Irkutsk          2730.969
       353   05 Jun 2027 18:51:13.467   05 Jun 2027 18:55:10.560           237.093                Novosib          7409.156
       354   05 Jun 2027 19:01:40.816   05 Jun 2027 19:02:39.314            58.498                Sumatra          1828.062
       355   05 Jun 2027 19:04:01.996   05 Jun 2027 19:05:19.835            77.839                Sumatra          2432.469
       356   05 Jun 2027 19:11:04.599   05 Jun 2027 19:11:50.760            46.161                Sumatra          1442.531
       357   05 Jun 2027 20:24:16.451   05 Jun 2027 20:24:24.168             7.717                Novosib           241.156
       358   05 Jun 2027 20:25:44.539   05 Jun 2027 20:27:10.434            85.895                Novosib          2684.219
       359   05 Jun 2027 20:29:55.484   05 Jun 2027 20:30:16.748            21.264                Novosib           664.500
       360   05 Jun 2027 20:30:45.598   05 Jun 2027 20:31:24.062            38.464                Novosib          1202.000
       361   05 Jun 2027 20:32:26.312   05 Jun 2027 20:36:13.676           227.364                  Delhi          7105.125
       362   05 Jun 2027 20:36:44.358   05 Jun 2027 20:37:03.396            19.038                  Delhi           594.938
       363   05 Jun 2027 21:57:38.178   05 Jun 2027 22:03:08.155           329.977              Murmansk2         10311.781
       364   05 Jun 2027 22:03:09.802   05 Jun 2027 22:09:32.807           383.005                 Moscow         11968.906
       365   05 Jun 2027 23:38:28.809   05 Jun 2027 23:39:13.333            44.524                 Moscow          1391.375
       366   06 Jun 2027 00:00:58.723   06 Jun 2027 00:03:31.944           153.221               CapeTown          4788.156
       367   06 Jun 2027 00:04:55.831   06 Jun 2027 00:05:08.405            12.574               CapeTown           392.938
       368   06 Jun 2027 00:12:47.831   06 Jun 2027 00:13:13.551            25.720               CapeTown           803.750
       369   06 Jun 2027 01:09:22.519   06 Jun 2027 01:10:27.780            65.261              Murmansk2          2039.406
       370   06 Jun 2027 01:11:45.376   06 Jun 2027 01:11:58.606            13.230              Murmansk2           413.438
       371   06 Jun 2027 01:12:37.388   06 Jun 2027 01:13:41.698            64.310                 Moscow          2009.687
       372   06 Jun 2027 01:15:32.626   06 Jun 2027 01:15:50.540            17.914                 Moscow           559.813
       373   06 Jun 2027 01:17:06.671   06 Jun 2027 01:17:19.713            13.042                 Moscow           407.562
       374   06 Jun 2027 01:17:30.888   06 Jun 2027 01:17:50.842            19.954                 Moscow           623.562
       375   06 Jun 2027 01:21:25.976   06 Jun 2027 01:21:57.497            31.521                 Moscow           985.031
       376   06 Jun 2027 01:37:27.427   06 Jun 2027 01:37:30.270             2.843               CapeTown            88.844
       377   06 Jun 2027 01:39:03.683   06 Jun 2027 01:40:17.899            74.216               CapeTown          2319.250
       378   06 Jun 2027 02:33:11.686   06 Jun 2027 02:35:32.820           141.134               Magadan2          4410.437
       379   06 Jun 2027 02:35:33.080   06 Jun 2027 02:36:10.792            37.712               Magadan1          1178.500
       380   06 Jun 2027 02:38:37.021   06 Jun 2027 02:39:01.501            24.480               Magadan2           765.000
       381   06 Jun 2027 02:40:25.200   06 Jun 2027 02:40:36.928            11.728               Magadan1           366.500
       382   06 Jun 2027 02:42:24.876   06 Jun 2027 02:42:58.055            33.179                Norilsk          1036.844
       383   06 Jun 2027 02:45:13.489   06 Jun 2027 02:45:41.619            28.130              Murmansk1           879.062
       384   06 Jun 2027 02:45:41.619   06 Jun 2027 02:46:42.445            60.826              Murmansk2          1900.813
       385   06 Jun 2027 02:49:04.754   06 Jun 2027 02:49:46.990            42.236                 Moscow          1319.875
       386   06 Jun 2027 02:53:58.467   06 Jun 2027 02:54:09.656            11.189                 Moscow           349.656
       387   06 Jun 2027 03:26:19.908   06 Jun 2027 03:28:43.591           143.683            RioGallegos          4490.094
       388   06 Jun 2027 03:29:01.741   06 Jun 2027 03:29:28.498            26.757            RioGallegos           836.156
       389   06 Jun 2027 04:13:56.353   06 Jun 2027 04:14:10.967            14.614               Magadan2           456.687
       390   06 Jun 2027 04:14:10.967   06 Jun 2027 04:14:27.099            16.132               Magadan1           504.125
       391   06 Jun 2027 04:15:05.313   06 Jun 2027 04:19:27.030           261.717                Anadyr2          8178.656
       392   06 Jun 2027 04:19:30.030   06 Jun 2027 04:20:22.192            52.162                Anadyr1          1630.063
       393   06 Jun 2027 04:20:22.321   06 Jun 2027 04:20:27.900             5.579               Magadan1           174.344
       394   06 Jun 2027 04:57:18.204   06 Jun 2027 04:59:26.094           127.890            RioGallegos          3996.562
       395   06 Jun 2027 05:52:50.013   06 Jun 2027 05:53:36.566            46.553                Irkutsk          1454.781
       396   06 Jun 2027 05:53:53.491   06 Jun 2027 05:56:23.501           150.010               Magadan2          4687.813
       397   06 Jun 2027 05:56:23.501   06 Jun 2027 05:56:35.167            11.666               Magadan1           364.562
       398   06 Jun 2027 05:56:48.800   06 Jun 2027 05:57:27.085            38.285                Irkutsk          1196.406
       399   06 Jun 2027 05:57:31.838   06 Jun 2027 05:57:38.993             7.155                Norilsk           223.594
       400   06 Jun 2027 07:31:22.880   06 Jun 2027 07:32:04.312            41.432                 Moscow          1294.750
       401   06 Jun 2027 07:32:54.240   06 Jun 2027 07:33:03.390             9.150                Irkutsk           285.938
       402   06 Jun 2027 07:35:04.517   06 Jun 2027 07:35:18.593            14.076              Murmansk1           439.875
       403   06 Jun 2027 08:12:12.057   06 Jun 2027 08:12:17.232             5.175            RioGallegos           161.719
       404   06 Jun 2027 08:13:08.348   06 Jun 2027 08:13:59.121            50.773            RioGallegos          1586.656
       405   06 Jun 2027 08:45:43.677   06 Jun 2027 08:46:10.854            27.177                Sumatra           849.281
       406   06 Jun 2027 08:47:07.922   06 Jun 2027 08:48:14.079            66.157                Sumatra          2067.406
       407   06 Jun 2027 09:08:44.387   06 Jun 2027 09:08:46.086             1.699                Novosib            53.094
       408   06 Jun 2027 09:09:28.997   06 Jun 2027 09:10:37.712            68.715                Novosib          2147.344
       409   06 Jun 2027 10:32:11.129   06 Jun 2027 10:33:49.217            98.088                  Delhi          3065.250
       410   06 Jun 2027 10:48:36.471   06 Jun 2027 10:49:02.722            26.251                Norilsk           820.344
       411   06 Jun 2027 12:15:49.036   06 Jun 2027 12:16:10.885            21.849              Murmansk2           682.781
       412   06 Jun 2027 12:16:32.835   06 Jun 2027 12:16:54.963            22.128              Murmansk1           691.500
       413   06 Jun 2027 12:17:06.386   06 Jun 2027 12:17:06.888             0.502              Murmansk2            15.688
       414   06 Jun 2027 12:17:41.011   06 Jun 2027 12:17:54.269            13.258              Murmansk1           414.313
       415   06 Jun 2027 12:18:22.879   06 Jun 2027 12:19:10.162            47.283              Murmansk1          1477.594
       416   06 Jun 2027 12:21:27.808   06 Jun 2027 12:21:37.026             9.218              Murmansk1           288.063
       417   06 Jun 2027 12:22:53.369   06 Jun 2027 12:23:30.169            36.800              Murmansk2          1150.000
       418   06 Jun 2027 12:25:20.378   06 Jun 2027 12:25:35.980            15.602              Murmansk1           487.562
       419   06 Jun 2027 12:27:25.656   06 Jun 2027 12:27:58.580            32.924              Murmansk2          1028.875
       420   06 Jun 2027 12:30:20.753   06 Jun 2027 12:36:11.941           351.188                Anadyr1         10974.625
       421   06 Jun 2027 12:36:36.452   06 Jun 2027 12:38:49.328           132.876                Anadyr2          4152.375
       422   06 Jun 2027 14:05:43.000   06 Jun 2027 14:07:04.230            81.230                Anadyr2          2538.438
       423   06 Jun 2027 14:07:22.796   06 Jun 2027 14:07:40.484            17.688                Anadyr1           552.750
       424   06 Jun 2027 14:08:25.952   06 Jun 2027 14:09:21.215            55.263                Anadyr2          1726.969
       425   06 Jun 2027 14:09:42.486   06 Jun 2027 14:15:35.276           352.790               Magadan1         11024.688
       426   06 Jun 2027 15:44:02.101   06 Jun 2027 15:46:31.826           149.725               Magadan1          4678.906
       427   06 Jun 2027 15:47:52.075   06 Jun 2027 15:48:18.658            26.583               Magadan1           830.719
       428   06 Jun 2027 15:48:25.975   06 Jun 2027 15:49:22.901            56.926               Magadan1          1778.938
       429   06 Jun 2027 15:50:39.278   06 Jun 2027 15:51:22.718            43.440               Magadan1          1357.500
       430   06 Jun 2027 17:17:53.577   06 Jun 2027 17:18:38.716            45.139                Anadyr1          1410.594
       431   06 Jun 2027 17:19:47.914   06 Jun 2027 17:20:57.662            69.748               Magadan1          2179.625
       432   06 Jun 2027 17:22:13.080   06 Jun 2027 17:23:24.203            71.123                Norilsk          2222.594
       433   06 Jun 2027 17:24:48.912   06 Jun 2027 17:25:37.533            48.621                Norilsk          1519.406
       434   06 Jun 2027 17:26:01.866   06 Jun 2027 17:30:46.165           284.299                Irkutsk          8884.344
       435   06 Jun 2027 18:59:23.585   06 Jun 2027 19:00:23.696            60.111                Norilsk          1878.469
       436   06 Jun 2027 19:00:43.357   06 Jun 2027 19:08:10.107           446.750                Novosib         13960.938
       437   06 Jun 2027 19:16:10.353   06 Jun 2027 19:16:18.694             8.341                Sumatra           260.656
       438   06 Jun 2027 19:20:18.114   06 Jun 2027 19:21:02.133            44.019                Sumatra          1375.594
       439   06 Jun 2027 19:23:12.068   06 Jun 2027 19:23:55.120            43.052                Sumatra          1345.375
       440   06 Jun 2027 20:36:56.684   06 Jun 2027 20:37:06.116             9.432                Novosib           294.750
       441   06 Jun 2027 20:37:41.751   06 Jun 2027 20:38:57.010            75.259                Novosib          2351.844
       442   06 Jun 2027 20:42:45.985   06 Jun 2027 20:46:41.209           235.224                  Delhi          7350.750
       443   06 Jun 2027 22:09:36.371   06 Jun 2027 22:15:03.184           326.813              Murmansk1         10212.906
       444   06 Jun 2027 22:15:08.783   06 Jun 2027 22:21:47.433           398.650                 Moscow         12457.813
       445   06 Jun 2027 22:42:33.621   06 Jun 2027 22:46:05.764           212.143               CapeTown          6629.469
       446   07 Jun 2027 01:16:12.314   07 Jun 2027 01:16:17.130             4.816               Magadan1           150.500
       447   07 Jun 2027 01:17:50.364   07 Jun 2027 01:18:15.838            25.474               Magadan1           796.062
       448   07 Jun 2027 01:18:40.311   07 Jun 2027 01:18:48.350             8.039               Magadan2           251.219
       449   07 Jun 2027 01:20:52.025   07 Jun 2027 01:21:02.000             9.975               Magadan1           311.719
       450   07 Jun 2027 01:21:12.917   07 Jun 2027 01:21:17.874             4.957               Magadan1           154.906
       451   07 Jun 2027 01:21:23.909   07 Jun 2027 01:21:35.948            12.039              Murmansk1           376.219
       452   07 Jun 2027 01:22:14.534   07 Jun 2027 01:23:39.096            84.562              Murmansk2          2642.563
       453   07 Jun 2027 01:24:40.805   07 Jun 2027 01:25:29.080            48.275                 Moscow          1508.594
       454   07 Jun 2027 01:28:52.871   07 Jun 2027 01:29:15.683            22.812                 Moscow           712.875
       455   07 Jun 2027 01:33:03.379   07 Jun 2027 01:33:15.290            11.911                 Moscow           372.219
       456   07 Jun 2027 01:33:49.967   07 Jun 2027 01:34:04.730            14.763                 Moscow           461.344
       457   07 Jun 2027 01:50:01.729   07 Jun 2027 01:50:45.327            43.598               CapeTown          1362.437
       458   07 Jun 2027 01:53:56.840   07 Jun 2027 01:54:15.924            19.084               CapeTown           596.375
       459   07 Jun 2027 01:59:01.719   07 Jun 2027 01:59:09.023             7.304               CapeTown           228.250
       460   07 Jun 2027 01:59:14.381   07 Jun 2027 02:00:00.436            46.055               CapeTown          1439.219
       461   07 Jun 2027 02:45:05.003   07 Jun 2027 02:47:33.362           148.359               Magadan1          4636.219
       462   07 Jun 2027 02:47:50.598   07 Jun 2027 02:48:13.590            22.992               Magadan2           718.500
       463   07 Jun 2027 02:53:24.255   07 Jun 2027 02:53:43.919            19.664                Norilsk           614.500
       464   07 Jun 2027 02:53:52.320   07 Jun 2027 02:54:16.608            24.288                Norilsk           759.000
       465   07 Jun 2027 02:57:12.936   07 Jun 2027 02:58:26.109            73.173              Murmansk1          2286.656
       466   07 Jun 2027 02:59:55.360   07 Jun 2027 02:59:57.948             2.588              Murmansk1            80.875
       467   07 Jun 2027 03:37:23.308   07 Jun 2027 03:40:23.331           180.023            RioGallegos          5625.719
       468   07 Jun 2027 03:42:25.470   07 Jun 2027 03:43:46.523            81.053            RioGallegos          2532.906
       469   07 Jun 2027 04:25:28.052   07 Jun 2027 04:26:47.089            79.037                Irkutsk          2469.906
       470   07 Jun 2027 04:27:15.898   07 Jun 2027 04:27:49.272            33.374                Anadyr1          1042.937
       471   07 Jun 2027 04:27:59.405   07 Jun 2027 04:30:11.756           132.351                Irkutsk          4135.969
       472   07 Jun 2027 04:30:15.371   07 Jun 2027 04:30:58.983            43.612                Irkutsk          1362.875
       473   07 Jun 2027 04:31:33.512   07 Jun 2027 04:32:17.596            44.084               Magadan2          1377.625
       474   07 Jun 2027 04:32:43.419   07 Jun 2027 04:32:52.876             9.457                Irkutsk           295.531
       475   07 Jun 2027 04:33:08.123   07 Jun 2027 04:33:14.297             6.174                Anadyr2           192.937
       476   07 Jun 2027 04:33:18.824   07 Jun 2027 04:33:35.253            16.429               Magadan2           513.406
       477   07 Jun 2027 04:34:54.539   07 Jun 2027 04:35:29.186            34.647                Norilsk          1082.719
       478   07 Jun 2027 05:09:00.395   07 Jun 2027 05:15:07.783           367.388            RioGallegos         11480.875
       479   07 Jun 2027 05:48:49.979   07 Jun 2027 05:51:07.377           137.398                Sumatra          4293.687
       480   07 Jun 2027 06:04:46.575   07 Jun 2027 06:04:53.987             7.412               Magadan2           231.625
       481   07 Jun 2027 06:05:03.606   07 Jun 2027 06:05:49.332            45.726                Irkutsk          1428.937
       482   07 Jun 2027 06:06:20.776   07 Jun 2027 06:07:13.680            52.904                Novosib          1653.250
