uniorb/output/strategy_4/Drop/Drop_KinoSat_111808.txt

KinoSat_111808
-------------------------
    Access    *     Start Time (UTCG)     *     Stop Time (UTCG)  *   Duration (s)        *       Station  *  Data (Mbytes)
         1   01 Jun 2027 04:15:56.668   01 Jun 2027 04:16:22.093            25.425                Irkutsk           794.531
         2   01 Jun 2027 04:16:28.153   01 Jun 2027 04:16:31.538             3.385                Norilsk           105.781
         3   01 Jun 2027 04:16:43.470   01 Jun 2027 04:17:09.703            26.233                Novosib           819.781
         4   01 Jun 2027 04:17:24.485   01 Jun 2027 04:19:40.921           136.436              Murmansk2          4263.625
         5   01 Jun 2027 04:19:46.389   01 Jun 2027 04:20:27.990            41.601                Norilsk          1300.031
         6   01 Jun 2027 04:20:41.539   01 Jun 2027 04:20:44.897             3.358              Murmansk2           104.937
         7   01 Jun 2027 04:21:00.543   01 Jun 2027 04:21:07.622             7.079              Murmansk2           221.219
         8   01 Jun 2027 04:21:20.732   01 Jun 2027 04:21:32.252            11.520                Novosib           360.000
         9   01 Jun 2027 04:23:23.635   01 Jun 2027 04:25:58.224           154.589                  Delhi          4830.906
        10   01 Jun 2027 05:53:58.534   01 Jun 2027 05:56:10.226           131.692              Murmansk2          4115.375
        11   01 Jun 2027 05:56:16.060   01 Jun 2027 05:57:46.758            90.698              Murmansk2          2834.312
        12   01 Jun 2027 05:57:46.758   01 Jun 2027 05:58:11.129            24.371              Murmansk1           761.594
        13   01 Jun 2027 07:17:41.779   01 Jun 2027 07:18:02.507            20.728               Magadan2           647.750
        14   01 Jun 2027 07:18:02.507   01 Jun 2027 07:20:09.308           126.801               Magadan1          3962.531
        15   01 Jun 2027 07:20:28.016   01 Jun 2027 07:22:24.464           116.448               Magadan1          3639.000
        16   01 Jun 2027 07:22:28.809   01 Jun 2027 07:22:49.512            20.703                Anadyr1           646.969
        17   01 Jun 2027 08:53:59.050   01 Jun 2027 08:54:34.924            35.874               Magadan2          1121.062
        18   01 Jun 2027 08:54:49.795   01 Jun 2027 08:57:37.037           167.242                Anadyr2          5226.312
        19   01 Jun 2027 08:57:37.037   01 Jun 2027 08:57:53.774            16.737                Anadyr1           523.031
        20   01 Jun 2027 10:26:33.636   01 Jun 2027 10:27:56.304            82.668               Magadan1          2583.375
        21   01 Jun 2027 10:28:02.711   01 Jun 2027 10:30:22.967           140.256               Magadan2          4383.000
        22   01 Jun 2027 10:31:18.119   01 Jun 2027 10:32:53.153            95.034               Magadan1          2969.812
        23   01 Jun 2027 10:33:56.325   01 Jun 2027 10:34:02.634             6.309               Magadan1           197.156
        24   01 Jun 2027 13:41:27.794   01 Jun 2027 13:41:54.926            27.132                Irkutsk           847.875
        25   01 Jun 2027 15:09:54.590   01 Jun 2027 15:14:46.664           292.074                  Delhi          9127.312
        26   01 Jun 2027 15:18:31.835   01 Jun 2027 15:19:19.194            47.359                Novosib          1479.969
        27   01 Jun 2027 16:57:03.574   01 Jun 2027 16:57:10.693             7.119                 Moscow           222.469
        28   01 Jun 2027 16:57:53.605   01 Jun 2027 16:58:42.384            48.779                Norilsk          1524.344
        29   01 Jun 2027 17:00:16.803   01 Jun 2027 17:00:33.044            16.241              Murmansk1           507.531
        30   01 Jun 2027 17:01:40.400   01 Jun 2027 17:02:16.946            36.546                Norilsk          1142.062
        31   01 Jun 2027 17:04:15.238   01 Jun 2027 17:04:40.420            25.182              Murmansk2           786.938
        32   01 Jun 2027 17:10:40.547   01 Jun 2027 17:11:18.980            38.433                Anadyr1          1201.031
        33   01 Jun 2027 18:06:21.057   01 Jun 2027 18:07:52.051            90.994               CapeTown          2843.563
        34   01 Jun 2027 18:11:32.019   01 Jun 2027 18:12:28.719            56.700               CapeTown          1771.875
        35   01 Jun 2027 18:13:57.752   01 Jun 2027 18:14:18.347            20.595               CapeTown           643.594
        36   01 Jun 2027 18:27:07.532   01 Jun 2027 18:33:11.285           363.753                 Moscow         11367.281
        37   01 Jun 2027 19:42:31.267   01 Jun 2027 19:43:36.635            65.368               CapeTown          2042.750
        38   01 Jun 2027 19:46:18.160   01 Jun 2027 19:47:58.547           100.387               CapeTown          3137.094
        39   01 Jun 2027 19:48:30.825   01 Jun 2027 19:48:47.136            16.311               CapeTown           509.719
        40   01 Jun 2027 20:10:00.100   01 Jun 2027 20:16:00.233           360.133              Murmansk1         11254.156
        41   01 Jun 2027 21:54:14.586   01 Jun 2027 21:57:21.092           186.506                Anadyr1          5828.312
        42   01 Jun 2027 21:57:21.092   01 Jun 2027 21:57:26.954             5.862                Anadyr2           183.188
        43   01 Jun 2027 21:57:31.767   01 Jun 2027 21:59:02.777            91.010               Magadan2          2844.062
        44   01 Jun 2027 22:00:05.365   01 Jun 2027 22:00:19.164            13.799               Magadan1           431.219
        45   01 Jun 2027 22:00:38.014   01 Jun 2027 22:00:49.159            11.145               Magadan1           348.281
        46   01 Jun 2027 22:00:49.159   01 Jun 2027 22:01:13.506            24.347               Magadan2           760.844
        47   01 Jun 2027 22:01:43.593   01 Jun 2027 22:02:28.802            45.209               Magadan1          1412.781
        48   01 Jun 2027 22:06:44.677   01 Jun 2027 22:06:53.599             8.922               Magadan1           278.813
        49   01 Jun 2027 22:07:40.226   01 Jun 2027 22:07:56.194            15.968               Magadan1           499.000
        50   01 Jun 2027 22:49:26.210   01 Jun 2027 22:50:55.864            89.654            RioGallegos          2801.688
        51   01 Jun 2027 22:51:27.304   01 Jun 2027 22:51:44.578            17.274            RioGallegos           539.812
        52   01 Jun 2027 22:53:29.535   01 Jun 2027 22:54:11.115            41.580            RioGallegos          1299.375
        53   01 Jun 2027 23:30:00.434   01 Jun 2027 23:31:08.630            68.196                Anadyr1          2131.125
        54   01 Jun 2027 23:31:08.896   01 Jun 2027 23:33:16.463           127.567                Anadyr2          3986.469
        55   01 Jun 2027 23:33:31.743   01 Jun 2027 23:34:05.640            33.897               Magadan1          1059.281
        56   01 Jun 2027 23:34:15.010   01 Jun 2027 23:34:22.399             7.389               Magadan2           230.906
        57   01 Jun 2027 23:34:38.886   01 Jun 2027 23:35:09.884            30.998               Magadan1           968.687
        58   01 Jun 2027 23:36:00.000   01 Jun 2027 23:36:08.512             8.513               Magadan1           266.031
        59   01 Jun 2027 23:36:39.586   01 Jun 2027 23:37:40.882            61.296                Irkutsk          1915.500
        60   01 Jun 2027 23:40:03.129   01 Jun 2027 23:40:35.406            32.277                Irkutsk          1008.656
        61   01 Jun 2027 23:42:19.722   01 Jun 2027 23:42:52.941            33.219                Irkutsk          1038.094
        62   01 Jun 2027 23:45:21.620   01 Jun 2027 23:46:24.769            63.149                Irkutsk          1973.406
        63   01 Jun 2027 23:55:55.383   01 Jun 2027 23:56:01.723             6.340                Sumatra           198.125
        64   01 Jun 2027 23:56:27.508   01 Jun 2027 23:57:18.624            51.116                Sumatra          1597.375
        65   02 Jun 2027 00:00:28.294   02 Jun 2027 00:01:16.278            47.984                Sumatra          1499.500
        66   02 Jun 2027 00:32:37.928   02 Jun 2027 00:33:25.407            47.479            RioGallegos          1483.719
        67   02 Jun 2027 01:05:06.365   02 Jun 2027 01:05:46.363            39.998                Anadyr1          1249.938
        68   02 Jun 2027 01:05:46.363   02 Jun 2027 01:06:27.760            41.397                Anadyr2          1293.656
        69   02 Jun 2027 01:07:29.788   02 Jun 2027 01:07:39.654             9.866                Anadyr1           308.312
        70   02 Jun 2027 01:07:39.654   02 Jun 2027 01:07:49.168             9.514                Anadyr2           297.312
        71   02 Jun 2027 01:07:58.321   02 Jun 2027 01:09:45.727           107.406                Norilsk          3356.438
        72   02 Jun 2027 01:10:28.077   02 Jun 2027 01:10:36.338             8.261               Magadan2           258.156
        73   02 Jun 2027 01:10:59.740   02 Jun 2027 01:11:49.608            49.868               Magadan2          1558.375
        74   02 Jun 2027 01:11:51.354   02 Jun 2027 01:12:20.333            28.979                Irkutsk           905.594
        75   02 Jun 2027 01:12:43.171   02 Jun 2027 01:12:59.927            16.756                Novosib           523.625
        76   02 Jun 2027 01:13:15.168   02 Jun 2027 01:13:27.027            11.859                Novosib           370.594
        77   02 Jun 2027 01:13:51.133   02 Jun 2027 01:14:42.651            51.518                Irkutsk          1609.938
        78   02 Jun 2027 01:18:14.778   02 Jun 2027 01:19:03.053            48.275                Novosib          1508.594
        79   02 Jun 2027 01:23:23.023   02 Jun 2027 01:23:44.227            21.204                Irkutsk           662.625
        80   02 Jun 2027 01:25:10.618   02 Jun 2027 01:26:10.903            60.285                  Delhi          1883.906
        81   02 Jun 2027 01:30:36.132   02 Jun 2027 01:31:13.563            37.431                Sumatra          1169.719
        82   02 Jun 2027 01:37:05.109   02 Jun 2027 01:37:36.143            31.034                Sumatra           969.813
        83   02 Jun 2027 02:01:49.930   02 Jun 2027 02:02:18.777            28.847            RioGallegos           901.469
        84   02 Jun 2027 02:04:24.485   02 Jun 2027 02:04:55.638            31.153            RioGallegos           973.531
        85   02 Jun 2027 02:10:52.505   02 Jun 2027 02:11:18.262            25.757            RioGallegos           804.906
        86   02 Jun 2027 02:40:54.514   02 Jun 2027 02:41:04.691            10.177                Anadyr2           318.031
        87   02 Jun 2027 02:41:50.330   02 Jun 2027 02:41:58.453             8.123                Anadyr2           253.844
        88   02 Jun 2027 02:43:01.697   02 Jun 2027 02:43:48.415            46.718                Anadyr2          1459.937
        89   02 Jun 2027 02:43:59.379   02 Jun 2027 02:44:24.187            24.808                Norilsk           775.250
        90   02 Jun 2027 02:44:32.493   02 Jun 2027 02:45:00.560            28.067               Magadan2           877.094
        91   02 Jun 2027 02:45:11.594   02 Jun 2027 02:45:16.728             5.134                Norilsk           160.438
        92   02 Jun 2027 02:46:33.951   02 Jun 2027 02:47:48.639            74.688              Murmansk1          2334.000
        93   02 Jun 2027 02:47:50.765   02 Jun 2027 02:48:17.454            26.689                Novosib           834.031
        94   02 Jun 2027 02:48:39.843   02 Jun 2027 02:49:39.332            59.489                Novosib          1859.031
        95   02 Jun 2027 02:52:20.103   02 Jun 2027 02:52:37.779            17.676                Irkutsk           552.375
        96   02 Jun 2027 02:54:02.578   02 Jun 2027 02:54:24.873            22.295                Irkutsk           696.719
        97   02 Jun 2027 02:57:00.518   02 Jun 2027 02:57:59.098            58.580                Irkutsk          1830.625
        98   02 Jun 2027 03:37:40.164   02 Jun 2027 03:39:56.974           136.810            RioGallegos          4275.313
        99   02 Jun 2027 03:40:53.529   02 Jun 2027 03:42:35.342           101.813            RioGallegos          3181.656
       100   02 Jun 2027 04:27:35.800   02 Jun 2027 04:28:31.096            55.296                Irkutsk          1728.000
       101   02 Jun 2027 04:29:37.168   02 Jun 2027 04:30:44.515            67.347                Novosib          2104.594
       102   02 Jun 2027 04:30:48.574   02 Jun 2027 04:33:18.424           149.850                Novosib          4682.813
       103   02 Jun 2027 04:35:02.377   02 Jun 2027 04:37:29.763           147.386                  Delhi          4605.813
       104   02 Jun 2027 06:08:45.309   02 Jun 2027 06:09:00.406            15.097                 Moscow           471.781
       105   02 Jun 2027 06:09:14.033   02 Jun 2027 06:09:51.944            37.911                 Moscow          1184.719
       106   02 Jun 2027 07:29:02.732   02 Jun 2027 07:30:48.365           105.633                Anadyr2          3301.031
       107   02 Jun 2027 09:05:11.241   02 Jun 2027 09:06:49.429            98.188                Anadyr1          3068.375
       108   02 Jun 2027 09:07:58.124   02 Jun 2027 09:10:07.384           129.260                Anadyr1          4039.375
       109   02 Jun 2027 10:42:06.320   02 Jun 2027 10:42:31.922            25.602                Irkutsk           800.063
       110   02 Jun 2027 10:42:43.561   02 Jun 2027 10:43:32.312            48.751                Novosib          1523.469
       111   02 Jun 2027 10:44:11.290   02 Jun 2027 10:44:40.094            28.804                Irkutsk           900.125
       112   02 Jun 2027 10:45:03.030   02 Jun 2027 10:45:25.169            22.139                Norilsk           691.844
       113   02 Jun 2027 10:45:27.049   02 Jun 2027 10:45:45.647            18.598                Irkutsk           581.187
       114   02 Jun 2027 10:45:58.410   02 Jun 2027 10:46:02.553             4.143                Norilsk           129.469
       115   02 Jun 2027 10:46:06.407   02 Jun 2027 10:46:27.286            20.879                Novosib           652.469
       116   02 Jun 2027 11:20:54.080   02 Jun 2027 11:22:03.779            69.699            RioGallegos          2178.094
       117   02 Jun 2027 11:56:42.681   02 Jun 2027 11:57:23.846            41.165                Sumatra          1286.406
       118   02 Jun 2027 12:02:34.319   02 Jun 2027 12:03:19.805            45.486                Sumatra          1421.438
       119   02 Jun 2027 12:09:17.983   02 Jun 2027 12:10:22.739            64.756                Irkutsk          2023.625
       120   02 Jun 2027 12:15:00.696   02 Jun 2027 12:15:17.514            16.818                Norilsk           525.563
       121   02 Jun 2027 12:20:28.146   02 Jun 2027 12:20:37.200             9.054                Norilsk           282.938
       122   02 Jun 2027 12:23:01.383   02 Jun 2027 12:23:04.210             2.827                Norilsk            88.344
       123   02 Jun 2027 12:23:16.543   02 Jun 2027 12:23:46.166            29.623                Norilsk           925.719
       124   02 Jun 2027 12:58:06.221   02 Jun 2027 12:58:44.082            37.861            RioGallegos          1183.156
       125   02 Jun 2027 12:59:38.883   02 Jun 2027 13:01:50.868           131.985            RioGallegos          4124.531
       126   02 Jun 2027 13:32:20.554   02 Jun 2027 13:34:08.677           108.123                Sumatra          3378.844
       127   02 Jun 2027 13:36:31.322   02 Jun 2027 13:37:35.885            64.563                Sumatra          2017.594
       128   02 Jun 2027 13:47:38.374   02 Jun 2027 13:50:10.679           152.305                Irkutsk          4759.531
       129   02 Jun 2027 15:17:20.464   02 Jun 2027 15:22:14.938           294.474                  Delhi          9202.312
       130   02 Jun 2027 15:25:46.577   02 Jun 2027 15:27:35.691           109.114                Novosib          3409.812
       131   02 Jun 2027 15:31:12.026   02 Jun 2027 15:31:58.297            46.271                Novosib          1445.969
       132   02 Jun 2027 17:00:30.621   02 Jun 2027 17:02:08.056            97.435                 Moscow          3044.844
       133   02 Jun 2027 17:03:33.008   02 Jun 2027 17:04:30.760            57.752                 Moscow          1804.750
       134   02 Jun 2027 17:11:03.783   02 Jun 2027 17:13:52.119           168.336                Norilsk          5260.500
       135   02 Jun 2027 18:13:56.491   02 Jun 2027 18:14:33.013            36.522               CapeTown          1141.313
       136   02 Jun 2027 18:16:35.014   02 Jun 2027 18:16:47.179            12.165               CapeTown           380.156
       137   02 Jun 2027 18:16:56.232   02 Jun 2027 18:17:35.676            39.444               CapeTown          1232.625
       138   02 Jun 2027 18:25:19.633   02 Jun 2027 18:25:36.555            16.922               CapeTown           528.813
       139   02 Jun 2027 18:39:56.383   02 Jun 2027 18:40:57.633            61.250                 Moscow          1914.063
       140   02 Jun 2027 18:41:02.993   02 Jun 2027 18:43:44.560           161.567                 Moscow          5048.969
       141   02 Jun 2027 18:50:26.013   02 Jun 2027 18:51:23.907            57.894              Murmansk2          1809.187
       142   02 Jun 2027 19:50:28.421   02 Jun 2027 19:51:34.203            65.782               CapeTown          2055.688
       143   02 Jun 2027 19:53:45.409   02 Jun 2027 19:55:23.235            97.826               CapeTown          3057.063
       144   02 Jun 2027 19:59:56.258   02 Jun 2027 20:00:20.739            24.481               CapeTown           765.031
       145   02 Jun 2027 20:22:55.726   02 Jun 2027 20:27:46.808           291.082              Murmansk1          9096.313
       146   02 Jun 2027 20:38:47.007   02 Jun 2027 20:38:58.454            11.447               Magadan1           357.719
       147   02 Jun 2027 20:39:35.084   02 Jun 2027 20:40:03.729            28.645               Magadan2           895.156
       148   02 Jun 2027 22:06:16.029   02 Jun 2027 22:10:02.583           226.554                Anadyr1          7079.812
       149   02 Jun 2027 22:10:07.262   02 Jun 2027 22:11:27.143            79.881                Anadyr2          2496.281
       150   02 Jun 2027 22:11:48.200   02 Jun 2027 22:13:38.418           110.218               Magadan2          3444.313
       151   02 Jun 2027 22:13:46.347   02 Jun 2027 22:14:05.487            19.140               Magadan1           598.125
       152   02 Jun 2027 22:19:21.960   02 Jun 2027 22:20:00.393            38.433               Magadan2          1201.031
       153   02 Jun 2027 23:01:05.266   02 Jun 2027 23:02:56.161           110.895            RioGallegos          3465.469
       154   02 Jun 2027 23:03:23.316   02 Jun 2027 23:04:19.427            56.111            RioGallegos          1753.469
       155   02 Jun 2027 23:07:30.778   02 Jun 2027 23:07:31.974             1.196            RioGallegos            37.375
       156   02 Jun 2027 23:10:17.002   02 Jun 2027 23:10:27.083            10.081            RioGallegos           315.031
       157   02 Jun 2027 23:41:58.827   02 Jun 2027 23:43:15.558            76.731                Anadyr1          2397.844
       158   02 Jun 2027 23:44:05.450   02 Jun 2027 23:45:44.270            98.820                Norilsk          3088.125
       159   02 Jun 2027 23:46:29.690   02 Jun 2027 23:47:53.941            84.251               Magadan2          2632.844
       160   02 Jun 2027 23:48:29.071   02 Jun 2027 23:49:33.037            63.966                Irkutsk          1998.937
       161   03 Jun 2027 00:02:30.277   03 Jun 2027 00:05:40.322           190.045                Sumatra          5938.906
       162   03 Jun 2027 00:40:07.275   03 Jun 2027 00:40:23.737            16.462            RioGallegos           514.438
       163   03 Jun 2027 00:41:08.746   03 Jun 2027 00:41:46.623            37.877            RioGallegos          1183.656
       164   03 Jun 2027 01:16:56.792   03 Jun 2027 01:17:47.593            50.801                Anadyr2          1587.531
       165   03 Jun 2027 01:18:08.674   03 Jun 2027 01:18:40.417            31.743                Anadyr2           991.969
       166   03 Jun 2027 01:18:40.417   03 Jun 2027 01:18:44.509             4.092                Anadyr1           127.875
       167   03 Jun 2027 01:19:09.101   03 Jun 2027 01:19:25.264            16.163                Anadyr1           505.094
       168   03 Jun 2027 01:20:00.632   03 Jun 2027 01:21:18.348            77.716                Norilsk          2428.625
       169   03 Jun 2027 01:21:33.166   03 Jun 2027 01:21:47.386            14.220                Norilsk           444.375
       170   03 Jun 2027 01:22:26.749   03 Jun 2027 01:22:42.474            15.725               Magadan2           491.406
       171   03 Jun 2027 01:23:53.032   03 Jun 2027 01:25:48.348           115.316                Irkutsk          3603.625
       172   03 Jun 2027 01:25:50.865   03 Jun 2027 01:25:55.079             4.214                Novosib           131.688
       173   03 Jun 2027 01:26:29.049   03 Jun 2027 01:28:53.260           144.211                Novosib          4506.594
       174   03 Jun 2027 01:38:34.543   03 Jun 2027 01:39:30.939            56.396                Sumatra          1762.375
       175   03 Jun 2027 01:42:04.055   03 Jun 2027 01:42:40.599            36.544                Sumatra          1142.000
       176   03 Jun 2027 02:12:12.794   03 Jun 2027 02:12:59.833            47.039            RioGallegos          1469.969
       177   03 Jun 2027 02:17:48.456   03 Jun 2027 02:19:10.971            82.515            RioGallegos          2578.594
       178   03 Jun 2027 02:56:01.430   03 Jun 2027 02:57:42.318           100.888                Norilsk          3152.750
       179   03 Jun 2027 02:58:28.682   03 Jun 2027 02:59:03.732            35.050              Murmansk2          1095.313
       180   03 Jun 2027 02:59:47.884   03 Jun 2027 03:00:28.722            40.838                Novosib          1276.188
       181   03 Jun 2027 03:01:02.149   03 Jun 2027 03:01:14.419            12.270                Irkutsk           383.437
       182   03 Jun 2027 03:01:20.142   03 Jun 2027 03:03:49.916           149.774              Murmansk2          4680.437
       183   03 Jun 2027 03:03:49.916   03 Jun 2027 03:04:23.617            33.701              Murmansk1          1053.156
       184   03 Jun 2027 03:04:27.743   03 Jun 2027 03:05:07.086            39.343                Irkutsk          1229.469
       185   03 Jun 2027 03:05:30.844   03 Jun 2027 03:06:18.171            47.327              Murmansk1          1478.969
       186   03 Jun 2027 03:06:23.990   03 Jun 2027 03:08:25.058           121.068                Novosib          3783.375
       187   03 Jun 2027 03:09:33.361   03 Jun 2027 03:09:44.518            11.157                Irkutsk           348.656
       188   03 Jun 2027 04:41:26.219   03 Jun 2027 04:42:14.227            48.008              Murmansk1          1500.250
       189   03 Jun 2027 04:42:52.889   03 Jun 2027 04:44:10.434            77.545                 Moscow          2423.281
       190   03 Jun 2027 04:44:11.876   03 Jun 2027 04:45:41.746            89.870                Novosib          2808.438
       191   03 Jun 2027 04:45:45.717   03 Jun 2027 04:45:50.309             4.592              Murmansk2           143.500
       192   03 Jun 2027 04:46:18.881   03 Jun 2027 04:46:23.569             4.688                Novosib           146.500
       193   03 Jun 2027 05:02:27.019   03 Jun 2027 05:05:24.798           177.779               CapeTown          5555.594
       194   03 Jun 2027 05:59:19.687   03 Jun 2027 05:59:49.650            29.963                Anadyr2           936.344
       195   03 Jun 2027 06:20:26.577   03 Jun 2027 06:20:59.840            33.263              Murmansk1          1039.469
       196   03 Jun 2027 06:37:32.023   03 Jun 2027 06:39:07.301            95.278               CapeTown          2977.438
       197   03 Jun 2027 06:42:12.575   03 Jun 2027 06:42:15.810             3.235               CapeTown           101.094
       198   03 Jun 2027 07:40:13.076   03 Jun 2027 07:40:29.149            16.073               Magadan2           502.281
       199   03 Jun 2027 07:40:44.977   03 Jun 2027 07:41:09.423            24.446               Magadan1           763.937
       200   03 Jun 2027 07:41:14.419   03 Jun 2027 07:42:25.055            70.636               Magadan2          2207.375
       201   03 Jun 2027 07:42:33.970   03 Jun 2027 07:42:56.328            22.358                Anadyr2           698.687
       202   03 Jun 2027 07:42:56.328   03 Jun 2027 07:43:01.616             5.288                Anadyr1           165.250
       203   03 Jun 2027 07:43:56.821   03 Jun 2027 07:44:45.658            48.837                Anadyr2          1526.156
       204   03 Jun 2027 09:14:53.865   03 Jun 2027 09:16:29.196            95.331                Anadyr2          2979.094
       205   03 Jun 2027 09:17:36.719   03 Jun 2027 09:17:55.689            18.970                Anadyr2           592.812
       206   03 Jun 2027 09:18:12.640   03 Jun 2027 09:18:38.953            26.313               Magadan1           822.281
       207   03 Jun 2027 09:18:48.400   03 Jun 2027 09:19:43.592            55.192                Anadyr2          1724.750
       208   03 Jun 2027 09:59:42.687   03 Jun 2027 10:00:34.034            51.347            RioGallegos          1604.594
       209   03 Jun 2027 10:51:41.628   03 Jun 2027 10:53:23.784           102.156               Magadan2          3192.375
       210   03 Jun 2027 10:54:17.603   03 Jun 2027 10:57:49.852           212.249               Magadan2          6632.781
       211   03 Jun 2027 10:58:15.149   03 Jun 2027 10:58:39.625            24.476                Norilsk           764.875
       212   03 Jun 2027 11:32:52.667   03 Jun 2027 11:34:02.015            69.348            RioGallegos          2167.125
       213   03 Jun 2027 12:08:19.902   03 Jun 2027 12:08:53.322            33.420                Sumatra          1044.375
       214   03 Jun 2027 12:10:26.709   03 Jun 2027 12:10:38.647            11.938                Sumatra           373.062
       215   03 Jun 2027 12:19:22.552   03 Jun 2027 12:19:48.103            25.551                Sumatra           798.469
       216   03 Jun 2027 12:21:23.693   03 Jun 2027 12:23:18.030           114.337                Irkutsk          3573.031
       217   03 Jun 2027 12:27:18.391   03 Jun 2027 12:27:19.192             0.801                Norilsk            25.031
       218   03 Jun 2027 12:27:34.307   03 Jun 2027 12:28:11.176            36.869                Norilsk          1152.156
       219   03 Jun 2027 13:10:37.664   03 Jun 2027 13:12:11.720            94.056            RioGallegos          2939.250
       220   03 Jun 2027 13:13:49.657   03 Jun 2027 13:14:37.110            47.453            RioGallegos          1482.906
       221   03 Jun 2027 13:44:51.176   03 Jun 2027 13:48:40.684           229.508                Sumatra          7172.125
       222   03 Jun 2027 14:00:23.944   03 Jun 2027 14:02:04.325           100.381                Irkutsk          3136.906
       223   03 Jun 2027 14:05:39.068   03 Jun 2027 14:07:04.338            85.270                Irkutsk          2664.687
       224   03 Jun 2027 15:30:07.270   03 Jun 2027 15:31:11.103            63.833                  Delhi          1994.781
       225   03 Jun 2027 15:32:48.178   03 Jun 2027 15:34:43.102           114.924                  Delhi          3591.375
       226   03 Jun 2027 15:38:37.584   03 Jun 2027 15:42:29.329           231.745                Novosib          7242.031
       227   03 Jun 2027 17:12:43.328   03 Jun 2027 17:12:45.985             2.657                 Moscow            83.031
       228   03 Jun 2027 17:13:08.071   03 Jun 2027 17:14:07.604            59.533                 Moscow          1860.406
       229   03 Jun 2027 17:16:11.926   03 Jun 2027 17:16:28.887            16.961              Murmansk2           530.031
       230   03 Jun 2027 17:17:08.176   03 Jun 2027 17:17:35.452            27.276              Murmansk1           852.375
       231   03 Jun 2027 17:18:39.707   03 Jun 2027 17:19:08.795            29.088              Murmansk1           909.000
       232   03 Jun 2027 17:22:57.773   03 Jun 2027 17:24:33.698            95.925              Murmansk2          2997.656
       233   03 Jun 2027 17:31:26.679   03 Jun 2027 17:32:04.050            37.371                Anadyr2          1167.844
       234   03 Jun 2027 17:37:10.674   03 Jun 2027 17:37:51.771            41.097                Anadyr1          1284.281
       235   03 Jun 2027 18:25:52.352   03 Jun 2027 18:26:44.061            51.709               CapeTown          1615.906
       236   03 Jun 2027 18:32:48.231   03 Jun 2027 18:33:27.690            39.459               CapeTown          1233.094
       237   03 Jun 2027 18:52:57.392   03 Jun 2027 18:56:22.908           205.516                 Moscow          6422.375
       238   03 Jun 2027 18:58:47.075   03 Jun 2027 18:59:18.688            31.613              Murmansk1           987.906
       239   03 Jun 2027 19:03:57.070   03 Jun 2027 19:04:38.476            41.406              Murmansk1          1293.938
       240   03 Jun 2027 19:15:27.382   03 Jun 2027 19:15:38.929            11.547                Anadyr2           360.844
       241   03 Jun 2027 20:02:51.931   03 Jun 2027 20:03:40.733            48.802               CapeTown          1525.063
       242   03 Jun 2027 20:04:45.514   03 Jun 2027 20:06:33.716           108.202               CapeTown          3381.312
       243   03 Jun 2027 20:11:16.265   03 Jun 2027 20:11:38.161            21.896               CapeTown           684.250
       244   03 Jun 2027 20:36:04.055   03 Jun 2027 20:39:22.756           198.701              Murmansk2          6209.406
       245   03 Jun 2027 20:44:54.940   03 Jun 2027 20:46:01.929            66.989               Magadan1          2093.406
       246   03 Jun 2027 20:49:44.428   03 Jun 2027 20:50:07.015            22.587               Magadan1           705.844
       247   03 Jun 2027 20:52:01.373   03 Jun 2027 20:52:52.004            50.631               Magadan1          1582.219
       248   03 Jun 2027 22:18:17.273   03 Jun 2027 22:23:24.136           306.863                Anadyr1          9589.469
       249   03 Jun 2027 22:23:32.095   03 Jun 2027 22:24:29.429            57.334                Norilsk          1791.688
       250   03 Jun 2027 22:24:56.148   03 Jun 2027 22:25:13.437            17.289               Magadan2           540.281
       251   03 Jun 2027 22:25:40.166   03 Jun 2027 22:26:15.270            35.104               Magadan2          1097.000
       252   03 Jun 2027 22:30:37.365   03 Jun 2027 22:31:01.798            24.433               Magadan1           763.531
       253   03 Jun 2027 23:12:50.031   03 Jun 2027 23:14:53.177           123.146            RioGallegos          3848.313
       254   03 Jun 2027 23:14:58.600   03 Jun 2027 23:15:35.608            37.008            RioGallegos          1156.500
       255   03 Jun 2027 23:21:23.584   03 Jun 2027 23:22:15.074            51.490            RioGallegos          1609.062
       256   03 Jun 2027 23:53:56.526   03 Jun 2027 23:55:31.083            94.557                Anadyr1          2954.906
       257   03 Jun 2027 23:56:05.872   03 Jun 2027 23:57:45.635            99.763                Norilsk          3117.594
       258   03 Jun 2027 23:58:03.843   03 Jun 2027 23:58:20.004            16.161               Magadan2           505.031
       259   03 Jun 2027 23:58:56.352   03 Jun 2027 23:59:37.501            41.149               Magadan1          1285.906
       260   04 Jun 2027 00:00:21.297   04 Jun 2027 00:01:41.784            80.487                Irkutsk          2515.219
       261   04 Jun 2027 00:02:44.214   04 Jun 2027 00:03:26.720            42.506                Novosib          1328.312
       262   04 Jun 2027 00:14:11.363   04 Jun 2027 00:14:51.143            39.780                Sumatra          1243.125
       263   04 Jun 2027 00:15:19.090   04 Jun 2027 00:16:06.332            47.242                Sumatra          1476.313
       264   04 Jun 2027 00:21:32.102   04 Jun 2027 00:21:41.642             9.540                Sumatra           298.125
       265   04 Jun 2027 00:24:19.001   04 Jun 2027 00:26:01.199           102.198                Sumatra          3193.688
       266   04 Jun 2027 01:00:37.504   04 Jun 2027 01:00:52.628            15.124            RioGallegos           472.625
       267   04 Jun 2027 01:28:45.881   04 Jun 2027 01:29:13.695            27.814                Anadyr2           869.187
       268   04 Jun 2027 01:29:48.896   04 Jun 2027 01:30:46.657            57.761                Anadyr1          1805.031
       269   04 Jun 2027 01:30:55.480   04 Jun 2027 01:31:01.555             6.075                Anadyr1           189.844
       270   04 Jun 2027 01:31:03.563   04 Jun 2027 01:31:09.688             6.125                Anadyr1           191.406
       271   04 Jun 2027 01:32:03.009   04 Jun 2027 01:33:50.075           107.066                Norilsk          3345.812
       272   04 Jun 2027 01:33:58.529   04 Jun 2027 01:34:17.084            18.555               Magadan2           579.844
       273   04 Jun 2027 01:35:55.545   04 Jun 2027 01:37:46.875           111.330                Irkutsk          3479.062
       274   04 Jun 2027 01:38:18.525   04 Jun 2027 01:38:23.346             4.821                Novosib           150.656
       275   04 Jun 2027 01:39:20.596   04 Jun 2027 01:40:49.388            88.792                Irkutsk          2774.750
       276   04 Jun 2027 01:49:02.138   04 Jun 2027 01:49:42.779            40.641                  Delhi          1270.031
       277   04 Jun 2027 01:51:11.023   04 Jun 2027 01:51:34.598            23.575                Sumatra           736.719
       278   04 Jun 2027 01:52:47.418   04 Jun 2027 01:54:39.355           111.937                Sumatra          3498.031
       279   04 Jun 2027 01:57:59.579   04 Jun 2027 01:58:47.651            48.072                Sumatra          1502.250
       280   04 Jun 2027 02:32:04.320   04 Jun 2027 02:32:51.155            46.835            RioGallegos          1463.594
       281   04 Jun 2027 03:12:11.291   04 Jun 2027 03:12:12.355             1.064               Magadan2            33.250
       282   04 Jun 2027 03:13:17.447   04 Jun 2027 03:13:22.475             5.028                Norilsk           157.125
       283   04 Jun 2027 03:13:44.310   04 Jun 2027 03:13:47.146             2.836                Norilsk            88.625
       284   04 Jun 2027 03:13:50.337   04 Jun 2027 03:15:11.683            81.346                Irkutsk          2542.063
       285   04 Jun 2027 03:15:30.161   04 Jun 2027 03:16:15.646            45.485                Novosib          1421.406
       286   04 Jun 2027 03:16:31.619   04 Jun 2027 03:18:21.020           109.401                Novosib          3418.781
       287   04 Jun 2027 03:18:40.717   04 Jun 2027 03:18:42.333             1.616                Norilsk            50.500
       288   04 Jun 2027 03:19:16.852   04 Jun 2027 03:19:24.567             7.715                Norilsk           241.094
       289   04 Jun 2027 03:19:35.694   04 Jun 2027 03:20:26.626            50.932                Novosib          1591.625
       290   04 Jun 2027 03:21:10.922   04 Jun 2027 03:21:57.757            46.835                Irkutsk          1463.594
       291   04 Jun 2027 04:35:43.635   04 Jun 2027 04:36:07.372            23.737                Anadyr1           741.781
       292   04 Jun 2027 04:53:33.803   04 Jun 2027 04:55:26.307           112.504                Novosib          3515.750
       293   04 Jun 2027 04:55:38.800   04 Jun 2027 04:57:52.646           133.846                Novosib          4182.688
       294   04 Jun 2027 04:58:47.082   04 Jun 2027 04:59:06.970            19.888                 Moscow           621.500
       295   04 Jun 2027 05:14:03.611   04 Jun 2027 05:15:12.344            68.733               CapeTown          2147.906
       296   04 Jun 2027 05:16:07.218   04 Jun 2027 05:17:14.739            67.521               CapeTown          2110.031
       297   04 Jun 2027 06:10:09.425   04 Jun 2027 06:10:37.113            27.688                Anadyr2           865.250
       298   04 Jun 2027 06:17:39.790   04 Jun 2027 06:17:52.610            12.820                Anadyr1           400.625
       299   04 Jun 2027 06:18:29.598   04 Jun 2027 06:18:30.659             1.061               Magadan2            33.156
       300   04 Jun 2027 06:18:49.013   04 Jun 2027 06:19:41.468            52.455                Anadyr2          1639.219
       301   04 Jun 2027 06:32:23.971   04 Jun 2027 06:32:57.504            33.533              Murmansk2          1047.906
       302   04 Jun 2027 06:49:51.798   04 Jun 2027 06:50:36.612            44.814               CapeTown          1400.438
       303   04 Jun 2027 06:52:05.293   04 Jun 2027 06:54:16.750           131.457               CapeTown          4108.031
       304   04 Jun 2027 07:52:41.334   04 Jun 2027 07:52:47.483             6.149               Magadan1           192.156
       305   04 Jun 2027 07:53:03.949   04 Jun 2027 07:54:19.382            75.433                Anadyr2          2357.281
       306   04 Jun 2027 07:54:25.252   04 Jun 2027 07:54:38.888            13.636               Magadan2           426.125
       307   04 Jun 2027 07:55:03.233   04 Jun 2027 07:55:11.713             8.480                Anadyr2           265.000
       308   04 Jun 2027 07:56:44.805   04 Jun 2027 07:56:45.868             1.063                Anadyr1            33.219
       309   04 Jun 2027 07:57:05.481   04 Jun 2027 07:57:47.731            42.250               Magadan1          1320.313
       310   04 Jun 2027 08:09:14.500   04 Jun 2027 08:10:07.516            53.016                 Moscow          1656.750
       311   04 Jun 2027 09:26:58.835   04 Jun 2027 09:27:05.656             6.821                Anadyr2           213.156
       312   04 Jun 2027 09:28:16.217   04 Jun 2027 09:28:20.362             4.145                Anadyr1           129.531
       313   04 Jun 2027 09:28:38.357   04 Jun 2027 09:29:36.316            57.959               Magadan1          1811.219
       314   04 Jun 2027 09:30:35.134   04 Jun 2027 09:30:35.947             0.813               Magadan1            25.406
       315   04 Jun 2027 09:30:40.467   04 Jun 2027 09:31:31.642            51.175               Magadan2          1599.219
       316   04 Jun 2027 09:32:15.236   04 Jun 2027 09:32:36.793            21.557               Magadan2           673.656
       317   04 Jun 2027 10:10:26.656   04 Jun 2027 10:10:43.076            16.420            RioGallegos           513.125
       318   04 Jun 2027 10:11:49.104   04 Jun 2027 10:12:41.876            52.772            RioGallegos          1649.125
       319   04 Jun 2027 11:02:31.269   04 Jun 2027 11:02:54.097            22.828               Magadan1           713.375
       320   04 Jun 2027 11:03:24.706   04 Jun 2027 11:05:22.129           117.423               Magadan1          3669.469
       321   04 Jun 2027 11:05:22.129   04 Jun 2027 11:05:33.029            10.900               Magadan2           340.625
       322   04 Jun 2027 11:06:11.311   04 Jun 2027 11:09:39.851           208.540               Magadan2          6516.875
       323   04 Jun 2027 11:10:09.613   04 Jun 2027 11:10:29.557            19.944                Norilsk           623.250
       324   04 Jun 2027 11:44:54.595   04 Jun 2027 11:45:58.870            64.275            RioGallegos          2008.594
       325   04 Jun 2027 11:46:08.646   04 Jun 2027 11:47:05.175            56.529            RioGallegos          1766.531
       326   04 Jun 2027 12:32:06.506   04 Jun 2027 12:32:15.187             8.681                  Delhi           271.281
       327   04 Jun 2027 12:33:32.902   04 Jun 2027 12:35:13.258           100.356                Irkutsk          3136.125
       328   04 Jun 2027 12:37:28.210   04 Jun 2027 12:37:43.215            15.005                Irkutsk           468.906
       329   04 Jun 2027 12:38:15.291   04 Jun 2027 12:39:18.837            63.546                Norilsk          1985.812
       330   04 Jun 2027 12:50:36.209   04 Jun 2027 12:50:54.271            18.062                Norilsk           564.438
       331   04 Jun 2027 13:23:15.880   04 Jun 2027 13:25:47.114           151.234            RioGallegos          4726.062
       332   04 Jun 2027 13:26:10.815   04 Jun 2027 13:28:02.794           111.979            RioGallegos          3499.344
       333   04 Jun 2027 13:57:34.940   04 Jun 2027 13:57:38.614             3.674                Sumatra           114.813
       334   04 Jun 2027 14:00:36.580   04 Jun 2027 14:02:16.529            99.949                Sumatra          3123.406
       335   04 Jun 2027 14:13:20.926   04 Jun 2027 14:17:26.716           245.790                Irkutsk          7680.937
       336   04 Jun 2027 15:43:14.014   04 Jun 2027 15:47:21.165           247.151                  Delhi          7723.469
       337   04 Jun 2027 15:51:42.108   04 Jun 2027 15:54:49.245           187.137                Novosib          5848.031
       338   04 Jun 2027 17:28:07.107   04 Jun 2027 17:29:28.127            81.020                 Moscow          2531.875
       339   04 Jun 2027 17:43:14.001   04 Jun 2027 17:44:05.489            51.488                Anadyr1          1609.000
       340   04 Jun 2027 17:44:20.927   04 Jun 2027 17:44:56.721            35.794                Anadyr2          1118.562
       341   04 Jun 2027 17:45:23.634   04 Jun 2027 17:45:35.919            12.285                Anadyr2           383.906
       342   04 Jun 2027 17:46:29.009   04 Jun 2027 17:46:41.253            12.244                Anadyr2           382.625
       343   04 Jun 2027 18:37:51.220   04 Jun 2027 18:40:14.615           143.395               CapeTown          4481.094
       344   04 Jun 2027 19:06:21.887   04 Jun 2027 19:10:01.440           219.553                 Moscow          6861.031
       345   04 Jun 2027 19:10:45.252   04 Jun 2027 19:11:51.534            66.282              Murmansk1          2071.313
       346   04 Jun 2027 19:12:50.947   04 Jun 2027 19:14:16.547            85.600              Murmansk2          2675.000
       347   04 Jun 2027 20:15:23.592   04 Jun 2027 20:15:50.273            26.681               CapeTown           833.781
       348   04 Jun 2027 20:18:20.861   04 Jun 2027 20:20:22.640           121.779               CapeTown          3805.594
       349   04 Jun 2027 20:55:25.401   04 Jun 2027 20:56:06.011            40.610                Anadyr2          1269.063
       350   04 Jun 2027 20:56:12.125   04 Jun 2027 20:56:47.841            35.716                Anadyr1          1116.125
       351   04 Jun 2027 20:56:51.635   04 Jun 2027 20:57:42.245            50.610               Magadan1          1581.563
       352   04 Jun 2027 20:57:42.245   04 Jun 2027 20:58:10.077            27.832               Magadan2           869.750
       353   04 Jun 2027 20:59:07.651   04 Jun 2027 20:59:17.825            10.174                Anadyr1           317.937
       354   04 Jun 2027 20:59:26.996   04 Jun 2027 20:59:59.577            32.581               Magadan2          1018.156
       355   04 Jun 2027 21:01:08.649   04 Jun 2027 21:01:40.414            31.765               Magadan2           992.656
       356   04 Jun 2027 21:02:24.574   04 Jun 2027 21:02:44.874            20.300               Magadan2           634.375
       357   04 Jun 2027 22:30:18.276   04 Jun 2027 22:35:20.302           302.026                Anadyr2          9438.313
       358   04 Jun 2027 22:35:24.920   04 Jun 2027 22:36:47.423            82.503                Norilsk          2578.219
       359   04 Jun 2027 22:37:26.439   04 Jun 2027 22:37:42.248            15.809               Magadan2           494.031
       360   04 Jun 2027 22:38:12.107   04 Jun 2027 22:38:21.499             9.392               Magadan2           293.500
       361   04 Jun 2027 22:38:50.174   04 Jun 2027 22:39:28.120            37.946               Magadan2          1185.812
       362   04 Jun 2027 22:40:30.341   04 Jun 2027 22:41:07.966            37.625                Irkutsk          1175.781
       363   04 Jun 2027 23:24:38.740   04 Jun 2027 23:26:46.980           128.240            RioGallegos          4007.500
       364   04 Jun 2027 23:27:41.080   04 Jun 2027 23:28:01.031            19.951            RioGallegos           623.469
       365   04 Jun 2027 23:33:23.343   04 Jun 2027 23:34:06.177            42.834            RioGallegos          1338.562
       366   05 Jun 2027 00:05:53.450   05 Jun 2027 00:07:23.827            90.377                Anadyr2          2824.281
       367   05 Jun 2027 00:08:06.803   05 Jun 2027 00:09:51.617           104.814                Norilsk          3275.438
       368   05 Jun 2027 00:10:27.276   05 Jun 2027 00:10:52.090            24.814               Magadan1           775.437
       369   05 Jun 2027 00:11:07.611   05 Jun 2027 00:11:23.063            15.452               Magadan1           482.875
       370   05 Jun 2027 00:12:09.197   05 Jun 2027 00:12:30.260            21.063               Magadan1           658.219
       371   05 Jun 2027 00:13:13.471   05 Jun 2027 00:13:43.567            30.096                Irkutsk           940.500
       372   05 Jun 2027 00:13:54.595   05 Jun 2027 00:15:51.303           116.708                Novosib          3647.125
       373   05 Jun 2027 00:25:59.265   05 Jun 2027 00:28:35.035           155.770                Sumatra          4867.813
       374   05 Jun 2027 01:05:45.837   05 Jun 2027 01:06:07.233            21.396            RioGallegos           668.625
       375   05 Jun 2027 01:09:55.698   05 Jun 2027 01:10:10.135            14.437            RioGallegos           451.156
       376   05 Jun 2027 01:10:21.153   05 Jun 2027 01:10:37.729            16.576            RioGallegos           518.000
       377   05 Jun 2027 01:40:33.646   05 Jun 2027 01:41:50.246            76.600                Anadyr2          2393.750
       378   05 Jun 2027 01:41:50.246   05 Jun 2027 01:42:43.226            52.980                Anadyr1          1655.625
       379   05 Jun 2027 01:44:05.419   05 Jun 2027 01:45:23.842            78.423                Norilsk          2450.719
       380   05 Jun 2027 01:45:26.619   05 Jun 2027 01:45:43.001            16.382               Magadan2           511.937
       381   05 Jun 2027 01:47:58.853   05 Jun 2027 01:49:46.526           107.673                Irkutsk          3364.781
       382   05 Jun 2027 01:50:11.507   05 Jun 2027 01:50:37.840            26.333                Novosib           822.906
       383   05 Jun 2027 01:51:14.745   05 Jun 2027 01:51:53.275            38.530                Novosib          1204.062
       384   05 Jun 2027 01:55:44.820   05 Jun 2027 01:56:03.558            18.738                  Delhi           585.562
       385   05 Jun 2027 01:56:26.198   05 Jun 2027 01:57:06.087            39.889                  Delhi          1246.531
       386   05 Jun 2027 02:04:04.408   05 Jun 2027 02:06:32.318           147.910                Sumatra          4622.188
       387   05 Jun 2027 02:37:54.292   05 Jun 2027 02:39:22.102            87.810            RioGallegos          2744.063
       388   05 Jun 2027 03:27:11.212   05 Jun 2027 03:28:14.095            62.883              Murmansk1          1965.094
       389   05 Jun 2027 03:28:25.221   05 Jun 2027 03:29:10.935            45.714                Norilsk          1428.563
       390   05 Jun 2027 03:29:11.819   05 Jun 2027 03:29:34.320            22.501              Murmansk2           703.156
       391   05 Jun 2027 03:29:35.842   05 Jun 2027 03:30:41.981            66.139                Novosib          2066.844
       392   05 Jun 2027 03:30:53.059   05 Jun 2027 03:32:51.668           118.609                Irkutsk          3706.531
       393   05 Jun 2027 05:05:43.886   05 Jun 2027 05:06:21.502            37.616                 Moscow          1175.500
       394   05 Jun 2027 05:06:24.877   05 Jun 2027 05:06:30.592             5.715                 Moscow           178.594
       395   05 Jun 2027 05:06:59.689   05 Jun 2027 05:07:23.308            23.619                 Moscow           738.094
       396   05 Jun 2027 05:07:48.529   05 Jun 2027 05:09:27.067            98.538                Novosib          3079.313
       397   05 Jun 2027 05:09:38.647   05 Jun 2027 05:09:43.895             5.248                 Moscow           164.000
       398   05 Jun 2027 05:10:51.806   05 Jun 2027 05:11:05.859            14.053                 Moscow           439.156
       399   05 Jun 2027 05:25:46.103   05 Jun 2027 05:27:27.813           101.710               CapeTown          3178.438
       400   05 Jun 2027 06:29:12.743   05 Jun 2027 06:29:30.810            18.067                Anadyr2           564.594
       401   05 Jun 2027 06:29:46.372   05 Jun 2027 06:30:49.540            63.168                Anadyr2          1974.000
       402   05 Jun 2027 06:41:21.584   05 Jun 2027 06:42:15.984            54.400                 Moscow          1700.000
       403   05 Jun 2027 07:02:18.751   05 Jun 2027 07:03:05.422            46.671               CapeTown          1458.469
       404   05 Jun 2027 07:06:18.134   05 Jun 2027 07:07:24.864            66.730               CapeTown          2085.313
       405   05 Jun 2027 08:03:06.648   05 Jun 2027 08:03:22.349            15.701                Anadyr2           490.656
       406   05 Jun 2027 08:03:39.411   05 Jun 2027 08:03:48.936             9.525               Magadan2           297.656
       407   05 Jun 2027 08:03:50.394   05 Jun 2027 08:04:02.744            12.350               Magadan2           385.938
       408   05 Jun 2027 08:04:04.239   05 Jun 2027 08:05:03.923            59.684                Anadyr2          1865.125
       409   05 Jun 2027 08:05:03.923   05 Jun 2027 08:06:12.248            68.325                Anadyr1          2135.156
       410   05 Jun 2027 08:06:24.875   05 Jun 2027 08:07:29.147            64.272               Magadan2          2008.500
       411   05 Jun 2027 08:07:35.174   05 Jun 2027 08:08:04.197            29.023               Magadan2           906.969
       412   05 Jun 2027 08:08:26.013   05 Jun 2027 08:08:43.212            17.199                Anadyr2           537.469
       413   05 Jun 2027 08:10:02.724   05 Jun 2027 08:10:09.012             6.288               Magadan2           196.500
       414   05 Jun 2027 08:21:25.252   05 Jun 2027 08:22:27.917            62.665                 Moscow          1958.281
       415   05 Jun 2027 09:38:23.331   05 Jun 2027 09:38:46.980            23.649               Magadan1           739.031
       416   05 Jun 2027 09:38:58.240   05 Jun 2027 09:40:07.747            69.507                Anadyr2          2172.094
       417   05 Jun 2027 09:40:07.747   05 Jun 2027 09:41:17.015            69.268                Anadyr1          2164.625
       418   05 Jun 2027 09:41:22.835   05 Jun 2027 09:42:41.583            78.748               Magadan1          2460.875
       419   05 Jun 2027 09:42:43.666   05 Jun 2027 09:46:16.573           212.907                Anadyr2          6653.344
       420   05 Jun 2027 11:14:59.808   05 Jun 2027 11:15:53.728            53.920               Magadan2          1685.000
       421   05 Jun 2027 11:17:52.515   05 Jun 2027 11:21:26.131           213.616               Magadan1          6675.500
       422   05 Jun 2027 11:21:49.497   05 Jun 2027 11:21:54.025             4.528                Norilsk           141.500
       423   05 Jun 2027 11:22:35.014   05 Jun 2027 11:22:48.516            13.502                Novosib           421.938
       424   05 Jun 2027 11:56:59.968   05 Jun 2027 11:57:54.098            54.130            RioGallegos          1691.562
       425   05 Jun 2027 12:00:12.500   05 Jun 2027 12:00:39.868            27.368            RioGallegos           855.250
       426   05 Jun 2027 12:31:55.524   05 Jun 2027 12:32:35.678            40.154                Sumatra          1254.812
       427   05 Jun 2027 12:36:56.081   05 Jun 2027 12:38:01.257            65.176                Sumatra          2036.750
       428   05 Jun 2027 12:45:45.801   05 Jun 2027 12:47:11.655            85.854                Irkutsk          2682.938
       429   05 Jun 2027 12:48:33.792   05 Jun 2027 12:49:11.057            37.265                Irkutsk          1164.531
       430   05 Jun 2027 12:51:18.746   05 Jun 2027 12:51:38.884            20.138                Norilsk           629.312
       431   05 Jun 2027 13:36:02.770   05 Jun 2027 13:37:30.398            87.628            RioGallegos          2738.375
       432   05 Jun 2027 14:10:42.364   05 Jun 2027 14:14:50.909           248.545                Sumatra          7767.031
       433   05 Jun 2027 14:23:32.982   05 Jun 2027 14:24:40.496            67.514                Novosib          2109.813
       434   05 Jun 2027 14:28:41.257   05 Jun 2027 14:28:48.178             6.921                Novosib           216.281
       435   05 Jun 2027 14:29:09.948   05 Jun 2027 14:30:27.939            77.991                Irkutsk          2437.219
       436   05 Jun 2027 14:31:22.987   05 Jun 2027 14:31:34.120            11.133                Irkutsk           347.906
       437   05 Jun 2027 15:57:15.715   05 Jun 2027 16:00:05.796           170.081                  Delhi          5315.031
       438   05 Jun 2027 16:03:52.321   05 Jun 2027 16:04:31.099            38.778              Murmansk1          1211.813
       439   05 Jun 2027 16:05:16.126   05 Jun 2027 16:08:37.353           201.227                Novosib          6288.344
       440   05 Jun 2027 16:11:49.779   05 Jun 2027 16:12:32.580            42.801                Norilsk          1337.531
       441   05 Jun 2027 17:37:19.694   05 Jun 2027 17:38:15.597            55.903                 Moscow          1746.969
       442   05 Jun 2027 17:39:27.101   05 Jun 2027 17:42:09.995           162.894                 Moscow          5090.437
       443   05 Jun 2027 17:55:05.146   05 Jun 2027 17:56:19.918            74.772                Anadyr1          2336.625
       444   05 Jun 2027 18:49:52.922   05 Jun 2027 18:52:02.266           129.344               CapeTown          4042.000
       445   05 Jun 2027 19:19:33.085   05 Jun 2027 19:24:48.412           315.327              Murmansk2          9853.969
       446   05 Jun 2027 19:26:07.745   05 Jun 2027 19:26:27.591            19.846              Murmansk2           620.188
       447   05 Jun 2027 19:34:22.451   05 Jun 2027 19:34:43.978            21.527               Magadan1           672.719
       448   05 Jun 2027 19:38:06.283   05 Jun 2027 19:38:23.712            17.429               Magadan2           544.656
       449   05 Jun 2027 19:40:24.823   05 Jun 2027 19:40:35.383            10.560               Magadan2           330.000
       450   05 Jun 2027 20:28:09.691   05 Jun 2027 20:29:46.568            96.877               CapeTown          3027.406
       451   05 Jun 2027 20:31:55.380   05 Jun 2027 20:32:48.519            53.139               CapeTown          1660.594
       452   05 Jun 2027 21:06:25.200   05 Jun 2027 21:08:07.013           101.813                Anadyr1          3181.656
       453   05 Jun 2027 21:08:13.712   05 Jun 2027 21:09:36.346            82.634                Anadyr2          2582.313
       454   05 Jun 2027 21:09:51.492   05 Jun 2027 21:11:02.700            71.208               Magadan1          2225.250
       455   05 Jun 2027 21:11:32.932   05 Jun 2027 21:11:45.717            12.785               Magadan1           399.531
       456   05 Jun 2027 21:13:09.668   05 Jun 2027 21:13:43.480            33.812               Magadan2          1056.625
       457   05 Jun 2027 21:18:14.193   05 Jun 2027 21:18:22.598             8.405               Magadan2           262.656
       458   05 Jun 2027 22:42:18.983   05 Jun 2027 22:47:01.476           282.493                Anadyr2          8827.906
       459   05 Jun 2027 22:47:07.041   05 Jun 2027 22:47:53.504            46.463               Magadan1          1451.969
       460   05 Jun 2027 22:48:04.288   05 Jun 2027 22:48:28.346            24.058               Magadan1           751.812
       461   05 Jun 2027 22:48:40.349   05 Jun 2027 22:48:57.023            16.674                Norilsk           521.062
       462   05 Jun 2027 22:49:54.492   05 Jun 2027 22:49:58.071             3.579               Magadan1           111.844
       463   05 Jun 2027 22:50:10.555   05 Jun 2027 22:50:20.599            10.044               Magadan2           313.875
       464   05 Jun 2027 22:50:37.844   05 Jun 2027 22:51:47.794            69.950                Irkutsk          2185.938
       465   05 Jun 2027 22:52:27.735   05 Jun 2027 22:53:04.980            37.245                Irkutsk          1163.906
       466   05 Jun 2027 22:55:39.333   05 Jun 2027 22:55:49.761            10.428                Irkutsk           325.875
       467   05 Jun 2027 23:36:30.397   05 Jun 2027 23:38:31.365           120.968            RioGallegos          3780.250
       468   05 Jun 2027 23:41:45.869   05 Jun 2027 23:42:32.945            47.076            RioGallegos          1471.125
       469   06 Jun 2027 00:17:49.492   06 Jun 2027 00:18:30.635            41.143                Anadyr1          1285.719
       470   06 Jun 2027 00:18:59.463   06 Jun 2027 00:19:57.173            57.710                Anadyr2          1803.437
       471   06 Jun 2027 00:20:08.134   06 Jun 2027 00:21:53.843           105.709                Norilsk          3303.406
       472   06 Jun 2027 00:22:00.500   06 Jun 2027 00:22:37.483            36.983               Magadan2          1155.719
       473   06 Jun 2027 00:23:37.985   06 Jun 2027 00:24:34.603            56.618               Magadan2          1769.312
       474   06 Jun 2027 00:24:50.790   06 Jun 2027 00:25:46.166            55.376                Irkutsk          1730.500
       475   06 Jun 2027 00:25:55.173   06 Jun 2027 00:26:52.770            57.597                Novosib          1799.906
       476   06 Jun 2027 00:31:31.364   06 Jun 2027 00:32:10.661            39.297                Novosib          1228.031
       477   06 Jun 2027 00:37:53.242   06 Jun 2027 00:40:59.745           186.503                Sumatra          5828.219
       478   06 Jun 2027 01:52:20.100   06 Jun 2027 01:53:51.604            91.504                Anadyr1          2859.500
       479   06 Jun 2027 01:54:25.122   06 Jun 2027 01:54:38.267            13.145                Anadyr2           410.781
       480   06 Jun 2027 01:56:07.835   06 Jun 2027 01:57:36.417            88.582                Norilsk          2768.187
       481   06 Jun 2027 01:57:41.252   06 Jun 2027 01:57:53.628            12.376                Norilsk           386.750
       482   06 Jun 2027 02:00:01.589   06 Jun 2027 02:02:14.464           132.875                Novosib          4152.344
