uniorb/output/strategy_4/Drop/Drop_KinoSat_110801.txt

KinoSat_110801
-------------------------
    Access    *     Start Time (UTCG)     *     Stop Time (UTCG)  *   Duration (s)        *       Station  *  Data (Mbytes)
         1   01 Jun 2027 04:15:45.680   01 Jun 2027 04:17:48.430           122.750               Magadan2          3835.938
         2   01 Jun 2027 04:17:50.347   01 Jun 2027 04:18:14.133            23.786                Norilsk           743.312
         3   01 Jun 2027 04:18:32.801   01 Jun 2027 04:20:29.085           116.284                Anadyr1          3633.875
         4   01 Jun 2027 04:58:41.239   01 Jun 2027 05:00:56.571           135.332            RioGallegos          4229.125
         5   01 Jun 2027 05:49:30.861   01 Jun 2027 05:49:39.095             8.234               Magadan2           257.312
         6   01 Jun 2027 05:49:46.870   01 Jun 2027 05:51:00.498            73.628                Irkutsk          2300.875
         7   01 Jun 2027 05:51:26.831   01 Jun 2027 05:55:33.385           246.554                Novosib          7704.812
         8   01 Jun 2027 05:55:44.534   01 Jun 2027 05:56:49.776            65.242                Norilsk          2038.812
         9   01 Jun 2027 05:57:00.319   01 Jun 2027 05:57:46.758            46.439              Murmansk1          1451.219
        10   01 Jun 2027 05:57:49.865   01 Jun 2027 05:58:17.314            27.449                Norilsk           857.781
        11   01 Jun 2027 05:58:39.832   01 Jun 2027 05:58:51.345            11.513                Norilsk           359.781
        12   01 Jun 2027 05:59:57.933   01 Jun 2027 06:00:38.983            41.050              Murmansk2          1282.812
        13   01 Jun 2027 06:31:06.106   01 Jun 2027 06:32:50.670           104.564            RioGallegos          3267.625
        14   01 Jun 2027 07:08:26.539   01 Jun 2027 07:09:00.157            33.618                Sumatra          1050.562
        15   01 Jun 2027 07:11:53.274   01 Jun 2027 07:12:12.686            19.412                Sumatra           606.625
        16   01 Jun 2027 07:25:16.666   01 Jun 2027 07:25:31.438            14.772                Irkutsk           461.625
        17   01 Jun 2027 07:27:05.843   01 Jun 2027 07:29:30.413           144.570               Magadan1          4517.813
        18   01 Jun 2027 07:29:32.872   01 Jun 2027 07:29:49.996            17.124               Magadan1           535.125
        19   01 Jun 2027 07:30:08.311   01 Jun 2027 07:31:25.452            77.141                Novosib          2410.656
        20   01 Jun 2027 07:31:42.162   01 Jun 2027 07:33:19.887            97.725                Novosib          3053.906
        21   01 Jun 2027 07:35:30.114   01 Jun 2027 07:35:47.305            17.191              Murmansk1           537.219
        22   01 Jun 2027 07:36:44.941   01 Jun 2027 07:37:06.188            21.247              Murmansk1           663.969
        23   01 Jun 2027 07:38:10.105   01 Jun 2027 07:38:14.637             4.532              Murmansk1           141.625
        24   01 Jun 2027 07:38:38.429   01 Jun 2027 07:39:02.878            24.449              Murmansk1           764.031
        25   01 Jun 2027 08:07:04.536   01 Jun 2027 08:08:08.528            63.992            RioGallegos          1999.750
        26   01 Jun 2027 08:09:45.091   01 Jun 2027 08:10:31.566            46.475            RioGallegos          1452.344
        27   01 Jun 2027 08:11:25.620   01 Jun 2027 08:12:13.705            48.085            RioGallegos          1502.656
        28   01 Jun 2027 08:41:33.868   01 Jun 2027 08:42:55.099            81.231                Sumatra          2538.469
        29   01 Jun 2027 08:45:35.987   01 Jun 2027 08:46:30.935            54.948                Sumatra          1717.125
        30   01 Jun 2027 08:51:02.603   01 Jun 2027 08:53:36.355           153.752                  Delhi          4804.750
        31   01 Jun 2027 09:04:30.259   01 Jun 2027 09:04:51.070            20.811                Novosib           650.344
        32   01 Jun 2027 09:05:03.913   01 Jun 2027 09:07:23.771           139.858                Irkutsk          4370.562
        33   01 Jun 2027 09:07:50.785   01 Jun 2027 09:09:41.228           110.443                 Moscow          3451.344
        34   01 Jun 2027 09:48:53.936   01 Jun 2027 09:50:01.799            67.863            RioGallegos          2120.719
        35   01 Jun 2027 09:50:26.495   01 Jun 2027 09:51:14.339            47.844            RioGallegos          1495.125
        36   01 Jun 2027 10:26:03.965   01 Jun 2027 10:28:40.327           156.362                  Delhi          4886.313
        37   01 Jun 2027 10:41:16.092   01 Jun 2027 10:41:38.915            22.823              Murmansk2           713.219
        38   01 Jun 2027 10:41:38.915   01 Jun 2027 10:42:41.609            62.694              Murmansk1          1959.188
        39   01 Jun 2027 10:42:55.643   01 Jun 2027 10:46:03.869           188.226                Norilsk          5882.063
        40   01 Jun 2027 12:10:07.070   01 Jun 2027 12:10:50.917            43.847                 Moscow          1370.219
        41   01 Jun 2027 12:12:03.052   01 Jun 2027 12:14:35.764           152.712                 Moscow          4772.250
        42   01 Jun 2027 12:15:08.237   01 Jun 2027 12:18:19.015           190.778              Murmansk1          5961.812
        43   01 Jun 2027 12:18:28.522   01 Jun 2027 12:18:37.085             8.563                Norilsk           267.594
        44   01 Jun 2027 12:18:54.868   01 Jun 2027 12:19:30.053            35.185                Norilsk          1099.531
        45   01 Jun 2027 12:20:36.410   01 Jun 2027 12:20:50.471            14.061                Norilsk           439.406
        46   01 Jun 2027 12:21:20.054   01 Jun 2027 12:22:26.999            66.945                Norilsk          2092.031
        47   01 Jun 2027 13:24:18.980   01 Jun 2027 13:27:55.242           216.262               CapeTown          6758.188
        48   01 Jun 2027 13:29:35.842   01 Jun 2027 13:29:48.434            12.592               CapeTown           393.500
        49   01 Jun 2027 13:50:58.313   01 Jun 2027 13:52:52.576           114.263              Murmansk1          3570.719
        50   01 Jun 2027 13:54:23.287   01 Jun 2027 13:54:58.427            35.140              Murmansk1          1098.125
        51   01 Jun 2027 13:55:08.115   01 Jun 2027 13:55:49.283            41.168              Murmansk1          1286.500
        52   01 Jun 2027 14:04:32.094   01 Jun 2027 14:09:01.172           269.078                Anadyr2          8408.688
        53   01 Jun 2027 15:00:27.979   01 Jun 2027 15:01:09.421            41.442               CapeTown          1295.063
        54   01 Jun 2027 15:30:44.719   01 Jun 2027 15:31:11.314            26.595              Murmansk1           831.094
        55   01 Jun 2027 15:32:10.818   01 Jun 2027 15:34:11.178           120.360              Murmansk2          3761.250
        56   01 Jun 2027 15:40:10.415   01 Jun 2027 15:42:20.674           130.259                Anadyr1          4070.594
        57   01 Jun 2027 15:43:17.917   01 Jun 2027 15:45:18.824           120.907               Magadan2          3778.344
        58   01 Jun 2027 15:45:18.824   01 Jun 2027 15:48:00.347           161.523               Magadan1          5047.594
        59   01 Jun 2027 17:16:05.554   01 Jun 2027 17:16:50.514            44.960                Anadyr2          1405.000
        60   01 Jun 2027 17:17:10.462   01 Jun 2027 17:17:25.260            14.798                Anadyr2           462.438
        61   01 Jun 2027 17:18:24.846   01 Jun 2027 17:20:31.223           126.377               Magadan2          3949.281
        62   01 Jun 2027 17:28:18.520   01 Jun 2027 17:28:21.952             3.432               Magadan1           107.250
        63   01 Jun 2027 17:28:21.952   01 Jun 2027 17:29:18.527            56.575               Magadan2          1767.969
        64   01 Jun 2027 18:12:19.357   01 Jun 2027 18:15:01.489           162.132            RioGallegos          5066.625
        65   01 Jun 2027 18:53:29.978   01 Jun 2027 18:53:31.827             1.849                Anadyr1            57.781
        66   01 Jun 2027 18:54:05.848   01 Jun 2027 18:58:08.522           242.674                Norilsk          7583.562
        67   01 Jun 2027 18:59:00.617   01 Jun 2027 19:00:26.355            85.738                Irkutsk          2679.312
        68   01 Jun 2027 19:00:36.821   01 Jun 2027 19:02:27.650           110.829                Irkutsk          3463.406
        69   01 Jun 2027 19:03:44.360   01 Jun 2027 19:04:19.209            34.849                Irkutsk          1089.031
        70   01 Jun 2027 19:13:56.731   01 Jun 2027 19:16:22.619           145.888                Sumatra          4559.000
        71   01 Jun 2027 19:17:47.985   01 Jun 2027 19:20:05.085           137.100                Sumatra          4284.375
        72   01 Jun 2027 20:35:09.771   01 Jun 2027 20:35:26.834            17.063                Novosib           533.219
        73   01 Jun 2027 20:36:40.568   01 Jun 2027 20:36:59.510            18.942                Novosib           591.938
        74   01 Jun 2027 20:38:10.075   01 Jun 2027 20:38:20.293            10.218                Novosib           319.312
        75   01 Jun 2027 20:40:03.970   01 Jun 2027 20:40:31.445            27.475                Novosib           858.594
        76   01 Jun 2027 20:44:25.443   01 Jun 2027 20:46:49.318           143.875                  Delhi          4496.094
        77   01 Jun 2027 22:06:22.451   01 Jun 2027 22:06:53.599            31.148               Magadan1           973.375
        78   01 Jun 2027 22:08:48.864   01 Jun 2027 22:14:05.898           317.034              Murmansk2          9907.312
        79   01 Jun 2027 22:24:29.146   01 Jun 2027 22:25:22.977            53.831                  Delhi          1682.219
        80   01 Jun 2027 23:39:32.679   01 Jun 2027 23:39:33.477             0.798                Anadyr1            24.938
        81   01 Jun 2027 23:39:48.595   01 Jun 2027 23:40:29.232            40.637                Anadyr2          1269.906
        82   01 Jun 2027 23:40:35.707   01 Jun 2027 23:41:56.983            81.276               Magadan2          2539.875
        83   01 Jun 2027 23:42:14.334   01 Jun 2027 23:42:33.673            19.339               Magadan1           604.344
        84   01 Jun 2027 23:42:40.914   01 Jun 2027 23:43:09.921            29.007               Magadan1           906.469
        85   01 Jun 2027 23:44:01.228   01 Jun 2027 23:45:44.976           103.748              Murmansk2          3242.125
        86   01 Jun 2027 23:46:47.865   01 Jun 2027 23:48:10.620            82.755              Murmansk1          2586.094
        87   01 Jun 2027 23:48:25.172   01 Jun 2027 23:50:14.615           109.443                 Moscow          3420.094
        88   01 Jun 2027 23:55:05.174   01 Jun 2027 23:55:44.497            39.323                 Moscow          1228.844
        89   01 Jun 2027 23:56:12.580   01 Jun 2027 23:58:05.895           113.315                 Moscow          3541.094
        90   02 Jun 2027 00:13:53.172   02 Jun 2027 00:14:01.551             8.379               CapeTown           261.844
        91   02 Jun 2027 00:15:36.858   02 Jun 2027 00:16:16.870            40.012               CapeTown          1250.375
        92   02 Jun 2027 00:21:39.726   02 Jun 2027 00:21:40.516             0.790               CapeTown            24.688
        93   02 Jun 2027 01:12:15.782   02 Jun 2027 01:13:30.056            74.274               Magadan2          2321.062
        94   02 Jun 2027 01:19:56.210   02 Jun 2027 01:21:26.426            90.216              Murmansk1          2819.250
        95   02 Jun 2027 01:22:26.645   02 Jun 2027 01:23:12.696            46.051                Novosib          1439.094
        96   02 Jun 2027 01:24:14.567   02 Jun 2027 01:24:15.929             1.362                 Moscow            42.562
        97   02 Jun 2027 01:24:48.842   02 Jun 2027 01:26:27.243            98.401                 Moscow          3075.031
        98   02 Jun 2027 01:47:02.181   02 Jun 2027 01:47:21.005            18.824               CapeTown           588.250
        99   02 Jun 2027 01:50:34.199   02 Jun 2027 01:51:11.208            37.009               CapeTown          1156.531
       100   02 Jun 2027 01:58:46.823   02 Jun 2027 01:59:49.474            62.651               CapeTown          1957.844
       101   02 Jun 2027 02:43:48.415   02 Jun 2027 02:44:40.973            52.558                Anadyr2          1642.437
       102   02 Jun 2027 02:44:43.716   02 Jun 2027 02:45:10.503            26.787                Anadyr1           837.094
       103   02 Jun 2027 02:45:20.819   02 Jun 2027 02:46:27.445            66.626               Magadan1          2082.063
       104   02 Jun 2027 02:46:41.188   02 Jun 2027 02:47:15.385            34.197               Magadan2          1068.656
       105   02 Jun 2027 02:52:57.493   02 Jun 2027 02:53:03.961             6.468                Norilsk           202.125
       106   02 Jun 2027 02:54:03.440   02 Jun 2027 02:54:30.721            27.281                Norilsk           852.531
       107   02 Jun 2027 02:55:53.017   02 Jun 2027 02:57:24.391            91.374              Murmansk1          2855.438
       108   02 Jun 2027 02:59:17.812   02 Jun 2027 02:59:56.614            38.802                 Moscow          1212.562
       109   02 Jun 2027 04:27:52.389   02 Jun 2027 04:30:33.722           161.333                Anadyr1          5041.656
       110   02 Jun 2027 04:30:36.848   02 Jun 2027 04:31:05.558            28.710               Magadan1           897.188
       111   02 Jun 2027 05:10:02.506   02 Jun 2027 05:12:40.025           157.519            RioGallegos          4922.469
       112   02 Jun 2027 06:01:48.586   02 Jun 2027 06:02:29.598            41.012                Irkutsk          1281.625
       113   02 Jun 2027 06:02:44.492   02 Jun 2027 06:03:08.914            24.422                Anadyr1           763.187
       114   02 Jun 2027 06:03:15.108   02 Jun 2027 06:03:52.951            37.843                Irkutsk          1182.594
       115   02 Jun 2027 06:03:56.196   02 Jun 2027 06:05:52.557           116.361                Novosib          3636.281
       116   02 Jun 2027 06:06:14.751   02 Jun 2027 06:07:42.395            87.644                Irkutsk          2738.875
       117   02 Jun 2027 07:39:54.542   02 Jun 2027 07:40:43.926            49.384                Irkutsk          1543.250
       118   02 Jun 2027 07:41:19.019   02 Jun 2027 07:44:02.183           163.164                Irkutsk          5098.875
       119   02 Jun 2027 08:19:22.596   02 Jun 2027 08:20:09.218            46.622            RioGallegos          1456.937
       120   02 Jun 2027 08:53:43.915   02 Jun 2027 08:55:24.401           100.486                Sumatra          3140.188
       121   02 Jun 2027 09:17:15.350   02 Jun 2027 09:18:38.379            83.029                Irkutsk          2594.656
       122   02 Jun 2027 09:19:57.816   02 Jun 2027 09:20:00.037             2.221                Novosib            69.406
       123   02 Jun 2027 09:20:04.471   02 Jun 2027 09:20:40.238            35.767                Novosib          1117.719
       124   02 Jun 2027 10:38:24.716   02 Jun 2027 10:41:49.856           205.140                  Delhi          6410.625
       125   02 Jun 2027 10:53:03.422   02 Jun 2027 10:53:10.808             7.386                Novosib           230.813
       126   02 Jun 2027 10:55:01.782   02 Jun 2027 10:55:04.528             2.746                Novosib            85.812
       127   02 Jun 2027 10:55:07.465   02 Jun 2027 10:56:13.917            66.452                Novosib          2076.625
       128   02 Jun 2027 12:23:54.110   02 Jun 2027 12:24:36.473            42.363                 Moscow          1323.844
       129   02 Jun 2027 12:24:42.446   02 Jun 2027 12:25:26.137            43.691                 Moscow          1365.344
       130   02 Jun 2027 12:25:42.642   02 Jun 2027 12:27:51.250           128.608              Murmansk2          4019.000
       131   02 Jun 2027 12:28:28.702   02 Jun 2027 12:28:43.275            14.573              Murmansk2           455.406
       132   02 Jun 2027 12:28:56.536   02 Jun 2027 12:29:43.846            47.310              Murmansk1          1478.437
       133   02 Jun 2027 12:43:09.630   02 Jun 2027 12:44:33.942            84.312                Anadyr2          2634.750
       134   02 Jun 2027 13:36:04.557   02 Jun 2027 13:37:41.033            96.476               CapeTown          3014.875
       135   02 Jun 2027 13:39:24.167   02 Jun 2027 13:40:01.717            37.550               CapeTown          1173.438
       136   02 Jun 2027 13:46:25.967   02 Jun 2027 13:47:09.645            43.678               CapeTown          1364.937
       137   02 Jun 2027 14:03:19.361   02 Jun 2027 14:03:36.258            16.897              Murmansk1           528.031
       138   02 Jun 2027 14:03:37.722   02 Jun 2027 14:05:20.747           103.025              Murmansk2          3219.531
       139   02 Jun 2027 14:06:32.466   02 Jun 2027 14:06:56.800            24.334              Murmansk1           760.438
       140   02 Jun 2027 14:16:28.841   02 Jun 2027 14:18:36.570           127.729                Anadyr1          3991.531
       141   02 Jun 2027 14:19:03.727   02 Jun 2027 14:20:58.350           114.623                Anadyr2          3581.969
       142   02 Jun 2027 15:43:30.398   02 Jun 2027 15:45:01.349            90.951              Murmansk2          2842.219
       143   02 Jun 2027 15:47:00.287   02 Jun 2027 15:47:01.178             0.891              Murmansk2            27.844
       144   02 Jun 2027 15:52:11.356   02 Jun 2027 15:53:46.818            95.462                Anadyr2          2983.187
       145   02 Jun 2027 15:54:21.282   02 Jun 2027 15:54:56.371            35.089                Anadyr1          1096.531
       146   02 Jun 2027 15:55:06.868   02 Jun 2027 15:58:44.477           217.609               Magadan2          6800.281
       147   02 Jun 2027 16:02:10.320   02 Jun 2027 16:03:01.104            50.784               Magadan2          1587.000
       148   02 Jun 2027 17:28:06.749   02 Jun 2027 17:29:55.013           108.264                Anadyr2          3383.250
       149   02 Jun 2027 17:30:24.631   02 Jun 2027 17:32:09.315           104.684               Magadan2          3271.375
       150   02 Jun 2027 17:33:43.936   02 Jun 2027 17:33:51.532             7.596               Magadan1           237.375
       151   02 Jun 2027 17:36:24.990   02 Jun 2027 17:37:04.101            39.111               Magadan2          1222.219
       152   02 Jun 2027 18:23:39.086   02 Jun 2027 18:26:47.244           188.158            RioGallegos          5879.937
       153   02 Jun 2027 18:29:42.551   02 Jun 2027 18:30:35.603            53.052            RioGallegos          1657.875
       154   02 Jun 2027 19:06:03.313   02 Jun 2027 19:07:24.327            81.014                Norilsk          2531.687
       155   02 Jun 2027 19:07:36.015   02 Jun 2027 19:08:15.585            39.570               Magadan1          1236.563
       156   02 Jun 2027 19:08:35.878   02 Jun 2027 19:10:08.505            92.627                Norilsk          2894.594
       157   02 Jun 2027 19:10:43.068   02 Jun 2027 19:11:35.473            52.405                Irkutsk          1637.656
       158   02 Jun 2027 19:11:47.202   02 Jun 2027 19:12:52.281            65.079                Irkutsk          2033.719
       159   02 Jun 2027 19:13:52.328   02 Jun 2027 19:14:20.161            27.833                Irkutsk           869.781
       160   02 Jun 2027 19:25:11.166   02 Jun 2027 19:25:40.102            28.936                Sumatra           904.250
       161   02 Jun 2027 19:27:23.252   02 Jun 2027 19:30:43.218           199.966                Sumatra          6248.938
       162   02 Jun 2027 19:31:57.716   02 Jun 2027 19:32:38.791            41.075                Sumatra          1283.594
       163   02 Jun 2027 20:46:16.034   02 Jun 2027 20:49:00.436           164.402                Novosib          5137.563
       164   02 Jun 2027 20:49:21.805   02 Jun 2027 20:50:05.848            44.043                Novosib          1376.344
       165   02 Jun 2027 20:55:19.798   02 Jun 2027 20:57:55.642           155.844                  Delhi          4870.125
       166   02 Jun 2027 21:01:23.923   02 Jun 2027 21:03:09.705           105.782                  Delhi          3305.687
       167   02 Jun 2027 22:20:36.905   02 Jun 2027 22:24:27.614           230.709              Murmansk2          7209.656
       168   02 Jun 2027 22:24:51.731   02 Jun 2027 22:26:57.984           126.253              Murmansk1          3945.406
       169   02 Jun 2027 23:54:32.732   02 Jun 2027 23:55:10.791            38.059               Magadan2          1189.344
       170   02 Jun 2027 23:56:01.650   02 Jun 2027 23:57:41.946           100.296              Murmansk1          3134.250
       171   02 Jun 2027 23:58:46.898   03 Jun 2027 00:00:05.658            78.760              Murmansk2          2461.250
       172   03 Jun 2027 00:00:29.707   03 Jun 2027 00:02:19.167           109.460                 Moscow          3420.625
       173   03 Jun 2027 00:07:44.264   03 Jun 2027 00:09:24.269           100.005                 Moscow          3125.156
       174   03 Jun 2027 00:25:10.139   03 Jun 2027 00:26:33.197            83.058               CapeTown          2595.562
       175   03 Jun 2027 00:31:37.723   03 Jun 2027 00:32:13.593            35.870               CapeTown          1120.938
       176   03 Jun 2027 01:27:37.112   03 Jun 2027 01:28:08.054            30.942               Magadan1           966.937
       177   03 Jun 2027 01:31:39.337   03 Jun 2027 01:31:56.972            17.635               Magadan1           551.094
       178   03 Jun 2027 01:31:57.910   03 Jun 2027 01:33:00.566            62.656              Murmansk2          1958.000
       179   03 Jun 2027 01:33:00.566   03 Jun 2027 01:33:27.823            27.257              Murmansk1           851.781
       180   03 Jun 2027 01:34:05.077   03 Jun 2027 01:34:12.712             7.635              Murmansk2           238.594
       181   03 Jun 2027 01:35:07.118   03 Jun 2027 01:35:15.334             8.216              Murmansk1           256.750
       182   03 Jun 2027 01:35:30.400   03 Jun 2027 01:35:54.057            23.657                 Moscow           739.281
       183   03 Jun 2027 01:37:17.698   03 Jun 2027 01:38:26.513            68.815                 Moscow          2150.469
       184   03 Jun 2027 01:59:06.894   03 Jun 2027 01:59:53.292            46.398               CapeTown          1449.938
       185   03 Jun 2027 02:05:11.839   03 Jun 2027 02:05:59.416            47.577               CapeTown          1486.781
       186   03 Jun 2027 02:55:53.990   03 Jun 2027 02:56:27.662            33.672                Anadyr2          1052.250
       187   03 Jun 2027 02:56:32.936   03 Jun 2027 02:58:06.799            93.863               Magadan2          2933.219
       188   03 Jun 2027 02:58:06.799   03 Jun 2027 02:58:40.581            33.782               Magadan1          1055.687
       189   03 Jun 2027 02:59:51.516   03 Jun 2027 03:00:04.264            12.748               Magadan1           398.375
       190   03 Jun 2027 03:01:28.282   03 Jun 2027 03:01:54.386            26.104               Magadan2           815.750
       191   03 Jun 2027 03:02:07.167   03 Jun 2027 03:04:16.443           129.276               Magadan2          4039.875
       192   03 Jun 2027 03:04:16.443   03 Jun 2027 03:04:51.623            35.180               Magadan1          1099.375
       193   03 Jun 2027 03:05:34.278   03 Jun 2027 03:05:34.466             0.188                Anadyr2             5.875
       194   03 Jun 2027 03:05:37.426   03 Jun 2027 03:05:57.282            19.856                Anadyr1           620.500
       195   03 Jun 2027 03:07:30.638   03 Jun 2027 03:07:56.113            25.475                Anadyr2           796.094
       196   03 Jun 2027 04:38:41.212   03 Jun 2027 04:39:08.249            27.037                Irkutsk           844.906
       197   03 Jun 2027 04:41:34.160   03 Jun 2027 04:42:46.047            71.887               Magadan2          2246.469
       198   03 Jun 2027 04:43:03.636   03 Jun 2027 04:43:22.130            18.494               Magadan2           577.937
       199   03 Jun 2027 04:43:22.130   03 Jun 2027 04:43:45.581            23.451               Magadan1           732.844
       200   03 Jun 2027 04:43:59.711   03 Jun 2027 04:44:20.710            20.999               Magadan1           656.219
       201   03 Jun 2027 04:44:34.477   03 Jun 2027 04:44:41.494             7.017              Murmansk1           219.281
       202   03 Jun 2027 06:14:53.227   03 Jun 2027 06:16:02.018            68.791               Magadan1          2149.719
       203   03 Jun 2027 06:16:10.954   03 Jun 2027 06:16:36.758            25.804               Magadan1           806.375
       204   03 Jun 2027 06:16:36.758   03 Jun 2027 06:16:57.906            21.148               Magadan2           660.875
       205   03 Jun 2027 06:17:20.035   03 Jun 2027 06:18:56.333            96.298               Magadan1          3009.312
       206   03 Jun 2027 06:19:18.444   03 Jun 2027 06:19:40.374            21.930               Magadan2           685.313
       207   03 Jun 2027 06:19:40.374   03 Jun 2027 06:19:50.920            10.546               Magadan1           329.562
       208   03 Jun 2027 06:21:55.291   03 Jun 2027 06:22:28.459            33.168              Murmansk1          1036.500
       209   03 Jun 2027 07:54:34.412   03 Jun 2027 07:54:38.531             4.119                Irkutsk           128.719
       210   03 Jun 2027 07:54:53.949   03 Jun 2027 07:55:09.120            15.171                Irkutsk           474.094
       211   03 Jun 2027 07:55:53.332   03 Jun 2027 07:56:02.925             9.593                Irkutsk           299.781
       212   03 Jun 2027 07:57:26.406   03 Jun 2027 07:58:02.042            35.636              Murmansk1          1113.625
       213   03 Jun 2027 08:31:45.226   03 Jun 2027 08:32:13.276            28.050            RioGallegos           876.562
       214   03 Jun 2027 09:06:00.485   03 Jun 2027 09:07:13.176            72.691                Sumatra          2271.594
       215   03 Jun 2027 09:28:22.199   03 Jun 2027 09:28:48.223            26.024                Novosib           813.250
       216   03 Jun 2027 09:30:41.760   03 Jun 2027 09:30:42.887             1.127                Norilsk            35.219
       217   03 Jun 2027 09:30:43.219   03 Jun 2027 09:31:06.052            22.833                Irkutsk           713.531
       218   03 Jun 2027 09:31:11.547   03 Jun 2027 09:31:24.696            13.149                Norilsk           410.906
       219   03 Jun 2027 10:50:53.368   03 Jun 2027 10:53:55.775           182.407                  Delhi          5700.219
       220   03 Jun 2027 11:07:01.225   03 Jun 2027 11:07:10.099             8.874                Novosib           277.313
       221   03 Jun 2027 11:08:42.550   03 Jun 2027 11:08:52.310             9.760                Norilsk           305.000
       222   03 Jun 2027 12:34:18.582   03 Jun 2027 12:34:41.947            23.365                 Moscow           730.156
       223   03 Jun 2027 12:35:32.417   03 Jun 2027 12:36:42.869            70.452                 Moscow          2201.625
       224   03 Jun 2027 12:37:26.014   03 Jun 2027 12:38:29.609            63.595                 Moscow          1987.344
       225   03 Jun 2027 12:38:34.528   03 Jun 2027 12:39:07.134            32.606              Murmansk1          1018.938
       226   03 Jun 2027 12:39:14.185   03 Jun 2027 12:39:28.865            14.680              Murmansk1           458.750
       227   03 Jun 2027 12:39:52.583   03 Jun 2027 12:40:15.986            23.403              Murmansk2           731.344
       228   03 Jun 2027 12:40:15.986   03 Jun 2027 12:40:32.126            16.140              Murmansk1           504.375
       229   03 Jun 2027 12:40:58.233   03 Jun 2027 12:41:38.046            39.813              Murmansk1          1244.156
       230   03 Jun 2027 12:41:38.046   03 Jun 2027 12:42:28.524            50.478              Murmansk2          1577.437
       231   03 Jun 2027 12:54:02.957   03 Jun 2027 12:57:13.733           190.776                Anadyr2          5961.750
       232   03 Jun 2027 12:57:17.209   03 Jun 2027 12:58:22.560            65.351                Anadyr1          2042.219
       233   03 Jun 2027 13:50:31.422   03 Jun 2027 13:51:09.481            38.059               CapeTown          1189.344
       234   03 Jun 2027 14:15:42.703   03 Jun 2027 14:15:49.673             6.970              Murmansk1           217.812
       235   03 Jun 2027 14:16:27.788   03 Jun 2027 14:17:08.450            40.662              Murmansk2          1270.687
       236   03 Jun 2027 14:18:26.697   03 Jun 2027 14:18:56.576            29.879              Murmansk2           933.719
       237   03 Jun 2027 14:19:31.349   03 Jun 2027 14:20:15.958            44.609              Murmansk1          1394.031
       238   03 Jun 2027 14:28:26.583   03 Jun 2027 14:30:25.890           119.307                Anadyr2          3728.344
       239   03 Jun 2027 14:31:03.200   03 Jun 2027 14:31:34.352            31.152                Anadyr1           973.500
       240   03 Jun 2027 15:24:09.721   03 Jun 2027 15:24:22.638            12.917               CapeTown           403.656
       241   03 Jun 2027 15:28:03.067   03 Jun 2027 15:28:20.736            17.669               CapeTown           552.156
       242   03 Jun 2027 15:29:17.373   03 Jun 2027 15:29:30.725            13.352               CapeTown           417.250
       243   03 Jun 2027 15:29:34.846   03 Jun 2027 15:30:52.162            77.316               CapeTown          2416.125
       244   03 Jun 2027 15:56:22.185   03 Jun 2027 15:56:34.465            12.280              Murmansk1           383.750
       245   03 Jun 2027 15:58:05.112   03 Jun 2027 15:58:30.502            25.390              Murmansk1           793.438
       246   03 Jun 2027 15:59:00.366   03 Jun 2027 15:59:56.102            55.736              Murmansk2          1741.750
       247   03 Jun 2027 16:04:12.473   03 Jun 2027 16:04:12.603             0.130                Anadyr2             4.063
       248   03 Jun 2027 16:04:38.760   03 Jun 2027 16:06:18.010            99.250                Anadyr2          3101.562
       249   03 Jun 2027 16:06:55.274   03 Jun 2027 16:07:08.939            13.665                Anadyr2           427.031
       250   03 Jun 2027 16:07:22.468   03 Jun 2027 16:10:51.607           209.139               Magadan1          6535.594
       251   03 Jun 2027 17:40:07.809   03 Jun 2027 17:41:55.448           107.639                Anadyr2          3363.719
       252   03 Jun 2027 17:42:05.390   03 Jun 2027 17:42:15.348             9.958                Anadyr2           311.188
       253   03 Jun 2027 17:42:24.924   03 Jun 2027 17:44:10.392           105.468               Magadan1          3295.875
       254   03 Jun 2027 17:44:24.646   03 Jun 2027 17:45:29.308            64.662               Magadan1          2020.687
       255   03 Jun 2027 17:51:18.083   03 Jun 2027 17:51:42.256            24.173               Magadan2           755.406
       256   03 Jun 2027 18:35:12.625   03 Jun 2027 18:39:26.212           253.587            RioGallegos          7924.594
       257   03 Jun 2027 18:40:26.831   03 Jun 2027 18:41:45.038            78.207            RioGallegos          2443.969
       258   03 Jun 2027 19:18:34.612   03 Jun 2027 19:22:08.974           214.362                Norilsk          6698.812
       259   03 Jun 2027 19:22:29.988   03 Jun 2027 19:23:02.737            32.749                Irkutsk          1023.406
       260   03 Jun 2027 19:23:48.072   03 Jun 2027 19:24:58.336            70.264                Irkutsk          2195.750
       261   03 Jun 2027 19:26:12.351   03 Jun 2027 19:26:14.654             2.303                Irkutsk            71.969
       262   03 Jun 2027 19:36:38.368   03 Jun 2027 19:39:55.980           197.612                Sumatra          6175.375
       263   03 Jun 2027 19:42:40.260   03 Jun 2027 19:43:31.211            50.951                Sumatra          1592.219
       264   03 Jun 2027 20:57:45.326   03 Jun 2027 20:59:10.296            84.970                Irkutsk          2655.312
       265   03 Jun 2027 20:59:21.064   03 Jun 2027 20:59:32.051            10.987                Novosib           343.344
       266   03 Jun 2027 20:59:49.066   03 Jun 2027 21:00:49.397            60.331                Novosib          1885.344
       267   03 Jun 2027 21:06:38.202   03 Jun 2027 21:06:47.346             9.144                  Delhi           285.750
       268   03 Jun 2027 21:07:22.601   03 Jun 2027 21:09:40.254           137.653                  Delhi          4301.656
       269   03 Jun 2027 21:13:33.609   03 Jun 2027 21:14:00.449            26.840                  Delhi           838.750
       270   03 Jun 2027 22:32:29.064   03 Jun 2027 22:39:43.867           434.803              Murmansk2         13587.594
       271   04 Jun 2027 00:03:38.373   04 Jun 2027 00:04:17.436            39.063               Magadan1          1220.719
       272   04 Jun 2027 00:06:11.442   04 Jun 2027 00:06:38.942            27.500               Magadan1           859.375
       273   04 Jun 2027 00:08:02.427   04 Jun 2027 00:08:50.947            48.520              Murmansk1          1516.250
       274   04 Jun 2027 00:08:57.786   04 Jun 2027 00:09:40.071            42.285              Murmansk2          1321.406
       275   04 Jun 2027 00:10:29.451   04 Jun 2027 00:11:15.690            46.239                Novosib          1444.969
       276   04 Jun 2027 00:11:21.735   04 Jun 2027 00:11:54.308            32.573              Murmansk1          1017.906
       277   04 Jun 2027 00:12:01.929   04 Jun 2027 00:12:19.904            17.975                 Moscow           561.719
       278   04 Jun 2027 00:13:23.547   04 Jun 2027 00:14:04.068            40.521                 Moscow          1266.281
       279   04 Jun 2027 00:17:47.438   04 Jun 2027 00:17:57.969            10.531                 Moscow           329.094
       280   04 Jun 2027 00:18:25.023   04 Jun 2027 00:18:59.907            34.884                 Moscow          1090.125
       281   04 Jun 2027 00:19:44.745   04 Jun 2027 00:20:40.131            55.386                 Moscow          1730.812
       282   04 Jun 2027 00:36:35.949   04 Jun 2027 00:37:35.902            59.953               CapeTown          1873.531
       283   04 Jun 2027 00:37:54.953   04 Jun 2027 00:38:46.411            51.458               CapeTown          1608.063
       284   04 Jun 2027 00:41:27.612   04 Jun 2027 00:42:12.555            44.943               CapeTown          1404.469
       285   04 Jun 2027 01:36:10.984   04 Jun 2027 01:37:35.396            84.412               Magadan1          2637.875
       286   04 Jun 2027 01:43:22.202   04 Jun 2027 01:43:25.897             3.695                Norilsk           115.469
       287   04 Jun 2027 01:43:59.600   04 Jun 2027 01:45:29.370            89.770              Murmansk2          2805.313
       288   04 Jun 2027 01:46:57.643   04 Jun 2027 01:47:38.434            40.791                Novosib          1274.719
       289   04 Jun 2027 01:48:07.335   04 Jun 2027 01:49:05.329            57.994                Novosib          1812.312
       290   04 Jun 2027 01:56:00.602   04 Jun 2027 01:56:21.378            20.776                 Moscow           649.250
       291   04 Jun 2027 02:11:16.895   04 Jun 2027 02:12:52.264            95.369               CapeTown          2980.281
       292   04 Jun 2027 03:10:54.693   04 Jun 2027 03:11:20.242            25.549               Magadan1           798.406
       293   04 Jun 2027 03:13:24.465   04 Jun 2027 03:13:56.484            32.019               Magadan2          1000.594
       294   04 Jun 2027 03:14:05.434   04 Jun 2027 03:16:36.667           151.233                Anadyr1          4726.031
       295   04 Jun 2027 03:16:40.037   04 Jun 2027 03:17:34.939            54.902                Anadyr2          1715.687
       296   04 Jun 2027 03:20:20.227   04 Jun 2027 03:20:42.817            22.590                Anadyr2           705.937
       297   04 Jun 2027 06:26:47.303   04 Jun 2027 06:27:40.278            52.975               Magadan1          1655.469
       298   04 Jun 2027 06:27:55.208   04 Jun 2027 06:28:05.949            10.741               Magadan1           335.656
       299   04 Jun 2027 06:28:07.330   04 Jun 2027 06:28:30.612            23.282               Magadan1           727.563
       300   04 Jun 2027 06:28:34.528   04 Jun 2027 06:29:53.520            78.992               Magadan1          2468.500
       301   04 Jun 2027 06:30:07.573   04 Jun 2027 06:31:07.535            59.962               Magadan2          1873.812
       302   04 Jun 2027 06:31:11.721   04 Jun 2027 06:31:17.113             5.392               Magadan2           168.500
       303   04 Jun 2027 06:31:34.632   04 Jun 2027 06:31:45.165            10.533               Magadan1           329.156
       304   04 Jun 2027 08:06:38.978   04 Jun 2027 08:07:04.637            25.659                Irkutsk           801.844
       305   04 Jun 2027 08:08:39.731   04 Jun 2027 08:09:01.464            21.733              Murmansk2           679.156
       306   04 Jun 2027 08:44:13.015   04 Jun 2027 08:45:25.394            72.379            RioGallegos          2261.844
       307   04 Jun 2027 09:18:24.868   04 Jun 2027 09:19:07.845            42.977                Sumatra          1343.031
       308   04 Jun 2027 09:27:43.025   04 Jun 2027 09:28:26.052            43.027                Sumatra          1344.594
       309   04 Jun 2027 09:42:32.296   04 Jun 2027 09:42:32.872             0.576                Novosib            18.000
       310   04 Jun 2027 09:42:49.707   04 Jun 2027 09:43:06.880            17.173                Novosib           536.656
       311   04 Jun 2027 09:43:14.752   04 Jun 2027 09:43:18.151             3.399                Novosib           106.219
       312   04 Jun 2027 09:43:48.104   04 Jun 2027 09:43:49.810             1.706                Novosib            53.312
       313   04 Jun 2027 11:03:32.136   04 Jun 2027 11:06:28.453           176.317                  Delhi          5509.906
       314   04 Jun 2027 11:16:51.303   04 Jun 2027 11:16:58.476             7.173                Novosib           224.156
       315   04 Jun 2027 11:21:04.497   04 Jun 2027 11:21:20.978            16.481                Norilsk           515.031
       316   04 Jun 2027 12:48:39.895   04 Jun 2027 12:49:25.095            45.200                 Moscow          1412.500
       317   04 Jun 2027 12:49:59.220   04 Jun 2027 12:51:05.354            66.134              Murmansk1          2066.687
       318   04 Jun 2027 12:51:53.720   04 Jun 2027 12:52:21.648            27.928              Murmansk1           872.750
       319   04 Jun 2027 12:52:59.935   04 Jun 2027 12:53:32.988            33.053              Murmansk1          1032.906
       320   04 Jun 2027 12:57:07.929   04 Jun 2027 12:58:11.850            63.921              Murmansk1          1997.531
       321   04 Jun 2027 12:58:27.295   04 Jun 2027 12:58:53.596            26.301                Norilsk           821.906
       322   04 Jun 2027 13:05:35.262   04 Jun 2027 13:09:05.082           209.820                Anadyr1          6556.875
       323   04 Jun 2027 13:09:39.827   04 Jun 2027 13:11:29.637           109.810                Anadyr2          3431.562
       324   04 Jun 2027 14:28:08.454   04 Jun 2027 14:29:59.059           110.605              Murmansk1          3456.406
       325   04 Jun 2027 14:40:25.120   04 Jun 2027 14:42:18.203           113.083                Anadyr2          3533.844
       326   04 Jun 2027 14:43:02.210   04 Jun 2027 14:44:26.880            84.670                Anadyr1          2645.938
       327   04 Jun 2027 15:37:05.525   04 Jun 2027 15:37:10.322             4.797               CapeTown           149.906
       328   04 Jun 2027 15:39:04.471   04 Jun 2027 15:39:13.376             8.905               CapeTown           278.281
       329   04 Jun 2027 16:09:23.667   04 Jun 2027 16:11:57.982           154.315              Murmansk1          4822.344
       330   04 Jun 2027 16:16:13.706   04 Jun 2027 16:17:46.988            93.282                Anadyr2          2915.063
       331   04 Jun 2027 16:18:13.031   04 Jun 2027 16:18:50.436            37.405                Anadyr1          1168.906
       332   04 Jun 2027 16:18:52.361   04 Jun 2027 16:22:49.200           236.839               Magadan2          7401.219
       333   04 Jun 2027 16:27:44.579   04 Jun 2027 16:28:23.065            38.486               Magadan2          1202.688
       334   04 Jun 2027 17:52:08.699   04 Jun 2027 17:54:43.467           154.768                Anadyr1          4836.500
       335   04 Jun 2027 17:55:31.438   04 Jun 2027 17:56:55.749            84.311                Norilsk          2634.719
       336   04 Jun 2027 17:57:12.660   04 Jun 2027 17:57:30.590            17.930               Magadan1           560.313
       337   04 Jun 2027 17:57:39.978   04 Jun 2027 17:57:43.901             3.923               Magadan1           122.594
       338   04 Jun 2027 17:58:43.128   04 Jun 2027 17:59:58.034            74.906               Magadan1          2340.813
       339   04 Jun 2027 18:46:53.675   04 Jun 2027 18:49:01.671           127.996            RioGallegos          3999.875
       340   04 Jun 2027 18:50:08.370   04 Jun 2027 18:53:12.936           184.566            RioGallegos          5767.688
       341   04 Jun 2027 19:30:26.432   04 Jun 2027 19:31:18.023            51.591               Magadan1          1612.219
       342   04 Jun 2027 19:32:08.331   04 Jun 2027 19:34:09.839           121.508                Norilsk          3797.125
       343   04 Jun 2027 19:34:20.142   04 Jun 2027 19:35:38.350            78.208                Irkutsk          2444.000
       344   04 Jun 2027 19:37:05.318   04 Jun 2027 19:37:25.936            20.618                Irkutsk           644.313
       345   04 Jun 2027 19:43:54.464   04 Jun 2027 19:44:20.411            25.947                Irkutsk           810.844
       346   04 Jun 2027 19:48:14.760   04 Jun 2027 19:51:51.641           216.881                Sumatra          6777.531
       347   04 Jun 2027 21:10:02.717   04 Jun 2027 21:10:06.699             3.982                Novosib           124.437
       348   04 Jun 2027 21:10:41.065   04 Jun 2027 21:11:55.374            74.309                Novosib          2322.156
       349   04 Jun 2027 21:16:15.771   04 Jun 2027 21:16:34.286            18.515                Novosib           578.594
       350   04 Jun 2027 21:18:08.966   04 Jun 2027 21:20:36.485           147.519                  Delhi          4609.969
       351   04 Jun 2027 21:23:10.866   04 Jun 2027 21:24:11.533            60.667                  Delhi          1895.844
       352   04 Jun 2027 22:41:55.259   04 Jun 2027 22:43:02.264            67.005                Norilsk          2093.906
       353   04 Jun 2027 22:43:38.339   04 Jun 2027 22:43:53.514            15.175               Magadan2           474.219
       354   04 Jun 2027 22:44:23.786   04 Jun 2027 22:48:23.913           240.127              Murmansk2          7503.969
       355   04 Jun 2027 22:49:46.643   04 Jun 2027 22:50:15.377            28.734              Murmansk1           897.938
       356   04 Jun 2027 22:50:30.384   04 Jun 2027 22:54:24.128           233.744                 Moscow          7304.500
       357   05 Jun 2027 00:18:37.145   05 Jun 2027 00:19:14.039            36.894               Magadan2          1152.937
       358   05 Jun 2027 00:20:03.485   05 Jun 2027 00:21:40.218            96.733              Murmansk2          3022.906
       359   05 Jun 2027 00:23:23.307   05 Jun 2027 00:24:14.811            51.504              Murmansk2          1609.500
       360   05 Jun 2027 00:24:54.314   05 Jun 2027 00:25:45.737            51.423                 Moscow          1606.969
       361   05 Jun 2027 00:26:04.186   05 Jun 2027 00:26:24.387            20.201              Murmansk2           631.281
       362   05 Jun 2027 00:26:29.851   05 Jun 2027 00:26:36.821             6.970                 Moscow           217.813
       363   05 Jun 2027 00:26:56.650   05 Jun 2027 00:27:36.300            39.650              Murmansk2          1239.062
       364   05 Jun 2027 00:31:37.814   05 Jun 2027 00:32:05.718            27.904                 Moscow           872.000
       365   05 Jun 2027 00:48:08.896   05 Jun 2027 00:49:16.529            67.633               CapeTown          2113.531
       366   05 Jun 2027 00:49:53.879   05 Jun 2027 00:51:05.732            71.853               CapeTown          2245.406
       367   05 Jun 2027 01:46:51.853   05 Jun 2027 01:47:21.868            30.015               Magadan1           937.969
       368   05 Jun 2027 01:47:53.215   05 Jun 2027 01:49:31.783            98.568               Magadan1          3080.250
       369   05 Jun 2027 01:56:01.250   05 Jun 2027 01:57:50.218           108.968              Murmansk1          3405.250
       370   05 Jun 2027 01:59:31.038   05 Jun 2027 01:59:47.414            16.376                 Moscow           511.750
       371   05 Jun 2027 02:03:08.938   05 Jun 2027 02:03:45.235            36.297                 Moscow          1134.281
       372   05 Jun 2027 02:09:18.246   05 Jun 2027 02:09:24.308             6.062                 Moscow           189.438
       373   05 Jun 2027 02:09:49.352   05 Jun 2027 02:10:55.384            66.032                 Moscow          2063.500
       374   05 Jun 2027 02:34:03.498   05 Jun 2027 02:34:14.577            11.079               CapeTown           346.219
       375   05 Jun 2027 03:23:05.382   05 Jun 2027 03:23:19.658            14.276                Anadyr1           446.125
       376   05 Jun 2027 03:23:29.251   05 Jun 2027 03:23:33.535             4.284                Anadyr1           133.875
       377   05 Jun 2027 03:25:19.282   05 Jun 2027 03:25:52.430            33.148               Magadan1          1035.875
       378   05 Jun 2027 03:25:55.979   05 Jun 2027 03:26:04.469             8.490                Anadyr2           265.312
       379   05 Jun 2027 03:26:08.022   05 Jun 2027 03:26:15.353             7.331               Magadan1           229.094
       380   05 Jun 2027 03:26:21.642   05 Jun 2027 03:27:05.755            44.113                Anadyr1          1378.531
       381   05 Jun 2027 03:27:05.755   05 Jun 2027 03:27:10.494             4.739                Anadyr2           148.094
       382   05 Jun 2027 03:27:17.695   05 Jun 2027 03:31:27.650           249.955                Anadyr1          7811.094
       383   05 Jun 2027 03:32:21.278   05 Jun 2027 03:32:28.257             6.979                Anadyr2           218.094
       384   05 Jun 2027 05:05:18.329   05 Jun 2027 05:06:56.483            98.154               Magadan1          3067.313
       385   05 Jun 2027 05:06:56.483   05 Jun 2027 05:07:51.514            55.031               Magadan2          1719.719
       386   05 Jun 2027 05:08:13.918   05 Jun 2027 05:08:16.881             2.963                Anadyr1            92.594
       387   05 Jun 2027 06:38:36.255   05 Jun 2027 06:38:58.059            21.804               Magadan1           681.375
       388   05 Jun 2027 06:39:55.284   05 Jun 2027 06:40:04.873             9.589               Magadan2           299.656
       389   05 Jun 2027 06:40:08.267   05 Jun 2027 06:40:34.692            26.425               Magadan2           825.781
       390   05 Jun 2027 06:40:37.382   05 Jun 2027 06:41:53.413            76.031               Magadan2          2375.969
       391   05 Jun 2027 06:42:10.590   05 Jun 2027 06:42:55.657            45.067               Magadan2          1408.344
       392   05 Jun 2027 06:42:58.800   05 Jun 2027 06:43:30.329            31.529               Magadan2           985.281
       393   05 Jun 2027 06:47:22.710   05 Jun 2027 06:47:54.611            31.901                Norilsk           996.906
       394   05 Jun 2027 08:19:13.830   05 Jun 2027 08:20:01.540            47.710                Irkutsk          1490.938
       395   05 Jun 2027 08:57:15.984   05 Jun 2027 08:57:30.128            14.144            RioGallegos           442.000
       396   05 Jun 2027 08:59:17.687   05 Jun 2027 08:59:25.068             7.381            RioGallegos           230.656
       397   05 Jun 2027 09:00:23.095   05 Jun 2027 09:00:44.129            21.034            RioGallegos           657.313
       398   05 Jun 2027 09:30:59.555   05 Jun 2027 09:31:08.137             8.582                Sumatra           268.187
       399   05 Jun 2027 09:32:04.179   05 Jun 2027 09:33:44.261           100.082                Sumatra          3127.563
       400   05 Jun 2027 09:52:03.995   05 Jun 2027 09:52:17.844            13.849                Novosib           432.781
       401   05 Jun 2027 09:53:02.395   05 Jun 2027 09:53:28.875            26.480                Novosib           827.500
       402   05 Jun 2027 09:53:56.746   05 Jun 2027 09:54:43.452            46.706                Novosib          1459.563
       403   05 Jun 2027 09:54:46.752   05 Jun 2027 09:54:56.135             9.383                Novosib           293.219
       404   05 Jun 2027 09:55:09.977   05 Jun 2027 09:55:38.733            28.756                Novosib           898.625
       405   05 Jun 2027 11:16:25.510   05 Jun 2027 11:18:23.796           118.286                  Delhi          3696.438
       406   05 Jun 2027 11:20:16.823   05 Jun 2027 11:20:26.161             9.338                  Delhi           291.813
       407   05 Jun 2027 11:33:37.284   05 Jun 2027 11:33:41.405             4.121                Norilsk           128.781
       408   05 Jun 2027 12:59:06.220   05 Jun 2027 12:59:43.673            37.453                 Moscow          1170.406
       409   05 Jun 2027 13:01:23.258   05 Jun 2027 13:02:02.442            39.184                 Moscow          1224.500
       410   05 Jun 2027 13:02:10.189   05 Jun 2027 13:02:27.086            16.897              Murmansk1           528.031
       411   05 Jun 2027 13:03:02.562   05 Jun 2027 13:03:51.849            49.287                 Moscow          1540.219
       412   05 Jun 2027 13:04:36.449   05 Jun 2027 13:04:41.680             5.231              Murmansk1           163.469
       413   05 Jun 2027 13:05:01.617   05 Jun 2027 13:05:28.648            27.031              Murmansk2           844.719
       414   05 Jun 2027 13:06:40.573   05 Jun 2027 13:07:05.010            24.437              Murmansk1           763.656
       415   05 Jun 2027 13:07:33.609   05 Jun 2027 13:07:47.881            14.272              Murmansk1           446.000
       416   05 Jun 2027 13:08:15.147   05 Jun 2027 13:08:22.396             7.249              Murmansk1           226.531
       417   05 Jun 2027 13:09:13.159   05 Jun 2027 13:09:59.120            45.961              Murmansk2          1436.281
       418   05 Jun 2027 13:12:12.504   05 Jun 2027 13:12:20.610             8.106              Murmansk2           253.313
       419   05 Jun 2027 13:17:17.992   05 Jun 2027 13:20:58.775           220.783                Anadyr1          6899.469
       420   05 Jun 2027 13:21:59.622   05 Jun 2027 13:24:00.886           121.264                Anadyr2          3789.500
       421   05 Jun 2027 14:40:36.760   05 Jun 2027 14:40:57.566            20.806              Murmansk2           650.187
       422   05 Jun 2027 14:42:29.712   05 Jun 2027 14:42:46.367            16.655              Murmansk2           520.469
       423   05 Jun 2027 14:44:19.670   05 Jun 2027 14:44:42.890            23.220              Murmansk2           725.625
       424   05 Jun 2027 14:48:51.393   05 Jun 2027 14:50:07.285            75.892              Murmansk2          2371.625
       425   05 Jun 2027 14:52:24.294   05 Jun 2027 14:54:24.376           120.082                Anadyr1          3752.562
       426   05 Jun 2027 14:57:51.900   05 Jun 2027 14:59:51.749           119.849               Magadan1          3745.281
       427   05 Jun 2027 16:22:50.818   05 Jun 2027 16:24:25.353            94.535              Murmansk1          2954.219
       428   05 Jun 2027 16:28:15.031   05 Jun 2027 16:30:04.473           109.442                Anadyr1          3420.062
       429   05 Jun 2027 16:30:47.730   05 Jun 2027 16:34:47.639           239.909               Magadan2          7497.156
       430   05 Jun 2027 16:37:08.115   05 Jun 2027 16:37:28.179            20.064               Magadan1           627.000
       431   05 Jun 2027 16:38:18.459   05 Jun 2027 16:39:24.413            65.954               Magadan1          2061.063
       432   05 Jun 2027 18:04:09.364   05 Jun 2027 18:05:42.524            93.160                Anadyr2          2911.250
       433   05 Jun 2027 18:05:46.164   05 Jun 2027 18:05:54.718             8.554                Anadyr1           267.313
       434   05 Jun 2027 18:06:26.762   05 Jun 2027 18:08:07.747           100.985               Magadan2          3155.781
       435   05 Jun 2027 18:08:07.747   05 Jun 2027 18:08:45.530            37.783               Magadan1          1180.719
       436   05 Jun 2027 18:08:57.552   05 Jun 2027 18:10:32.142            94.590                Norilsk          2955.937
       437   05 Jun 2027 18:58:39.606   05 Jun 2027 19:01:08.486           148.880            RioGallegos          4652.500
       438   05 Jun 2027 19:02:22.581   05 Jun 2027 19:02:41.691            19.110            RioGallegos           597.187
       439   05 Jun 2027 19:42:01.302   05 Jun 2027 19:43:45.782           104.480                Norilsk          3265.000
       440   05 Jun 2027 19:44:30.595   05 Jun 2027 19:45:02.598            32.003               Magadan2          1000.094
       441   05 Jun 2027 19:45:10.531   05 Jun 2027 19:46:11.003            60.472                Norilsk          1889.750
       442   05 Jun 2027 19:46:12.767   05 Jun 2027 19:47:37.321            84.554                Irkutsk          2642.313
       443   05 Jun 2027 19:48:18.516   05 Jun 2027 19:51:50.602           212.086                Novosib          6627.688
       444   05 Jun 2027 20:01:17.327   05 Jun 2027 20:02:36.635            79.308                Sumatra          2478.375
       445   05 Jun 2027 20:03:52.888   05 Jun 2027 20:04:18.477            25.589                Sumatra           799.656
       446   05 Jun 2027 20:11:37.619   05 Jun 2027 20:12:20.744            43.125                Sumatra          1347.656
       447   05 Jun 2027 21:21:49.124   05 Jun 2027 21:22:23.324            34.200                Irkutsk          1068.750
       448   05 Jun 2027 21:22:33.762   05 Jun 2027 21:23:33.172            59.410                Novosib          1856.563
       449   05 Jun 2027 21:24:19.054   05 Jun 2027 21:25:00.314            41.260                Novosib          1289.375
       450   05 Jun 2027 21:27:39.692   05 Jun 2027 21:27:41.904             2.212                Novosib            69.125
       451   05 Jun 2027 21:29:47.825   05 Jun 2027 21:32:49.575           181.750                  Delhi          5679.687
       452   05 Jun 2027 21:34:52.670   05 Jun 2027 21:35:27.115            34.445                  Delhi          1076.406
       453   05 Jun 2027 22:54:03.628   05 Jun 2027 22:54:39.578            35.950               Magadan1          1123.437
       454   05 Jun 2027 22:54:43.644   05 Jun 2027 22:55:21.912            38.268               Magadan1          1195.875
       455   05 Jun 2027 22:56:20.268   05 Jun 2027 23:00:23.276           243.008              Murmansk2          7594.000
       456   05 Jun 2027 23:01:15.530   05 Jun 2027 23:05:27.276           251.746                 Moscow          7867.062
       457   06 Jun 2027 00:32:04.754   06 Jun 2027 00:33:39.228            94.474              Murmansk2          2952.312
       458   06 Jun 2027 00:34:05.730   06 Jun 2027 00:34:27.124            21.394                Novosib           668.563
       459   06 Jun 2027 00:34:41.182   06 Jun 2027 00:35:24.788            43.606              Murmansk2          1362.687
       460   06 Jun 2027 00:35:26.950   06 Jun 2027 00:37:30.005           123.055                 Moscow          3845.469
       461   06 Jun 2027 00:59:48.001   06 Jun 2027 01:01:14.432            86.431               CapeTown          2700.969
       462   06 Jun 2027 01:02:07.547   06 Jun 2027 01:03:24.455            76.908               CapeTown          2403.375
       463   06 Jun 2027 01:58:26.749   06 Jun 2027 01:59:45.852            79.103               Magadan2          2471.969
       464   06 Jun 2027 02:00:12.602   06 Jun 2027 02:00:33.076            20.474               Magadan1           639.813
       465   06 Jun 2027 02:05:18.211   06 Jun 2027 02:05:21.099             2.888                Norilsk            90.250
       466   06 Jun 2027 02:05:54.266   06 Jun 2027 02:06:02.723             8.457               Magadan2           264.281
       467   06 Jun 2027 02:06:26.474   06 Jun 2027 02:06:27.713             1.239               Magadan2            38.719
       468   06 Jun 2027 02:06:50.072   06 Jun 2027 02:07:01.718            11.646                Norilsk           363.937
       469   06 Jun 2027 02:08:02.825   06 Jun 2027 02:09:32.750            89.925              Murmansk2          2810.156
       470   06 Jun 2027 02:11:15.596   06 Jun 2027 02:11:23.565             7.969              Murmansk1           249.031
       471   06 Jun 2027 02:11:37.468   06 Jun 2027 02:12:21.436            43.968                 Moscow          1374.000
       472   06 Jun 2027 02:14:17.840   06 Jun 2027 02:14:23.439             5.599                 Moscow           174.969
       473   06 Jun 2027 02:15:04.127   06 Jun 2027 02:15:34.912            30.785                 Moscow           962.031
       474   06 Jun 2027 02:22:00.139   06 Jun 2027 02:22:19.003            18.864                 Moscow           589.500
       475   06 Jun 2027 02:35:54.833   06 Jun 2027 02:36:35.698            40.865               CapeTown          1277.031
       476   06 Jun 2027 02:42:33.500   06 Jun 2027 02:43:43.963            70.463               CapeTown          2201.969
       477   06 Jun 2027 03:36:55.565   06 Jun 2027 03:37:21.313            25.748                Anadyr2           804.625
       478   06 Jun 2027 03:37:21.313   06 Jun 2027 03:38:19.725            58.412                Anadyr1          1825.375
       479   06 Jun 2027 03:38:34.198   06 Jun 2027 03:42:09.637           215.439                Anadyr1          6732.469
       480   06 Jun 2027 03:42:09.637   06 Jun 2027 03:43:01.180            51.543                Anadyr2          1610.719
       481   06 Jun 2027 03:43:24.924   06 Jun 2027 03:44:14.868            49.944                Anadyr1          1560.750
       482   06 Jun 2027 05:14:13.661   06 Jun 2027 05:15:12.312            58.651                Irkutsk          1832.844
