uniorb/output/strategy_4/Drop/Drop_KinoSat_111202.txt

KinoSat_111202
-------------------------
    Access    *     Start Time (UTCG)     *     Stop Time (UTCG)  *   Duration (s)        *       Station  *  Data (Mbytes)
         1   01 Jun 2027 04:02:15.920   01 Jun 2027 04:02:40.091            24.171                Norilsk           755.344
         2   01 Jun 2027 04:02:54.296   01 Jun 2027 04:03:22.862            28.566                 Moscow           892.688
         3   01 Jun 2027 04:03:28.501   01 Jun 2027 04:04:49.821            81.320                 Moscow          2541.250
         4   01 Jun 2027 04:04:58.196   01 Jun 2027 04:05:59.554            61.358              Murmansk2          1917.437
         5   01 Jun 2027 04:06:15.914   01 Jun 2027 04:06:50.988            35.074              Murmansk2          1096.063
         6   01 Jun 2027 04:09:25.971   01 Jun 2027 04:09:45.160            19.189                 Moscow           599.656
         7   01 Jun 2027 05:25:40.504   01 Jun 2027 05:27:07.007            86.503                Anadyr1          2703.219
         8   01 Jun 2027 05:27:19.929   01 Jun 2027 05:28:25.867            65.938                Anadyr2          2060.562
         9   01 Jun 2027 05:28:54.730   01 Jun 2027 05:30:45.352           110.622               Magadan2          3456.937
        10   01 Jun 2027 07:02:14.053   01 Jun 2027 07:03:01.790            47.737                Anadyr1          1491.781
        11   01 Jun 2027 07:03:09.745   01 Jun 2027 07:03:59.610            49.865                Irkutsk          1558.281
        12   01 Jun 2027 07:04:11.887   01 Jun 2027 07:06:16.657           124.770                Norilsk          3899.063
        13   01 Jun 2027 07:07:02.863   01 Jun 2027 07:08:12.849            69.986                Norilsk          2187.063
        14   01 Jun 2027 07:42:38.862   01 Jun 2027 07:43:00.881            22.019            RioGallegos           688.094
        15   01 Jun 2027 07:43:20.570   01 Jun 2027 07:44:06.522            45.952            RioGallegos          1436.000
        16   01 Jun 2027 07:45:28.930   01 Jun 2027 07:45:40.470            11.540            RioGallegos           360.625
        17   01 Jun 2027 08:36:50.229   01 Jun 2027 08:37:43.015            52.786               Magadan1          1649.562
        18   01 Jun 2027 08:37:43.015   01 Jun 2027 08:39:47.646           124.631               Magadan2          3894.719
        19   01 Jun 2027 08:40:08.273   01 Jun 2027 08:40:31.795            23.522                Norilsk           735.063
        20   01 Jun 2027 08:40:39.481   01 Jun 2027 08:42:27.127           107.646              Murmansk1          3363.938
        21   01 Jun 2027 08:42:37.928   01 Jun 2027 08:43:33.849            55.921              Murmansk1          1747.531
        22   01 Jun 2027 09:17:42.702   01 Jun 2027 09:18:20.856            38.154            RioGallegos          1192.312
        23   01 Jun 2027 09:19:28.180   01 Jun 2027 09:20:25.074            56.894            RioGallegos          1777.937
        24   01 Jun 2027 09:52:17.757   01 Jun 2027 09:53:08.385            50.628                Sumatra          1582.125
        25   01 Jun 2027 09:54:55.900   01 Jun 2027 09:55:18.026            22.126                Sumatra           691.437
        26   01 Jun 2027 10:14:28.889   01 Jun 2027 10:15:13.178            44.289                Irkutsk          1384.031
        27   01 Jun 2027 10:15:19.264   01 Jun 2027 10:19:35.321           256.057                Novosib          8001.781
        28   01 Jun 2027 10:20:02.222   01 Jun 2027 10:20:40.846            38.624              Murmansk1          1207.000
        29   01 Jun 2027 10:55:30.820   01 Jun 2027 10:55:43.665            12.845            RioGallegos           401.406
        30   01 Jun 2027 10:58:11.664   01 Jun 2027 10:59:30.521            78.857            RioGallegos          2464.281
        31   01 Jun 2027 11:29:48.421   01 Jun 2027 11:30:08.135            19.714                Sumatra           616.062
        32   01 Jun 2027 11:32:20.435   01 Jun 2027 11:34:35.772           135.337                Sumatra          4229.281
        33   01 Jun 2027 11:50:57.713   01 Jun 2027 11:51:30.938            33.225                Irkutsk          1038.281
        34   01 Jun 2027 11:52:27.163   01 Jun 2027 11:52:28.606             1.443                Irkutsk            45.094
        35   01 Jun 2027 11:52:37.294   01 Jun 2027 11:55:36.769           179.475                Norilsk          5608.594
        36   01 Jun 2027 13:15:29.342   01 Jun 2027 13:16:50.530            81.188                  Delhi          2537.125
        37   01 Jun 2027 13:19:14.526   01 Jun 2027 13:19:59.710            45.184                  Delhi          1412.000
        38   01 Jun 2027 13:20:49.606   01 Jun 2027 13:21:11.312            21.706                 Moscow           678.313
        39   01 Jun 2027 13:21:52.545   01 Jun 2027 13:23:11.432            78.887                 Moscow          2465.219
        40   01 Jun 2027 13:23:59.297   01 Jun 2027 13:26:18.444           139.147                Novosib          4348.344
        41   01 Jun 2027 13:26:37.373   01 Jun 2027 13:27:14.647            37.274              Murmansk2          1164.813
        42   01 Jun 2027 13:27:17.513   01 Jun 2027 13:28:04.114            46.601                Novosib          1456.281
        43   01 Jun 2027 13:29:22.763   01 Jun 2027 13:29:54.812            32.049                Norilsk          1001.531
        44   01 Jun 2027 13:30:19.024   01 Jun 2027 13:31:32.835            73.811                Norilsk          2306.594
        45   01 Jun 2027 13:34:24.222   01 Jun 2027 13:35:15.155            50.933                Norilsk          1591.656
        46   01 Jun 2027 13:36:24.106   01 Jun 2027 13:36:47.118            23.012              Murmansk2           719.125
        47   01 Jun 2027 14:36:38.905   01 Jun 2027 14:38:58.900           139.995               CapeTown          4374.844
        48   01 Jun 2027 14:39:26.225   01 Jun 2027 14:40:22.593            56.368               CapeTown          1761.500
        49   01 Jun 2027 14:42:10.946   01 Jun 2027 14:43:30.443            79.497               CapeTown          2484.281
        50   01 Jun 2027 15:01:39.350   01 Jun 2027 15:01:54.139            14.789              Murmansk2           462.156
        51   01 Jun 2027 15:03:18.120   01 Jun 2027 15:03:59.160            41.040                 Moscow          1282.500
        52   01 Jun 2027 15:04:59.032   01 Jun 2027 15:05:03.746             4.714              Murmansk2           147.313
        53   01 Jun 2027 15:05:03.746   01 Jun 2027 15:05:24.648            20.902              Murmansk1           653.188
        54   01 Jun 2027 15:05:29.794   01 Jun 2027 15:05:44.286            14.492              Murmansk1           452.875
        55   01 Jun 2027 15:06:09.818   01 Jun 2027 15:06:27.396            17.578              Murmansk1           549.313
        56   01 Jun 2027 15:06:43.418   01 Jun 2027 15:06:58.473            15.055                 Moscow           470.469
        57   01 Jun 2027 15:07:03.437   01 Jun 2027 15:07:18.232            14.795                 Moscow           462.344
        58   01 Jun 2027 15:08:16.988   01 Jun 2027 15:09:14.416            57.428                 Moscow          1794.625
        59   01 Jun 2027 15:09:48.445   01 Jun 2027 15:10:02.954            14.509              Murmansk2           453.406
        60   01 Jun 2027 15:10:23.644   01 Jun 2027 15:11:08.122            44.478              Murmansk1          1389.937
        61   01 Jun 2027 15:11:48.489   01 Jun 2027 15:12:24.634            36.145              Murmansk2          1129.531
        62   01 Jun 2027 15:15:29.681   01 Jun 2027 15:15:34.532             4.851                Anadyr2           151.594
        63   01 Jun 2027 15:16:38.787   01 Jun 2027 15:17:16.254            37.467                Anadyr2          1170.844
        64   01 Jun 2027 15:17:58.244   01 Jun 2027 15:19:12.046            73.802                Anadyr2          2306.312
        65   01 Jun 2027 15:19:51.738   01 Jun 2027 15:20:25.448            33.710                Anadyr1          1053.437
        66   01 Jun 2027 15:21:00.354   01 Jun 2027 15:21:43.811            43.457                Anadyr1          1358.031
        67   01 Jun 2027 15:23:12.246   01 Jun 2027 15:23:14.077             1.831                Anadyr1            57.219
        68   01 Jun 2027 16:22:02.248   01 Jun 2027 16:22:33.720            31.472               CapeTown           983.500
        69   01 Jun 2027 16:38:41.436   01 Jun 2027 16:39:47.215            65.779                 Moscow          2055.594
        70   01 Jun 2027 16:41:55.930   01 Jun 2027 16:42:25.706            29.776                 Moscow           930.500
        71   01 Jun 2027 16:42:58.310   01 Jun 2027 16:43:28.711            30.401              Murmansk1           950.031
        72   01 Jun 2027 16:45:28.468   01 Jun 2027 16:46:17.487            49.019              Murmansk2          1531.844
        73   01 Jun 2027 16:47:51.345   01 Jun 2027 16:48:49.449            58.104              Murmansk1          1815.750
        74   01 Jun 2027 16:52:26.833   01 Jun 2027 16:52:57.228            30.395                Anadyr1           949.844
        75   01 Jun 2027 16:54:07.171   01 Jun 2027 16:54:34.057            26.886                Anadyr2           840.187
        76   01 Jun 2027 16:55:18.729   01 Jun 2027 16:57:24.340           125.611               Magadan1          3925.344
        77   01 Jun 2027 16:57:50.344   01 Jun 2027 16:59:17.448            87.104               Magadan1          2722.000
        78   01 Jun 2027 18:26:36.519   01 Jun 2027 18:30:48.219           251.700                Anadyr2          7865.625
        79   01 Jun 2027 18:30:57.325   01 Jun 2027 18:31:37.556            40.231               Magadan2          1257.219
        80   01 Jun 2027 18:31:37.556   01 Jun 2027 18:32:30.413            52.857               Magadan1          1651.781
        81   01 Jun 2027 18:39:50.206   01 Jun 2027 18:40:36.752            46.546               Magadan2          1454.563
        82   01 Jun 2027 20:02:30.685   01 Jun 2027 20:06:17.781           227.096                Anadyr1          7096.750
        83   01 Jun 2027 20:06:18.857   01 Jun 2027 20:08:07.661           108.804               Magadan2          3400.125
        84   01 Jun 2027 20:08:26.632   01 Jun 2027 20:08:56.554            29.922               Magadan2           935.062
        85   01 Jun 2027 20:11:38.454   01 Jun 2027 20:11:47.521             9.067               Magadan1           283.344
        86   01 Jun 2027 20:12:22.687   01 Jun 2027 20:13:26.197            63.510               Magadan2          1984.687
        87   01 Jun 2027 20:56:52.949   01 Jun 2027 20:58:46.687           113.738            RioGallegos          3554.313
        88   01 Jun 2027 20:59:51.385   01 Jun 2027 21:00:17.831            26.446            RioGallegos           826.437
        89   01 Jun 2027 21:02:43.193   01 Jun 2027 21:03:03.614            20.421            RioGallegos           638.156
        90   01 Jun 2027 21:06:20.250   01 Jun 2027 21:06:54.725            34.475            RioGallegos          1077.344
        91   01 Jun 2027 21:07:11.561   01 Jun 2027 21:07:44.222            32.661            RioGallegos          1020.656
        92   01 Jun 2027 21:38:05.003   01 Jun 2027 21:38:22.351            17.348                Anadyr2           542.125
        93   01 Jun 2027 21:38:42.189   01 Jun 2027 21:40:12.276            90.087                Anadyr2          2815.219
        94   01 Jun 2027 21:40:51.863   01 Jun 2027 21:41:45.037            53.174               Magadan2          1661.687
        95   01 Jun 2027 21:42:15.757   01 Jun 2027 21:42:27.271            11.514               Magadan2           359.812
        96   01 Jun 2027 21:42:40.839   01 Jun 2027 21:42:49.517             8.678               Magadan1           271.187
        97   01 Jun 2027 21:44:29.555   01 Jun 2027 21:44:32.547             2.992                Irkutsk            93.500
        98   01 Jun 2027 21:44:50.139   01 Jun 2027 21:45:10.882            20.743                Norilsk           648.219
        99   01 Jun 2027 21:45:11.273   01 Jun 2027 21:45:39.003            27.730                Irkutsk           866.563
       100   01 Jun 2027 21:46:10.568   01 Jun 2027 21:46:52.414            41.846                Novosib          1307.687
       101   01 Jun 2027 21:48:45.347   01 Jun 2027 21:49:27.920            42.573                Novosib          1330.406
       102   01 Jun 2027 21:58:12.434   01 Jun 2027 21:59:02.222            49.788                Sumatra          1555.875
       103   01 Jun 2027 22:04:25.611   01 Jun 2027 22:05:00.910            35.299                Sumatra          1103.094
       104   01 Jun 2027 22:08:23.484   01 Jun 2027 22:09:16.821            53.337                Sumatra          1666.781
       105   01 Jun 2027 23:12:44.598   01 Jun 2027 23:14:34.609           110.011                Anadyr2          3437.844
       106   01 Jun 2027 23:15:02.272   01 Jun 2027 23:15:30.434            28.162                Anadyr1           880.063
       107   01 Jun 2027 23:16:19.144   01 Jun 2027 23:16:48.936            29.792                Norilsk           931.000
       108   01 Jun 2027 23:16:57.326   01 Jun 2027 23:17:36.454            39.128               Magadan2          1222.750
       109   01 Jun 2027 23:17:36.454   01 Jun 2027 23:18:22.148            45.694               Magadan1          1427.938
       110   01 Jun 2027 23:18:26.938   01 Jun 2027 23:18:36.443             9.505               Magadan2           297.031
       111   01 Jun 2027 23:18:47.384   01 Jun 2027 23:18:59.885            12.501               Magadan2           390.656
       112   01 Jun 2027 23:19:58.731   01 Jun 2027 23:20:11.313            12.582               Magadan1           393.187
       113   01 Jun 2027 23:20:11.722   01 Jun 2027 23:21:21.923            70.201                Irkutsk          2193.781
       114   01 Jun 2027 23:21:57.757   01 Jun 2027 23:22:46.811            49.054                Novosib          1532.937
       115   01 Jun 2027 23:25:29.659   01 Jun 2027 23:26:07.856            38.197                Novosib          1193.656
       116   01 Jun 2027 23:27:58.407   01 Jun 2027 23:28:36.239            37.832                  Delhi          1182.250
       117   01 Jun 2027 23:29:50.332   01 Jun 2027 23:29:57.297             6.965                  Delhi           217.656
       118   01 Jun 2027 23:30:38.451   01 Jun 2027 23:31:23.287            44.836                  Delhi          1401.125
       119   01 Jun 2027 23:35:17.973   01 Jun 2027 23:36:49.422            91.449                  Delhi          2857.781
       120   02 Jun 2027 00:46:33.414   02 Jun 2027 00:47:03.214            29.800                Anadyr1           931.250
       121   02 Jun 2027 00:47:38.589   02 Jun 2027 00:48:25.964            47.375                Anadyr1          1480.469
       122   02 Jun 2027 00:48:47.132   02 Jun 2027 00:48:54.119             6.987                Anadyr1           218.344
       123   02 Jun 2027 00:49:00.919   02 Jun 2027 00:49:14.627            13.708                Anadyr2           428.375
       124   02 Jun 2027 00:51:52.421   02 Jun 2027 00:52:07.720            15.299                Anadyr2           478.094
       125   02 Jun 2027 00:52:17.191   02 Jun 2027 00:52:19.718             2.527                Anadyr2            78.969
       126   02 Jun 2027 00:52:20.296   02 Jun 2027 00:53:55.613            95.317               Magadan2          2978.656
       127   02 Jun 2027 00:54:31.780   02 Jun 2027 00:55:06.399            34.619               Magadan1          1081.844
       128   02 Jun 2027 00:55:10.805   02 Jun 2027 00:55:37.171            26.366               Magadan2           823.937
       129   02 Jun 2027 00:56:06.501   02 Jun 2027 00:57:57.294           110.793                Novosib          3462.281
       130   02 Jun 2027 00:58:25.691   02 Jun 2027 00:59:09.099            43.408                Novosib          1356.500
       131   02 Jun 2027 00:59:16.753   02 Jun 2027 00:59:50.328            33.575                 Moscow          1049.219
       132   02 Jun 2027 01:02:31.036   02 Jun 2027 01:02:53.121            22.085                 Moscow           690.156
       133   02 Jun 2027 01:04:58.247   02 Jun 2027 01:05:06.793             8.546                  Delhi           267.063
       134   02 Jun 2027 01:08:39.464   02 Jun 2027 01:08:54.564            15.100                  Delhi           471.875
       135   02 Jun 2027 01:14:20.330   02 Jun 2027 01:15:03.160            42.830                  Delhi          1338.437
       136   02 Jun 2027 02:19:41.405   02 Jun 2027 02:22:30.872           169.467                Anadyr2          5295.844
       137   02 Jun 2027 02:22:51.920   02 Jun 2027 02:22:53.176             1.256                Anadyr2            39.250
       138   02 Jun 2027 02:23:19.549   02 Jun 2027 02:23:50.482            30.933                Anadyr1           966.656
       139   02 Jun 2027 02:24:38.241   02 Jun 2027 02:25:25.556            47.315               Magadan1          1478.594
       140   02 Jun 2027 02:25:53.628   02 Jun 2027 02:26:09.780            16.152               Magadan1           504.750
       141   02 Jun 2027 02:27:37.716   02 Jun 2027 02:27:39.546             1.830               Magadan1            57.188
       142   02 Jun 2027 02:28:04.565   02 Jun 2027 02:28:36.694            32.129                Norilsk          1004.031
       143   02 Jun 2027 02:30:25.923   02 Jun 2027 02:31:17.067            51.144              Murmansk2          1598.250
       144   02 Jun 2027 02:31:45.443   02 Jun 2027 02:32:29.003            43.560              Murmansk1          1361.250
       145   02 Jun 2027 02:33:04.357   02 Jun 2027 02:34:57.574           113.217                Novosib          3538.031
       146   02 Jun 2027 02:57:58.854   02 Jun 2027 02:58:37.436            38.582               CapeTown          1205.688
       147   02 Jun 2027 03:09:05.075   02 Jun 2027 03:10:14.249            69.174               CapeTown          2161.687
       148   02 Jun 2027 04:01:28.230   02 Jun 2027 04:03:58.593           150.363                Anadyr1          4698.844
       149   02 Jun 2027 04:04:25.328   02 Jun 2027 04:04:40.333            15.005               Magadan1           468.906
       150   02 Jun 2027 04:05:22.402   02 Jun 2027 04:05:59.441            37.039                Anadyr2          1157.469
       151   02 Jun 2027 04:15:30.729   02 Jun 2027 04:16:19.456            48.727              Murmansk2          1522.719
       152   02 Jun 2027 04:17:10.767   02 Jun 2027 04:17:36.412            25.645              Murmansk2           801.406
       153   02 Jun 2027 04:18:39.602   02 Jun 2027 04:19:21.556            41.954              Murmansk1          1311.063
       154   02 Jun 2027 05:37:18.341   02 Jun 2027 05:39:35.209           136.868                Anadyr1          4277.125
       155   02 Jun 2027 05:39:41.929   02 Jun 2027 05:40:28.057            46.128               Magadan1          1441.500
       156   02 Jun 2027 05:40:39.795   02 Jun 2027 05:42:54.456           134.661                Anadyr1          4208.156
       157   02 Jun 2027 07:14:04.275   02 Jun 2027 07:14:47.415            43.140                Irkutsk          1348.125
       158   02 Jun 2027 07:14:58.039   02 Jun 2027 07:16:22.370            84.331               Magadan1          2635.344
       159   02 Jun 2027 07:16:28.822   02 Jun 2027 07:16:47.200            18.378                Novosib           574.313
       160   02 Jun 2027 07:16:55.659   02 Jun 2027 07:18:41.546           105.887               Magadan1          3308.969
       161   02 Jun 2027 08:49:12.515   02 Jun 2027 08:50:05.210            52.695               Magadan2          1646.719
       162   02 Jun 2027 08:50:21.094   02 Jun 2027 08:51:17.415            56.321               Magadan2          1760.031
       163   02 Jun 2027 08:51:54.959   02 Jun 2027 08:53:36.506           101.547               Magadan2          3173.344
       164   02 Jun 2027 10:10:58.533   02 Jun 2027 10:12:08.971            70.438                Sumatra          2201.187
       165   02 Jun 2027 10:26:39.273   02 Jun 2027 10:27:42.078            62.805                Irkutsk          1962.656
       166   02 Jun 2027 10:27:46.628   02 Jun 2027 10:27:47.399             0.771                Irkutsk            24.094
       167   02 Jun 2027 10:27:51.150   02 Jun 2027 10:28:23.539            32.389                Irkutsk          1012.156
       168   02 Jun 2027 10:28:33.505   02 Jun 2027 10:28:48.019            14.514                Novosib           453.563
       169   02 Jun 2027 10:29:14.014   02 Jun 2027 10:29:37.337            23.323                Irkutsk           728.844
       170   02 Jun 2027 10:29:42.820   02 Jun 2027 10:30:01.457            18.637                Norilsk           582.406
       171   02 Jun 2027 10:30:07.837   02 Jun 2027 10:30:09.172             1.335                Novosib            41.719
       172   02 Jun 2027 10:30:28.608   02 Jun 2027 10:30:43.454            14.846                Norilsk           463.937
       173   02 Jun 2027 11:08:17.736   02 Jun 2027 11:08:45.571            27.835            RioGallegos           869.844
       174   02 Jun 2027 11:10:32.046   02 Jun 2027 11:11:23.272            51.226            RioGallegos          1600.813
       175   02 Jun 2027 11:42:55.515   02 Jun 2027 11:44:12.290            76.775                Sumatra          2399.219
       176   02 Jun 2027 12:05:37.243   02 Jun 2027 12:05:43.027             5.784                Novosib           180.750
       177   02 Jun 2027 12:06:15.769   02 Jun 2027 12:06:47.930            32.161                Novosib          1005.031
       178   02 Jun 2027 12:13:04.600   02 Jun 2027 12:13:11.102             6.502              Murmansk1           203.187
       179   02 Jun 2027 13:29:34.286   02 Jun 2027 13:32:11.883           157.597                  Delhi          4924.906
       180   02 Jun 2027 13:33:58.663   02 Jun 2027 13:35:27.333            88.670                 Moscow          2770.937
       181   02 Jun 2027 13:36:05.319   02 Jun 2027 13:37:08.138            62.819              Murmansk1          1963.094
       182   02 Jun 2027 13:39:09.819   02 Jun 2027 13:40:27.903            78.084                Novosib          2440.125
       183   02 Jun 2027 13:44:35.468   02 Jun 2027 13:44:55.219            19.751                Norilsk           617.219
       184   02 Jun 2027 13:46:32.594   02 Jun 2027 13:46:56.542            23.948                Norilsk           748.375
       185   02 Jun 2027 14:48:18.893   02 Jun 2027 14:50:39.761           140.868               CapeTown          4402.125
       186   02 Jun 2027 15:09:33.396   02 Jun 2027 15:09:45.719            12.323                 Moscow           385.094
       187   02 Jun 2027 15:09:56.312   02 Jun 2027 15:10:12.042            15.730                 Moscow           491.562
       188   02 Jun 2027 15:12:52.252   02 Jun 2027 15:13:53.451            61.199              Murmansk2          1912.469
       189   02 Jun 2027 15:13:53.451   02 Jun 2027 15:14:15.686            22.235              Murmansk1           694.844
       190   02 Jun 2027 15:15:44.763   02 Jun 2027 15:16:41.426            56.663              Murmansk2          1770.719
       191   02 Jun 2027 15:23:17.048   02 Jun 2027 15:23:27.421            10.373              Murmansk1           324.156
       192   02 Jun 2027 15:27:20.289   02 Jun 2027 15:29:55.171           154.882                Anadyr2          4840.062
       193   02 Jun 2027 15:35:13.723   02 Jun 2027 15:35:43.711            29.988                Anadyr2           937.125
       194   02 Jun 2027 16:30:36.176   02 Jun 2027 16:30:38.224             2.048               CapeTown            64.000
       195   02 Jun 2027 16:31:05.358   02 Jun 2027 16:31:39.630            34.272               CapeTown          1071.000
       196   02 Jun 2027 16:33:54.045   02 Jun 2027 16:34:49.462            55.417               CapeTown          1731.781
       197   02 Jun 2027 16:51:48.011   02 Jun 2027 16:52:58.725            70.714              Murmansk1          2209.812
       198   02 Jun 2027 16:55:56.411   02 Jun 2027 16:56:46.865            50.454              Murmansk2          1576.687
       199   02 Jun 2027 17:02:44.421   02 Jun 2027 17:04:05.816            81.395                Anadyr2          2543.594
       200   02 Jun 2027 17:06:27.005   02 Jun 2027 17:06:33.136             6.131                Anadyr1           191.594
       201   02 Jun 2027 17:06:38.624   02 Jun 2027 17:08:59.158           140.534               Magadan2          4391.687
       202   02 Jun 2027 18:38:38.056   02 Jun 2027 18:40:44.709           126.653                Anadyr2          3957.906
       203   02 Jun 2027 18:40:58.281   02 Jun 2027 18:42:28.578            90.297                Anadyr1          2821.781
       204   02 Jun 2027 18:42:32.063   02 Jun 2027 18:44:27.464           115.401               Magadan1          3606.281
       205   02 Jun 2027 18:44:27.464   02 Jun 2027 18:44:54.035            26.571               Magadan2           830.344
       206   02 Jun 2027 18:46:22.013   02 Jun 2027 18:46:36.802            14.789               Magadan2           462.156
       207   02 Jun 2027 18:50:36.976   02 Jun 2027 18:51:09.106            32.130               Magadan1          1004.063
       208   02 Jun 2027 20:14:31.065   02 Jun 2027 20:16:36.565           125.500                Anadyr2          3921.875
       209   02 Jun 2027 20:16:40.454   02 Jun 2027 20:17:58.768            78.314                Anadyr1          2447.312
       210   02 Jun 2027 20:18:13.572   02 Jun 2027 20:20:56.068           162.496               Magadan1          5078.000
       211   02 Jun 2027 20:21:58.709   02 Jun 2027 20:22:05.003             6.294               Magadan1           196.688
       212   02 Jun 2027 20:22:40.567   02 Jun 2027 20:22:47.151             6.584                Norilsk           205.750
       213   02 Jun 2027 20:22:54.287   02 Jun 2027 20:24:26.133            91.846                Irkutsk          2870.187
       214   02 Jun 2027 20:25:13.967   02 Jun 2027 20:25:20.691             6.724                Irkutsk           210.125
       215   02 Jun 2027 20:26:12.083   02 Jun 2027 20:26:36.567            24.484                Irkutsk           765.125
       216   02 Jun 2027 21:08:44.246   02 Jun 2027 21:09:48.684            64.438            RioGallegos          2013.688
       217   02 Jun 2027 21:11:36.370   02 Jun 2027 21:11:48.048            11.678            RioGallegos           364.938
       218   02 Jun 2027 21:13:59.061   02 Jun 2027 21:14:37.876            38.815            RioGallegos          1212.969
       219   02 Jun 2027 21:18:20.539   02 Jun 2027 21:18:32.571            12.032            RioGallegos           376.000
       220   02 Jun 2027 21:50:00.748   02 Jun 2027 21:50:27.436            26.688                Anadyr2           834.000
       221   02 Jun 2027 21:50:30.505   02 Jun 2027 21:50:52.555            22.050                Anadyr2           689.062
       222   02 Jun 2027 21:52:14.089   02 Jun 2027 21:52:21.670             7.581                Anadyr1           236.906
       223   02 Jun 2027 21:52:22.437   02 Jun 2027 21:54:29.284           126.847                Norilsk          3963.969
       224   02 Jun 2027 21:54:32.956   02 Jun 2027 21:55:10.600            37.644               Magadan1          1176.375
       225   02 Jun 2027 21:56:25.326   02 Jun 2027 21:57:21.689            56.363                Irkutsk          1761.344
       226   02 Jun 2027 21:57:40.825   02 Jun 2027 21:58:10.546            29.721                Novosib           928.781
       227   02 Jun 2027 21:58:19.269   02 Jun 2027 22:00:21.746           122.477                Novosib          3827.406
       228   02 Jun 2027 22:10:44.928   02 Jun 2027 22:11:26.829            41.901                Sumatra          1309.406
       229   02 Jun 2027 23:24:30.911   02 Jun 2027 23:26:06.799            95.888                Anadyr2          2996.500
       230   02 Jun 2027 23:26:47.328   02 Jun 2027 23:27:26.567            39.239                Anadyr1          1226.219
       231   02 Jun 2027 23:28:21.229   02 Jun 2027 23:28:41.620            20.391                Norilsk           637.219
       232   02 Jun 2027 23:28:58.943   02 Jun 2027 23:29:50.171            51.228               Magadan2          1600.875
       233   02 Jun 2027 23:29:50.171   02 Jun 2027 23:30:24.466            34.295               Magadan1          1071.719
       234   02 Jun 2027 23:32:15.007   02 Jun 2027 23:32:54.843            39.836                Novosib          1244.875
       235   02 Jun 2027 23:33:08.714   02 Jun 2027 23:33:37.679            28.965                Novosib           905.156
       236   02 Jun 2027 23:35:16.568   02 Jun 2027 23:35:35.866            19.298                Novosib           603.062
       237   02 Jun 2027 23:38:16.476   02 Jun 2027 23:38:57.725            41.249                Novosib          1289.031
       238   02 Jun 2027 23:39:46.386   02 Jun 2027 23:42:01.643           135.257                  Delhi          4226.781
       239   03 Jun 2027 00:57:55.476   03 Jun 2027 00:59:12.238            76.762                Anadyr1          2398.813
       240   03 Jun 2027 00:59:35.928   03 Jun 2027 00:59:59.772            23.844                Anadyr2           745.125
       241   03 Jun 2027 01:00:42.224   03 Jun 2027 01:00:52.097             9.873                Anadyr2           308.531
       242   03 Jun 2027 01:03:38.499   03 Jun 2027 01:04:10.961            32.462                Anadyr1          1014.438
       243   03 Jun 2027 01:04:19.355   03 Jun 2027 01:04:38.257            18.902                Norilsk           590.687
       244   03 Jun 2027 01:04:55.459   03 Jun 2027 01:06:34.401            98.942               Magadan2          3091.938
       245   03 Jun 2027 01:06:37.024   03 Jun 2027 01:08:40.755           123.731              Murmansk1          3866.594
       246   03 Jun 2027 01:09:48.524   03 Jun 2027 01:10:16.524            28.000              Murmansk1           875.000
       247   03 Jun 2027 01:10:54.871   03 Jun 2027 01:11:04.820             9.949                 Moscow           310.906
       248   03 Jun 2027 01:13:52.458   03 Jun 2027 01:14:10.072            17.614                 Moscow           550.437
       249   03 Jun 2027 01:14:37.112   03 Jun 2027 01:14:47.619            10.507                 Moscow           328.344
       250   03 Jun 2027 01:14:51.802   03 Jun 2027 01:15:17.842            26.040                 Moscow           813.750
       251   03 Jun 2027 01:21:13.596   03 Jun 2027 01:21:31.864            18.268                  Delhi           570.875
       252   03 Jun 2027 01:26:00.848   03 Jun 2027 01:26:31.667            30.819                  Delhi           963.094
       253   03 Jun 2027 01:39:22.401   03 Jun 2027 01:39:51.520            29.119               CapeTown           909.969
       254   03 Jun 2027 01:42:30.799   03 Jun 2027 01:43:06.054            35.255               CapeTown          1101.719
       255   03 Jun 2027 02:31:28.100   03 Jun 2027 02:32:34.097            65.997                Anadyr2          2062.406
       256   03 Jun 2027 02:32:45.839   03 Jun 2027 02:33:32.708            46.869                Anadyr1          1464.656
       257   03 Jun 2027 02:34:45.182   03 Jun 2027 02:35:00.919            15.737                Anadyr1           491.781
       258   03 Jun 2027 02:36:06.172   03 Jun 2027 02:36:58.516            52.344               Magadan2          1635.750
       259   03 Jun 2027 02:39:30.537   03 Jun 2027 02:39:54.211            23.674               Magadan1           739.812
       260   03 Jun 2027 02:42:27.602   03 Jun 2027 02:43:52.832            85.230              Murmansk1          2663.438
       261   03 Jun 2027 02:44:39.618   03 Jun 2027 02:46:19.732           100.114                Novosib          3128.563
       262   03 Jun 2027 02:57:17.731   03 Jun 2027 02:57:31.061            13.330                 Moscow           416.563
       263   03 Jun 2027 03:09:46.719   03 Jun 2027 03:10:50.403            63.684               CapeTown          1990.125
       264   03 Jun 2027 04:12:58.691   03 Jun 2027 04:14:23.647            84.956               Magadan2          2654.875
       265   03 Jun 2027 04:14:23.647   03 Jun 2027 04:16:08.084           104.437               Magadan1          3263.656
       266   03 Jun 2027 04:16:30.235   03 Jun 2027 04:16:49.751            19.516               Magadan2           609.875
       267   03 Jun 2027 04:25:29.079   03 Jun 2027 04:26:06.547            37.468              Murmansk1          1170.875
       268   03 Jun 2027 04:27:34.696   03 Jun 2027 04:28:15.764            41.068              Murmansk2          1283.375
       269   03 Jun 2027 05:47:47.319   03 Jun 2027 05:49:43.990           116.671                Anadyr2          3645.969
       270   03 Jun 2027 05:49:48.021   03 Jun 2027 05:50:56.473            68.452               Magadan1          2139.125
       271   03 Jun 2027 05:51:09.242   03 Jun 2027 05:53:00.635           111.393               Magadan2          3481.031
       272   03 Jun 2027 05:54:12.697   03 Jun 2027 05:54:41.073            28.376               Magadan2           886.750
       273   03 Jun 2027 07:23:48.321   03 Jun 2027 07:23:56.855             8.534               Magadan2           266.687
       274   03 Jun 2027 07:23:57.909   03 Jun 2027 07:24:31.913            34.004                Anadyr2          1062.625
       275   03 Jun 2027 07:24:48.447   03 Jun 2027 07:24:55.011             6.564               Magadan2           205.125
       276   03 Jun 2027 07:25:20.401   03 Jun 2027 07:25:24.658             4.257               Magadan2           133.031
       277   03 Jun 2027 07:25:37.207   03 Jun 2027 07:26:10.321            33.114                Anadyr2          1034.812
       278   03 Jun 2027 07:26:10.321   03 Jun 2027 07:26:53.583            43.262                Anadyr1          1351.938
       279   03 Jun 2027 07:26:58.304   03 Jun 2027 07:27:17.264            18.960               Magadan2           592.500
       280   03 Jun 2027 07:27:17.264   03 Jun 2027 07:28:06.469            49.205               Magadan1          1537.656
       281   03 Jun 2027 07:28:12.962   03 Jun 2027 07:28:15.301             2.339               Magadan1            73.094
       282   03 Jun 2027 07:28:22.934   03 Jun 2027 07:28:34.326            11.392                Novosib           356.000
       283   03 Jun 2027 07:28:43.114   03 Jun 2027 07:29:17.219            34.105                Anadyr2          1065.781
       284   03 Jun 2027 07:29:35.842   03 Jun 2027 07:30:40.256            64.414               Magadan1          2012.938
       285   03 Jun 2027 08:45:25.070   03 Jun 2027 08:46:28.162            63.092                Sumatra          1971.625
       286   03 Jun 2027 09:00:01.301   03 Jun 2027 09:01:11.931            70.630               Magadan2          2207.187
       287   03 Jun 2027 09:02:47.866   03 Jun 2027 09:03:25.594            37.728                Irkutsk          1179.000
       288   03 Jun 2027 09:04:05.025   03 Jun 2027 09:04:48.232            43.207               Magadan1          1350.219
       289   03 Jun 2027 09:05:06.300   03 Jun 2027 09:05:16.251             9.951               Magadan1           310.969
       290   03 Jun 2027 09:05:43.732   03 Jun 2027 09:06:00.383            16.651                Irkutsk           520.344
       291   03 Jun 2027 09:06:11.488   03 Jun 2027 09:06:36.324            24.836                Novosib           776.125
       292   03 Jun 2027 09:41:21.991   03 Jun 2027 09:42:07.452            45.461            RioGallegos          1420.656
       293   03 Jun 2027 10:16:05.225   03 Jun 2027 10:16:54.475            49.250                Sumatra          1539.063
       294   03 Jun 2027 10:24:54.132   03 Jun 2027 10:25:00.954             6.822                Sumatra           213.188
       295   03 Jun 2027 10:26:26.542   03 Jun 2027 10:26:29.824             3.282                  Delhi           102.563
       296   03 Jun 2027 10:28:57.507   03 Jun 2027 10:29:21.249            23.742                  Delhi           741.937
       297   03 Jun 2027 10:29:41.760   03 Jun 2027 10:30:48.114            66.354                  Delhi          2073.562
       298   03 Jun 2027 10:36:08.551   03 Jun 2027 10:36:10.931             2.380                  Delhi            74.375
       299   03 Jun 2027 10:37:31.328   03 Jun 2027 10:38:38.087            66.759                Irkutsk          2086.219
       300   03 Jun 2027 10:38:46.033   03 Jun 2027 10:39:31.078            45.045                Irkutsk          1407.656
       301   03 Jun 2027 10:39:57.976   03 Jun 2027 10:40:06.666             8.690                Irkutsk           271.563
       302   03 Jun 2027 10:40:08.128   03 Jun 2027 10:40:11.511             3.383                Novosib           105.719
       303   03 Jun 2027 10:40:24.370   03 Jun 2027 10:40:42.961            18.591                Norilsk           580.969
       304   03 Jun 2027 10:40:45.493   03 Jun 2027 10:42:07.948            82.455                Novosib          2576.719
       305   03 Jun 2027 10:42:26.762   03 Jun 2027 10:42:55.129            28.367                Norilsk           886.469
       306   03 Jun 2027 11:21:17.306   03 Jun 2027 11:21:28.211            10.905            RioGallegos           340.781
       307   03 Jun 2027 11:21:59.694   03 Jun 2027 11:22:37.473            37.779            RioGallegos          1180.594
       308   03 Jun 2027 11:24:29.205   03 Jun 2027 11:25:13.842            44.637            RioGallegos          1394.906
       309   03 Jun 2027 12:02:29.226   03 Jun 2027 12:03:25.290            56.064                  Delhi          1752.000
       310   03 Jun 2027 12:08:07.382   03 Jun 2027 12:08:35.522            28.140                Novosib           879.375
       311   03 Jun 2027 12:10:15.260   03 Jun 2027 12:10:42.501            27.241                Novosib           851.281
       312   03 Jun 2027 12:14:31.985   03 Jun 2027 12:14:59.247            27.262                Novosib           851.938
       313   03 Jun 2027 12:19:58.327   03 Jun 2027 12:20:27.634            29.307                Norilsk           915.844
       314   03 Jun 2027 13:44:41.760   03 Jun 2027 13:48:34.728           232.968                 Moscow          7280.250
       315   03 Jun 2027 13:48:55.402   03 Jun 2027 13:50:16.297            80.895              Murmansk2          2527.969
       316   03 Jun 2027 13:52:00.055   03 Jun 2027 13:53:09.705            69.650                Norilsk          2176.563
       317   03 Jun 2027 13:53:58.897   03 Jun 2027 13:54:22.012            23.115                Norilsk           722.344
       318   03 Jun 2027 14:59:23.205   03 Jun 2027 15:02:25.944           182.739               CapeTown          5710.594
       319   03 Jun 2027 15:05:59.096   03 Jun 2027 15:06:09.010             9.914               CapeTown           309.813
       320   03 Jun 2027 15:22:13.426   03 Jun 2027 15:22:48.378            34.952                 Moscow          1092.250
       321   03 Jun 2027 15:25:08.360   03 Jun 2027 15:25:34.258            25.898              Murmansk1           809.312
       322   03 Jun 2027 15:27:26.929   03 Jun 2027 15:27:47.343            20.414              Murmansk2           637.937
       323   03 Jun 2027 15:27:47.343   03 Jun 2027 15:28:12.521            25.178              Murmansk1           786.812
       324   03 Jun 2027 15:31:33.544   03 Jun 2027 15:32:19.362            45.818              Murmansk2          1431.813
       325   03 Jun 2027 15:39:13.517   03 Jun 2027 15:40:58.959           105.442                Anadyr1          3295.062
       326   03 Jun 2027 15:41:50.385   03 Jun 2027 15:42:08.943            18.558                Anadyr2           579.938
       327   03 Jun 2027 15:42:49.564   03 Jun 2027 15:42:54.673             5.109                Anadyr2           159.656
       328   03 Jun 2027 15:43:13.686   03 Jun 2027 15:43:30.658            16.972                Anadyr2           530.375
       329   03 Jun 2027 16:38:19.509   03 Jun 2027 16:38:31.713            12.204               CapeTown           381.375
       330   03 Jun 2027 16:40:27.664   03 Jun 2027 16:42:24.639           116.975               CapeTown          3655.469
       331   03 Jun 2027 17:04:24.075   03 Jun 2027 17:05:15.277            51.202              Murmansk2          1600.062
       332   03 Jun 2027 17:06:48.917   03 Jun 2027 17:07:32.510            43.593              Murmansk1          1362.281
       333   03 Jun 2027 17:14:44.915   03 Jun 2027 17:15:52.067            67.152                Anadyr1          2098.500
       334   03 Jun 2027 17:16:04.731   03 Jun 2027 17:16:11.846             7.115                Anadyr2           222.344
       335   03 Jun 2027 17:18:14.399   03 Jun 2027 17:19:54.942           100.543               Magadan1          3141.969
       336   03 Jun 2027 17:20:59.481   03 Jun 2027 17:21:12.830            13.349               Magadan1           417.156
       337   03 Jun 2027 17:21:29.349   03 Jun 2027 17:23:41.175           131.826               Magadan2          4119.562
       338   03 Jun 2027 18:50:39.575   03 Jun 2027 18:52:44.983           125.408                Anadyr2          3919.000
       339   03 Jun 2027 18:52:51.393   03 Jun 2027 18:53:39.038            47.645                Anadyr1          1488.906
       340   03 Jun 2027 18:53:55.086   03 Jun 2027 18:54:49.412            54.326                Anadyr1          1697.687
       341   03 Jun 2027 18:57:15.448   03 Jun 2027 18:57:38.051            22.603               Magadan2           706.344
       342   03 Jun 2027 18:58:10.614   03 Jun 2027 18:58:14.557             3.943               Magadan2           123.219
       343   03 Jun 2027 18:59:54.674   03 Jun 2027 19:00:40.213            45.539               Magadan2          1423.094
       344   03 Jun 2027 20:26:31.107   03 Jun 2027 20:28:45.741           134.634                Anadyr2          4207.312
       345   03 Jun 2027 20:28:46.125   03 Jun 2027 20:30:55.188           129.063                Norilsk          4033.219
       346   03 Jun 2027 20:31:02.633   03 Jun 2027 20:31:17.037            14.404               Magadan2           450.125
       347   03 Jun 2027 20:31:18.989   03 Jun 2027 20:31:28.216             9.227                Norilsk           288.344
       348   03 Jun 2027 20:31:43.630   03 Jun 2027 20:32:25.220            41.590                Norilsk          1299.688
       349   03 Jun 2027 20:33:11.291   03 Jun 2027 20:34:11.321            60.030               Magadan1          1875.938
       350   03 Jun 2027 20:34:37.087   03 Jun 2027 20:34:39.971             2.884                Irkutsk            90.125
       351   03 Jun 2027 20:36:27.478   03 Jun 2027 20:37:45.103            77.625                Irkutsk          2425.781
       352   03 Jun 2027 20:38:35.690   03 Jun 2027 20:40:09.352            93.662                Irkutsk          2926.937
       353   03 Jun 2027 20:50:14.609   03 Jun 2027 20:51:29.948            75.339                Sumatra          2354.344
       354   03 Jun 2027 20:55:16.995   03 Jun 2027 20:55:41.321            24.326                Sumatra           760.187
       355   03 Jun 2027 22:02:11.650   03 Jun 2027 22:02:29.787            18.137                Anadyr2           566.781
       356   03 Jun 2027 22:02:44.937   03 Jun 2027 22:03:29.708            44.771                Anadyr2          1399.094
       357   03 Jun 2027 22:04:13.985   03 Jun 2027 22:04:19.810             5.825                Anadyr2           182.031
       358   03 Jun 2027 22:04:23.711   03 Jun 2027 22:04:45.170            21.459                Norilsk           670.594
       359   03 Jun 2027 22:04:57.683   03 Jun 2027 22:05:24.317            26.634               Magadan1           832.312
       360   03 Jun 2027 22:05:24.317   03 Jun 2027 22:05:38.007            13.690               Magadan2           427.813
       361   03 Jun 2027 22:05:56.818   03 Jun 2027 22:06:10.209            13.391                Norilsk           418.469
       362   03 Jun 2027 22:06:35.695   03 Jun 2027 22:07:12.033            36.338               Magadan1          1135.563
       363   03 Jun 2027 22:08:22.533   03 Jun 2027 22:09:43.039            80.506                Irkutsk          2515.813
       364   03 Jun 2027 22:10:28.238   03 Jun 2027 22:12:08.360           100.122                Novosib          3128.813
       365   03 Jun 2027 22:22:05.640   03 Jun 2027 22:22:27.977            22.337                Sumatra           698.031
       366   03 Jun 2027 22:27:58.341   03 Jun 2027 22:27:59.734             1.393                Sumatra            43.531
       367   03 Jun 2027 22:28:42.533   03 Jun 2027 22:30:04.021            81.488                Sumatra          2546.500
       368   03 Jun 2027 23:36:16.026   03 Jun 2027 23:36:43.004            26.978                Anadyr2           843.063
       369   03 Jun 2027 23:38:07.824   03 Jun 2027 23:38:29.426            21.602                Anadyr2           675.062
       370   03 Jun 2027 23:40:23.297   03 Jun 2027 23:41:56.058            92.761                Norilsk          2898.781
       371   03 Jun 2027 23:42:16.393   03 Jun 2027 23:42:23.316             6.923               Magadan1           216.344
       372   03 Jun 2027 23:43:52.409   03 Jun 2027 23:46:57.653           185.244              Murmansk2          5788.875
       373   03 Jun 2027 23:51:38.656   03 Jun 2027 23:52:38.321            59.665                  Delhi          1864.531
       374   03 Jun 2027 23:54:21.328   03 Jun 2027 23:54:34.305            12.977                  Delhi           405.531
       375   03 Jun 2027 23:55:21.867   03 Jun 2027 23:55:42.300            20.433                  Delhi           638.531
       376   03 Jun 2027 23:59:15.821   03 Jun 2027 23:59:56.478            40.657                  Delhi          1270.531
       377   04 Jun 2027 00:39:52.006   04 Jun 2027 00:40:17.985            25.979            RioGallegos           811.844
       378   04 Jun 2027 01:09:36.669   04 Jun 2027 01:10:01.219            24.550                Anadyr2           767.187
       379   04 Jun 2027 01:10:09.147   04 Jun 2027 01:10:30.990            21.843                Anadyr1           682.594
       380   04 Jun 2027 01:11:23.498   04 Jun 2027 01:12:19.590            56.092                Anadyr2          1752.875
       381   04 Jun 2027 01:12:37.400   04 Jun 2027 01:12:38.725             1.325                Anadyr1            41.406
       382   04 Jun 2027 01:14:55.466   04 Jun 2027 01:15:25.853            30.387                Anadyr1           949.594
       383   04 Jun 2027 01:15:46.860   04 Jun 2027 01:18:08.258           141.398               Magadan1          4418.688
       384   04 Jun 2027 01:18:36.379   04 Jun 2027 01:19:24.102            47.723              Murmansk1          1491.344
       385   04 Jun 2027 01:20:13.615   04 Jun 2027 01:21:42.190            88.575                Novosib          2767.969
       386   04 Jun 2027 01:26:51.074   04 Jun 2027 01:26:51.953             0.879                 Moscow            27.469
       387   04 Jun 2027 01:28:32.742   04 Jun 2027 01:28:54.718            21.976                  Delhi           686.750
       388   04 Jun 2027 01:30:34.104   04 Jun 2027 01:31:42.451            68.347                  Delhi          2135.844
       389   04 Jun 2027 01:50:57.073   04 Jun 2027 01:51:29.214            32.141               CapeTown          1004.406
       390   04 Jun 2027 02:43:16.063   04 Jun 2027 02:43:30.573            14.510                Anadyr2           453.438
       391   04 Jun 2027 02:43:42.902   04 Jun 2027 02:45:31.511           108.609                Anadyr1          3394.031
       392   04 Jun 2027 02:46:32.909   04 Jun 2027 02:46:39.184             6.275                Anadyr1           196.094
       393   04 Jun 2027 02:47:34.590   04 Jun 2027 02:48:38.395            63.805               Magadan1          1993.906
       394   04 Jun 2027 02:49:00.570   04 Jun 2027 02:49:13.692            13.122               Magadan1           410.062
       395   04 Jun 2027 02:51:21.622   04 Jun 2027 02:51:33.247            11.625               Magadan1           363.281
       396   04 Jun 2027 02:52:01.413   04 Jun 2027 02:52:12.673            11.260                Norilsk           351.875
       397   04 Jun 2027 02:54:14.600   04 Jun 2027 02:54:25.207            10.607                Norilsk           331.469
       398   04 Jun 2027 02:54:29.378   04 Jun 2027 02:54:59.503            30.125              Murmansk2           941.406
       399   04 Jun 2027 02:55:58.539   04 Jun 2027 02:56:31.221            32.682              Murmansk2          1021.312
       400   04 Jun 2027 02:56:32.546   04 Jun 2027 02:56:40.125             7.579              Murmansk1           236.844
       401   04 Jun 2027 02:56:48.801   04 Jun 2027 02:58:22.606            93.805                Novosib          2931.406
       402   04 Jun 2027 03:00:19.506   04 Jun 2027 03:00:46.481            26.975                Novosib           842.969
       403   04 Jun 2027 03:00:53.601   04 Jun 2027 03:01:30.914            37.313              Murmansk1          1166.031
       404   04 Jun 2027 03:01:33.350   04 Jun 2027 03:02:07.685            34.335                 Moscow          1072.969
       405   04 Jun 2027 03:02:22.639   04 Jun 2027 03:02:38.315            15.676              Murmansk1           489.875
       406   04 Jun 2027 03:02:46.071   04 Jun 2027 03:03:12.566            26.495              Murmansk2           827.969
       407   04 Jun 2027 03:03:21.586   04 Jun 2027 03:03:48.663            27.077                Norilsk           846.156
       408   04 Jun 2027 03:03:49.120   04 Jun 2027 03:04:05.115            15.995                Novosib           499.844
       409   04 Jun 2027 03:04:11.737   04 Jun 2027 03:04:24.876            13.139                Novosib           410.594
       410   04 Jun 2027 03:04:32.727   04 Jun 2027 03:05:36.391            63.664              Murmansk2          1989.500
       411   04 Jun 2027 03:05:36.391   04 Jun 2027 03:05:58.120            21.729              Murmansk1           679.031
       412   04 Jun 2027 04:18:19.804   04 Jun 2027 04:19:49.102            89.298                Anadyr1          2790.563
       413   04 Jun 2027 04:19:49.102   04 Jun 2027 04:20:07.302            18.200                Anadyr2           568.750
       414   04 Jun 2027 04:25:06.770   04 Jun 2027 04:26:13.753            66.983               Magadan1          2093.219
       415   04 Jun 2027 04:26:22.661   04 Jun 2027 04:26:58.263            35.602               Magadan2          1112.562
       416   04 Jun 2027 04:28:18.941   04 Jun 2027 04:28:27.717             8.776                Norilsk           274.250
       417   04 Jun 2027 04:30:27.375   04 Jun 2027 04:30:38.671            11.296              Murmansk1           353.000
       418   04 Jun 2027 06:00:54.981   04 Jun 2027 06:03:04.636           129.655               Magadan1          4051.719
       419   04 Jun 2027 06:03:35.150   04 Jun 2027 06:04:56.631            81.481               Magadan1          2546.281
       420   04 Jun 2027 06:04:56.631   04 Jun 2027 06:05:00.906             4.275               Magadan2           133.594
       421   04 Jun 2027 06:06:36.148   04 Jun 2027 06:07:05.758            29.610                Anadyr2           925.312
       422   04 Jun 2027 07:33:34.855   04 Jun 2027 07:33:57.159            22.304               Magadan1           697.000
       423   04 Jun 2027 07:35:52.153   04 Jun 2027 07:36:41.605            49.452                Anadyr2          1545.375
       424   04 Jun 2027 07:37:48.505   04 Jun 2027 07:38:58.017            69.512               Magadan2          2172.250
       425   04 Jun 2027 07:39:20.340   04 Jun 2027 07:39:45.568            25.228               Magadan2           788.375
       426   04 Jun 2027 07:39:48.286   04 Jun 2027 07:39:55.593             7.307                Norilsk           228.344
       427   04 Jun 2027 07:40:05.775   04 Jun 2027 07:40:17.064            11.289               Magadan1           352.781
       428   04 Jun 2027 07:40:35.085   04 Jun 2027 07:40:47.636            12.551               Magadan2           392.219
       429   04 Jun 2027 07:40:58.424   04 Jun 2027 07:41:15.777            17.353                Anadyr1           542.281
       430   04 Jun 2027 07:41:32.145   04 Jun 2027 07:42:00.966            28.821                Anadyr1           900.656
       431   04 Jun 2027 07:42:33.928   04 Jun 2027 07:42:51.008            17.080                Norilsk           533.750
       432   04 Jun 2027 08:17:46.517   04 Jun 2027 08:18:40.273            53.756            RioGallegos          1679.875
       433   04 Jun 2027 08:55:28.899   04 Jun 2027 08:57:12.836           103.937                Sumatra          3248.031
       434   04 Jun 2027 09:13:41.437   04 Jun 2027 09:14:39.316            57.879                Irkutsk          1808.719
       435   04 Jun 2027 09:15:08.561   04 Jun 2027 09:15:21.030            12.469                Irkutsk           389.656
       436   04 Jun 2027 09:15:26.829   04 Jun 2027 09:15:54.389            27.560                Novosib           861.250
       437   04 Jun 2027 09:16:31.340   04 Jun 2027 09:16:41.196             9.856                Irkutsk           308.000
       438   04 Jun 2027 09:16:44.477   04 Jun 2027 09:16:45.184             0.707               Magadan1            22.094
       439   04 Jun 2027 09:16:46.193   04 Jun 2027 09:16:46.550             0.357                Novosib            11.156
       440   04 Jun 2027 09:17:14.986   04 Jun 2027 09:17:22.669             7.683                Irkutsk           240.094
       441   04 Jun 2027 09:17:56.272   04 Jun 2027 09:18:03.889             7.617                Novosib           238.031
       442   04 Jun 2027 09:18:05.658   04 Jun 2027 09:18:20.166            14.508                Irkutsk           453.375
       443   04 Jun 2027 09:18:24.393   04 Jun 2027 09:18:50.819            26.426                Norilsk           825.813
       444   04 Jun 2027 09:53:34.553   04 Jun 2027 09:54:45.006            70.453            RioGallegos          2201.656
       445   04 Jun 2027 10:29:22.235   04 Jun 2027 10:30:40.759            78.524                Sumatra          2453.875
       446   04 Jun 2027 10:48:00.620   04 Jun 2027 10:48:18.940            18.320                  Delhi           572.500
       447   04 Jun 2027 10:50:19.334   04 Jun 2027 10:51:24.217            64.883                Novosib          2027.594
       448   04 Jun 2027 10:51:44.634   04 Jun 2027 10:51:56.879            12.245                Novosib           382.656
       449   04 Jun 2027 10:51:57.862   04 Jun 2027 10:52:11.099            13.237                Irkutsk           413.656
       450   04 Jun 2027 10:52:15.964   04 Jun 2027 10:52:45.804            29.840                Novosib           932.500
       451   04 Jun 2027 10:52:47.864   04 Jun 2027 10:52:55.278             7.414                Novosib           231.687
       452   04 Jun 2027 10:53:16.550   04 Jun 2027 10:53:46.886            30.336                Norilsk           948.000
       453   04 Jun 2027 10:54:03.061   04 Jun 2027 10:54:26.204            23.143                Norilsk           723.219
       454   04 Jun 2027 10:54:52.244   04 Jun 2027 10:55:27.362            35.118                Norilsk          1097.438
       455   04 Jun 2027 11:34:40.822   04 Jun 2027 11:35:18.537            37.715            RioGallegos          1178.594
       456   04 Jun 2027 12:12:33.768   04 Jun 2027 12:12:57.397            23.629                  Delhi           738.406
       457   04 Jun 2027 12:14:27.719   04 Jun 2027 12:15:19.516            51.797                  Delhi          1618.656
       458   04 Jun 2027 12:20:32.434   04 Jun 2027 12:22:02.334            89.900                Novosib          2809.375
       459   04 Jun 2027 12:22:46.018   04 Jun 2027 12:24:23.933            97.915                Novosib          3059.844
       460   04 Jun 2027 13:56:42.057   04 Jun 2027 13:59:57.381           195.324                 Moscow          6103.875
       461   04 Jun 2027 14:00:10.956   04 Jun 2027 14:02:23.023           132.067              Murmansk1          4127.094
       462   04 Jun 2027 14:03:01.691   04 Jun 2027 14:03:22.093            20.402              Murmansk1           637.562
       463   04 Jun 2027 14:04:44.874   04 Jun 2027 14:06:00.683            75.809                Norilsk          2369.031
       464   04 Jun 2027 15:11:01.008   04 Jun 2027 15:13:38.102           157.094               CapeTown          4909.187
       465   04 Jun 2027 15:21:11.126   04 Jun 2027 15:21:31.388            20.262               CapeTown           633.188
       466   04 Jun 2027 15:22:03.375   04 Jun 2027 15:22:06.361             2.986               CapeTown            93.313
       467   04 Jun 2027 15:34:26.346   04 Jun 2027 15:35:06.451            40.105                 Moscow          1253.281
       468   04 Jun 2027 15:37:26.537   04 Jun 2027 15:38:28.204            61.667              Murmansk2          1927.094
       469   04 Jun 2027 15:41:26.367   04 Jun 2027 15:41:46.127            19.760              Murmansk2           617.500
       470   04 Jun 2027 15:48:27.221   04 Jun 2027 15:49:03.866            36.645              Murmansk1          1145.156
       471   04 Jun 2027 15:51:08.629   04 Jun 2027 15:52:59.304           110.675                Anadyr1          3458.594
       472   04 Jun 2027 15:59:46.931   04 Jun 2027 16:00:15.223            28.292                Anadyr2           884.125
       473   04 Jun 2027 16:47:05.962   04 Jun 2027 16:48:14.258            68.296               CapeTown          2134.250
       474   04 Jun 2027 17:17:03.709   04 Jun 2027 17:19:14.158           130.449              Murmansk1          4076.531
       475   04 Jun 2027 17:21:29.885   04 Jun 2027 17:21:34.989             5.104              Murmansk1           159.500
       476   04 Jun 2027 17:26:45.707   04 Jun 2027 17:27:48.087            62.380                Anadyr2          1949.375
       477   04 Jun 2027 17:28:14.959   04 Jun 2027 17:28:52.120            37.161                Anadyr2          1161.281
       478   04 Jun 2027 17:29:57.719   04 Jun 2027 17:31:45.652           107.933               Magadan1          3372.906
       479   04 Jun 2027 17:32:35.348   04 Jun 2027 17:33:09.259            33.911               Magadan1          1059.719
       480   04 Jun 2027 17:35:19.199   04 Jun 2027 17:35:24.774             5.575               Magadan2           174.219
       481   04 Jun 2027 19:02:41.051   04 Jun 2027 19:04:44.907           123.856                Anadyr2          3870.500
       482   04 Jun 2027 19:05:00.642   04 Jun 2027 19:08:34.264           213.622               Magadan1          6675.687
