uniorb/output/strategy_4/Drop/Drop_KinoSat_110807.txt

KinoSat_110807
-------------------------
    Access    *     Start Time (UTCG)     *     Stop Time (UTCG)  *   Duration (s)        *       Station  *  Data (Mbytes)
         1   01 Jun 2027 03:17:09.075   01 Jun 2027 03:21:13.713           244.638                Anadyr2          7644.937
         2   01 Jun 2027 03:21:24.768   01 Jun 2027 03:21:28.767             3.999               Magadan2           124.969
         3   01 Jun 2027 03:21:38.156   01 Jun 2027 03:22:01.289            23.133               Magadan1           722.906
         4   01 Jun 2027 03:22:38.003   01 Jun 2027 03:22:57.553            19.550                Anadyr1           610.938
         5   01 Jun 2027 04:54:30.482   01 Jun 2027 04:55:29.141            58.659               Magadan2          1833.094
         6   01 Jun 2027 04:55:29.141   01 Jun 2027 04:55:38.655             9.514               Magadan1           297.312
         7   01 Jun 2027 04:55:58.760   01 Jun 2027 04:56:43.168            44.408                Irkutsk          1387.750
         8   01 Jun 2027 04:56:44.653   01 Jun 2027 04:58:38.923           114.270                Anadyr2          3570.938
         9   01 Jun 2027 05:35:11.067   01 Jun 2027 05:36:24.942            73.875            RioGallegos          2308.594
        10   01 Jun 2027 05:41:01.523   01 Jun 2027 05:41:14.629            13.106            RioGallegos           409.562
        11   01 Jun 2027 06:29:15.673   01 Jun 2027 06:29:35.995            20.322                Novosib           635.062
        12   01 Jun 2027 06:29:45.024   01 Jun 2027 06:29:49.743             4.719                Norilsk           147.469
        13   01 Jun 2027 06:29:55.202   01 Jun 2027 06:31:48.512           113.310                Norilsk          3540.938
        14   01 Jun 2027 06:31:51.133   01 Jun 2027 06:33:20.536            89.403                Irkutsk          2793.844
        15   01 Jun 2027 06:33:23.210   01 Jun 2027 06:33:30.428             7.218               Magadan2           225.562
        16   01 Jun 2027 06:33:31.191   01 Jun 2027 06:33:54.215            23.024              Murmansk1           719.500
        17   01 Jun 2027 06:33:54.507   01 Jun 2027 06:34:01.864             7.357                Norilsk           229.906
        18   01 Jun 2027 06:34:13.749   01 Jun 2027 06:35:21.512            67.763                Novosib          2117.594
        19   01 Jun 2027 06:35:24.553   01 Jun 2027 06:35:30.831             6.278                Norilsk           196.187
        20   01 Jun 2027 06:35:58.493   01 Jun 2027 06:36:34.229            35.736                Norilsk          1116.750
        21   01 Jun 2027 06:36:58.104   01 Jun 2027 06:38:17.602            79.498                Norilsk          2484.312
        22   01 Jun 2027 07:09:03.892   01 Jun 2027 07:10:38.980            95.088            RioGallegos          2971.500
        23   01 Jun 2027 07:44:39.225   01 Jun 2027 07:46:29.436           110.211                Sumatra          3444.094
        24   01 Jun 2027 08:06:18.198   01 Jun 2027 08:08:46.465           148.267                Irkutsk          4633.344
        25   01 Jun 2027 08:08:51.503   01 Jun 2027 08:09:24.004            32.501                Irkutsk          1015.656
        26   01 Jun 2027 08:09:38.466   01 Jun 2027 08:11:15.303            96.837                Norilsk          3026.156
        27   01 Jun 2027 08:11:45.184   01 Jun 2027 08:12:14.243            29.059              Murmansk2           908.094
        28   01 Jun 2027 08:12:14.243   01 Jun 2027 08:12:16.761             2.518              Murmansk1            78.687
        29   01 Jun 2027 08:46:37.100   01 Jun 2027 08:47:43.009            65.909            RioGallegos          2059.656
        30   01 Jun 2027 08:48:24.258   01 Jun 2027 08:48:25.751             1.493            RioGallegos            46.656
        31   01 Jun 2027 08:49:27.807   01 Jun 2027 08:49:44.513            16.706            RioGallegos           522.063
        32   01 Jun 2027 08:51:01.900   01 Jun 2027 08:51:16.466            14.566            RioGallegos           455.187
        33   01 Jun 2027 09:20:48.714   01 Jun 2027 09:21:25.390            36.676                Sumatra          1146.125
        34   01 Jun 2027 09:22:03.986   01 Jun 2027 09:23:50.166           106.180                Sumatra          3318.125
        35   01 Jun 2027 09:28:20.483   01 Jun 2027 09:30:49.510           149.027                  Delhi          4657.094
        36   01 Jun 2027 09:31:16.865   01 Jun 2027 09:31:52.424            35.559                  Delhi          1111.219
        37   01 Jun 2027 09:43:51.649   01 Jun 2027 09:44:08.198            16.549                Irkutsk           517.156
        38   01 Jun 2027 09:44:24.190   01 Jun 2027 09:45:03.162            38.972                Irkutsk          1217.875
        39   01 Jun 2027 09:45:23.138   01 Jun 2027 09:47:46.627           143.489                Novosib          4484.031
        40   01 Jun 2027 09:48:15.834   01 Jun 2027 09:48:58.682            42.848                 Moscow          1339.000
        41   01 Jun 2027 09:52:20.943   01 Jun 2027 09:52:48.355            27.412              Murmansk1           856.625
        42   01 Jun 2027 11:06:02.525   01 Jun 2027 11:07:51.597           109.072                  Delhi          3408.500
        43   01 Jun 2027 11:08:45.765   01 Jun 2027 11:10:20.446            94.681                  Delhi          2958.781
        44   01 Jun 2027 11:20:02.926   01 Jun 2027 11:22:00.090           117.164                 Moscow          3661.375
        45   01 Jun 2027 11:22:14.525   01 Jun 2027 11:24:27.771           133.246              Murmansk1          4163.938
        46   01 Jun 2027 11:24:53.196   01 Jun 2027 11:26:48.472           115.276                Norilsk          3602.375
        47   01 Jun 2027 11:28:51.780   01 Jun 2027 11:28:56.624             4.844              Murmansk1           151.375
        48   01 Jun 2027 12:31:04.464   01 Jun 2027 12:32:32.113            87.649               CapeTown          2739.031
        49   01 Jun 2027 12:48:49.523   01 Jun 2027 12:50:01.938            72.415                 Moscow          2262.969
        50   01 Jun 2027 12:51:42.882   01 Jun 2027 12:52:29.955            47.073                 Moscow          1471.031
        51   01 Jun 2027 12:52:53.678   01 Jun 2027 12:56:48.216           234.538              Murmansk1          7329.313
        52   01 Jun 2027 12:57:32.146   01 Jun 2027 12:57:57.265            25.119              Murmansk2           784.969
        53   01 Jun 2027 12:58:09.515   01 Jun 2027 12:58:39.278            29.763              Murmansk1           930.094
        54   01 Jun 2027 12:59:24.530   01 Jun 2027 13:00:26.691            62.161              Murmansk2          1942.531
        55   01 Jun 2027 13:07:49.392   01 Jun 2027 13:11:21.800           212.408                Anadyr2          6637.750
        56   01 Jun 2027 13:12:02.060   01 Jun 2027 13:13:58.943           116.883                Anadyr1          3652.594
        57   01 Jun 2027 14:30:31.771   01 Jun 2027 14:31:12.750            40.979              Murmansk2          1280.594
        58   01 Jun 2027 14:33:27.475   01 Jun 2027 14:34:34.695            67.220              Murmansk2          2100.625
        59   01 Jun 2027 14:42:42.974   01 Jun 2027 14:44:34.906           111.932                Anadyr2          3497.875
        60   01 Jun 2027 14:44:35.934   01 Jun 2027 14:45:19.966            44.032                Anadyr1          1376.000
        61   01 Jun 2027 14:50:10.257   01 Jun 2027 14:50:25.656            15.399                Anadyr1           481.219
        62   01 Jun 2027 14:53:48.822   01 Jun 2027 14:54:05.063            16.241                Anadyr1           507.531
        63   01 Jun 2027 16:11:55.414   01 Jun 2027 16:14:21.664           146.250              Murmansk2          4570.313
        64   01 Jun 2027 16:18:32.018   01 Jun 2027 16:20:04.994            92.976                Anadyr2          2905.500
        65   01 Jun 2027 16:20:29.678   01 Jun 2027 16:21:05.241            35.563                Anadyr1          1111.344
        66   01 Jun 2027 16:21:09.414   01 Jun 2027 16:24:05.765           176.351               Magadan2          5510.969
        67   01 Jun 2027 16:24:05.765   01 Jun 2027 16:25:06.940            61.175               Magadan1          1911.719
        68   01 Jun 2027 16:27:25.465   01 Jun 2027 16:27:33.096             7.631               Magadan1           238.469
        69   01 Jun 2027 16:28:34.322   01 Jun 2027 16:28:38.512             4.190               Magadan1           130.938
        70   01 Jun 2027 16:29:18.275   01 Jun 2027 16:29:58.900            40.625               Magadan1          1269.531
        71   01 Jun 2027 17:54:26.909   01 Jun 2027 17:55:59.304            92.395                Anadyr1          2887.344
        72   01 Jun 2027 17:56:12.119   01 Jun 2027 17:57:49.722            97.603                Anadyr2          3050.094
        73   01 Jun 2027 17:58:03.440   01 Jun 2027 17:58:14.509            11.069                Anadyr2           345.906
        74   01 Jun 2027 17:58:33.736   01 Jun 2027 18:00:33.547           119.811               Magadan2          3744.094
        75   01 Jun 2027 18:04:43.951   01 Jun 2027 18:04:58.179            14.228               Magadan1           444.625
        76   01 Jun 2027 18:05:35.178   01 Jun 2027 18:05:57.105            21.927               Magadan1           685.219
        77   01 Jun 2027 18:49:08.686   01 Jun 2027 18:55:25.032           376.346            RioGallegos         11760.812
        78   01 Jun 2027 19:32:19.296   01 Jun 2027 19:37:33.148           313.852                Norilsk          9807.875
        79   01 Jun 2027 19:38:02.042   01 Jun 2027 19:39:24.905            82.863                Irkutsk          2589.469
        80   01 Jun 2027 19:39:44.222   01 Jun 2027 19:41:34.371           110.149                Novosib          3442.156
        81   01 Jun 2027 19:50:29.159   01 Jun 2027 19:51:46.837            77.678                Sumatra          2427.437
        82   01 Jun 2027 19:52:40.642   01 Jun 2027 19:54:09.558            88.916                Sumatra          2778.625
        83   01 Jun 2027 21:12:19.864   01 Jun 2027 21:14:14.396           114.532                Novosib          3579.125
        84   01 Jun 2027 21:20:22.397   01 Jun 2027 21:22:56.870           154.473                  Delhi          4827.281
        85   01 Jun 2027 21:25:25.934   01 Jun 2027 21:26:32.597            66.663                  Delhi          2083.219
        86   01 Jun 2027 22:44:13.603   01 Jun 2027 22:45:43.098            89.495                Norilsk          2796.719
        87   01 Jun 2027 22:45:54.952   01 Jun 2027 22:46:17.662            22.710               Magadan2           709.687
        88   01 Jun 2027 22:46:41.040   01 Jun 2027 22:49:19.769           158.729              Murmansk1          4960.281
        89   01 Jun 2027 22:49:19.936   01 Jun 2027 22:50:41.844            81.908              Murmansk2          2559.625
        90   01 Jun 2027 22:52:08.071   01 Jun 2027 22:57:00.235           292.164                 Moscow          9130.125
        91   02 Jun 2027 00:17:19.189   02 Jun 2027 00:18:23.544            64.355               Magadan2          2011.094
        92   02 Jun 2027 00:20:55.607   02 Jun 2027 00:21:00.304             4.697               Magadan2           146.781
        93   02 Jun 2027 00:21:32.575   02 Jun 2027 00:21:53.142            20.567               Magadan1           642.719
        94   02 Jun 2027 00:22:21.772   02 Jun 2027 00:23:06.529            44.757              Murmansk2          1398.656
        95   02 Jun 2027 00:23:21.418   02 Jun 2027 00:23:56.869            35.451              Murmansk2          1107.844
        96   02 Jun 2027 00:24:21.872   02 Jun 2027 00:24:22.531             0.659              Murmansk1            20.594
        97   02 Jun 2027 00:25:01.175   02 Jun 2027 00:25:14.667            13.492              Murmansk1           421.625
        98   02 Jun 2027 00:25:41.757   02 Jun 2027 00:26:33.225            51.468              Murmansk1          1608.375
        99   02 Jun 2027 00:27:21.004   02 Jun 2027 00:28:01.580            40.576                 Moscow          1268.000
       100   02 Jun 2027 00:28:55.516   02 Jun 2027 00:29:47.971            52.455                 Moscow          1639.219
       101   02 Jun 2027 00:50:22.471   02 Jun 2027 00:52:14.882           112.411               CapeTown          3512.844
       102   02 Jun 2027 01:01:07.127   02 Jun 2027 01:01:38.001            30.874               CapeTown           964.813
       103   02 Jun 2027 01:48:23.631   02 Jun 2027 01:48:32.269             8.638                Anadyr1           269.938
       104   02 Jun 2027 01:49:04.957   02 Jun 2027 01:50:27.776            82.819               Magadan1          2588.094
       105   02 Jun 2027 01:51:45.327   02 Jun 2027 01:51:45.698             0.371               Magadan2            11.594
       106   02 Jun 2027 01:53:16.314   02 Jun 2027 01:53:46.181            29.867               Magadan2           933.344
       107   02 Jun 2027 01:54:29.790   02 Jun 2027 01:54:37.232             7.442               Magadan1           232.563
       108   02 Jun 2027 01:55:27.685   02 Jun 2027 01:55:38.292            10.607                Norilsk           331.469
       109   02 Jun 2027 01:57:04.092   02 Jun 2027 01:57:38.283            34.191               Magadan2          1068.469
       110   02 Jun 2027 01:58:19.623   02 Jun 2027 01:58:39.980            20.357              Murmansk1           636.156
       111   02 Jun 2027 01:58:39.980   02 Jun 2027 01:59:49.258            69.278              Murmansk2          2164.938
       112   02 Jun 2027 02:01:38.655   02 Jun 2027 02:02:31.036            52.381              Murmansk1          1636.906
       113   02 Jun 2027 02:08:49.608   02 Jun 2027 02:09:31.298            41.690                 Moscow          1302.812
       114   02 Jun 2027 02:25:55.851   02 Jun 2027 02:26:23.792            27.941               CapeTown           873.156
       115   02 Jun 2027 02:30:30.056   02 Jun 2027 02:30:59.673            29.617               CapeTown           925.531
       116   02 Jun 2027 02:35:30.083   02 Jun 2027 02:35:47.189            17.106               CapeTown           534.563
       117   02 Jun 2027 02:36:26.977   02 Jun 2027 02:36:32.148             5.171               CapeTown           161.594
       118   02 Jun 2027 02:36:53.963   02 Jun 2027 02:37:44.573            50.610               CapeTown          1581.563
       119   02 Jun 2027 03:28:50.678   02 Jun 2027 03:29:04.588            13.910               Magadan2           434.687
       120   02 Jun 2027 03:29:21.143   02 Jun 2027 03:34:43.936           322.793               Magadan2         10087.281
       121   02 Jun 2027 03:34:55.519   02 Jun 2027 03:35:02.947             7.428                Anadyr1           232.125
       122   02 Jun 2027 05:07:00.999   02 Jun 2027 05:08:05.258            64.259               Magadan2          2008.094
       123   02 Jun 2027 05:08:17.158   02 Jun 2027 05:08:20.667             3.509               Magadan2           109.656
       124   02 Jun 2027 05:08:32.356   02 Jun 2027 05:10:33.843           121.487                Anadyr1          3796.469
       125   02 Jun 2027 06:42:37.290   02 Jun 2027 06:44:19.133           101.843                Irkutsk          3182.594
       126   02 Jun 2027 06:44:25.381   02 Jun 2027 06:45:45.786            80.405                Novosib          2512.656
       127   02 Jun 2027 06:46:45.936   02 Jun 2027 06:47:29.495            43.559                Novosib          1361.219
       128   02 Jun 2027 08:00:10.023   02 Jun 2027 08:01:15.833            65.810                Sumatra          2056.562
       129   02 Jun 2027 08:18:19.506   02 Jun 2027 08:19:23.037            63.531                Irkutsk          1985.344
       130   02 Jun 2027 08:20:15.756   02 Jun 2027 08:20:25.566             9.810                Irkutsk           306.563
       131   02 Jun 2027 08:20:31.826   02 Jun 2027 08:22:19.246           107.420                Irkutsk          3356.875
       132   02 Jun 2027 08:59:12.236   02 Jun 2027 09:00:23.013            70.777            RioGallegos          2211.781
       133   02 Jun 2027 09:01:36.483   02 Jun 2027 09:02:04.193            27.710            RioGallegos           865.938
       134   02 Jun 2027 09:02:34.681   02 Jun 2027 09:03:01.060            26.379            RioGallegos           824.344
       135   02 Jun 2027 09:33:25.872   02 Jun 2027 09:35:21.803           115.931                Sumatra          3622.844
       136   02 Jun 2027 09:42:13.846   02 Jun 2027 09:42:31.210            17.364                Sumatra           542.625
       137   02 Jun 2027 09:54:20.674   02 Jun 2027 09:54:24.201             3.527                Novosib           110.219
       138   02 Jun 2027 09:55:20.999   02 Jun 2027 09:55:32.919            11.920                Novosib           372.500
       139   02 Jun 2027 09:55:46.894   02 Jun 2027 09:57:02.435            75.541                Novosib          2360.656
       140   02 Jun 2027 09:57:07.902   02 Jun 2027 09:57:10.651             2.749                Novosib            85.906
       141   02 Jun 2027 09:57:28.323   02 Jun 2027 09:57:54.332            26.009                Novosib           812.781
       142   02 Jun 2027 11:18:56.310   02 Jun 2027 11:21:25.431           149.121                  Delhi          4660.031
       143   02 Jun 2027 11:34:56.060   02 Jun 2027 11:35:03.701             7.641                Norilsk           238.781
       144   02 Jun 2027 12:41:02.912   02 Jun 2027 12:43:15.030           132.118               CapeTown          4128.688
       145   02 Jun 2027 12:46:07.380   02 Jun 2027 12:47:14.137            66.757               CapeTown          2086.156
       146   02 Jun 2027 13:01:04.063   02 Jun 2027 13:02:01.780            57.717                 Moscow          1803.656
       147   02 Jun 2027 13:04:30.582   02 Jun 2027 13:06:05.433            94.851              Murmansk2          2964.094
       148   02 Jun 2027 13:06:54.158   02 Jun 2027 13:07:07.697            13.539              Murmansk2           423.094
       149   02 Jun 2027 13:07:20.003   02 Jun 2027 13:07:23.093             3.090              Murmansk2            96.562
       150   02 Jun 2027 13:08:55.412   02 Jun 2027 13:09:05.226             9.814              Murmansk1           306.687
       151   02 Jun 2027 13:09:20.139   02 Jun 2027 13:09:22.647             2.508              Murmansk1            78.375
       152   02 Jun 2027 13:11:21.815   02 Jun 2027 13:11:31.526             9.711              Murmansk1           303.469
       153   02 Jun 2027 13:14:30.609   02 Jun 2027 13:14:46.633            16.024              Murmansk2           500.750
       154   02 Jun 2027 13:19:33.414   02 Jun 2027 13:23:15.874           222.460                Anadyr1          6951.875
       155   02 Jun 2027 13:24:21.321   02 Jun 2027 13:26:19.219           117.898                Anadyr2          3684.313
       156   02 Jun 2027 14:44:45.046   02 Jun 2027 14:45:13.229            28.183              Murmansk2           880.719
       157   02 Jun 2027 14:54:42.257   02 Jun 2027 14:56:29.654           107.397                Anadyr1          3356.156
       158   02 Jun 2027 14:56:43.905   02 Jun 2027 14:57:55.334            71.429                Anadyr2          2232.156
       159   02 Jun 2027 14:59:48.145   02 Jun 2027 15:02:26.671           158.526               Magadan2          4953.938
       160   02 Jun 2027 15:02:26.671   02 Jun 2027 15:02:39.268            12.597               Magadan1           393.656
       161   02 Jun 2027 16:25:39.554   02 Jun 2027 16:26:17.976            38.422              Murmansk1          1200.687
       162   02 Jun 2027 16:30:33.356   02 Jun 2027 16:32:20.640           107.284                Anadyr2          3352.625
       163   02 Jun 2027 16:33:05.047   02 Jun 2027 16:35:56.874           171.827               Magadan1          5369.594
       164   02 Jun 2027 16:36:07.077   02 Jun 2027 16:37:05.531            58.454               Magadan1          1826.687
       165   02 Jun 2027 18:06:27.533   02 Jun 2027 18:09:12.715           165.182                Anadyr2          5161.938
       166   02 Jun 2027 18:09:29.922   02 Jun 2027 18:12:49.290           199.368                Norilsk          6230.250
       167   02 Jun 2027 19:00:55.382   02 Jun 2027 19:04:39.752           224.370            RioGallegos          7011.563
       168   02 Jun 2027 19:44:47.667   02 Jun 2027 19:46:26.681            99.014               Magadan2          3094.188
       169   02 Jun 2027 19:46:45.502   02 Jun 2027 19:47:22.055            36.553               Magadan2          1142.281
       170   02 Jun 2027 19:48:29.636   02 Jun 2027 19:49:22.869            53.233                Irkutsk          1663.531
       171   02 Jun 2027 19:50:26.844   02 Jun 2027 19:55:47.022           320.178                Novosib         10005.563
       172   02 Jun 2027 20:03:32.066   02 Jun 2027 20:04:57.389            85.323                Sumatra          2666.344
       173   02 Jun 2027 20:06:03.125   02 Jun 2027 20:06:11.892             8.767                Sumatra           273.969
       174   02 Jun 2027 20:14:07.515   02 Jun 2027 20:14:40.541            33.026                Sumatra          1032.063
       175   02 Jun 2027 21:24:07.723   02 Jun 2027 21:24:11.044             3.321                Irkutsk           103.781
       176   02 Jun 2027 21:24:15.284   02 Jun 2027 21:24:37.996            22.712                Irkutsk           709.750
       177   02 Jun 2027 21:24:49.063   02 Jun 2027 21:25:59.524            70.461                Novosib          2201.906
       178   02 Jun 2027 21:26:17.124   02 Jun 2027 21:26:40.772            23.648                Novosib           739.000
       179   02 Jun 2027 21:28:12.213   02 Jun 2027 21:29:58.675           106.462                Novosib          3326.937
       180   02 Jun 2027 21:32:02.538   02 Jun 2027 21:33:28.507            85.969                  Delhi          2686.531
       181   02 Jun 2027 21:33:43.442   02 Jun 2027 21:35:40.379           116.937                  Delhi          3654.281
       182   02 Jun 2027 22:58:37.797   02 Jun 2027 23:01:32.960           175.163              Murmansk1          5473.844
       183   02 Jun 2027 23:01:32.960   02 Jun 2027 23:03:08.807            95.847              Murmansk2          2995.219
       184   02 Jun 2027 23:03:27.261   02 Jun 2027 23:07:44.424           257.163                 Moscow          8036.344
       185   02 Jun 2027 23:09:27.530   02 Jun 2027 23:10:14.052            46.522                 Moscow          1453.812
       186   03 Jun 2027 00:34:23.081   03 Jun 2027 00:35:57.018            93.937              Murmansk2          2935.531
       187   03 Jun 2027 00:37:43.217   03 Jun 2027 00:37:58.963            15.746              Murmansk2           492.063
       188   03 Jun 2027 00:38:07.245   03 Jun 2027 00:39:48.007           100.762                 Moscow          3148.812
       189   03 Jun 2027 01:02:02.684   03 Jun 2027 01:03:31.821            89.137               CapeTown          2785.531
       190   03 Jun 2027 01:04:27.820   03 Jun 2027 01:05:42.095            74.275               CapeTown          2321.094
       191   03 Jun 2027 02:00:40.158   03 Jun 2027 02:01:57.688            77.530               Magadan1          2422.812
       192   03 Jun 2027 02:02:57.042   03 Jun 2027 02:03:16.275            19.233               Magadan2           601.031
       193   03 Jun 2027 02:06:32.035   03 Jun 2027 02:07:03.954            31.919               Magadan2           997.469
       194   03 Jun 2027 02:10:21.182   03 Jun 2027 02:12:00.329            99.147              Murmansk2          3098.344
       195   03 Jun 2027 02:13:33.660   03 Jun 2027 02:13:40.539             6.879              Murmansk1           214.969
       196   03 Jun 2027 02:13:59.258   03 Jun 2027 02:14:35.916            36.658                 Moscow          1145.562
       197   03 Jun 2027 02:17:27.297   03 Jun 2027 02:17:47.402            20.105                 Moscow           628.281
       198   03 Jun 2027 02:20:04.959   03 Jun 2027 02:22:19.129           134.170                 Moscow          4192.812
       199   03 Jun 2027 03:39:12.979   03 Jun 2027 03:42:55.607           222.628                Anadyr2          6957.125
       200   03 Jun 2027 03:43:00.544   03 Jun 2027 03:43:21.517            20.973                Anadyr2           655.406
       201   03 Jun 2027 03:43:21.517   03 Jun 2027 03:43:36.277            14.760                Anadyr1           461.250
       202   03 Jun 2027 03:43:39.582   03 Jun 2027 03:44:42.820            63.238                Anadyr1          1976.188
       203   03 Jun 2027 03:44:42.820   03 Jun 2027 03:45:06.030            23.210                Anadyr2           725.313
       204   03 Jun 2027 04:27:39.044   03 Jun 2027 04:29:14.037            94.993            RioGallegos          2968.531
       205   03 Jun 2027 05:17:30.281   03 Jun 2027 05:18:20.783            50.502                Irkutsk          1578.187
       206   03 Jun 2027 05:18:50.991   03 Jun 2027 05:20:25.404            94.413                Anadyr2          2950.406
       207   03 Jun 2027 05:20:35.417   03 Jun 2027 05:20:56.921            21.504                Anadyr1           672.000
       208   03 Jun 2027 05:20:56.921   03 Jun 2027 05:22:26.871            89.950                Anadyr2          2810.937
       209   03 Jun 2027 06:53:32.463   03 Jun 2027 06:53:45.401            12.938               Magadan1           404.313
       210   03 Jun 2027 06:53:53.927   03 Jun 2027 06:54:06.734            12.807               Magadan2           400.219
       211   03 Jun 2027 06:54:28.189   03 Jun 2027 06:54:55.687            27.498               Magadan1           859.313
       212   03 Jun 2027 06:56:10.323   03 Jun 2027 06:56:28.802            18.479               Magadan1           577.469
       213   03 Jun 2027 06:56:31.229   03 Jun 2027 06:57:39.231            68.002               Magadan1          2125.062
       214   03 Jun 2027 06:58:02.961   03 Jun 2027 06:58:43.767            40.806                Norilsk          1275.188
       215   03 Jun 2027 08:12:15.183   03 Jun 2027 08:14:13.056           117.873                Sumatra          3683.531
       216   03 Jun 2027 08:30:40.405   03 Jun 2027 08:30:55.270            14.865              Murmansk1           464.531
       217   03 Jun 2027 08:33:13.723   03 Jun 2027 08:33:18.321             4.598                Norilsk           143.688
       218   03 Jun 2027 08:33:22.800   03 Jun 2027 08:33:50.852            28.052                Norilsk           876.625
       219   03 Jun 2027 08:33:55.127   03 Jun 2027 08:34:16.654            21.527                Irkutsk           672.719
       220   03 Jun 2027 08:35:17.838   03 Jun 2027 08:35:25.807             7.969                Norilsk           249.031
       221   03 Jun 2027 09:11:55.171   03 Jun 2027 09:12:23.546            28.375            RioGallegos           886.719
       222   03 Jun 2027 09:13:16.166   03 Jun 2027 09:13:43.965            27.799            RioGallegos           868.719
       223   03 Jun 2027 09:13:49.030   03 Jun 2027 09:14:48.886            59.856            RioGallegos          1870.500
       224   03 Jun 2027 09:46:20.714   03 Jun 2027 09:47:39.684            78.970                Sumatra          2467.813
       225   03 Jun 2027 10:06:18.155   03 Jun 2027 10:06:57.337            39.182                Norilsk          1224.437
       226   03 Jun 2027 10:07:25.643   03 Jun 2027 10:07:26.949             1.306                Novosib            40.813
       227   03 Jun 2027 10:08:04.841   03 Jun 2027 10:08:41.393            36.552                Norilsk          1142.250
       228   03 Jun 2027 10:08:57.057   03 Jun 2027 10:09:05.265             8.208                Norilsk           256.500
       229   03 Jun 2027 10:09:11.798   03 Jun 2027 10:09:25.704            13.906                Novosib           434.562
       230   03 Jun 2027 10:09:30.822   03 Jun 2027 10:09:38.649             7.827                Novosib           244.594
       231   03 Jun 2027 10:09:45.584   03 Jun 2027 10:10:08.285            22.701                Novosib           709.406
       232   03 Jun 2027 11:32:26.139   03 Jun 2027 11:34:41.070           134.931                  Delhi          4216.594
       233   03 Jun 2027 11:48:52.404   03 Jun 2027 11:48:56.723             4.319                Norilsk           134.969
       234   03 Jun 2027 12:58:40.172   03 Jun 2027 13:00:23.388           103.216               CapeTown          3225.500
       235   03 Jun 2027 13:13:22.282   03 Jun 2027 13:14:04.517            42.235                 Moscow          1319.844
       236   03 Jun 2027 13:16:43.793   03 Jun 2027 13:17:14.207            30.414              Murmansk1           950.438
       237   03 Jun 2027 13:17:15.490   03 Jun 2027 13:18:54.920            99.430              Murmansk2          3107.188
       238   03 Jun 2027 13:20:42.923   03 Jun 2027 13:20:51.509             8.586              Murmansk2           268.312
       239   03 Jun 2027 13:21:01.431   03 Jun 2027 13:21:04.833             3.402              Murmansk2           106.313
       240   03 Jun 2027 13:21:04.833   03 Jun 2027 13:21:08.612             3.779              Murmansk1           118.094
       241   03 Jun 2027 13:25:34.717   03 Jun 2027 13:26:32.176            57.459              Murmansk1          1795.594
       242   03 Jun 2027 13:31:22.304   03 Jun 2027 13:35:11.555           229.251                Anadyr2          7164.094
       243   03 Jun 2027 13:35:28.639   03 Jun 2027 13:36:37.961            69.322                Anadyr1          2166.313
       244   03 Jun 2027 13:36:56.103   03 Jun 2027 13:38:20.520            84.417                Anadyr1          2638.031
       245   03 Jun 2027 15:04:27.154   03 Jun 2027 15:04:44.987            17.833              Murmansk1           557.281
       246   03 Jun 2027 15:06:42.040   03 Jun 2027 15:08:25.865           103.825                Anadyr1          3244.531
       247   03 Jun 2027 15:09:07.520   03 Jun 2027 15:09:16.063             8.543                Anadyr2           266.969
       248   03 Jun 2027 15:09:29.582   03 Jun 2027 15:09:56.670            27.088                Anadyr2           846.500
       249   03 Jun 2027 15:10:51.615   03 Jun 2027 15:13:55.891           184.276               Magadan1          5758.625
       250   03 Jun 2027 15:14:13.736   03 Jun 2027 15:16:13.610           119.874               Magadan2          3746.063
       251   03 Jun 2027 16:42:34.729   03 Jun 2027 16:44:10.336            95.607                Anadyr1          2987.719
       252   03 Jun 2027 16:45:01.886   03 Jun 2027 16:47:00.565           118.679               Magadan2          3708.719
       253   03 Jun 2027 16:47:00.565   03 Jun 2027 16:47:07.923             7.358               Magadan1           229.938
       254   03 Jun 2027 16:47:49.358   03 Jun 2027 16:48:08.684            19.326               Magadan1           603.938
       255   03 Jun 2027 16:49:50.312   03 Jun 2027 16:50:33.243            42.931               Magadan2          1341.594
       256   03 Jun 2027 18:18:27.886   03 Jun 2027 18:21:52.638           204.752                Anadyr2          6398.500
       257   03 Jun 2027 18:22:11.707   03 Jun 2027 18:23:54.550           102.843               Magadan2          3213.844
       258   03 Jun 2027 18:23:54.550   03 Jun 2027 18:23:57.183             2.633               Magadan1            82.281
       259   03 Jun 2027 18:24:37.442   03 Jun 2027 18:24:45.486             8.044                Norilsk           251.375
       260   03 Jun 2027 18:27:22.253   03 Jun 2027 18:31:14.036           231.783                Irkutsk          7243.219
       261   03 Jun 2027 19:12:45.375   03 Jun 2027 19:13:16.171            30.796            RioGallegos           962.375
       262   03 Jun 2027 19:14:09.608   03 Jun 2027 19:15:35.397            85.789            RioGallegos          2680.906
       263   03 Jun 2027 19:24:02.591   03 Jun 2027 19:24:05.557             2.966            RioGallegos            92.687
       264   03 Jun 2027 19:56:20.021   03 Jun 2027 19:57:38.928            78.907                Norilsk          2465.844
       265   03 Jun 2027 20:00:29.846   03 Jun 2027 20:01:35.468            65.622                Norilsk          2050.687
       266   03 Jun 2027 20:01:50.290   03 Jun 2027 20:05:11.734           201.444                Novosib          6295.125
       267   03 Jun 2027 20:06:12.504   03 Jun 2027 20:07:57.671           105.167                Novosib          3286.469
       268   03 Jun 2027 20:14:05.447   03 Jun 2027 20:15:10.230            64.783                Sumatra          2024.469
       269   03 Jun 2027 20:17:07.595   03 Jun 2027 20:17:28.399            20.804                Sumatra           650.125
       270   03 Jun 2027 21:33:39.278   03 Jun 2027 21:33:46.838             7.560                Norilsk           236.250
       271   03 Jun 2027 21:36:10.939   03 Jun 2027 21:36:24.454            13.515                Irkutsk           422.344
       272   03 Jun 2027 21:36:32.913   03 Jun 2027 21:38:16.962           104.049                Novosib          3251.531
       273   03 Jun 2027 21:38:57.448   03 Jun 2027 21:39:26.114            28.666                Novosib           895.813
       274   03 Jun 2027 21:42:17.353   03 Jun 2027 21:43:06.918            49.565                Novosib          1548.906
       275   03 Jun 2027 21:43:48.364   03 Jun 2027 21:45:21.956            93.592                  Delhi          2924.750
       276   03 Jun 2027 21:47:29.630   03 Jun 2027 21:47:44.515            14.885                  Delhi           465.156
       277   03 Jun 2027 23:07:13.849   03 Jun 2027 23:07:28.520            14.671                Anadyr1           458.469
       278   03 Jun 2027 23:08:06.787   03 Jun 2027 23:09:45.166            98.379               Magadan2          3074.344
       279   03 Jun 2027 23:10:35.741   03 Jun 2027 23:15:36.227           300.486              Murmansk2          9390.188
       280   03 Jun 2027 23:16:37.264   03 Jun 2027 23:18:27.180           109.916                 Moscow          3434.875
       281   03 Jun 2027 23:18:28.577   03 Jun 2027 23:18:54.301            25.724              Murmansk2           803.875
       282   03 Jun 2027 23:21:31.686   03 Jun 2027 23:21:42.213            10.527                 Moscow           328.969
       283   03 Jun 2027 23:44:26.559   03 Jun 2027 23:45:29.771            63.212               CapeTown          1975.375
       284   04 Jun 2027 00:40:29.357   04 Jun 2027 00:41:16.788            47.431               Magadan1          1482.219
       285   04 Jun 2027 00:43:59.448   04 Jun 2027 00:44:40.707            41.259               Magadan1          1289.344
       286   04 Jun 2027 00:46:24.550   04 Jun 2027 00:47:54.403            89.853              Murmansk2          2807.906
       287   04 Jun 2027 00:49:00.339   04 Jun 2027 00:49:14.908            14.569              Murmansk2           455.281
       288   04 Jun 2027 00:49:42.719   04 Jun 2027 00:51:05.297            82.578                 Moscow          2580.563
       289   04 Jun 2027 00:54:44.456   04 Jun 2027 00:55:20.863            36.407                 Moscow          1137.719
       290   04 Jun 2027 00:57:40.679   04 Jun 2027 00:57:45.196             4.517                 Moscow           141.156
       291   04 Jun 2027 00:59:07.081   04 Jun 2027 00:59:16.437             9.356                 Moscow           292.375
       292   04 Jun 2027 01:13:48.352   04 Jun 2027 01:15:26.102            97.750               CapeTown          3054.687
       293   04 Jun 2027 02:10:16.258   04 Jun 2027 02:10:36.986            20.728                Anadyr1           647.750
       294   04 Jun 2027 02:11:14.742   04 Jun 2027 02:12:09.292            54.550                Anadyr1          1704.687
       295   04 Jun 2027 02:12:17.020   04 Jun 2027 02:13:03.087            46.067               Magadan1          1439.594
       296   04 Jun 2027 02:13:23.825   04 Jun 2027 02:13:25.770             1.945               Magadan1            60.781
       297   04 Jun 2027 02:14:32.538   04 Jun 2027 02:14:46.010            13.472               Magadan1           421.000
       298   04 Jun 2027 02:16:34.440   04 Jun 2027 02:17:15.040            40.600               Magadan1          1268.750
       299   04 Jun 2027 02:21:21.792   04 Jun 2027 02:21:43.266            21.474               Magadan1           671.063
       300   04 Jun 2027 02:22:22.638   04 Jun 2027 02:23:29.514            66.876              Murmansk1          2089.875
       301   04 Jun 2027 02:24:54.377   04 Jun 2027 02:25:33.007            38.630              Murmansk1          1207.188
       302   04 Jun 2027 02:25:38.922   04 Jun 2027 02:26:18.535            39.613                 Moscow          1237.906
       303   04 Jun 2027 02:29:54.524   04 Jun 2027 02:30:20.902            26.378              Murmansk2           824.313
       304   04 Jun 2027 02:35:59.821   04 Jun 2027 02:37:05.500            65.679                 Moscow          2052.469
       305   04 Jun 2027 02:54:18.810   04 Jun 2027 02:55:27.458            68.648               CapeTown          2145.250
       306   04 Jun 2027 03:51:01.135   04 Jun 2027 03:52:09.410            68.275               Magadan2          2133.594
       307   04 Jun 2027 03:52:11.613   04 Jun 2027 03:55:09.074           177.461                Anadyr1          5545.656
       308   04 Jun 2027 03:55:17.338   04 Jun 2027 03:57:38.311           140.973                Anadyr2          4405.406
       309   04 Jun 2027 03:57:38.311   04 Jun 2027 03:58:18.131            39.820                Anadyr1          1244.375
       310   04 Jun 2027 05:29:00.908   04 Jun 2027 05:31:12.290           131.382                Irkutsk          4105.688
       311   04 Jun 2027 05:32:01.577   04 Jun 2027 05:34:37.823           156.246               Magadan1          4882.687
       312   04 Jun 2027 07:04:24.456   04 Jun 2027 07:04:45.124            20.668               Magadan1           645.875
       313   04 Jun 2027 07:05:36.361   04 Jun 2027 07:05:49.842            13.481               Magadan1           421.281
       314   04 Jun 2027 07:06:05.366   04 Jun 2027 07:06:29.968            24.602               Magadan2           768.813
       315   04 Jun 2027 07:06:34.664   04 Jun 2027 07:07:01.350            26.686               Magadan1           833.937
       316   04 Jun 2027 07:08:08.751   04 Jun 2027 07:08:32.722            23.971               Magadan1           749.094
       317   04 Jun 2027 07:09:04.940   04 Jun 2027 07:09:21.443            16.503               Magadan1           515.719
       318   04 Jun 2027 07:10:03.885   04 Jun 2027 07:10:08.191             4.306                Norilsk           134.562
       319   04 Jun 2027 07:10:32.378   04 Jun 2027 07:10:51.182            18.804                Norilsk           587.625
       320   04 Jun 2027 07:51:28.008   04 Jun 2027 07:51:35.750             7.742            RioGallegos           241.937
       321   04 Jun 2027 07:52:19.903   04 Jun 2027 07:52:48.371            28.468            RioGallegos           889.625
       322   04 Jun 2027 08:26:46.958   04 Jun 2027 08:27:05.612            18.654                Sumatra           582.938
       323   04 Jun 2027 08:30:03.065   04 Jun 2027 08:30:05.672             2.607                Sumatra            81.469
       324   04 Jun 2027 08:32:14.853   04 Jun 2027 08:32:46.648            31.795                Sumatra           993.594
       325   04 Jun 2027 08:40:53.077   04 Jun 2027 08:41:47.854            54.777                Irkutsk          1711.781
       326   04 Jun 2027 08:42:19.425   04 Jun 2027 08:43:12.189            52.764                Irkutsk          1648.875
       327   04 Jun 2027 08:43:24.569   04 Jun 2027 08:43:43.621            19.052                Irkutsk           595.375
       328   04 Jun 2027 08:43:55.305   04 Jun 2027 08:43:57.232             1.927                Irkutsk            60.219
       329   04 Jun 2027 08:44:02.738   04 Jun 2027 08:44:40.728            37.990                Irkutsk          1187.188
       330   04 Jun 2027 08:45:11.184   04 Jun 2027 08:45:47.511            36.327                Irkutsk          1135.219
       331   04 Jun 2027 08:45:51.730   04 Jun 2027 08:46:12.674            20.944                Irkutsk           654.500
       332   04 Jun 2027 08:47:19.363   04 Jun 2027 08:47:24.272             4.909                Norilsk           153.406
       333   04 Jun 2027 09:24:48.807   04 Jun 2027 09:25:34.196            45.389            RioGallegos          1418.406
       334   04 Jun 2027 09:27:29.773   04 Jun 2027 09:27:42.030            12.257            RioGallegos           383.031
       335   04 Jun 2027 09:31:25.570   04 Jun 2027 09:31:33.351             7.781            RioGallegos           243.156
       336   04 Jun 2027 09:59:59.209   04 Jun 2027 10:02:07.191           127.982                Sumatra          3999.437
       337   04 Jun 2027 10:20:42.377   04 Jun 2027 10:21:15.871            33.494                Novosib          1046.688
       338   04 Jun 2027 10:21:20.044   04 Jun 2027 10:21:32.789            12.745                Novosib           398.281
       339   04 Jun 2027 10:21:36.226   04 Jun 2027 10:21:50.450            14.224                Norilsk           444.500
       340   04 Jun 2027 10:22:14.033   04 Jun 2027 10:22:46.312            32.279                Novosib          1008.719
       341   04 Jun 2027 11:59:12.098   04 Jun 2027 11:59:22.972            10.874                Norilsk           339.812
       342   04 Jun 2027 12:00:58.226   04 Jun 2027 12:01:12.344            14.118                Norilsk           441.188
       343   04 Jun 2027 12:01:49.623   04 Jun 2027 12:02:04.150            14.527                Norilsk           453.969
       344   04 Jun 2027 13:03:32.593   04 Jun 2027 13:05:12.560            99.967               CapeTown          3123.969
       345   04 Jun 2027 13:06:42.551   04 Jun 2027 13:08:30.873           108.322               CapeTown          3385.063
       346   04 Jun 2027 13:10:34.630   04 Jun 2027 13:10:37.540             2.910               CapeTown            90.937
       347   04 Jun 2027 13:12:46.086   04 Jun 2027 13:13:13.926            27.840               CapeTown           870.000
       348   04 Jun 2027 13:28:58.960   04 Jun 2027 13:30:55.924           116.964              Murmansk2          3655.125
       349   04 Jun 2027 13:31:51.418   04 Jun 2027 13:32:38.696            47.278              Murmansk2          1477.437
       350   04 Jun 2027 13:35:33.650   04 Jun 2027 13:35:48.594            14.944              Murmansk2           467.000
       351   04 Jun 2027 13:36:46.910   04 Jun 2027 13:37:12.885            25.975              Murmansk1           811.719
       352   04 Jun 2027 13:39:05.749   04 Jun 2027 13:39:22.769            17.020              Murmansk1           531.875
       353   04 Jun 2027 13:43:14.304   04 Jun 2027 13:47:59.045           284.741                Anadyr2          8898.156
       354   04 Jun 2027 15:08:06.839   04 Jun 2027 15:08:50.050            43.211              Murmansk2          1350.344
       355   04 Jun 2027 15:11:20.363   04 Jun 2027 15:12:33.311            72.948              Murmansk2          2279.625
       356   04 Jun 2027 15:18:42.219   04 Jun 2027 15:19:51.033            68.814                Anadyr1          2150.438
       357   04 Jun 2027 15:20:47.829   04 Jun 2027 15:20:53.591             5.762                Anadyr2           180.063
       358   04 Jun 2027 15:21:23.124   04 Jun 2027 15:21:23.936             0.812                Anadyr2            25.375
       359   04 Jun 2027 15:21:29.961   04 Jun 2027 15:21:48.121            18.160                Anadyr2           567.500
       360   04 Jun 2027 15:22:21.940   04 Jun 2027 15:25:45.356           203.416               Magadan1          6356.750
       361   04 Jun 2027 15:25:58.757   04 Jun 2027 15:26:57.333            58.576               Magadan2          1830.500
       362   04 Jun 2027 15:27:07.000   04 Jun 2027 15:28:36.167            89.167               Magadan2          2786.469
       363   04 Jun 2027 16:56:59.709   04 Jun 2027 16:57:51.948            52.239               Magadan1          1632.469
       364   04 Jun 2027 16:57:51.948   04 Jun 2027 16:58:58.060            66.112               Magadan2          2066.000
       365   04 Jun 2027 16:59:52.045   04 Jun 2027 17:00:01.288             9.243               Magadan1           288.844
       366   04 Jun 2027 17:00:10.531   04 Jun 2027 17:01:04.657            54.126               Magadan1          1691.438
       367   04 Jun 2027 18:30:27.919   04 Jun 2027 18:32:03.217            95.298                Anadyr2          2978.063
       368   04 Jun 2027 18:32:13.290   04 Jun 2027 18:33:54.169           100.879                Anadyr1          3152.469
       369   04 Jun 2027 18:33:57.571   04 Jun 2027 18:35:31.869            94.298               Magadan2          2946.812
       370   04 Jun 2027 18:35:42.940   04 Jun 2027 18:36:43.131            60.191                Norilsk          1880.969
       371   04 Jun 2027 18:38:14.335   04 Jun 2027 18:39:10.997            56.662                Norilsk          1770.688
       372   04 Jun 2027 18:39:12.509   04 Jun 2027 18:41:20.611           128.102                Irkutsk          4003.188
       373   04 Jun 2027 18:42:14.101   04 Jun 2027 18:44:06.629           112.528                Irkutsk          3516.500
       374   04 Jun 2027 18:55:06.756   04 Jun 2027 18:56:02.160            55.404                Sumatra          1731.375
       375   04 Jun 2027 18:56:32.992   04 Jun 2027 18:58:38.383           125.391                Sumatra          3918.469
       376   04 Jun 2027 20:12:21.017   04 Jun 2027 20:14:21.359           120.342                Irkutsk          3760.687
       377   04 Jun 2027 20:14:22.768   04 Jun 2027 20:16:54.624           151.856                Novosib          4745.500
       378   04 Jun 2027 20:26:02.421   04 Jun 2027 20:26:18.164            15.743                Sumatra           491.969
       379   04 Jun 2027 20:26:27.108   04 Jun 2027 20:26:39.714            12.606                Sumatra           393.937
       380   04 Jun 2027 20:35:38.527   04 Jun 2027 20:35:41.717             3.190                Sumatra            99.687
       381   04 Jun 2027 21:44:55.396   04 Jun 2027 21:45:54.869            59.473               Magadan1          1858.531
       382   04 Jun 2027 21:46:07.224   04 Jun 2027 21:46:15.272             8.048               Magadan1           251.500
       383   04 Jun 2027 21:48:11.693   04 Jun 2027 21:51:10.558           178.865                Novosib          5589.531
       384   04 Jun 2027 21:55:38.777   04 Jun 2027 21:58:26.004           167.227                  Delhi          5225.844
       385   04 Jun 2027 22:06:30.890   04 Jun 2027 22:06:32.610             1.720                  Delhi            53.750
       386   04 Jun 2027 23:18:07.965   04 Jun 2027 23:18:29.442            21.477                Anadyr2           671.156
       387   04 Jun 2027 23:18:59.204   04 Jun 2027 23:19:12.746            13.542                Anadyr2           423.187
       388   04 Jun 2027 23:19:49.621   04 Jun 2027 23:20:28.191            38.570               Magadan2          1205.312
       389   04 Jun 2027 23:21:02.118   04 Jun 2027 23:21:48.701            46.583                Norilsk          1455.719
       390   04 Jun 2027 23:22:34.589   04 Jun 2027 23:26:56.723           262.134              Murmansk2          8191.688
       391   04 Jun 2027 23:27:14.103   04 Jun 2027 23:29:08.570           114.467                 Moscow          3577.094
       392   04 Jun 2027 23:29:14.935   04 Jun 2027 23:30:19.455            64.520                 Moscow          2016.250
       393   04 Jun 2027 23:54:18.953   04 Jun 2027 23:55:43.590            84.637               CapeTown          2644.906
       394   04 Jun 2027 23:55:56.893   04 Jun 2027 23:56:07.484            10.591               CapeTown           330.969
       395   04 Jun 2027 23:57:10.868   04 Jun 2027 23:58:36.465            85.597               CapeTown          2674.906
       396   05 Jun 2027 00:58:26.124   05 Jun 2027 00:59:50.498            84.374              Murmansk2          2636.687
       397   05 Jun 2027 01:00:40.777   05 Jun 2027 01:00:51.888            11.111              Murmansk1           347.219
       398   05 Jun 2027 01:01:41.805   05 Jun 2027 01:03:40.473           118.668                 Moscow          3708.375
       399   05 Jun 2027 01:25:39.153   05 Jun 2027 01:26:59.290            80.137               CapeTown          2504.281
       400   05 Jun 2027 02:22:16.354   05 Jun 2027 02:23:15.338            58.984                Anadyr2          1843.250
       401   05 Jun 2027 02:23:15.338   05 Jun 2027 02:23:37.944            22.606                Anadyr1           706.438
       402   05 Jun 2027 02:23:55.631   05 Jun 2027 02:24:09.208            13.577               Magadan1           424.281
       403   05 Jun 2027 02:24:09.208   05 Jun 2027 02:25:09.216            60.008               Magadan2          1875.250
       404   05 Jun 2027 02:29:24.360   05 Jun 2027 02:29:52.357            27.997               Magadan2           874.906
       405   05 Jun 2027 02:31:51.510   05 Jun 2027 02:32:06.017            14.507                Norilsk           453.344
       406   05 Jun 2027 02:34:23.964   05 Jun 2027 02:35:42.208            78.244              Murmansk2          2445.125
       407   05 Jun 2027 02:37:31.946   05 Jun 2027 02:38:16.309            44.363              Murmansk1          1386.344
       408   05 Jun 2027 02:38:26.786   05 Jun 2027 02:39:35.489            68.703                 Moscow          2146.969
       409   05 Jun 2027 02:47:15.784   05 Jun 2027 02:47:20.610             4.826                 Moscow           150.812
       410   05 Jun 2027 02:48:30.053   05 Jun 2027 02:48:46.192            16.139                 Moscow           504.344
       411   05 Jun 2027 03:03:31.502   05 Jun 2027 03:03:43.609            12.107               CapeTown           378.344
       412   05 Jun 2027 03:03:49.078   05 Jun 2027 03:04:59.548            70.470               CapeTown          2202.187
       413   05 Jun 2027 04:02:36.369   05 Jun 2027 04:02:40.856             4.487               Magadan1           140.219
       414   05 Jun 2027 04:02:40.856   05 Jun 2027 04:03:36.383            55.527               Magadan2          1735.219
       415   05 Jun 2027 04:03:44.941   05 Jun 2027 04:06:53.247           188.306                Anadyr2          5884.562
       416   05 Jun 2027 04:06:57.941   05 Jun 2027 04:08:45.727           107.786                Anadyr2          3368.313
       417   05 Jun 2027 04:10:30.624   05 Jun 2027 04:10:43.255            12.631                Anadyr2           394.719
       418   05 Jun 2027 04:10:43.255   05 Jun 2027 04:11:02.754            19.499                Anadyr1           609.344
       419   05 Jun 2027 04:51:24.305   05 Jun 2027 04:51:27.927             3.622            RioGallegos           113.187
       420   05 Jun 2027 04:51:45.535   05 Jun 2027 04:52:02.826            17.291            RioGallegos           540.344
       421   05 Jun 2027 05:39:39.292   05 Jun 2027 05:39:48.257             8.965               Magadan1           280.156
       422   05 Jun 2027 05:40:15.207   05 Jun 2027 05:44:49.350           274.143               Magadan1          8566.969
       423   05 Jun 2027 05:44:54.309   05 Jun 2027 05:45:54.184            59.875               Magadan1          1871.094
       424   05 Jun 2027 05:46:17.979   05 Jun 2027 05:46:35.887            17.908               Magadan1           559.625
       425   05 Jun 2027 05:46:36.736   05 Jun 2027 05:47:11.613            34.877                Norilsk          1089.906
       426   05 Jun 2027 05:49:38.414   05 Jun 2027 05:49:47.461             9.047                Norilsk           282.719
       427   05 Jun 2027 07:17:11.764   05 Jun 2027 07:17:49.143            37.379               Magadan1          1168.094
       428   05 Jun 2027 07:17:49.143   05 Jun 2027 07:18:10.589            21.446               Magadan2           670.187
       429   05 Jun 2027 07:18:31.433   05 Jun 2027 07:20:06.304            94.871               Magadan1          2964.719
       430   05 Jun 2027 07:20:17.441   05 Jun 2027 07:20:36.543            19.102               Magadan1           596.937
       431   05 Jun 2027 07:21:19.457   05 Jun 2027 07:21:51.968            32.511                Irkutsk          1015.969
       432   05 Jun 2027 07:21:57.748   05 Jun 2027 07:22:04.969             7.221                Irkutsk           225.656
       433   05 Jun 2027 07:22:51.646   05 Jun 2027 07:23:16.935            25.289              Murmansk1           790.281
       434   05 Jun 2027 08:01:23.550   05 Jun 2027 08:01:57.026            33.476            RioGallegos          1046.125
       435   05 Jun 2027 08:06:07.270   05 Jun 2027 08:06:19.576            12.306            RioGallegos           384.562
       436   05 Jun 2027 08:32:20.362   05 Jun 2027 08:32:37.052            16.690                Sumatra           521.563
       437   05 Jun 2027 08:35:47.498   05 Jun 2027 08:36:44.051            56.553                Sumatra          1767.281
       438   05 Jun 2027 08:52:19.780   05 Jun 2027 08:52:28.685             8.905                Irkutsk           278.281
       439   05 Jun 2027 08:52:49.385   05 Jun 2027 08:53:56.096            66.711                Irkutsk          2084.719
       440   05 Jun 2027 08:55:27.993   05 Jun 2027 08:55:29.070             1.077                Irkutsk            33.656
       441   05 Jun 2027 08:56:05.309   05 Jun 2027 08:56:17.891            12.582                Irkutsk           393.187
       442   05 Jun 2027 08:56:32.553   05 Jun 2027 08:56:45.243            12.690                Irkutsk           396.563
       443   05 Jun 2027 08:57:24.056   05 Jun 2027 08:58:35.355            71.299                Novosib          2228.094
       444   05 Jun 2027 10:16:25.236   05 Jun 2027 10:18:06.392           101.156                  Delhi          3161.125
       445   05 Jun 2027 10:25:34.579   05 Jun 2027 10:26:07.973            33.394                  Delhi          1043.563
       446   05 Jun 2027 10:30:15.528   05 Jun 2027 10:30:32.423            16.895                Novosib           527.969
       447   05 Jun 2027 10:32:49.020   05 Jun 2027 10:33:27.417            38.397                Novosib          1199.906
       448   05 Jun 2027 10:33:34.178   05 Jun 2027 10:34:15.108            40.930                Novosib          1279.063
       449   05 Jun 2027 12:05:58.562   05 Jun 2027 12:06:21.329            22.767              Murmansk2           711.469
       450   05 Jun 2027 12:08:24.189   05 Jun 2027 12:11:10.225           166.036                Norilsk          5188.625
       451   05 Jun 2027 13:15:07.054   05 Jun 2027 13:16:12.743            65.689               CapeTown          2052.781
       452   05 Jun 2027 13:17:36.157   05 Jun 2027 13:18:33.074            56.917               CapeTown          1778.656
       453   05 Jun 2027 13:19:28.334   05 Jun 2027 13:20:20.503            52.169               CapeTown          1630.281
       454   05 Jun 2027 13:21:14.279   05 Jun 2027 13:21:42.593            28.314               CapeTown           884.812
       455   05 Jun 2027 13:41:16.158   05 Jun 2027 13:42:57.142           100.984              Murmansk2          3155.750
       456   05 Jun 2027 13:43:24.514   05 Jun 2027 13:43:36.219            11.705              Murmansk2           365.781
       457   05 Jun 2027 13:45:05.135   05 Jun 2027 13:45:34.027            28.892              Murmansk2           902.875
       458   05 Jun 2027 13:48:47.831   05 Jun 2027 13:48:55.095             7.264              Murmansk2           227.000
       459   05 Jun 2027 13:50:21.094   05 Jun 2027 13:50:54.462            33.368              Murmansk1          1042.750
       460   05 Jun 2027 13:50:58.086   05 Jun 2027 13:51:05.912             7.826              Murmansk2           244.562
       461   05 Jun 2027 13:55:08.471   05 Jun 2027 13:58:04.303           175.832                Anadyr2          5494.750
       462   05 Jun 2027 14:02:22.824   05 Jun 2027 14:04:39.489           136.665                Anadyr2          4270.781
       463   05 Jun 2027 15:22:55.266   05 Jun 2027 15:24:44.681           109.415              Murmansk2          3419.219
       464   05 Jun 2027 15:30:42.728   05 Jun 2027 15:31:12.092            29.364                Anadyr1           917.625
       465   05 Jun 2027 15:31:42.631   05 Jun 2027 15:31:51.728             9.097                Anadyr2           284.281
       466   05 Jun 2027 15:33:29.326   05 Jun 2027 15:33:36.295             6.969                Anadyr1           217.781
       467   05 Jun 2027 15:33:49.957   05 Jun 2027 15:33:59.260             9.303                Anadyr1           290.719
       468   05 Jun 2027 15:34:02.286   05 Jun 2027 15:37:37.443           215.157               Magadan2          6723.656
       469   05 Jun 2027 15:38:08.231   05 Jun 2027 15:39:04.761            56.530               Magadan1          1766.562
       470   05 Jun 2027 17:06:37.447   05 Jun 2027 17:07:45.873            68.426                Anadyr2          2138.312
       471   05 Jun 2027 17:08:58.342   05 Jun 2027 17:11:05.958           127.616               Magadan1          3988.000
       472   05 Jun 2027 17:16:13.604   05 Jun 2027 17:16:26.450            12.846               Magadan1           401.438
       473   05 Jun 2027 17:16:40.504   05 Jun 2027 17:18:32.265           111.761               Magadan1          3492.531
       474   05 Jun 2027 18:03:49.401   05 Jun 2027 18:05:49.008           119.607            RioGallegos          3737.719
       475   05 Jun 2027 18:43:47.713   05 Jun 2027 18:44:04.262            16.549                Anadyr1           517.156
       476   05 Jun 2027 18:44:41.830   05 Jun 2027 18:47:21.712           159.882                Norilsk          4996.312
       477   05 Jun 2027 18:47:50.363   05 Jun 2027 18:48:41.830            51.467                Norilsk          1608.344
       478   05 Jun 2027 18:49:51.997   05 Jun 2027 18:53:08.137           196.140                Irkutsk          6129.375
       479   05 Jun 2027 18:54:45.955   05 Jun 2027 18:56:08.276            82.321                Irkutsk          2572.531
       480   05 Jun 2027 19:05:19.835   05 Jun 2027 19:07:13.688           113.853                Sumatra          3557.906
       481   05 Jun 2027 19:10:40.326   05 Jun 2027 19:11:04.599            24.273                Sumatra           758.531
       482   05 Jun 2027 19:11:50.760   05 Jun 2027 19:12:27.197            36.437                Sumatra          1138.656
