uniorb/output/strategy_4/Drop/Drop_KinoSat_110208.txt

KinoSat_110208
-------------------------
    Access    *     Start Time (UTCG)     *     Stop Time (UTCG)  *   Duration (s)        *       Station  *  Data (Mbytes)
         1   01 Jun 2027 03:33:16.715   01 Jun 2027 03:33:48.593            31.878                Irkutsk          3984.750
         2   01 Jun 2027 03:34:21.621   01 Jun 2027 03:34:47.828            26.207                Irkutsk          3275.875
         3   01 Jun 2027 03:34:49.839   01 Jun 2027 03:35:04.107            14.268                Irkutsk          1783.500
         4   01 Jun 2027 03:35:21.319   01 Jun 2027 03:36:14.764            53.445                Irkutsk          6680.625
         5   01 Jun 2027 03:36:31.282   01 Jun 2027 03:38:29.226           117.944               Magadan1         14743.000
         6   01 Jun 2027 03:39:41.163   01 Jun 2027 03:39:46.803             5.640                Irkutsk           705.000
         7   01 Jun 2027 03:39:58.252   01 Jun 2027 03:40:01.272             3.020                Norilsk           377.500
         8   01 Jun 2027 03:40:31.843   01 Jun 2027 03:40:34.239             2.396              Murmansk2           299.500
         9   01 Jun 2027 03:40:58.388   01 Jun 2027 03:41:00.033             1.645              Murmansk2           205.625
        10   01 Jun 2027 04:14:35.938   01 Jun 2027 04:15:13.507            37.569            RioGallegos          4696.125
        11   01 Jun 2027 04:15:41.218   01 Jun 2027 04:16:24.692            43.474            RioGallegos          5434.250
        12   01 Jun 2027 04:23:17.898   01 Jun 2027 04:24:20.021            62.123            RioGallegos          7765.375
        13   01 Jun 2027 04:49:19.295   01 Jun 2027 04:52:20.267           180.972                Sumatra         22621.500
        14   01 Jun 2027 05:11:36.621   01 Jun 2027 05:13:20.536           103.915                Irkutsk         12989.375
        15   01 Jun 2027 05:13:39.798   01 Jun 2027 05:13:59.529            19.731                Novosib          2466.375
        16   01 Jun 2027 05:14:26.574   01 Jun 2027 05:15:35.585            69.011                Norilsk          8626.375
        17   01 Jun 2027 05:54:31.102   01 Jun 2027 05:55:15.002            43.900            RioGallegos          5487.500
        18   01 Jun 2027 06:33:35.721   01 Jun 2027 06:36:11.236           155.515                  Delhi         19439.375
        19   01 Jun 2027 06:49:37.709   01 Jun 2027 06:49:59.933            22.224                 Moscow          2778.000
        20   01 Jun 2027 06:50:06.559   01 Jun 2027 06:50:17.831            11.272                Novosib          1409.000
        21   01 Jun 2027 06:50:23.524   01 Jun 2027 06:51:19.902            56.378              Murmansk1          7047.250
        22   01 Jun 2027 06:51:35.751   01 Jun 2027 06:52:01.564            25.813              Murmansk1          3226.625
        23   01 Jun 2027 08:22:49.429   01 Jun 2027 08:23:35.318            45.889              Murmansk2          5736.125
        24   01 Jun 2027 08:24:33.005   01 Jun 2027 08:27:22.248           169.243              Murmansk1         21155.375
        25   01 Jun 2027 08:27:42.410   01 Jun 2027 08:29:42.082           119.672                 Moscow         14959.000
        26   01 Jun 2027 09:32:38.274   01 Jun 2027 09:39:15.242           396.968               CapeTown         49621.000
        27   01 Jun 2027 10:16:58.748   01 Jun 2027 10:17:14.365            15.617                Anadyr1          1952.125
        28   01 Jun 2027 11:52:19.450   01 Jun 2027 11:52:34.621            15.171               Magadan2          1896.375
        29   01 Jun 2027 11:57:32.669   01 Jun 2027 11:58:35.011            62.342               Magadan1          7792.750
        30   01 Jun 2027 13:26:15.894   01 Jun 2027 13:31:01.049           285.155               Magadan1         35644.375
        31   01 Jun 2027 15:23:30.791   01 Jun 2027 15:26:42.519           191.728                Sumatra         23966.000
        32   01 Jun 2027 15:56:01.789   01 Jun 2027 15:56:13.832            12.043            RioGallegos          1505.375
        33   01 Jun 2027 16:41:36.806   01 Jun 2027 16:42:55.842            79.036                Irkutsk          9879.500
        34   01 Jun 2027 16:46:21.812   01 Jun 2027 16:46:44.587            22.775                Irkutsk          2846.875
        35   01 Jun 2027 16:48:25.269   01 Jun 2027 16:49:39.481            74.212                Irkutsk          9276.500
        36   01 Jun 2027 16:55:19.588   01 Jun 2027 16:57:50.814           151.226                Sumatra         18903.250
        37   01 Jun 2027 17:06:36.869   01 Jun 2027 17:06:48.142            11.273                Sumatra          1409.125
        38   01 Jun 2027 18:21:11.066   01 Jun 2027 18:22:29.284            78.218                Novosib          9777.250
        39   01 Jun 2027 18:24:52.907   01 Jun 2027 18:27:48.047           175.140                  Delhi         21892.500
        40   01 Jun 2027 18:29:41.564   01 Jun 2027 18:30:24.183            42.619                  Delhi          2490.501
        41   02 Jun 2027 03:51:51.244   02 Jun 2027 03:55:00.533           189.289                Norilsk         23661.125
        42   02 Jun 2027 03:55:38.087   02 Jun 2027 03:56:17.036            38.949                Norilsk          4868.625
        43   02 Jun 2027 04:26:48.318   02 Jun 2027 04:27:19.534            31.216            RioGallegos          3902.000
        44   02 Jun 2027 04:33:57.618   02 Jun 2027 04:34:10.272            12.654            RioGallegos          1581.750
        45   02 Jun 2027 04:34:47.112   02 Jun 2027 04:34:53.626             6.514            RioGallegos           814.250
        46   02 Jun 2027 04:35:59.916   02 Jun 2027 04:36:20.643            20.727            RioGallegos          2590.875
        47   02 Jun 2027 05:01:21.270   02 Jun 2027 05:02:47.169            85.899                Sumatra         10737.375
        48   02 Jun 2027 05:11:10.502   02 Jun 2027 05:11:55.585            45.083                  Delhi          5635.375
        49   02 Jun 2027 05:19:49.674   02 Jun 2027 05:20:15.582            25.908                  Delhi          3238.500
        50   02 Jun 2027 05:24:39.574   02 Jun 2027 05:25:45.015            65.441                Irkutsk          8180.125
        51   02 Jun 2027 05:27:26.817   02 Jun 2027 05:29:18.626           111.809                Novosib         13976.125
        52   02 Jun 2027 05:29:29.220   02 Jun 2027 05:32:24.842           175.622                Norilsk         21952.750
        53   02 Jun 2027 05:32:38.542   02 Jun 2027 05:33:00.637            22.095              Murmansk1          2761.875
        54   02 Jun 2027 05:33:00.637   02 Jun 2027 05:34:49.885           109.248              Murmansk2         13656.000
        55   02 Jun 2027 06:07:54.348   02 Jun 2027 06:10:51.978           177.630            RioGallegos         22203.750
        56   02 Jun 2027 06:45:47.409   02 Jun 2027 06:48:29.770           162.361                  Delhi         20295.125
        57   02 Jun 2027 06:52:10.330   02 Jun 2027 06:52:32.869            22.539                  Delhi          2817.375
        58   02 Jun 2027 06:55:25.438   02 Jun 2027 06:55:59.677            34.239                 Moscow          4279.875
        59   02 Jun 2027 06:56:23.697   02 Jun 2027 06:57:09.731            46.034                Novosib          5754.250
        60   02 Jun 2027 07:03:20.608   02 Jun 2027 07:08:43.520           322.912                Norilsk         40364.000
        61   02 Jun 2027 07:09:57.496   02 Jun 2027 07:10:25.534            28.038              Murmansk2          3504.750
        62   02 Jun 2027 08:34:37.684   02 Jun 2027 08:35:24.305            46.621              Murmansk1          5827.625
        63   02 Jun 2027 08:38:57.244   02 Jun 2027 08:43:50.763           293.519                Norilsk         36689.875
        64   02 Jun 2027 08:44:03.130   02 Jun 2027 08:46:19.786           136.656              Murmansk1         17082.000
        65   02 Jun 2027 09:44:15.775   02 Jun 2027 09:50:47.098           391.323               CapeTown         48915.375
        66   02 Jun 2027 10:07:39.976   02 Jun 2027 10:11:22.822           222.846                 Moscow         27855.750
        67   02 Jun 2027 10:11:25.399   02 Jun 2027 10:11:57.453            32.054              Murmansk2          4006.750
        68   02 Jun 2027 10:12:52.162   02 Jun 2027 10:14:19.539            87.377              Murmansk2         10922.125
        69   02 Jun 2027 10:17:55.482   02 Jun 2027 10:19:18.796            83.314              Murmansk1         10414.250
        70   02 Jun 2027 10:24:23.425   02 Jun 2027 10:27:02.442           159.017                Anadyr1         19877.125
        71   02 Jun 2027 10:27:09.985   02 Jun 2027 10:34:20.337           430.352                Anadyr2         53794.000
        72   02 Jun 2027 11:59:59.821   02 Jun 2027 12:00:24.508            24.687                Anadyr2          3085.875
        73   02 Jun 2027 12:04:09.294   02 Jun 2027 12:07:10.491           181.197               Magadan1         22649.625
        74   02 Jun 2027 12:07:10.491   02 Jun 2027 12:07:25.550            15.059               Magadan2          1882.375
        75   02 Jun 2027 13:38:14.810   02 Jun 2027 13:39:02.368            47.558               Magadan2          5944.750
        76   02 Jun 2027 13:41:04.914   02 Jun 2027 13:41:35.386            30.472               Magadan1          3809.000
        77   02 Jun 2027 13:43:02.009   02 Jun 2027 13:45:06.261           124.252               Magadan1         15531.500
        78   02 Jun 2027 15:24:28.666   02 Jun 2027 15:27:22.653           173.987                Irkutsk         21748.375
        79   02 Jun 2027 15:34:09.339   02 Jun 2027 15:36:41.454           152.115                Sumatra         19014.375
        80   02 Jun 2027 15:39:04.473   02 Jun 2027 15:42:08.863           184.390                Sumatra         23048.750
        81   02 Jun 2027 16:55:51.780   02 Jun 2027 16:57:05.075            73.295                Novosib          9161.875
        82   02 Jun 2027 17:04:56.576   02 Jun 2027 17:06:33.097            96.521                  Delhi         12065.125
        83   02 Jun 2027 18:34:12.945   02 Jun 2027 18:34:15.030             2.085                Novosib           260.625
        84   02 Jun 2027 18:36:48.671   02 Jun 2027 18:39:14.111           145.440                  Delhi         18180.000
        85   02 Jun 2027 18:46:22.281   02 Jun 2027 18:48:14.573           112.292                  Delhi         14036.500
        86   02 Jun 2027 20:08:00.850   02 Jun 2027 20:10:26.789           145.939                 Moscow         18242.375
        87   02 Jun 2027 20:12:04.107   02 Jun 2027 20:13:26.090            81.983                 Moscow          5133.125
        88   03 Jun 2027 04:03:43.358   03 Jun 2027 04:04:04.255            20.897                Norilsk          2612.125
        89   03 Jun 2027 04:04:18.677   03 Jun 2027 04:05:02.180            43.503              Murmansk1          5437.875
        90   03 Jun 2027 05:13:28.963   03 Jun 2027 05:14:25.696            56.733                Sumatra          7091.625
        91   03 Jun 2027 05:17:20.719   03 Jun 2027 05:18:17.040            56.321                Sumatra          7040.125
        92   03 Jun 2027 05:22:35.900   03 Jun 2027 05:24:16.622           100.722                  Delhi         12590.250
        93   03 Jun 2027 05:38:13.622   03 Jun 2027 05:38:45.524            31.902                 Moscow          3987.750
        94   03 Jun 2027 05:39:42.261   03 Jun 2027 05:41:19.463            97.202                Novosib         12150.250
        95   03 Jun 2027 05:41:27.688   03 Jun 2027 05:44:46.670           198.982                Norilsk         24872.750
        96   03 Jun 2027 05:44:49.450   03 Jun 2027 05:45:08.594            19.144              Murmansk1          2393.000
        97   03 Jun 2027 06:58:05.427   03 Jun 2027 07:00:23.584           138.157                  Delhi         17269.625
        98   03 Jun 2027 07:03:32.268   03 Jun 2027 07:04:25.120            52.852                  Delhi          6606.500
        99   03 Jun 2027 07:07:06.776   03 Jun 2027 07:11:05.056           238.280                 Moscow         29785.000
       100   03 Jun 2027 07:15:15.667   03 Jun 2027 07:16:23.725            68.058              Murmansk2          8507.250
       101   03 Jun 2027 07:16:28.289   03 Jun 2027 07:17:31.083            62.794                 Moscow          7849.250
       102   03 Jun 2027 07:17:34.351   03 Jun 2027 07:18:30.019            55.668                Norilsk          6958.500
       103   03 Jun 2027 07:18:30.715   03 Jun 2027 07:21:03.470           152.755              Murmansk2         19094.375
       104   03 Jun 2027 08:45:15.708   03 Jun 2027 08:47:04.715           109.007                 Moscow         13625.875
       105   03 Jun 2027 08:50:16.154   03 Jun 2027 08:52:24.016           127.862                 Moscow         15982.750
       106   03 Jun 2027 08:52:34.999   03 Jun 2027 08:58:12.469           337.470              Murmansk2         42183.750
       107   03 Jun 2027 10:00:38.962   03 Jun 2027 10:02:02.437            83.475               CapeTown         10434.375
       108   03 Jun 2027 10:23:00.545   03 Jun 2027 10:23:13.240            12.695              Murmansk2          1586.875
       109   03 Jun 2027 10:24:42.176   03 Jun 2027 10:24:53.825            11.649              Murmansk2          1456.125
       110   03 Jun 2027 10:25:32.219   03 Jun 2027 10:26:06.828            34.609              Murmansk2          4326.125
       111   03 Jun 2027 10:26:28.771   03 Jun 2027 10:27:05.466            36.695              Murmansk2          4586.875
       112   03 Jun 2027 10:27:39.375   03 Jun 2027 10:28:25.870            46.495              Murmansk2          5811.875
       113   03 Jun 2027 10:29:22.828   03 Jun 2027 10:31:27.630           124.802              Murmansk2         15600.250
       114   03 Jun 2027 10:36:19.697   03 Jun 2027 10:41:29.819           310.122                Anadyr2         38765.250
       115   03 Jun 2027 10:42:19.874   03 Jun 2027 10:45:52.046           212.172                Anadyr1         26521.500
       116   03 Jun 2027 12:05:52.735   03 Jun 2027 12:05:58.262             5.527              Murmansk1           690.875
       117   03 Jun 2027 12:06:02.406   03 Jun 2027 12:06:46.027            43.621              Murmansk2          5452.625
       118   03 Jun 2027 12:07:09.723   03 Jun 2027 12:08:05.493            55.770              Murmansk2          6971.250
       119   03 Jun 2027 12:13:37.890   03 Jun 2027 12:13:45.086             7.196                Anadyr1           899.500
       120   03 Jun 2027 12:15:55.304   03 Jun 2027 12:18:27.103           151.799               Magadan2         18974.875
       121   03 Jun 2027 13:50:14.369   03 Jun 2027 13:50:54.106            39.737               Magadan1          4967.125
       122   03 Jun 2027 13:51:18.916   03 Jun 2027 13:53:16.677           117.761               Magadan2         14720.125
       123   03 Jun 2027 14:47:56.922   03 Jun 2027 14:50:29.380           152.458            RioGallegos         19057.250
       124   03 Jun 2027 15:34:01.046   03 Jun 2027 15:34:45.557            44.511                Irkutsk          5563.875
       125   03 Jun 2027 15:36:53.088   03 Jun 2027 15:37:03.571            10.483                Irkutsk          1310.375
       126   03 Jun 2027 15:45:16.960   03 Jun 2027 15:48:28.561           191.601                Sumatra         23950.125
       127   03 Jun 2027 15:51:19.078   03 Jun 2027 15:54:20.817           181.739                Sumatra         22717.375
       128   03 Jun 2027 17:09:09.984   03 Jun 2027 17:10:32.743            82.759                Novosib         10344.875
       129   03 Jun 2027 17:15:31.178   03 Jun 2027 17:18:15.224           164.046                  Delhi         20505.750
       130   03 Jun 2027 18:48:47.868   03 Jun 2027 18:49:51.897            64.029                  Delhi          8003.625
       131   03 Jun 2027 18:56:08.806   03 Jun 2027 18:58:24.099           135.293                  Delhi         16911.625
       132   03 Jun 2027 20:20:34.815   03 Jun 2027 20:23:27.771           172.956                 Moscow         21619.500
       133   03 Jun 2027 22:07:12.225   03 Jun 2027 22:07:53.288            41.063                 Moscow          4982.375
       134   04 Jun 2027 04:15:43.890   04 Jun 2027 04:15:52.460             8.570                Irkutsk          1071.250
       135   04 Jun 2027 04:16:03.745   04 Jun 2027 04:16:57.800            54.055                Novosib          6756.875
       136   04 Jun 2027 05:25:42.861   04 Jun 2027 05:26:20.488            37.627                Sumatra          4703.375
       137   04 Jun 2027 05:28:02.809   04 Jun 2027 05:28:09.263             6.454                Sumatra           806.750
       138   04 Jun 2027 05:33:02.341   04 Jun 2027 05:33:06.206             3.865                Sumatra           483.125
       139   04 Jun 2027 05:34:14.247   04 Jun 2027 05:36:32.279           138.032                  Delhi         17254.000
       140   04 Jun 2027 05:40:22.957   04 Jun 2027 05:40:33.784            10.827                  Delhi          1353.375
       141   04 Jun 2027 05:41:42.634   04 Jun 2027 05:43:35.855           113.221                  Delhi         14152.625
       142   04 Jun 2027 05:51:00.470   04 Jun 2027 05:51:52.246            51.776                Novosib          6472.000
       143   04 Jun 2027 05:52:01.289   04 Jun 2027 05:53:35.934            94.645                Norilsk         11830.625
       144   04 Jun 2027 05:53:59.202   04 Jun 2027 05:54:16.803            17.601                 Moscow          2200.125
       145   04 Jun 2027 05:54:25.772   04 Jun 2027 05:56:23.538           117.766              Murmansk2         14720.750
       146   04 Jun 2027 05:56:23.538   04 Jun 2027 05:57:10.620            47.082              Murmansk1          5885.250
       147   04 Jun 2027 07:12:09.128   04 Jun 2027 07:12:53.137            44.009                  Delhi          5501.125
       148   04 Jun 2027 07:13:50.637   04 Jun 2027 07:14:30.453            39.816                  Delhi          4977.000
       149   04 Jun 2027 07:18:50.750   04 Jun 2027 07:22:59.762           249.012                 Moscow         31126.500
       150   04 Jun 2027 07:27:45.657   04 Jun 2027 07:30:50.969           185.312                 Moscow         23164.000
       151   04 Jun 2027 07:31:07.651   04 Jun 2027 07:32:18.664            71.013              Murmansk1          8876.625
       152   04 Jun 2027 07:32:18.664   04 Jun 2027 07:34:26.706           128.042              Murmansk2         16005.250
       153   04 Jun 2027 08:57:15.877   04 Jun 2027 08:57:16.774             0.897                 Moscow           112.125
       154   04 Jun 2027 08:57:42.209   04 Jun 2027 08:58:03.108            20.899                 Moscow          2612.375
       155   04 Jun 2027 08:58:15.826   04 Jun 2027 08:59:04.467            48.641              Murmansk2          6080.125
       156   04 Jun 2027 09:00:01.285   04 Jun 2027 09:00:16.162            14.877              Murmansk2          1859.625
       157   04 Jun 2027 09:01:39.483   04 Jun 2027 09:02:15.847            36.364              Murmansk2          4545.500
       158   04 Jun 2027 09:03:47.590   04 Jun 2027 09:04:04.028            16.438                Norilsk          2054.750
       159   04 Jun 2027 09:05:36.844   04 Jun 2027 09:08:32.029           175.185              Murmansk2         21898.125
       160   04 Jun 2027 09:14:09.528   04 Jun 2027 09:17:39.256           209.728                Anadyr1         26216.000
       161   04 Jun 2027 10:41:58.557   04 Jun 2027 10:42:51.820            53.263              Murmansk1          6657.875
       162   04 Jun 2027 10:48:17.073   04 Jun 2027 10:49:30.597            73.524                Anadyr1          9190.500
       163   04 Jun 2027 10:51:45.797   04 Jun 2027 10:52:36.243            50.446                Anadyr2          6305.750
       164   04 Jun 2027 10:52:38.707   04 Jun 2027 10:53:22.821            44.114                Anadyr2          5514.250
       165   04 Jun 2027 10:55:26.539   04 Jun 2027 10:57:50.129           143.590                Anadyr1         17948.750
       166   04 Jun 2027 12:15:50.657   04 Jun 2027 12:16:37.587            46.930              Murmansk2          5866.250
       167   04 Jun 2027 12:17:20.103   04 Jun 2027 12:17:53.932            33.829              Murmansk2          4228.625
       168   04 Jun 2027 12:17:55.949   04 Jun 2027 12:18:40.847            44.898              Murmansk1          5612.250
       169   04 Jun 2027 12:19:04.056   04 Jun 2027 12:20:06.864            62.808              Murmansk1          7851.000
       170   04 Jun 2027 12:24:01.735   04 Jun 2027 12:24:20.745            19.010                Anadyr2          2376.250
       171   04 Jun 2027 12:26:51.263   04 Jun 2027 12:31:13.732           262.469               Magadan2         32808.625
       172   04 Jun 2027 14:02:14.470   04 Jun 2027 14:02:47.886            33.416               Magadan2          4177.000
       173   04 Jun 2027 14:03:50.632   04 Jun 2027 14:05:25.619            94.987               Magadan1         11873.375
       174   04 Jun 2027 15:00:36.422   04 Jun 2027 15:03:27.595           171.173            RioGallegos         21396.625
       175   04 Jun 2027 15:46:41.025   04 Jun 2027 15:48:20.172            99.147                Irkutsk         12393.375
       176   04 Jun 2027 15:56:39.726   04 Jun 2027 16:00:21.683           221.957                Sumatra         27744.625
       177   04 Jun 2027 17:18:00.859   04 Jun 2027 17:19:10.377            69.518                Novosib          8689.750
       178   04 Jun 2027 17:26:42.399   04 Jun 2027 17:30:02.627           200.228                  Delhi         25028.500
       179   04 Jun 2027 17:32:32.516   04 Jun 2027 17:35:40.793           188.277                  Delhi         23534.625
       180   04 Jun 2027 19:08:42.886   04 Jun 2027 19:08:59.068            16.182                  Delhi          2022.750
       181   04 Jun 2027 20:31:26.398   04 Jun 2027 20:33:55.608           149.210                 Moscow         18651.250
       182   04 Jun 2027 22:10:18.566   04 Jun 2027 22:11:52.862            94.296                 Moscow          5725.749
       183   05 Jun 2027 05:38:03.961   05 Jun 2027 05:39:50.319           106.358                Sumatra         13294.750
       184   05 Jun 2027 05:45:58.654   05 Jun 2027 05:48:43.622           164.968                  Delhi         20621.000
       185   05 Jun 2027 06:03:22.971   05 Jun 2027 06:04:31.249            68.278              Murmansk2          8534.750
       186   05 Jun 2027 06:04:33.795   05 Jun 2027 06:05:33.675            59.880                Norilsk          7485.000
       187   05 Jun 2027 06:05:46.657   05 Jun 2027 06:06:25.654            38.997                 Moscow          4874.625
       188   05 Jun 2027 06:06:43.572   05 Jun 2027 06:07:21.905            38.333              Murmansk1          4791.625
       189   05 Jun 2027 06:07:21.905   05 Jun 2027 06:08:39.639            77.734              Murmansk2          9716.750
       190   05 Jun 2027 06:08:39.639   05 Jun 2027 06:09:12.553            32.914              Murmansk1          4114.250
       191   05 Jun 2027 07:24:02.258   05 Jun 2027 07:24:20.875            18.617                  Delhi          2327.125
       192   05 Jun 2027 07:24:56.339   05 Jun 2027 07:26:42.363           106.024                  Delhi         13253.000
       193   05 Jun 2027 07:31:33.252   05 Jun 2027 07:33:41.502           128.250                Novosib         16031.250
       194   05 Jun 2027 07:34:21.540   05 Jun 2027 07:35:29.773            68.233              Murmansk2          8529.125
       195   05 Jun 2027 07:39:17.431   05 Jun 2027 07:42:54.569           217.138                 Moscow         27142.250
       196   05 Jun 2027 07:43:03.702   05 Jun 2027 07:44:45.048           101.346                Norilsk         12668.250
       197   05 Jun 2027 07:45:03.847   05 Jun 2027 07:46:27.637            83.790              Murmansk1         10473.750
       198   05 Jun 2027 09:09:45.121   05 Jun 2027 09:10:55.834            70.713              Murmansk2          8839.125
       199   05 Jun 2027 09:18:04.823   05 Jun 2027 09:19:32.837            88.014              Murmansk1         11001.750
       200   05 Jun 2027 09:25:34.066   05 Jun 2027 09:29:29.874           235.808                Anadyr2         29476.000
       201   05 Jun 2027 09:30:43.826   05 Jun 2027 09:30:55.091            11.265                Anadyr1          1408.125
       202   05 Jun 2027 11:00:15.316   05 Jun 2027 11:01:46.554            91.238                Anadyr2         11404.750
       203   05 Jun 2027 11:05:15.195   05 Jun 2027 11:05:17.711             2.516                Anadyr2           314.500
       204   05 Jun 2027 11:10:29.467   05 Jun 2027 11:10:38.192             8.725                Anadyr1          1090.625
       205   05 Jun 2027 12:28:47.597   05 Jun 2027 12:30:36.880           109.283              Murmansk2         13660.375
       206   05 Jun 2027 12:36:15.617   05 Jun 2027 12:36:19.894             4.277                Anadyr2           534.625
       207   05 Jun 2027 12:38:44.296   05 Jun 2027 12:43:16.954           272.658               Magadan2         34082.250
       208   05 Jun 2027 12:43:51.131   05 Jun 2027 12:45:49.928           118.797               Magadan1         14849.625
       209   05 Jun 2027 14:14:15.034   05 Jun 2027 14:14:43.251            28.217               Magadan1          3527.125
       210   05 Jun 2027 15:06:50.123   05 Jun 2027 15:10:53.708           243.585            RioGallegos         30448.125
       211   05 Jun 2027 15:54:13.389   05 Jun 2027 15:55:15.966            62.577                Irkutsk          7822.125
       212   05 Jun 2027 16:08:12.789   05 Jun 2027 16:09:58.954           106.165                Sumatra         13270.625
       213   05 Jun 2027 16:15:29.962   05 Jun 2027 16:17:31.589           121.627                Sumatra         15203.375
       214   05 Jun 2027 17:29:54.457   05 Jun 2027 17:31:37.912           103.455                Novosib         12931.875
       215   05 Jun 2027 17:38:09.024   05 Jun 2027 17:44:48.105           399.081                  Delhi         49885.125
       216   05 Jun 2027 19:12:34.019   05 Jun 2027 19:12:39.656             5.637                 Moscow           704.625
       217   05 Jun 2027 20:43:21.360   05 Jun 2027 20:45:10.431           109.071                 Moscow         13097.750
       218   06 Jun 2027 04:14:02.403   06 Jun 2027 04:18:21.943           259.540                Sumatra         32442.500
       219   06 Jun 2027 04:39:26.344   06 Jun 2027 04:44:28.838           302.494              Murmansk2         37811.750
       220   06 Jun 2027 05:18:00.029   06 Jun 2027 05:18:30.876            30.847            RioGallegos          3855.875
       221   06 Jun 2027 05:19:00.601   06 Jun 2027 05:19:16.582            15.981            RioGallegos          1997.625
       222   06 Jun 2027 05:50:34.173   06 Jun 2027 05:52:38.940           124.767                Sumatra         15595.875
       223   06 Jun 2027 05:57:48.655   06 Jun 2027 06:01:22.088           213.433                  Delhi         26679.125
       224   06 Jun 2027 06:16:08.226   06 Jun 2027 06:20:38.282           270.056              Murmansk1         33757.000
       225   06 Jun 2027 07:35:52.034   06 Jun 2027 07:39:00.631           188.597                  Delhi         23574.625
       226   06 Jun 2027 07:44:24.583   06 Jun 2027 07:45:47.496            82.913                Novosib         10364.125
       227   06 Jun 2027 07:45:48.861   06 Jun 2027 07:46:56.849            67.988                 Moscow          8498.500
       228   06 Jun 2027 07:51:10.424   06 Jun 2027 07:51:57.345            46.921              Murmansk1          5865.125
       229   06 Jun 2027 07:52:21.351   06 Jun 2027 07:58:28.765           367.414              Murmansk2         45926.750
       230   06 Jun 2027 09:20:14.275   06 Jun 2027 09:21:54.343           100.068                 Moscow         12508.500
       231   06 Jun 2027 09:21:55.371   06 Jun 2027 09:23:59.582           124.211              Murmansk1         15526.375
       232   06 Jun 2027 09:23:59.582   06 Jun 2027 09:27:03.781           184.199              Murmansk2         23024.875
       233   06 Jun 2027 09:30:05.500   06 Jun 2027 09:31:14.889            69.389              Murmansk2          8673.625
       234   06 Jun 2027 09:37:13.635   06 Jun 2027 09:43:53.371           399.736                Anadyr1         49967.000
       235   06 Jun 2027 11:14:09.113   06 Jun 2027 11:15:57.847           108.734                Anadyr1         13591.750
       236   06 Jun 2027 12:48:54.615   06 Jun 2027 12:50:42.066           107.451                Anadyr2         13431.375
       237   06 Jun 2027 12:52:01.214   06 Jun 2027 12:52:36.089            34.875               Magadan2          4359.375
       238   06 Jun 2027 12:55:14.874   06 Jun 2027 12:55:15.846             0.972               Magadan1           121.500
       239   06 Jun 2027 14:26:16.001   06 Jun 2027 14:27:59.956           103.955               Magadan1         12994.375
       240   06 Jun 2027 14:27:59.956   06 Jun 2027 14:28:14.197            14.241               Magadan2          1780.125
       241   06 Jun 2027 14:28:41.255   06 Jun 2027 14:29:35.540            54.285               Magadan1          6785.625
       242   06 Jun 2027 15:18:34.349   06 Jun 2027 15:22:48.837           254.488            RioGallegos         31811.000
       243   06 Jun 2027 16:06:05.105   06 Jun 2027 16:09:15.920           190.815                Irkutsk         23851.875
       244   06 Jun 2027 16:19:53.812   06 Jun 2027 16:22:20.084           146.272                Sumatra         18284.000
       245   06 Jun 2027 17:41:49.739   06 Jun 2027 17:44:00.886           131.147                Novosib         16393.375
       246   06 Jun 2027 17:49:45.034   06 Jun 2027 17:52:51.981           186.947                  Delhi         23368.375
       247   06 Jun 2027 20:51:53.933   06 Jun 2027 20:52:13.634            19.701              Murmansk1          2462.625
       248   06 Jun 2027 20:52:52.705   06 Jun 2027 20:53:49.457            56.752              Murmansk1          7094.000
       249   06 Jun 2027 20:55:17.739   06 Jun 2027 20:56:42.749            85.010                 Moscow         10626.250
       250   06 Jun 2027 21:19:45.236   06 Jun 2027 21:20:19.731            34.495               CapeTown          4311.875
       251   07 Jun 2027 03:16:04.575   07 Jun 2027 03:20:38.736           274.161                Norilsk         34270.125
       252   07 Jun 2027 03:20:39.228   07 Jun 2027 03:22:30.957           111.729              Murmansk1         13966.125
       253   07 Jun 2027 04:25:46.880   07 Jun 2027 04:28:27.871           160.991                Sumatra         20123.875
       254   07 Jun 2027 04:51:36.552   07 Jun 2027 04:56:37.019           300.467              Murmansk1         37558.375
       255   07 Jun 2027 05:30:35.766   07 Jun 2027 05:31:12.003            36.237            RioGallegos          4529.625
       256   07 Jun 2027 05:31:24.278   07 Jun 2027 05:31:35.465            11.187            RioGallegos          1398.375
       257   07 Jun 2027 05:31:48.641   07 Jun 2027 05:32:20.748            32.107            RioGallegos          4013.375
       258   07 Jun 2027 05:33:42.993   07 Jun 2027 05:35:06.046            83.053            RioGallegos         10381.625
       259   07 Jun 2027 06:03:17.446   07 Jun 2027 06:05:02.615           105.169                Sumatra         13146.125
       260   07 Jun 2027 06:09:02.964   07 Jun 2027 06:11:14.375           131.411                Sumatra         16426.375
       261   07 Jun 2027 06:11:27.225   07 Jun 2027 06:12:26.797            59.572                  Delhi          7446.500
       262   07 Jun 2027 06:16:59.020   07 Jun 2027 06:21:23.782           264.762                Novosib         33095.250
       263   07 Jun 2027 06:22:11.714   07 Jun 2027 06:23:25.227            73.513                 Moscow          9189.125
       264   07 Jun 2027 06:27:37.073   07 Jun 2027 06:30:40.354           183.281                 Moscow         22910.125
       265   07 Jun 2027 06:30:40.757   07 Jun 2027 06:32:00.183            79.426              Murmansk1          9928.250
       266   07 Jun 2027 06:32:00.183   07 Jun 2027 06:32:36.443            36.260              Murmansk2          4532.500
       267   07 Jun 2027 07:48:59.159   07 Jun 2027 07:51:26.281           147.122                  Delhi         18390.250
       268   07 Jun 2027 07:55:20.083   07 Jun 2027 07:56:53.571            93.488                 Moscow         11686.000
       269   07 Jun 2027 07:58:17.906   07 Jun 2027 07:58:44.749            26.843                Novosib          3355.375
       270   07 Jun 2027 08:03:09.091   07 Jun 2027 08:03:50.043            40.952              Murmansk2          5119.000
       271   07 Jun 2027 08:04:30.239   07 Jun 2027 08:08:43.115           252.876                Norilsk         31609.500
       272   07 Jun 2027 08:08:53.806   07 Jun 2027 08:10:30.056            96.250              Murmansk1         12031.250
       273   07 Jun 2027 09:10:08.704   07 Jun 2027 09:17:18.502           429.798               CapeTown         53724.750
       274   07 Jun 2027 09:30:42.790   07 Jun 2027 09:34:59.705           256.915                 Moscow         32114.375
       275   07 Jun 2027 09:37:02.176   07 Jun 2027 09:40:19.482           197.306              Murmansk2         24663.250
       276   07 Jun 2027 09:42:06.390   07 Jun 2027 09:42:30.011            23.621              Murmansk2          2952.625
       277   07 Jun 2027 09:43:05.374   07 Jun 2027 09:43:16.210            10.836              Murmansk2          1354.500
       278   07 Jun 2027 09:44:11.615   07 Jun 2027 09:45:15.975            64.360              Murmansk2          8045.000
       279   07 Jun 2027 09:48:59.965   07 Jun 2027 09:56:42.383           462.418                Anadyr2         57802.250
       280   07 Jun 2027 11:13:00.228   07 Jun 2027 11:15:33.758           153.530              Murmansk1         19191.250
       281   07 Jun 2027 11:27:11.028   07 Jun 2027 11:29:01.618           110.590                Anadyr1         13823.750
       282   07 Jun 2027 11:31:16.794   07 Jun 2027 11:32:56.568            99.774               Magadan2         12471.750
       283   07 Jun 2027 13:02:35.239   07 Jun 2027 13:07:45.375           310.136               Magadan2         38767.000
       284   07 Jun 2027 15:30:22.525   07 Jun 2027 15:34:04.559           222.034            RioGallegos         27754.250
       285   07 Jun 2027 16:17:58.966   07 Jun 2027 16:20:09.011           130.045                Irkutsk         16255.625
       286   07 Jun 2027 16:31:41.507   07 Jun 2027 16:34:34.006           172.499                Sumatra         21562.375
       287   07 Jun 2027 17:53:46.380   07 Jun 2027 17:55:07.442            81.062                Novosib         10132.750
       288   07 Jun 2027 18:01:27.700   07 Jun 2027 18:05:48.861           261.161                  Delhi         32645.125
       289   07 Jun 2027 21:03:55.313   07 Jun 2027 21:04:12.300            16.987              Murmansk1          2123.375
       290   07 Jun 2027 21:04:29.792   07 Jun 2027 21:04:56.497            26.705              Murmansk2          3338.125
       291   07 Jun 2027 21:07:15.306   07 Jun 2027 21:08:23.459            68.153                 Moscow          8519.125
       292   07 Jun 2027 21:31:27.756   07 Jun 2027 21:33:44.619           136.863               CapeTown         17107.875
       293   08 Jun 2027 03:28:00.218   08 Jun 2027 03:29:10.929            70.711                Novosib          8838.875
       294   08 Jun 2027 03:29:11.513   08 Jun 2027 03:32:56.811           225.298                Norilsk         28162.250
       295   08 Jun 2027 03:33:00.875   08 Jun 2027 03:33:42.786            41.911              Murmansk1          5238.875
       296   08 Jun 2027 04:37:37.617   08 Jun 2027 04:40:38.602           180.985                Sumatra         22623.125
       297   08 Jun 2027 05:03:29.919   08 Jun 2027 05:09:19.580           349.661              Murmansk2         43707.625
       298   08 Jun 2027 06:16:24.258   08 Jun 2027 06:18:59.242           154.984                Sumatra         19373.000
       299   08 Jun 2027 06:21:44.638   08 Jun 2027 06:23:44.536           119.898                  Delhi         14987.250
       300   08 Jun 2027 06:26:48.933   08 Jun 2027 06:26:52.473             3.540                  Delhi           442.500
       301   08 Jun 2027 06:31:39.944   08 Jun 2027 06:33:30.594           110.650                Novosib         13831.250
       302   08 Jun 2027 06:33:36.024   08 Jun 2027 06:34:30.836            54.812                 Moscow          6851.500
       303   08 Jun 2027 06:39:26.949   08 Jun 2027 06:44:45.885           318.936              Murmansk2         39867.000
       304   08 Jun 2027 06:44:45.885   08 Jun 2027 06:44:51.196             5.311              Murmansk1           663.875
       305   08 Jun 2027 08:03:05.267   08 Jun 2027 08:04:01.095            55.828                  Delhi          6978.500
       306   08 Jun 2027 08:04:42.234   08 Jun 2027 08:04:50.111             7.877                  Delhi           984.625
       307   08 Jun 2027 08:16:30.930   08 Jun 2027 08:20:40.669           249.739                Norilsk         31217.375
       308   08 Jun 2027 08:20:41.565   08 Jun 2027 08:22:31.488           109.923              Murmansk1         13740.375
       309   08 Jun 2027 09:21:23.632   08 Jun 2027 09:30:18.493           534.861               CapeTown         66857.625
       310   08 Jun 2027 09:43:02.620   08 Jun 2027 09:52:55.941           593.321                 Moscow         74165.125
       311   08 Jun 2027 09:53:34.111   08 Jun 2027 09:55:20.976           106.865              Murmansk1         13358.125
       312   08 Jun 2027 09:56:07.080   08 Jun 2027 09:57:05.023            57.943              Murmansk2          7242.875
       313   08 Jun 2027 10:00:50.296   08 Jun 2027 10:09:24.947           514.651                Anadyr2         64331.375
       314   08 Jun 2027 11:25:17.780   08 Jun 2027 11:26:42.643            84.863              Murmansk1         10607.875
       315   08 Jun 2027 11:26:42.643   08 Jun 2027 11:28:00.997            78.354              Murmansk2          9794.250
       316   08 Jun 2027 11:28:20.913   08 Jun 2027 11:28:43.140            22.227              Murmansk2          2778.375
       317   08 Jun 2027 11:36:13.705   08 Jun 2027 11:38:45.937           152.232                Anadyr1         19029.000
       318   08 Jun 2027 11:39:30.531   08 Jun 2027 11:41:02.688            92.157                Anadyr1         11519.625
       319   08 Jun 2027 11:42:00.784   08 Jun 2027 11:46:14.091           253.307               Magadan1         31663.375
       320   08 Jun 2027 13:14:32.512   08 Jun 2027 13:19:15.483           282.971               Magadan1         35371.375
       321   08 Jun 2027 15:42:13.638   08 Jun 2027 15:45:48.767           215.129            RioGallegos         26891.125
       322   08 Jun 2027 15:51:42.734   08 Jun 2027 15:53:47.031           124.297            RioGallegos         15537.125
       323   08 Jun 2027 16:29:54.556   08 Jun 2027 16:31:34.255            99.699                Irkutsk         12462.375
       324   08 Jun 2027 16:38:30.501   08 Jun 2027 16:38:51.106            20.605                Novosib          2575.625
       325   08 Jun 2027 16:43:35.160   08 Jun 2027 16:46:41.720           186.560                Sumatra         23320.000
       326   08 Jun 2027 18:08:34.945   08 Jun 2027 18:10:29.981           115.036                Novosib         14379.500
       327   08 Jun 2027 18:13:15.527   08 Jun 2027 18:15:48.123           152.596                  Delhi         19074.500
       328   08 Jun 2027 19:44:24.776   08 Jun 2027 19:45:17.151            52.375                 Moscow          6546.875
       329   08 Jun 2027 21:15:56.828   08 Jun 2027 21:16:11.685            14.857              Murmansk1          1857.125
       330   08 Jun 2027 21:19:59.316   08 Jun 2027 21:20:09.299             9.983                 Moscow          1247.875
       331   08 Jun 2027 21:22:42.204   08 Jun 2027 21:24:01.925            79.721                 Moscow          9965.125
       332   08 Jun 2027 21:43:15.577   08 Jun 2027 21:46:12.041           176.464               CapeTown         22058.000
       333   09 Jun 2027 03:18:54.025   09 Jun 2027 03:20:43.828           109.803                Sumatra          8298.249
       334   09 Jun 2027 03:40:04.826   09 Jun 2027 03:41:17.016            72.190                Novosib          9023.750
       335   09 Jun 2027 03:41:18.353   09 Jun 2027 03:43:11.045           112.692              Murmansk2         14086.500
       336   09 Jun 2027 04:49:34.110   09 Jun 2027 04:52:34.089           179.979                Sumatra         22497.375
       337   09 Jun 2027 05:15:26.713   09 Jun 2027 05:15:53.242            26.529              Murmansk2          3316.125
       338   09 Jun 2027 05:16:11.069   09 Jun 2027 05:20:57.709           286.640                Norilsk         35830.000
       339   09 Jun 2027 05:54:47.073   09 Jun 2027 05:55:54.008            66.935            RioGallegos          8366.875
       340   09 Jun 2027 06:00:19.903   09 Jun 2027 06:00:45.220            25.317            RioGallegos          3164.625
       341   09 Jun 2027 06:33:50.696   09 Jun 2027 06:38:42.675           291.979                  Delhi         36497.375
       342   09 Jun 2027 06:42:17.435   09 Jun 2027 06:45:40.570           203.135                Novosib         25391.875
       343   09 Jun 2027 06:46:13.502   09 Jun 2027 06:47:09.379            55.877              Murmansk1          6984.625
       344   09 Jun 2027 06:51:40.433   09 Jun 2027 06:53:06.340            85.907                Novosib         10738.375
       345   09 Jun 2027 06:53:22.737   09 Jun 2027 06:53:53.355            30.618              Murmansk1          3827.250
       346   09 Jun 2027 06:53:57.266   09 Jun 2027 06:54:52.181            54.915                 Moscow          6864.375
       347   09 Jun 2027 06:54:55.758   09 Jun 2027 06:56:31.140            95.382              Murmansk2         11922.750
       348   09 Jun 2027 06:56:51.901   09 Jun 2027 06:57:06.592            14.691              Murmansk2          1836.375
       349   09 Jun 2027 08:18:10.583   09 Jun 2027 08:18:35.174            24.591                 Moscow          3073.875
       350   09 Jun 2027 08:19:40.264   09 Jun 2027 08:21:26.693           106.429                 Moscow         13303.625
       351   09 Jun 2027 08:28:03.412   09 Jun 2027 08:34:33.022           389.610              Murmansk2         48701.250
       352   09 Jun 2027 09:32:52.644   09 Jun 2027 09:42:08.747           556.103               CapeTown         69512.875
       353   09 Jun 2027 09:55:26.624   09 Jun 2027 09:58:54.036           207.412                 Moscow         25926.500
       354   09 Jun 2027 09:59:02.309   09 Jun 2027 10:00:13.786            71.477              Murmansk1          8934.625
       355   09 Jun 2027 10:01:05.199   09 Jun 2027 10:02:47.267           102.068              Murmansk2         12758.500
       356   09 Jun 2027 10:03:18.883   09 Jun 2027 10:03:55.221            36.338                 Moscow          4542.250
       357   09 Jun 2027 10:06:08.728   09 Jun 2027 10:06:53.553            44.825              Murmansk1          5603.125
       358   09 Jun 2027 10:08:53.485   09 Jun 2027 10:09:18.512            25.027              Murmansk1          3128.375
       359   09 Jun 2027 10:12:43.275   09 Jun 2027 10:18:07.515           324.240                Anadyr2         40530.000
       360   09 Jun 2027 10:18:45.858   09 Jun 2027 10:22:02.456           196.598                Anadyr1         24574.750
       361   09 Jun 2027 11:38:46.974   09 Jun 2027 11:39:33.016            46.042              Murmansk2          5755.250
       362   09 Jun 2027 11:40:21.062   09 Jun 2027 11:41:02.349            41.287              Murmansk2          5160.875
       363   09 Jun 2027 11:48:14.029   09 Jun 2027 11:48:42.359            28.330                Anadyr2          3541.250
       364   09 Jun 2027 11:48:54.588   09 Jun 2027 11:53:08.583           253.995                Anadyr1         31749.375
       365   09 Jun 2027 11:55:45.722   09 Jun 2027 11:59:12.442           206.720               Magadan2         25840.000
       366   09 Jun 2027 13:26:30.688   09 Jun 2027 13:31:16.045           285.357               Magadan1         35669.625
       367   09 Jun 2027 15:12:42.463   09 Jun 2027 15:14:42.754           120.291                Irkutsk         15036.375
       368   09 Jun 2027 15:23:43.769   09 Jun 2027 15:25:15.611            91.842                Sumatra         11480.250
       369   09 Jun 2027 15:26:58.043   09 Jun 2027 15:29:10.440           132.397                Sumatra         16549.625
       370   09 Jun 2027 16:41:51.587   09 Jun 2027 16:43:10.225            78.638                Irkutsk          9829.750
       371   09 Jun 2027 16:49:59.360   09 Jun 2027 16:51:39.910           100.550                Novosib         12568.750
       372   09 Jun 2027 16:55:34.443   09 Jun 2027 16:58:04.782           150.339                Sumatra         18792.375
       373   09 Jun 2027 17:06:52.103   09 Jun 2027 17:07:02.279            10.176                Sumatra          1272.000
       374   09 Jun 2027 18:22:31.546   09 Jun 2027 18:22:43.932            12.386                Novosib          1548.250
       375   09 Jun 2027 18:25:07.627   09 Jun 2027 18:28:32.306           204.679                  Delhi         25584.875
       376   09 Jun 2027 18:31:52.102   09 Jun 2027 18:32:53.404            61.302                  Delhi          7662.750
       377   09 Jun 2027 18:34:13.145   09 Jun 2027 18:34:38.529            25.384                  Delhi          3173.000
       378   09 Jun 2027 19:57:17.617   09 Jun 2027 19:58:40.463            82.846                 Moscow         10355.750
       379   09 Jun 2027 21:55:08.450   09 Jun 2027 21:56:52.093           103.643               CapeTown         12955.375
       380   09 Jun 2027 22:00:15.292   09 Jun 2027 22:00:38.745            23.453               CapeTown          2931.625
       381   09 Jun 2027 22:04:40.823   09 Jun 2027 22:06:33.868           113.045               CapeTown         12363.875
       382   10 Jun 2027 03:52:07.625   10 Jun 2027 03:55:28.842           201.217                Norilsk         25152.125
       383   10 Jun 2027 05:01:36.182   10 Jun 2027 05:03:40.430           124.248                Sumatra         15531.000
       384   10 Jun 2027 05:11:22.701   10 Jun 2027 05:12:10.813            48.112                  Delhi          6014.000
       385   10 Jun 2027 05:28:12.604   10 Jun 2027 05:32:59.604           287.000                Norilsk         35875.000
       386   10 Jun 2027 06:11:06.578   10 Jun 2027 06:11:52.827            46.249            RioGallegos          5781.125
       387   10 Jun 2027 06:46:02.485   10 Jun 2027 06:50:38.214           275.729                  Delhi         34466.125
       388   10 Jun 2027 06:52:24.664   10 Jun 2027 06:52:48.171            23.507                  Delhi          2938.375
       389   10 Jun 2027 06:53:49.862   10 Jun 2027 06:55:50.927           121.065                  Delhi         15133.125
       390   10 Jun 2027 06:56:05.231   10 Jun 2027 06:57:53.900           108.669                Novosib         13583.625
       391   10 Jun 2027 06:58:06.380   10 Jun 2027 06:58:56.035            49.655              Murmansk2          6206.875
       392   10 Jun 2027 07:03:35.656   10 Jun 2027 07:04:59.474            83.818                Novosib         10477.250
       393   10 Jun 2027 07:05:07.188   10 Jun 2027 07:08:58.375           231.187                Norilsk         28898.375
       394   10 Jun 2027 07:10:12.728   10 Jun 2027 07:10:40.361            27.633              Murmansk2          3454.125
       395   10 Jun 2027 08:34:31.711   10 Jun 2027 08:35:26.209            54.498              Murmansk1          6812.250
       396   10 Jun 2027 08:38:43.756   10 Jun 2027 08:44:30.609           346.853                Norilsk         43356.625
       397   10 Jun 2027 08:44:58.832   10 Jun 2027 08:46:34.641            95.809              Murmansk1         11976.125
       398   10 Jun 2027 09:44:30.264   10 Jun 2027 09:51:01.015           390.751               CapeTown         48843.875
       399   10 Jun 2027 10:07:55.326   10 Jun 2027 10:11:37.785           222.459                 Moscow         27807.375
       400   10 Jun 2027 10:11:41.670   10 Jun 2027 10:12:12.143            30.473              Murmansk1          3809.125
       401   10 Jun 2027 10:13:06.822   10 Jun 2027 10:14:16.221            69.399              Murmansk1          8674.875
       402   10 Jun 2027 10:18:10.118   10 Jun 2027 10:20:28.125           138.007              Murmansk2         17250.875
       403   10 Jun 2027 10:24:38.161   10 Jun 2027 10:34:09.627           571.466                Anadyr2         71433.250
       404   10 Jun 2027 11:57:02.970   10 Jun 2027 11:57:47.523            44.553              Murmansk2          5569.125
       405   10 Jun 2027 12:00:14.654   10 Jun 2027 12:00:39.111            24.457                Anadyr2          3057.125
       406   10 Jun 2027 12:01:25.463   10 Jun 2027 12:02:16.240            50.777                Anadyr2          6347.125
       407   10 Jun 2027 12:03:12.707   10 Jun 2027 12:05:02.427           109.720                Anadyr1         13715.000
       408   10 Jun 2027 12:07:25.270   10 Jun 2027 12:09:00.323            95.053               Magadan1         11881.625
       409   10 Jun 2027 13:38:29.617   10 Jun 2027 13:39:16.887            47.270               Magadan2          5908.750
       410   10 Jun 2027 13:41:19.967   10 Jun 2027 13:45:02.846           222.879               Magadan2         27859.875
       411   10 Jun 2027 15:23:58.634   10 Jun 2027 15:24:44.218            45.584                Irkutsk          5698.000
       412   10 Jun 2027 15:34:23.090   10 Jun 2027 15:39:19.828           296.738                Sumatra         37092.250
       413   10 Jun 2027 16:54:35.262   10 Jun 2027 16:57:34.188           178.926                Novosib         22365.750
       414   10 Jun 2027 17:05:09.188   10 Jun 2027 17:09:18.795           249.607                  Delhi         31200.875
       415   10 Jun 2027 18:37:03.453   10 Jun 2027 18:39:28.125           144.672                  Delhi         18084.000
       416   10 Jun 2027 18:46:37.109   10 Jun 2027 18:48:28.754           111.645                  Delhi         13955.625
       417   10 Jun 2027 20:10:42.500   10 Jun 2027 20:12:19.017            96.517                 Moscow         12064.625
       418   10 Jun 2027 21:51:16.253   10 Jun 2027 21:52:48.653            92.400                 Moscow         11550.000
       419   10 Jun 2027 22:07:06.266   10 Jun 2027 22:08:31.050            84.784               CapeTown          7400.250
       420   11 Jun 2027 04:03:59.683   11 Jun 2027 04:04:19.273            19.590                Norilsk          2448.750
       421   11 Jun 2027 04:04:34.774   11 Jun 2027 04:05:03.295            28.521                Novosib          3565.125
       422   11 Jun 2027 05:13:43.973   11 Jun 2027 05:14:37.774            53.801                Sumatra          6725.125
       423   11 Jun 2027 05:17:37.786   11 Jun 2027 05:18:31.660            53.874                Sumatra          6734.250
       424   11 Jun 2027 05:22:50.303   11 Jun 2027 05:24:31.749           101.446                  Delhi         12680.750
       425   11 Jun 2027 05:38:30.146   11 Jun 2027 05:39:06.689            36.543                Irkutsk          4567.875
       426   11 Jun 2027 05:40:00.730   11 Jun 2027 05:41:34.300            93.570                Novosib         11696.250
       427   11 Jun 2027 05:41:34.328   11 Jun 2027 05:45:01.532           207.204                Norilsk         25900.500
       428   11 Jun 2027 05:45:04.361   11 Jun 2027 05:45:25.918            21.557              Murmansk1          2694.625
       429   11 Jun 2027 06:58:20.618   11 Jun 2027 07:00:38.209           137.591                  Delhi         17198.875
       430   11 Jun 2027 07:04:39.327   11 Jun 2027 07:05:18.464            39.137                  Delhi          4892.125
       431   11 Jun 2027 07:06:31.152   11 Jun 2027 07:11:08.432           277.280                Novosib         34660.000
       432   11 Jun 2027 07:15:28.669   11 Jun 2027 07:16:38.406            69.737              Murmansk1          8717.125
       433   11 Jun 2027 07:16:42.857   11 Jun 2027 07:19:01.792           138.935                 Moscow         17366.875
       434   11 Jun 2027 07:19:08.403   11 Jun 2027 07:21:20.676           132.273              Murmansk2         16534.125
       435   11 Jun 2027 07:21:20.676   11 Jun 2027 07:21:32.043            11.367              Murmansk1          1420.875
       436   11 Jun 2027 08:45:30.544   11 Jun 2027 08:47:17.891           107.347                 Moscow         13418.375
       437   11 Jun 2027 08:50:30.839   11 Jun 2027 08:55:05.244           274.405                 Moscow         34300.625
       438   11 Jun 2027 08:55:08.396   11 Jun 2027 08:58:27.507           199.111              Murmansk2         24888.875
       439   11 Jun 2027 10:00:54.606   11 Jun 2027 10:02:16.623            82.017               CapeTown         10252.125
       440   11 Jun 2027 10:25:08.485   11 Jun 2027 10:25:46.877            38.392              Murmansk1          4799.000
       441   11 Jun 2027 10:26:23.415   11 Jun 2027 10:26:44.949            21.534              Murmansk1          2691.750
       442   11 Jun 2027 10:27:21.184   11 Jun 2027 10:27:54.031            32.847              Murmansk1          4105.875
       443   11 Jun 2027 10:29:39.274   11 Jun 2027 10:32:01.287           142.013              Murmansk1         17751.625
       444   11 Jun 2027 10:36:34.457   11 Jun 2027 10:41:44.405           309.948                Anadyr1         38743.500
       445   11 Jun 2027 10:42:35.476   11 Jun 2027 10:46:06.819           211.343                Anadyr2         26417.875
       446   11 Jun 2027 12:05:36.887   11 Jun 2027 12:06:09.461            32.574              Murmansk1          4071.750
       447   11 Jun 2027 12:06:09.461   11 Jun 2027 12:06:18.101             8.640              Murmansk2          1080.000
       448   11 Jun 2027 12:07:01.274   11 Jun 2027 12:07:26.465            25.191              Murmansk2          3148.875
       449   11 Jun 2027 12:08:20.522   11 Jun 2027 12:08:31.605            11.083              Murmansk2          1385.375
       450   11 Jun 2027 12:12:59.001   11 Jun 2027 12:13:52.853            53.852                Anadyr1          6731.500
       451   11 Jun 2027 12:16:11.596   11 Jun 2027 12:18:33.059           141.463               Magadan2         17682.875
       452   11 Jun 2027 13:50:29.188   11 Jun 2027 13:51:33.983            64.795               Magadan1          8099.375
       453   11 Jun 2027 13:53:31.679   11 Jun 2027 13:54:49.505            77.826               Magadan1          9728.250
       454   11 Jun 2027 14:48:11.389   11 Jun 2027 14:50:45.353           153.964            RioGallegos         19245.500
       455   11 Jun 2027 15:31:15.211   11 Jun 2027 15:35:00.419           225.208                Irkutsk         28151.000
       456   11 Jun 2027 15:51:34.292   11 Jun 2027 15:54:35.066           180.774                Sumatra         22596.750
       457   11 Jun 2027 17:06:53.052   11 Jun 2027 17:10:47.659           234.607                Novosib         29325.875
       458   11 Jun 2027 17:15:44.961   11 Jun 2027 17:18:29.885           164.924                  Delhi         20615.500
       459   11 Jun 2027 18:56:23.351   11 Jun 2027 18:58:38.984           135.633                  Delhi         16954.125
       460   11 Jun 2027 20:20:50.177   11 Jun 2027 20:23:43.252           173.075                 Moscow         19765.375
       461   12 Jun 2027 04:15:58.735   12 Jun 2027 04:16:07.297             8.562                Irkutsk          1070.250
       462   12 Jun 2027 04:16:20.808   12 Jun 2027 04:17:12.547            51.739                Novosib          6467.375
       463   12 Jun 2027 05:25:57.979   12 Jun 2027 05:26:34.836            36.857                Sumatra          4607.125
       464   12 Jun 2027 05:28:23.827   12 Jun 2027 05:30:28.345           124.518                Sumatra         15564.750
       465   12 Jun 2027 05:34:28.758   12 Jun 2027 05:36:47.327           138.569                  Delhi         17321.125
       466   12 Jun 2027 05:50:35.187   12 Jun 2027 05:51:05.504            30.317                 Moscow          3789.625
       467   12 Jun 2027 05:51:19.172   12 Jun 2027 05:54:31.772           192.600                 Moscow         24075.000
       468   12 Jun 2027 05:54:40.242   12 Jun 2027 05:57:27.936           167.694              Murmansk1         20961.750
       469   12 Jun 2027 05:57:27.936   12 Jun 2027 05:58:24.433            56.497              Murmansk2          7062.125
       470   12 Jun 2027 07:19:05.328   12 Jun 2027 07:20:17.000            71.672                 Moscow          8959.000
       471   12 Jun 2027 07:20:45.122   12 Jun 2027 07:22:31.614           106.492                Novosib         13311.500
       472   12 Jun 2027 07:28:02.820   12 Jun 2027 07:31:05.854           183.034                 Moscow         22879.250
       473   12 Jun 2027 07:31:07.315   12 Jun 2027 07:32:18.507            71.192              Murmansk1          8899.000
       474   12 Jun 2027 07:32:18.507   12 Jun 2027 07:34:41.544           143.037              Murmansk2         17879.625
       475   12 Jun 2027 08:57:30.696   12 Jun 2027 09:00:02.085           151.389                 Moscow         18923.625
       476   12 Jun 2027 09:01:02.141   12 Jun 2027 09:01:13.253            11.112              Murmansk1          1389.000
       477   12 Jun 2027 09:01:54.667   12 Jun 2027 09:04:26.116           151.449              Murmansk1         18931.125
       478   12 Jun 2027 09:04:36.801   12 Jun 2027 09:08:05.280           208.479                Norilsk         26059.875
       479   12 Jun 2027 09:14:23.441   12 Jun 2027 09:17:51.847           208.406                Anadyr2         26050.750
       480   12 Jun 2027 10:48:31.852   12 Jun 2027 10:52:11.655           219.803                Anadyr1         27475.375
       481   12 Jun 2027 10:52:53.974   12 Jun 2027 10:53:14.772            20.798                Anadyr1          2599.750
       482   12 Jun 2027 12:18:10.574   12 Jun 2027 12:18:49.553            38.979              Murmansk1          4872.375
