uniorb/output/strategy_4/Drop/Drop_KinoSat_111005.txt

KinoSat_111005
-------------------------
    Access    *     Start Time (UTCG)     *     Stop Time (UTCG)  *   Duration (s)        *       Station  *  Data (Mbytes)
         1   01 Jun 2027 03:28:29.002   01 Jun 2027 03:30:15.487           106.485                Anadyr1          3327.656
         2   01 Jun 2027 03:31:13.624   01 Jun 2027 03:31:37.272            23.648               Magadan2           739.000
         3   01 Jun 2027 05:03:29.125   01 Jun 2027 05:04:18.701            49.576                Anadyr2          1549.250
         4   01 Jun 2027 05:04:23.419   01 Jun 2027 05:04:43.307            19.888                Anadyr1           621.500
         5   01 Jun 2027 05:04:52.072   01 Jun 2027 05:06:09.064            76.992                Anadyr2          2406.000
         6   01 Jun 2027 05:06:09.064   01 Jun 2027 05:08:06.033           116.969                Anadyr1          3655.281
         7   01 Jun 2027 05:08:14.035   01 Jun 2027 05:08:55.270            41.235               Magadan1          1288.594
         8   01 Jun 2027 06:37:58.030   01 Jun 2027 06:38:28.452            30.422               Magadan2           950.687
         9   01 Jun 2027 06:38:29.649   01 Jun 2027 06:39:18.686            49.037                Anadyr1          1532.406
        10   01 Jun 2027 06:39:33.506   01 Jun 2027 06:42:47.786           194.280               Magadan1          6071.250
        11   01 Jun 2027 06:42:50.744   01 Jun 2027 06:43:22.453            31.709               Magadan2           990.906
        12   01 Jun 2027 06:43:28.787   01 Jun 2027 06:43:46.511            17.724               Magadan2           553.875
        13   01 Jun 2027 06:43:46.511   01 Jun 2027 06:44:05.726            19.215               Magadan1           600.469
        14   01 Jun 2027 06:44:23.696   01 Jun 2027 06:44:43.313            19.617                Irkutsk           613.031
        15   01 Jun 2027 06:44:45.557   01 Jun 2027 06:45:55.331            69.774              Murmansk1          2180.438
        16   01 Jun 2027 06:45:57.175   01 Jun 2027 06:46:03.450             6.275                Norilsk           196.094
        17   01 Jun 2027 06:46:54.789   01 Jun 2027 06:47:26.271            31.482              Murmansk2           983.813
        18   01 Jun 2027 07:20:45.409   01 Jun 2027 07:21:56.469            71.060            RioGallegos          2220.625
        19   01 Jun 2027 07:58:53.488   01 Jun 2027 08:00:20.356            86.868                Sumatra          2714.625
        20   01 Jun 2027 08:15:53.806   01 Jun 2027 08:17:28.826            95.020                Irkutsk          2969.375
        21   01 Jun 2027 08:17:48.910   01 Jun 2027 08:19:23.830            94.920               Magadan1          2966.250
        22   01 Jun 2027 08:19:26.705   01 Jun 2027 08:19:51.125            24.420               Magadan2           763.125
        23   01 Jun 2027 08:19:57.644   01 Jun 2027 08:21:45.354           107.710              Murmansk2          3365.937
        24   01 Jun 2027 08:22:10.137   01 Jun 2027 08:22:24.085            13.948                Novosib           435.875
        25   01 Jun 2027 08:56:24.272   01 Jun 2027 08:56:39.095            14.823            RioGallegos           463.219
        26   01 Jun 2027 08:57:08.679   01 Jun 2027 08:57:39.883            31.204            RioGallegos           975.125
        27   01 Jun 2027 08:59:09.139   01 Jun 2027 08:59:49.504            40.365            RioGallegos          1261.406
        28   01 Jun 2027 09:31:00.491   01 Jun 2027 09:31:13.400            12.909                Sumatra           403.406
        29   01 Jun 2027 09:34:09.194   01 Jun 2027 09:35:18.025            68.831                Sumatra          2150.969
        30   01 Jun 2027 09:40:55.950   01 Jun 2027 09:41:27.493            31.543                  Delhi           985.719
        31   01 Jun 2027 09:53:21.378   01 Jun 2027 09:54:39.193            77.815                Novosib          2431.719
        32   01 Jun 2027 09:54:48.542   01 Jun 2027 09:55:02.208            13.666                Novosib           427.063
        33   01 Jun 2027 09:55:16.842   01 Jun 2027 09:57:04.090           107.248                Irkutsk          3351.500
        34   01 Jun 2027 09:57:15.720   01 Jun 2027 09:58:22.354            66.634              Murmansk2          2082.313
        35   01 Jun 2027 09:58:28.901   01 Jun 2027 09:58:42.604            13.703                Norilsk           428.219
        36   01 Jun 2027 09:59:11.580   01 Jun 2027 09:59:37.868            26.288              Murmansk2           821.500
        37   01 Jun 2027 10:00:06.356   01 Jun 2027 10:00:40.523            34.167              Murmansk2          1067.719
        38   01 Jun 2027 10:37:02.835   01 Jun 2027 10:37:28.474            25.639            RioGallegos           801.219
        39   01 Jun 2027 10:39:52.365   01 Jun 2027 10:40:32.522            40.157            RioGallegos          1254.906
        40   01 Jun 2027 11:15:23.407   01 Jun 2027 11:16:17.539            54.132                  Delhi          1691.625
        41   01 Jun 2027 11:18:16.285   01 Jun 2027 11:19:14.288            58.003                  Delhi          1812.594
        42   01 Jun 2027 11:30:47.510   01 Jun 2027 11:31:37.617            50.107                 Moscow          1565.844
        43   01 Jun 2027 11:31:55.397   01 Jun 2027 11:34:16.759           141.362                Novosib          4417.562
        44   01 Jun 2027 12:59:36.064   01 Jun 2027 13:03:44.248           248.184                 Moscow          7755.750
        45   01 Jun 2027 13:03:47.293   01 Jun 2027 13:07:39.244           231.951              Murmansk2          7248.469
        46   01 Jun 2027 13:10:18.315   01 Jun 2027 13:11:06.808            48.493                Norilsk          1515.406
        47   01 Jun 2027 13:12:41.505   01 Jun 2027 13:13:47.686            66.181                Norilsk          2068.156
        48   01 Jun 2027 14:14:02.631   01 Jun 2027 14:15:28.838            86.207               CapeTown          2693.969
        49   01 Jun 2027 14:15:50.658   01 Jun 2027 14:16:26.451            35.793               CapeTown          1118.531
        50   01 Jun 2027 14:17:20.593   01 Jun 2027 14:18:49.845            89.252               CapeTown          2789.125
        51   01 Jun 2027 14:19:56.861   01 Jun 2027 14:20:36.746            39.885               CapeTown          1246.406
        52   01 Jun 2027 14:40:14.618   01 Jun 2027 14:42:22.099           127.481              Murmansk2          3983.781
        53   01 Jun 2027 14:54:05.063   01 Jun 2027 14:57:47.106           222.043                Anadyr1          6938.844
        54   01 Jun 2027 15:58:58.241   01 Jun 2027 15:59:21.782            23.541               CapeTown           735.656
        55   01 Jun 2027 16:19:44.556   01 Jun 2027 16:22:11.595           147.039              Murmansk2          4594.969
        56   01 Jun 2027 16:23:52.716   01 Jun 2027 16:24:16.849            24.133              Murmansk1           754.156
        57   01 Jun 2027 16:29:39.975   01 Jun 2027 16:30:29.991            50.016                Anadyr2          1563.000
        58   01 Jun 2027 16:30:44.025   01 Jun 2027 16:31:36.215            52.190                Anadyr1          1630.937
        59   01 Jun 2027 16:32:18.762   01 Jun 2027 16:33:18.159            59.397                Anadyr2          1856.156
        60   01 Jun 2027 16:33:20.738   01 Jun 2027 16:34:40.280            79.542               Magadan2          2485.688
        61   01 Jun 2027 16:35:42.887   01 Jun 2027 16:36:47.483            64.596               Magadan1          2018.625
        62   01 Jun 2027 16:37:20.714   01 Jun 2027 16:38:11.017            50.303               Magadan1          1571.969
        63   01 Jun 2027 16:38:53.087   01 Jun 2027 16:39:17.184            24.097               Magadan1           753.031
        64   01 Jun 2027 18:05:34.905   01 Jun 2027 18:08:39.325           184.420                Anadyr2          5763.125
        65   01 Jun 2027 18:09:20.427   01 Jun 2027 18:10:03.338            42.911               Magadan1          1340.969
        66   01 Jun 2027 18:10:14.257   01 Jun 2027 18:11:06.574            52.317               Magadan2          1634.906
        67   01 Jun 2027 18:11:34.917   01 Jun 2027 18:13:40.160           125.243               Magadan1          3913.844
        68   01 Jun 2027 19:02:38.265   01 Jun 2027 19:04:39.060           120.795            RioGallegos          3774.844
        69   01 Jun 2027 19:41:25.062   01 Jun 2027 19:41:39.209            14.147                Anadyr2           442.094
        70   01 Jun 2027 19:42:37.454   01 Jun 2027 19:42:50.409            12.955                Anadyr2           404.844
        71   01 Jun 2027 19:43:11.311   01 Jun 2027 19:43:23.687            12.376                Anadyr2           386.750
        72   01 Jun 2027 19:43:31.334   01 Jun 2027 19:43:44.027            12.693                Anadyr2           396.656
        73   01 Jun 2027 19:43:47.831   01 Jun 2027 19:45:37.226           109.395               Magadan2          3418.594
        74   01 Jun 2027 19:46:02.006   01 Jun 2027 19:46:22.606            20.600                Anadyr2           643.750
        75   01 Jun 2027 19:46:29.519   01 Jun 2027 19:47:27.680            58.161                Norilsk          1817.531
        76   01 Jun 2027 19:48:02.529   01 Jun 2027 19:48:11.387             8.858                Norilsk           276.812
        77   01 Jun 2027 19:48:46.954   01 Jun 2027 19:51:56.159           189.205                Irkutsk          5912.656
        78   01 Jun 2027 19:52:10.996   01 Jun 2027 19:52:30.604            19.608                Irkutsk           612.750
        79   01 Jun 2027 19:52:57.963   01 Jun 2027 19:53:21.772            23.809                Irkutsk           744.031
        80   01 Jun 2027 19:53:46.763   01 Jun 2027 19:54:13.513            26.750                Irkutsk           835.937
        81   01 Jun 2027 19:54:31.134   01 Jun 2027 19:55:40.094            68.960                Irkutsk          2155.000
        82   01 Jun 2027 20:04:11.822   01 Jun 2027 20:06:05.131           113.309                Sumatra          3540.906
        83   01 Jun 2027 20:09:17.303   01 Jun 2027 20:10:29.021            71.718                Sumatra          2241.188
        84   01 Jun 2027 21:21:11.131   01 Jun 2027 21:21:12.023             0.892                Norilsk            27.875
        85   01 Jun 2027 21:23:10.194   01 Jun 2027 21:23:32.823            22.629               Magadan2           707.156
        86   01 Jun 2027 21:24:05.253   01 Jun 2027 21:25:51.599           106.346                Novosib          3323.313
        87   01 Jun 2027 21:33:26.442   01 Jun 2027 21:33:33.097             6.655                Novosib           207.969
        88   01 Jun 2027 21:34:22.798   01 Jun 2027 21:34:33.097            10.299                Irkutsk           321.844
        89   01 Jun 2027 21:35:34.370   01 Jun 2027 21:37:39.569           125.199                  Delhi          3912.469
        90   01 Jun 2027 22:50:59.603   01 Jun 2027 22:53:08.029           128.426                Anadyr1          4013.313
        91   01 Jun 2027 22:53:28.865   01 Jun 2027 22:54:08.536            39.671                Anadyr2          1239.719
        92   01 Jun 2027 22:55:19.129   01 Jun 2027 22:57:06.985           107.856                Norilsk          3370.500
        93   01 Jun 2027 22:58:31.011   01 Jun 2027 23:02:53.986           262.975              Murmansk2          8217.969
        94   01 Jun 2027 23:06:30.122   01 Jun 2027 23:07:04.703            34.581                  Delhi          1080.656
        95   01 Jun 2027 23:14:55.056   01 Jun 2027 23:16:02.270            67.214                  Delhi          2100.437
        96   02 Jun 2027 00:24:18.644   02 Jun 2027 00:24:35.414            16.770                Anadyr1           524.062
        97   02 Jun 2027 00:24:50.710   02 Jun 2027 00:25:52.270            61.560                Anadyr2          1923.750
        98   02 Jun 2027 00:26:04.361   02 Jun 2027 00:26:30.663            26.302                Anadyr2           821.938
        99   02 Jun 2027 00:26:51.666   02 Jun 2027 00:27:06.714            15.048                Anadyr2           470.250
       100   02 Jun 2027 00:30:25.001   02 Jun 2027 00:33:26.166           181.165               Magadan1          5661.406
       101   02 Jun 2027 00:33:31.125   02 Jun 2027 00:35:17.470           106.345              Murmansk1          3323.281
       102   02 Jun 2027 00:35:17.470   02 Jun 2027 00:36:09.049            51.579              Murmansk2          1611.844
       103   02 Jun 2027 00:37:56.354   02 Jun 2027 00:38:28.677            32.323                 Moscow          1010.094
       104   02 Jun 2027 00:41:50.224   02 Jun 2027 00:42:36.766            46.542                 Moscow          1454.438
       105   02 Jun 2027 01:04:01.776   02 Jun 2027 01:04:57.260            55.484               CapeTown          1733.875
       106   02 Jun 2027 01:07:01.148   02 Jun 2027 01:07:42.236            41.088               CapeTown          1284.000
       107   02 Jun 2027 01:58:03.215   02 Jun 2027 01:59:45.541           102.326                Anadyr1          3197.687
       108   02 Jun 2027 02:02:08.167   02 Jun 2027 02:03:28.220            80.053               Magadan1          2501.656
       109   02 Jun 2027 02:03:58.429   02 Jun 2027 02:04:06.060             7.631               Magadan2           238.469
       110   02 Jun 2027 02:05:55.311   02 Jun 2027 02:06:19.074            23.763               Magadan1           742.594
       111   02 Jun 2027 02:08:11.469   02 Jun 2027 02:08:14.448             2.979               Magadan2            93.094
       112   02 Jun 2027 02:08:23.938   02 Jun 2027 02:08:35.068            11.130               Magadan2           347.813
       113   02 Jun 2027 02:08:41.484   02 Jun 2027 02:08:56.957            15.473                Norilsk           483.531
       114   02 Jun 2027 02:09:25.117   02 Jun 2027 02:09:39.851            14.734              Murmansk1           460.437
       115   02 Jun 2027 02:09:58.170   02 Jun 2027 02:11:08.290            70.120              Murmansk1          2191.250
       116   02 Jun 2027 02:11:16.118   02 Jun 2027 02:12:07.601            51.483              Murmansk1          1608.844
       117   02 Jun 2027 02:17:17.127   02 Jun 2027 02:17:42.704            25.577                 Moscow           799.281
       118   02 Jun 2027 02:22:10.400   02 Jun 2027 02:22:13.993             3.593                 Moscow           112.281
       119   02 Jun 2027 02:23:37.891   02 Jun 2027 02:24:13.316            35.425                 Moscow          1107.031
       120   02 Jun 2027 02:41:05.257   02 Jun 2027 02:41:54.931            49.674               CapeTown          1552.313
       121   02 Jun 2027 03:39:39.730   02 Jun 2027 03:45:13.638           333.908               Magadan1         10434.625
       122   02 Jun 2027 03:45:13.638   02 Jun 2027 03:45:43.298            29.660               Magadan2           926.875
       123   02 Jun 2027 05:18:09.867   02 Jun 2027 05:20:02.980           113.113                Anadyr1          3534.781
       124   02 Jun 2027 05:20:10.389   02 Jun 2027 05:20:28.781            18.392                Anadyr1           574.750
       125   02 Jun 2027 05:21:45.737   02 Jun 2027 05:21:49.032             3.295               Magadan2           102.969
       126   02 Jun 2027 06:51:42.187   02 Jun 2027 06:52:34.336            52.149                Irkutsk          1629.656
       127   02 Jun 2027 06:53:29.615   02 Jun 2027 06:54:26.702            57.087                Anadyr2          1783.969
       128   02 Jun 2027 06:54:26.702   02 Jun 2027 06:56:39.895           133.193                Anadyr1          4162.281
       129   02 Jun 2027 06:56:51.394   02 Jun 2027 06:57:30.329            38.935               Magadan1          1216.719
       130   02 Jun 2027 08:28:48.438   02 Jun 2027 08:31:04.473           136.035               Magadan1          4251.094
       131   02 Jun 2027 08:31:51.798   02 Jun 2027 08:33:31.358            99.560                Irkutsk          3111.250
       132   02 Jun 2027 10:04:33.407   02 Jun 2027 10:04:50.598            17.191                Norilsk           537.219
       133   02 Jun 2027 10:04:59.531   02 Jun 2027 10:05:26.620            27.089                Norilsk           846.531
       134   02 Jun 2027 10:06:20.328   02 Jun 2027 10:06:32.041            11.713                Norilsk           366.031
       135   02 Jun 2027 10:06:35.215   02 Jun 2027 10:07:00.288            25.073                Irkutsk           783.531
       136   02 Jun 2027 10:07:11.298   02 Jun 2027 10:07:16.064             4.766                Norilsk           148.938
       137   02 Jun 2027 10:07:16.739   02 Jun 2027 10:07:26.406             9.667                Novosib           302.094
       138   02 Jun 2027 10:07:30.246   02 Jun 2027 10:07:44.845            14.599                Irkutsk           456.219
       139   02 Jun 2027 10:07:59.943   02 Jun 2027 10:08:54.239            54.296                Novosib          1696.750
       140   02 Jun 2027 10:09:05.976   02 Jun 2027 10:09:21.621            15.645                Norilsk           488.906
       141   02 Jun 2027 10:51:24.061   02 Jun 2027 10:52:27.734            63.673            RioGallegos          1989.781
       142   02 Jun 2027 11:27:39.334   02 Jun 2027 11:29:08.153            88.819                  Delhi          2775.594
       143   02 Jun 2027 11:41:26.794   02 Jun 2027 11:41:46.452            19.658                Novosib           614.312
       144   02 Jun 2027 11:41:52.048   02 Jun 2027 11:42:39.461            47.413                Norilsk          1481.656
       145   02 Jun 2027 11:43:08.900   02 Jun 2027 11:43:22.935            14.035                Norilsk           438.594
       146   02 Jun 2027 11:43:33.771   02 Jun 2027 11:43:50.386            16.615                Novosib           519.219
       147   02 Jun 2027 11:44:57.548   02 Jun 2027 11:45:03.678             6.130                Novosib           191.563
       148   02 Jun 2027 13:11:38.207   02 Jun 2027 13:15:54.646           256.439                 Moscow          8013.719
       149   02 Jun 2027 13:15:55.049   02 Jun 2027 13:16:56.274            61.225              Murmansk2          1913.281
       150   02 Jun 2027 13:17:16.154   02 Jun 2027 13:19:12.343           116.189              Murmansk1          3630.906
       151   02 Jun 2027 14:25:44.511   02 Jun 2027 14:29:10.102           205.591               CapeTown          6424.719
       152   02 Jun 2027 14:49:42.646   02 Jun 2027 14:49:54.617            11.971                 Moscow           374.094
       153   02 Jun 2027 14:50:59.944   02 Jun 2027 14:51:26.823            26.879                 Moscow           839.969
       154   02 Jun 2027 14:52:34.133   02 Jun 2027 14:54:23.349           109.216              Murmansk2          3413.000
       155   02 Jun 2027 15:02:23.837   02 Jun 2027 15:03:06.426            42.589              Murmansk1          1330.906
       156   02 Jun 2027 15:06:01.009   02 Jun 2027 15:08:24.954           143.945                Anadyr1          4498.281
       157   02 Jun 2027 15:11:26.371   02 Jun 2027 15:11:31.401             5.030                Anadyr2           157.188
       158   02 Jun 2027 15:11:44.154   02 Jun 2027 15:12:02.341            18.187                Anadyr2           568.344
       159   02 Jun 2027 16:01:17.228   02 Jun 2027 16:01:37.689            20.461               CapeTown           639.406
       160   02 Jun 2027 16:08:35.833   02 Jun 2027 16:08:53.133            17.300               CapeTown           540.625
       161   02 Jun 2027 16:32:26.836   02 Jun 2027 16:33:27.933            61.097              Murmansk1          1909.281
       162   02 Jun 2027 16:33:31.364   02 Jun 2027 16:34:13.108            41.744              Murmansk2          1304.500
       163   02 Jun 2027 16:34:26.581   02 Jun 2027 16:35:50.954            84.373              Murmansk2          2636.656
       164   02 Jun 2027 16:41:40.838   02 Jun 2027 16:42:21.146            40.308                Anadyr2          1259.625
       165   02 Jun 2027 16:42:41.065   02 Jun 2027 16:44:20.030            98.965                Anadyr1          3092.656
       166   02 Jun 2027 16:44:44.329   02 Jun 2027 16:47:28.065           163.736               Magadan1          5116.750
       167   02 Jun 2027 18:17:36.237   02 Jun 2027 18:21:11.017           214.780                Anadyr1          6711.875
       168   02 Jun 2027 18:21:15.713   02 Jun 2027 18:22:53.760            98.047               Magadan1          3063.969
       169   02 Jun 2027 18:23:34.069   02 Jun 2027 18:24:35.396            61.327               Magadan1          1916.469
       170   02 Jun 2027 19:13:35.484   02 Jun 2027 19:16:19.980           164.496            RioGallegos          5140.500
       171   02 Jun 2027 19:53:24.318   02 Jun 2027 19:53:40.908            16.590                Anadyr2           518.438
       172   02 Jun 2027 19:55:04.931   02 Jun 2027 19:55:21.452            16.521                Anadyr1           516.281
       173   02 Jun 2027 19:55:34.752   02 Jun 2027 19:59:27.095           232.343                Norilsk          7260.719
       174   02 Jun 2027 20:00:24.994   02 Jun 2027 20:01:07.997            43.003                Irkutsk          1343.844
       175   02 Jun 2027 20:01:15.244   02 Jun 2027 20:01:29.179            13.935                Irkutsk           435.469
       176   02 Jun 2027 20:01:59.522   02 Jun 2027 20:03:46.268           106.746                Irkutsk          3335.812
       177   02 Jun 2027 20:05:52.963   02 Jun 2027 20:06:15.049            22.086                Irkutsk           690.188
       178   02 Jun 2027 20:06:50.434   02 Jun 2027 20:06:53.584             3.150                Irkutsk            98.438
       179   02 Jun 2027 20:15:12.420   02 Jun 2027 20:17:41.297           148.877                Sumatra          4652.406
       180   02 Jun 2027 20:21:12.000   02 Jun 2027 20:22:02.261            50.261                Sumatra          1570.656
       181   02 Jun 2027 21:32:46.243   02 Jun 2027 21:33:10.762            24.519                Norilsk           766.219
       182   02 Jun 2027 21:35:14.987   02 Jun 2027 21:36:46.783            91.796                Irkutsk          2868.625
       183   02 Jun 2027 21:36:59.275   02 Jun 2027 21:37:26.422            27.147                Novosib           848.344
       184   02 Jun 2027 21:41:23.062   02 Jun 2027 21:41:43.718            20.656                Novosib           645.500
       185   02 Jun 2027 21:45:32.812   02 Jun 2027 21:47:35.585           122.773                  Delhi          3836.656
       186   02 Jun 2027 21:49:38.489   02 Jun 2027 21:50:51.178            72.689                  Delhi          2271.531
       187   02 Jun 2027 23:07:21.020   02 Jun 2027 23:07:24.520             3.500                Norilsk           109.375
       188   02 Jun 2027 23:07:33.100   02 Jun 2027 23:07:39.031             5.931                Norilsk           185.344
       189   02 Jun 2027 23:07:53.163   02 Jun 2027 23:08:37.328            44.165               Magadan2          1380.156
       190   02 Jun 2027 23:08:37.328   02 Jun 2027 23:08:50.615            13.287               Magadan1           415.219
       191   02 Jun 2027 23:08:55.831   02 Jun 2027 23:09:09.048            13.217                Norilsk           413.031
       192   02 Jun 2027 23:09:47.293   02 Jun 2027 23:10:40.970            53.677               Magadan1          1677.406
       193   02 Jun 2027 23:10:56.025   02 Jun 2027 23:13:57.850           181.825              Murmansk1          5682.031
       194   02 Jun 2027 23:19:46.166   02 Jun 2027 23:20:59.032            72.866                  Delhi          2277.062
       195   02 Jun 2027 23:27:18.555   02 Jun 2027 23:28:03.714            45.159                  Delhi          1411.219
       196   03 Jun 2027 00:36:00.491   03 Jun 2027 00:36:17.729            17.238                Anadyr2           538.687
       197   03 Jun 2027 00:36:59.418   03 Jun 2027 00:37:40.428            41.010                Anadyr2          1281.562
       198   03 Jun 2027 00:38:32.001   03 Jun 2027 00:38:47.850            15.849                Anadyr1           495.281
       199   03 Jun 2027 00:38:47.850   03 Jun 2027 00:39:10.690            22.840                Anadyr2           713.750
       200   03 Jun 2027 00:41:59.506   03 Jun 2027 00:43:56.580           117.074               Magadan1          3658.562
       201   03 Jun 2027 00:45:31.313   03 Jun 2027 00:48:10.719           159.406              Murmansk2          4981.437
       202   03 Jun 2027 00:48:42.178   03 Jun 2027 00:49:29.343            47.165              Murmansk2          1473.906
       203   03 Jun 2027 00:50:05.139   03 Jun 2027 00:51:23.714            78.575                 Moscow          2455.469
       204   03 Jun 2027 01:15:10.390   03 Jun 2027 01:15:16.645             6.255               CapeTown           195.469
       205   03 Jun 2027 01:15:59.714   03 Jun 2027 01:16:38.442            38.728               CapeTown          1210.250
       206   03 Jun 2027 01:17:35.611   03 Jun 2027 01:18:29.258            53.647               CapeTown          1676.469
       207   03 Jun 2027 02:09:53.464   03 Jun 2027 02:10:53.756            60.292                Anadyr2          1884.125
       208   03 Jun 2027 02:13:38.059   03 Jun 2027 02:14:55.700            77.641               Magadan2          2426.281
       209   03 Jun 2027 02:16:08.483   03 Jun 2027 02:16:18.723            10.240               Magadan1           320.000
       210   03 Jun 2027 02:17:23.039   03 Jun 2027 02:17:47.224            24.185               Magadan1           755.781
       211   03 Jun 2027 02:21:26.885   03 Jun 2027 02:21:38.724            11.839              Murmansk1           369.969
       212   03 Jun 2027 02:21:53.210   03 Jun 2027 02:23:16.130            82.920              Murmansk1          2591.250
       213   03 Jun 2027 02:24:01.043   03 Jun 2027 02:24:33.287            32.244                Novosib          1007.625
       214   03 Jun 2027 02:24:39.711   03 Jun 2027 02:25:54.948            75.237                 Moscow          2351.156
       215   03 Jun 2027 02:48:33.268   03 Jun 2027 02:48:54.059            20.791               CapeTown           649.719
       216   03 Jun 2027 02:51:45.942   03 Jun 2027 02:52:58.055            72.113               CapeTown          2253.531
       217   03 Jun 2027 03:51:07.518   03 Jun 2027 03:51:54.174            46.656               Magadan2          1458.000
       218   03 Jun 2027 03:52:05.423   03 Jun 2027 03:53:18.027            72.604               Magadan2          2268.875
       219   03 Jun 2027 03:53:18.027   03 Jun 2027 03:54:16.981            58.954               Magadan1          1842.313
       220   03 Jun 2027 03:54:16.981   03 Jun 2027 03:55:36.629            79.648               Magadan2          2489.000
       221   03 Jun 2027 03:56:15.860   03 Jun 2027 03:56:37.806            21.946                Anadyr1           685.812
       222   03 Jun 2027 05:29:55.151   03 Jun 2027 05:30:23.497            28.346                Irkutsk           885.813
       223   03 Jun 2027 05:30:56.728   03 Jun 2027 05:33:21.365           144.637                Anadyr2          4519.906
       224   03 Jun 2027 05:33:36.805   03 Jun 2027 05:33:50.343            13.538               Magadan1           423.062
       225   03 Jun 2027 07:03:32.278   03 Jun 2027 07:03:35.401             3.123               Magadan1            97.594
       226   03 Jun 2027 07:04:03.998   03 Jun 2027 07:04:08.189             4.191               Magadan1           130.969
       227   03 Jun 2027 07:04:34.375   03 Jun 2027 07:05:43.594            69.219               Magadan2          2163.094
       228   03 Jun 2027 07:06:07.733   03 Jun 2027 07:06:39.878            32.145               Magadan2          1004.531
       229   03 Jun 2027 07:07:00.067   03 Jun 2027 07:07:48.850            48.783               Magadan2          1524.469
       230   03 Jun 2027 07:07:51.733   03 Jun 2027 07:08:02.117            10.384                Anadyr1           324.500
       231   03 Jun 2027 07:08:03.692   03 Jun 2027 07:08:41.651            37.959               Magadan2          1186.219
       232   03 Jun 2027 07:09:05.794   03 Jun 2027 07:09:18.084            12.290              Murmansk1           384.063
       233   03 Jun 2027 07:09:20.315   03 Jun 2027 07:09:26.307             5.992               Magadan2           187.250
       234   03 Jun 2027 07:09:29.719   03 Jun 2027 07:09:30.252             0.533              Murmansk1            16.656
       235   03 Jun 2027 07:18:32.355   03 Jun 2027 07:18:51.895            19.540              Murmansk1           610.625
       236   03 Jun 2027 07:48:11.837   03 Jun 2027 07:48:21.101             9.264            RioGallegos           289.500
       237   03 Jun 2027 07:49:00.897   03 Jun 2027 07:49:20.323            19.426            RioGallegos           607.062
       238   03 Jun 2027 08:20:50.007   03 Jun 2027 08:21:58.061            68.054                Sumatra          2126.687
       239   03 Jun 2027 08:41:36.577   03 Jun 2027 08:42:14.696            38.119                Irkutsk          1191.219
       240   03 Jun 2027 08:42:54.111   03 Jun 2027 08:43:14.519            20.408                Irkutsk           637.750
       241   03 Jun 2027 08:43:20.600   03 Jun 2027 08:43:48.119            27.519                Irkutsk           859.969
       242   03 Jun 2027 08:44:30.352   03 Jun 2027 08:44:57.869            27.517                Irkutsk           859.906
       243   03 Jun 2027 08:45:09.791   03 Jun 2027 08:45:32.788            22.997                Irkutsk           718.656
       244   03 Jun 2027 09:20:58.723   03 Jun 2027 09:21:02.266             3.543            RioGallegos           110.719
       245   03 Jun 2027 09:21:28.957   03 Jun 2027 09:22:00.807            31.850            RioGallegos           995.313
       246   03 Jun 2027 09:25:52.674   03 Jun 2027 09:26:10.902            18.228            RioGallegos           569.625
       247   03 Jun 2027 09:55:18.236   03 Jun 2027 09:57:04.440           106.204                Sumatra          3318.875
       248   03 Jun 2027 10:18:56.092   03 Jun 2027 10:18:56.529             0.437                Novosib            13.656
       249   03 Jun 2027 10:19:06.887   03 Jun 2027 10:19:18.080            11.193                Novosib           349.781
       250   03 Jun 2027 10:19:24.354   03 Jun 2027 10:19:30.670             6.316                Irkutsk           197.375
       251   03 Jun 2027 10:19:47.104   03 Jun 2027 10:20:17.465            30.361                Novosib           948.781
       252   03 Jun 2027 10:20:43.449   03 Jun 2027 10:20:52.850             9.401                Norilsk           293.781
       253   03 Jun 2027 11:40:02.225   03 Jun 2027 11:43:55.840           233.615                  Delhi          7300.469
       254   03 Jun 2027 11:53:07.303   03 Jun 2027 11:53:14.918             7.615                Novosib           237.969
       255   03 Jun 2027 11:55:18.727   03 Jun 2027 11:55:48.177            29.450                Novosib           920.312
       256   03 Jun 2027 11:56:57.179   03 Jun 2027 11:57:09.377            12.198                Novosib           381.188
       257   03 Jun 2027 12:01:13.708   03 Jun 2027 12:02:05.791            52.083                Norilsk          1627.594
       258   03 Jun 2027 13:23:43.323   03 Jun 2027 13:26:46.462           183.139                 Moscow          5723.094
       259   03 Jun 2027 13:27:14.827   03 Jun 2027 13:28:55.959           101.132              Murmansk2          3160.375
       260   03 Jun 2027 13:30:34.183   03 Jun 2027 13:30:39.128             4.945              Murmansk1           154.531
       261   03 Jun 2027 13:31:13.665   03 Jun 2027 13:31:26.560            12.895              Murmansk1           402.969
       262   03 Jun 2027 13:32:52.645   03 Jun 2027 13:33:08.011            15.366              Murmansk1           480.187
       263   03 Jun 2027 13:33:48.115   03 Jun 2027 13:35:12.232            84.117                Norilsk          2628.656
       264   03 Jun 2027 13:36:46.263   03 Jun 2027 13:37:17.719            31.456                Norilsk           983.000
       265   03 Jun 2027 13:44:08.280   03 Jun 2027 13:46:44.120           155.840                Anadyr1          4870.000
       266   03 Jun 2027 14:45:17.066   03 Jun 2027 14:45:24.942             7.876               CapeTown           246.125
       267   03 Jun 2027 14:45:29.345   03 Jun 2027 14:46:58.499            89.154               CapeTown          2786.062
       268   03 Jun 2027 15:04:55.864   03 Jun 2027 15:06:24.362            88.498              Murmansk1          2765.562
       269   03 Jun 2027 15:17:58.145   03 Jun 2027 15:20:16.621           138.476                Anadyr1          4327.375
       270   03 Jun 2027 15:23:35.489   03 Jun 2027 15:23:52.938            17.449                Anadyr2           545.281
       271   03 Jun 2027 15:24:03.363   03 Jun 2027 15:24:12.083             8.720                Anadyr2           272.500
       272   03 Jun 2027 15:28:19.952   03 Jun 2027 15:28:39.104            19.152                Anadyr2           598.500
       273   03 Jun 2027 15:28:45.964   03 Jun 2027 15:28:48.752             2.788                Anadyr1            87.125
       274   03 Jun 2027 16:19:31.988   03 Jun 2027 16:20:48.143            76.155               CapeTown          2379.844
       275   03 Jun 2027 16:45:14.015   03 Jun 2027 16:47:07.137           113.122              Murmansk1          3535.063
       276   03 Jun 2027 16:48:20.905   03 Jun 2027 16:48:47.488            26.583              Murmansk2           830.719
       277   03 Jun 2027 16:53:41.899   03 Jun 2027 16:54:14.815            32.916                Anadyr1          1028.625
       278   03 Jun 2027 16:54:37.323   03 Jun 2027 16:55:35.440            58.117                Anadyr2          1816.156
       279   03 Jun 2027 16:56:34.247   03 Jun 2027 16:58:39.171           124.924               Magadan1          3903.875
       280   03 Jun 2027 17:02:16.361   03 Jun 2027 17:02:37.787            21.426               Magadan2           669.563
       281   03 Jun 2027 17:06:14.741   03 Jun 2027 17:06:30.276            15.535               Magadan1           485.469
       282   03 Jun 2027 18:29:37.461   03 Jun 2027 18:33:28.557           231.096                Anadyr1          7221.750
       283   03 Jun 2027 18:33:30.386   03 Jun 2027 18:35:57.608           147.222               Magadan1          4600.687
       284   03 Jun 2027 18:43:05.932   03 Jun 2027 18:43:26.332            20.400               Magadan1           637.500
       285   03 Jun 2027 19:25:00.410   03 Jun 2027 19:28:05.832           185.422            RioGallegos          5794.438
       286   03 Jun 2027 19:30:52.901   03 Jun 2027 19:31:43.448            50.547            RioGallegos          1579.594
       287   03 Jun 2027 20:05:23.073   03 Jun 2027 20:05:51.498            28.425                Anadyr2           888.281
       288   03 Jun 2027 20:07:52.520   03 Jun 2027 20:08:48.281            55.761               Magadan2          1742.531
       289   03 Jun 2027 20:08:48.281   03 Jun 2027 20:09:43.275            54.994               Magadan1          1718.562
       290   03 Jun 2027 20:10:06.616   03 Jun 2027 20:11:27.144            80.528                Norilsk          2516.500
       291   03 Jun 2027 20:12:08.976   03 Jun 2027 20:12:37.549            28.573                Irkutsk           892.906
       292   03 Jun 2027 20:12:57.870   03 Jun 2027 20:13:12.203            14.333                Irkutsk           447.906
       293   03 Jun 2027 20:13:26.121   03 Jun 2027 20:13:59.194            33.073                Irkutsk          1033.531
       294   03 Jun 2027 20:14:58.692   03 Jun 2027 20:15:38.863            40.171                Irkutsk          1255.344
       295   03 Jun 2027 20:21:27.992   03 Jun 2027 20:22:04.590            36.598                Irkutsk          1143.687
       296   03 Jun 2027 20:26:31.012   03 Jun 2027 20:28:05.358            94.346                Sumatra          2948.312
       297   03 Jun 2027 20:30:36.072   03 Jun 2027 20:30:53.218            17.146                Sumatra           535.812
       298   03 Jun 2027 20:32:02.186   03 Jun 2027 20:33:12.305            70.119                Sumatra          2191.219
       299   03 Jun 2027 21:45:14.082   03 Jun 2027 21:45:54.209            40.127               Magadan2          1253.969
       300   03 Jun 2027 21:47:15.055   03 Jun 2027 21:48:37.523            82.468                Irkutsk          2577.125
       301   03 Jun 2027 21:48:41.130   03 Jun 2027 21:51:03.880           142.750                Novosib          4460.937
       302   03 Jun 2027 21:56:36.342   03 Jun 2027 21:58:41.752           125.410                  Delhi          3919.063
       303   03 Jun 2027 22:01:49.593   03 Jun 2027 22:02:43.988            54.395                  Delhi          1699.844
       304   03 Jun 2027 23:19:22.827   03 Jun 2027 23:19:26.010             3.183                Norilsk            99.469
       305   03 Jun 2027 23:19:49.092   03 Jun 2027 23:19:52.153             3.061                Anadyr2            95.656
       306   03 Jun 2027 23:19:53.051   03 Jun 2027 23:20:06.844            13.793                Anadyr2           431.031
       307   03 Jun 2027 23:20:13.797   03 Jun 2027 23:21:11.136            57.339                Norilsk          1791.844
       308   03 Jun 2027 23:21:12.573   03 Jun 2027 23:21:49.170            36.597               Magadan2          1143.656
       309   03 Jun 2027 23:22:03.996   03 Jun 2027 23:24:16.226           132.230              Murmansk1          4132.188
       310   03 Jun 2027 23:24:23.498   03 Jun 2027 23:25:51.950            88.452              Murmansk2          2764.125
       311   03 Jun 2027 23:27:43.263   03 Jun 2027 23:28:09.372            26.109              Murmansk2           815.906
       312   03 Jun 2027 23:41:03.801   03 Jun 2027 23:43:11.107           127.306                  Delhi          3978.313
       313   04 Jun 2027 00:50:15.726   04 Jun 2027 00:50:29.280            13.554                Anadyr2           423.563
       314   04 Jun 2027 00:50:29.280   04 Jun 2027 00:50:33.335             4.055                Anadyr1           126.719
       315   04 Jun 2027 00:50:55.499   04 Jun 2027 00:50:57.846             2.347                Anadyr1            73.344
       316   04 Jun 2027 00:52:50.877   04 Jun 2027 00:53:17.016            26.139                Anadyr2           816.844
       317   04 Jun 2027 00:53:31.138   04 Jun 2027 00:54:31.638            60.500               Magadan1          1890.625
       318   04 Jun 2027 00:54:31.638   04 Jun 2027 00:55:13.692            42.054               Magadan2          1314.187
       319   04 Jun 2027 00:57:31.921   04 Jun 2027 01:00:12.397           160.476              Murmansk1          5014.875
       320   04 Jun 2027 01:01:16.263   04 Jun 2027 01:01:35.681            19.418                 Moscow           606.812
       321   04 Jun 2027 01:01:55.217   04 Jun 2027 01:02:05.148             9.931                 Moscow           310.344
       322   04 Jun 2027 01:02:39.857   04 Jun 2027 01:02:43.410             3.553                 Moscow           111.031
       323   04 Jun 2027 01:07:06.903   04 Jun 2027 01:07:21.620            14.717                 Moscow           459.906
       324   04 Jun 2027 01:09:41.641   04 Jun 2027 01:10:09.483            27.842                  Delhi           870.063
       325   04 Jun 2027 01:26:30.054   04 Jun 2027 01:27:21.206            51.152               CapeTown          1598.500
       326   04 Jun 2027 01:28:46.547   04 Jun 2027 01:29:14.544            27.997               CapeTown           874.906
       327   04 Jun 2027 01:32:25.216   04 Jun 2027 01:32:45.067            19.851               CapeTown           620.344
       328   04 Jun 2027 02:21:45.211   04 Jun 2027 02:22:52.781            67.570                Anadyr2          2111.563
       329   04 Jun 2027 02:23:11.400   04 Jun 2027 02:24:15.862            64.462                Anadyr2          2014.438
       330   04 Jun 2027 02:25:36.643   04 Jun 2027 02:25:59.027            22.384               Magadan1           699.500
       331   04 Jun 2027 02:26:23.493   04 Jun 2027 02:26:58.359            34.866               Magadan1          1089.563
       332   04 Jun 2027 02:30:48.135   04 Jun 2027 02:30:56.992             8.857                Norilsk           276.781
       333   04 Jun 2027 02:32:50.516   04 Jun 2027 02:32:55.209             4.693                Norilsk           146.656
       334   04 Jun 2027 02:33:28.653   04 Jun 2027 02:35:06.728            98.075              Murmansk2          3064.844
       335   04 Jun 2027 02:35:06.728   04 Jun 2027 02:35:17.735            11.007              Murmansk1           343.969
       336   04 Jun 2027 02:36:15.639   04 Jun 2027 02:36:44.166            28.527                Novosib           891.469
       337   04 Jun 2027 02:39:59.437   04 Jun 2027 02:40:42.909            43.472                 Moscow          1358.500
       338   04 Jun 2027 02:48:07.276   04 Jun 2027 02:48:10.200             2.924                 Moscow            91.375
       339   04 Jun 2027 02:49:16.300   04 Jun 2027 02:49:32.740            16.440                 Moscow           513.750
       340   04 Jun 2027 03:00:39.499   04 Jun 2027 03:00:56.550            17.051               CapeTown           532.844
       341   04 Jun 2027 03:01:07.530   04 Jun 2027 03:01:08.832             1.302               CapeTown            40.688
       342   04 Jun 2027 03:01:14.470   04 Jun 2027 03:02:44.421            89.951               CapeTown          2810.969
       343   04 Jun 2027 04:03:56.445   04 Jun 2027 04:09:27.339           330.894               Magadan2         10340.437
       344   04 Jun 2027 04:09:27.339   04 Jun 2027 04:09:46.109            18.770               Magadan1           586.563
       345   04 Jun 2027 05:41:36.016   04 Jun 2027 05:42:23.993            47.977                Irkutsk          1499.281
       346   04 Jun 2027 05:42:56.445   04 Jun 2027 05:43:42.067            45.622                Irkutsk          1425.687
       347   04 Jun 2027 05:43:51.846   04 Jun 2027 05:43:59.073             7.227               Magadan2           225.844
       348   04 Jun 2027 05:44:12.590   04 Jun 2027 05:45:38.044            85.454                Anadyr2          2670.438
       349   04 Jun 2027 07:16:42.163   04 Jun 2027 07:17:41.339            59.176               Magadan1          1849.250
       350   04 Jun 2027 07:17:54.710   04 Jun 2027 07:18:10.342            15.632               Magadan1           488.500
       351   04 Jun 2027 07:18:36.103   04 Jun 2027 07:18:37.928             1.825               Magadan2            57.031
       352   04 Jun 2027 07:19:30.321   04 Jun 2027 07:19:47.848            17.527                Irkutsk           547.719
       353   04 Jun 2027 07:19:49.404   04 Jun 2027 07:20:56.293            66.889               Magadan2          2090.281
       354   04 Jun 2027 07:21:01.188   04 Jun 2027 07:21:11.949            10.761                Irkutsk           336.281
       355   04 Jun 2027 07:23:12.379   04 Jun 2027 07:23:21.033             8.654                Norilsk           270.437
       356   04 Jun 2027 07:30:28.895   04 Jun 2027 07:30:42.103            13.208              Murmansk2           412.750
       357   04 Jun 2027 08:00:14.847   04 Jun 2027 08:00:33.591            18.744            RioGallegos           585.750
       358   04 Jun 2027 08:02:47.692   04 Jun 2027 08:03:30.551            42.859            RioGallegos          1339.344
       359   04 Jun 2027 08:33:15.364   04 Jun 2027 08:34:14.402            59.038                Sumatra          1844.938
       360   04 Jun 2027 08:54:14.472   04 Jun 2027 08:54:18.538             4.066                Irkutsk           127.062
       361   04 Jun 2027 08:54:48.350   04 Jun 2027 08:55:19.646            31.296                Norilsk           978.000
       362   04 Jun 2027 08:55:26.657   04 Jun 2027 08:55:42.856            16.199                Irkutsk           506.219
       363   04 Jun 2027 08:56:19.714   04 Jun 2027 08:56:25.777             6.063                Novosib           189.469
       364   04 Jun 2027 08:56:33.388   04 Jun 2027 08:56:41.603             8.215                Novosib           256.719
       365   04 Jun 2027 08:56:55.170   04 Jun 2027 08:56:57.754             2.584                Norilsk            80.750
       366   04 Jun 2027 08:57:08.582   04 Jun 2027 08:57:33.348            24.766                Irkutsk           773.937
       367   04 Jun 2027 09:33:22.793   04 Jun 2027 09:33:39.823            17.030            RioGallegos           532.188
       368   04 Jun 2027 09:35:03.374   04 Jun 2027 09:35:18.080            14.706            RioGallegos           459.562
       369   04 Jun 2027 09:35:29.189   04 Jun 2027 09:36:09.450            40.261            RioGallegos          1258.156
       370   04 Jun 2027 10:07:36.943   04 Jun 2027 10:08:57.680            80.737                Sumatra          2523.031
       371   04 Jun 2027 10:23:38.712   04 Jun 2027 10:23:42.689             3.977                  Delhi           124.281
       372   04 Jun 2027 10:30:28.657   04 Jun 2027 10:31:00.262            31.605                Novosib           987.656
       373   04 Jun 2027 10:31:08.401   04 Jun 2027 10:31:43.846            35.445                Novosib          1107.656
       374   04 Jun 2027 10:31:55.332   04 Jun 2027 10:32:31.161            35.829                Novosib          1119.656
       375   04 Jun 2027 10:32:44.034   04 Jun 2027 10:33:02.218            18.184                Novosib           568.250
       376   04 Jun 2027 11:52:33.532   04 Jun 2027 11:53:36.965            63.433                  Delhi          1982.281
       377   04 Jun 2027 11:53:46.130   04 Jun 2027 11:55:36.983           110.853                  Delhi          3464.156
       378   04 Jun 2027 12:10:10.882   04 Jun 2027 12:10:33.707            22.825                Norilsk           713.281
       379   04 Jun 2027 12:12:30.884   04 Jun 2027 12:12:37.401             6.517                Norilsk           203.656
       380   04 Jun 2027 13:35:51.535   04 Jun 2027 13:37:34.065           102.530                 Moscow          3204.063
       381   04 Jun 2027 13:38:52.333   04 Jun 2027 13:38:56.261             3.928                 Moscow           122.750
       382   04 Jun 2027 13:39:22.769   04 Jun 2027 13:42:23.807           181.038              Murmansk1          5657.438
       383   04 Jun 2027 13:42:56.663   04 Jun 2027 13:43:09.445            12.782              Murmansk2           399.437
       384   04 Jun 2027 13:43:21.358   04 Jun 2027 13:43:48.608            27.250              Murmansk2           851.562
       385   04 Jun 2027 13:46:14.783   04 Jun 2027 13:47:17.187            62.404                Norilsk          1950.125
       386   04 Jun 2027 13:48:23.815   04 Jun 2027 13:49:14.776            50.961                Norilsk          1592.531
       387   04 Jun 2027 13:55:22.816   04 Jun 2027 13:56:41.219            78.403                Anadyr1          2450.094
       388   04 Jun 2027 13:57:32.808   04 Jun 2027 13:58:32.185            59.377                Anadyr2          1855.531
       389   04 Jun 2027 13:59:57.138   04 Jun 2027 14:00:09.307            12.169                Anadyr1           380.281
       390   04 Jun 2027 15:15:07.142   04 Jun 2027 15:15:38.923            31.781                 Moscow           993.156
       391   04 Jun 2027 15:17:19.921   04 Jun 2027 15:17:49.713            29.792              Murmansk2           931.000
       392   04 Jun 2027 15:18:11.413   04 Jun 2027 15:18:25.057            13.644              Murmansk1           426.375
       393   04 Jun 2027 15:18:33.283   04 Jun 2027 15:18:44.877            11.594              Murmansk2           362.313
       394   04 Jun 2027 15:20:17.114   04 Jun 2027 15:20:31.933            14.819              Murmansk2           463.094
       395   04 Jun 2027 15:20:37.857   04 Jun 2027 15:21:02.313            24.456              Murmansk1           764.250
       396   04 Jun 2027 15:24:07.365   04 Jun 2027 15:24:23.831            16.466              Murmansk1           514.562
       397   04 Jun 2027 15:29:56.209   04 Jun 2027 15:32:08.413           132.204                Anadyr1          4131.375
       398   04 Jun 2027 15:35:33.136   04 Jun 2027 15:35:43.699            10.563                Anadyr2           330.094
       399   04 Jun 2027 15:36:04.214   04 Jun 2027 15:36:44.532            40.318                Anadyr1          1259.938
       400   04 Jun 2027 15:40:27.039   04 Jun 2027 15:40:38.956            11.917                Anadyr2           372.406
       401   04 Jun 2027 15:41:03.715   04 Jun 2027 15:41:12.927             9.212                Anadyr2           287.875
       402   04 Jun 2027 16:35:58.648   04 Jun 2027 16:36:17.970            19.322               CapeTown           603.813
       403   04 Jun 2027 16:58:07.929   04 Jun 2027 17:00:22.819           134.890              Murmansk1          4215.312
       404   04 Jun 2027 17:00:48.677   04 Jun 2027 17:01:57.699            69.022              Murmansk1          2156.937
       405   04 Jun 2027 17:05:43.123   04 Jun 2027 17:06:32.708            49.585                Anadyr2          1549.531
       406   04 Jun 2027 17:08:26.697   04 Jun 2027 17:10:39.428           132.731               Magadan2          4147.844
       407   04 Jun 2027 18:41:38.541   04 Jun 2027 18:43:29.817           111.276                Anadyr1          3477.375
       408   04 Jun 2027 18:43:55.400   04 Jun 2027 18:47:53.999           238.599               Magadan2          7456.219
       409   04 Jun 2027 18:49:13.734   04 Jun 2027 18:49:33.767            20.033               Magadan1           626.031
       410   04 Jun 2027 18:50:59.940   04 Jun 2027 18:51:12.850            12.910               Magadan2           403.438
       411   04 Jun 2027 18:52:39.919   04 Jun 2027 18:53:34.484            54.565               Magadan1          1705.156
       412   04 Jun 2027 19:36:36.592   04 Jun 2027 19:39:09.636           153.044            RioGallegos          4782.625
       413   04 Jun 2027 19:39:32.463   04 Jun 2027 19:39:55.209            22.746            RioGallegos           710.812
       414   04 Jun 2027 19:42:03.247   04 Jun 2027 19:43:09.308            66.061            RioGallegos          2064.406
       415   04 Jun 2027 20:19:31.597   04 Jun 2027 20:21:41.042           129.445                Norilsk          4045.156
       416   04 Jun 2027 20:23:57.000   04 Jun 2027 20:25:59.797           122.797                Irkutsk          3837.406
       417   04 Jun 2027 20:33:21.465   04 Jun 2027 20:33:24.103             2.638                Irkutsk            82.438
       418   04 Jun 2027 20:34:23.530   04 Jun 2027 20:34:34.080            10.550                Irkutsk           329.687
       419   04 Jun 2027 20:38:01.108   04 Jun 2027 20:40:25.370           144.262                Sumatra          4508.188
       420   04 Jun 2027 20:42:18.076   04 Jun 2027 20:44:04.137           106.061                Sumatra          3314.406
       421   04 Jun 2027 21:57:05.327   04 Jun 2027 21:57:13.629             8.302                Norilsk           259.437
       422   04 Jun 2027 21:57:23.926   04 Jun 2027 21:57:47.093            23.167               Magadan2           723.969
       423   04 Jun 2027 21:58:07.006   04 Jun 2027 21:58:17.698            10.692               Magadan2           334.125
       424   04 Jun 2027 21:58:27.797   04 Jun 2027 21:59:07.017            39.220                Norilsk          1225.625
       425   04 Jun 2027 21:59:36.764   04 Jun 2027 22:00:17.663            40.899                Novosib          1278.094
       426   04 Jun 2027 22:00:27.782   04 Jun 2027 22:00:53.133            25.351                Novosib           792.219
       427   04 Jun 2027 22:05:12.885   04 Jun 2027 22:05:54.811            41.926                Novosib          1310.188
       428   04 Jun 2027 22:06:47.710   04 Jun 2027 22:08:59.242           131.532                Novosib          4110.375
       429   04 Jun 2027 22:09:08.295   04 Jun 2027 22:10:58.986           110.691                  Delhi          3459.094
       430   04 Jun 2027 23:31:24.520   04 Jun 2027 23:31:49.393            24.873                Norilsk           777.281
       431   04 Jun 2027 23:32:21.892   04 Jun 2027 23:32:40.638            18.746               Magadan2           585.813
       432   04 Jun 2027 23:32:51.426   04 Jun 2027 23:33:06.075            14.649                Norilsk           457.781
       433   04 Jun 2027 23:33:08.248   04 Jun 2027 23:33:13.222             4.974                Norilsk           155.437
       434   04 Jun 2027 23:33:48.215   04 Jun 2027 23:33:50.572             2.357               Magadan1            73.656
       435   04 Jun 2027 23:33:57.145   04 Jun 2027 23:36:16.969           139.824              Murmansk2          4369.500
       436   04 Jun 2027 23:37:00.328   04 Jun 2027 23:37:44.328            44.000              Murmansk1          1375.000
       437   04 Jun 2027 23:39:11.372   04 Jun 2027 23:39:43.932            32.560              Murmansk1          1017.500
       438   04 Jun 2027 23:40:34.410   04 Jun 2027 23:41:26.859            52.449              Murmansk2          1639.031
       439   04 Jun 2027 23:41:54.139   04 Jun 2027 23:42:13.422            19.283                 Moscow           602.594
       440   04 Jun 2027 23:51:24.673   04 Jun 2027 23:52:15.360            50.687                  Delhi          1583.969
       441   05 Jun 2027 00:59:26.179   05 Jun 2027 00:59:47.012            20.833                Anadyr1           651.031
       442   05 Jun 2027 01:00:24.517   05 Jun 2027 01:00:56.264            31.747                Anadyr2           992.094
       443   05 Jun 2027 01:01:38.035   05 Jun 2027 01:02:34.620            56.585                Anadyr1          1768.281
       444   05 Jun 2027 01:05:00.804   05 Jun 2027 01:06:09.516            68.712               Magadan1          2147.250
       445   05 Jun 2027 01:06:09.516   05 Jun 2027 01:06:35.756            26.240               Magadan2           820.000
       446   05 Jun 2027 01:06:44.652   05 Jun 2027 01:07:03.336            18.684               Magadan2           583.875
       447   05 Jun 2027 01:09:32.863   05 Jun 2027 01:11:21.138           108.275              Murmansk2          3383.594
       448   05 Jun 2027 01:11:21.138   05 Jun 2027 01:12:01.442            40.304              Murmansk1          1259.500
       449   05 Jun 2027 01:13:03.289   05 Jun 2027 01:13:32.096            28.807                 Moscow           900.219
       450   05 Jun 2027 01:15:00.768   05 Jun 2027 01:15:35.793            35.025                 Moscow          1094.531
       451   05 Jun 2027 01:24:22.680   05 Jun 2027 01:24:26.836             4.156                 Moscow           129.875
       452   05 Jun 2027 01:24:34.932   05 Jun 2027 01:24:42.222             7.290                 Moscow           227.813
       453   05 Jun 2027 01:37:58.008   05 Jun 2027 01:39:11.691            73.683               CapeTown          2302.594
       454   05 Jun 2027 01:43:29.725   05 Jun 2027 01:43:43.429            13.704               CapeTown           428.250
       455   05 Jun 2027 01:44:11.203   05 Jun 2027 01:44:43.792            32.589               CapeTown          1018.406
       456   05 Jun 2027 01:48:41.569   05 Jun 2027 01:48:59.886            18.317               CapeTown           572.406
       457   05 Jun 2027 02:33:38.529   05 Jun 2027 02:34:52.299            73.770                Anadyr2          2305.313
       458   05 Jun 2027 02:36:06.714   05 Jun 2027 02:36:14.168             7.454                Anadyr2           232.938
       459   05 Jun 2027 02:36:41.419   05 Jun 2027 02:37:40.167            58.748               Magadan2          1835.875
       460   05 Jun 2027 02:37:40.167   05 Jun 2027 02:37:50.991            10.824               Magadan1           338.250
       461   05 Jun 2027 02:39:32.404   05 Jun 2027 02:39:35.445             3.041               Magadan1            95.031
       462   05 Jun 2027 02:40:21.826   05 Jun 2027 02:40:44.345            22.519               Magadan2           703.719
       463   05 Jun 2027 02:42:53.995   05 Jun 2027 02:42:59.710             5.715                Norilsk           178.594
       464   05 Jun 2027 02:44:53.568   05 Jun 2027 02:45:47.479            53.911               Magadan2          1684.719
       465   05 Jun 2027 02:46:08.905   05 Jun 2027 02:47:05.319            56.414              Murmansk1          1762.938
       466   05 Jun 2027 02:47:18.562   05 Jun 2027 02:48:08.870            50.308              Murmansk2          1572.125
       467   05 Jun 2027 02:48:38.289   05 Jun 2027 02:48:47.469             9.180                Novosib           286.875
       468   05 Jun 2027 02:50:54.403   05 Jun 2027 02:51:13.661            19.258                Novosib           601.813
       469   05 Jun 2027 02:55:40.294   05 Jun 2027 02:56:18.742            38.448                 Moscow          1201.500
       470   05 Jun 2027 03:12:51.121   05 Jun 2027 03:13:30.057            38.936               CapeTown          1216.750
       471   05 Jun 2027 04:15:53.103   05 Jun 2027 04:17:56.206           123.103               Magadan1          3846.969
       472   05 Jun 2027 04:17:56.206   05 Jun 2027 04:19:10.840            74.634               Magadan2          2332.313
       473   05 Jun 2027 05:54:06.688   05 Jun 2027 05:55:54.374           107.686               Magadan1          3365.187
       474   05 Jun 2027 05:56:08.172   05 Jun 2027 05:57:51.166           102.994                Anadyr2          3218.562
       475   05 Jun 2027 07:28:52.714   05 Jun 2027 07:28:59.379             6.665               Magadan1           208.281
       476   05 Jun 2027 07:29:38.061   05 Jun 2027 07:29:41.072             3.011               Magadan2            94.094
       477   05 Jun 2027 07:29:56.920   05 Jun 2027 07:30:12.754            15.834               Magadan2           494.812
       478   05 Jun 2027 07:30:38.390   05 Jun 2027 07:31:49.456            71.066               Magadan1          2220.813
       479   05 Jun 2027 07:32:10.047   05 Jun 2027 07:32:49.067            39.020               Magadan2          1219.375
       480   05 Jun 2027 07:32:53.732   05 Jun 2027 07:33:05.207            11.475              Murmansk1           358.594
       481   05 Jun 2027 07:33:05.207   05 Jun 2027 07:33:05.340             0.133              Murmansk2             4.156
       482   05 Jun 2027 07:33:16.208   05 Jun 2027 07:33:33.850            17.642              Murmansk2           551.312
