uniorb/output/strategy_4/Drop/Drop_KinoSat_110606.txt

KinoSat_110606
-------------------------
    Access    *     Start Time (UTCG)     *     Stop Time (UTCG)  *   Duration (s)        *       Station  *  Data (Mbytes)
         1   01 Jun 2027 03:35:32.054   01 Jun 2027 03:35:49.668            17.614                Anadyr2           550.437
         2   01 Jun 2027 03:36:00.449   01 Jun 2027 03:36:31.453            31.004                Anadyr1           968.875
         3   01 Jun 2027 03:36:34.744   01 Jun 2027 03:36:44.515             9.771                Anadyr1           305.344
         4   01 Jun 2027 03:36:44.515   01 Jun 2027 03:38:03.974            79.459                Anadyr2          2483.094
         5   01 Jun 2027 03:38:30.580   01 Jun 2027 03:38:49.485            18.905               Magadan1           590.781
         6   01 Jun 2027 05:11:41.962   01 Jun 2027 05:11:52.678            10.716               Magadan1           334.875
         7   01 Jun 2027 05:12:04.905   01 Jun 2027 05:14:52.724           167.819               Magadan1          5244.344
         8   01 Jun 2027 05:14:52.724   01 Jun 2027 05:15:31.004            38.280               Magadan2          1196.250
         9   01 Jun 2027 05:15:45.480   01 Jun 2027 05:16:03.803            18.323               Magadan2           572.594
        10   01 Jun 2027 05:16:24.873   01 Jun 2027 05:16:48.634            23.761                Norilsk           742.531
        11   01 Jun 2027 05:17:41.177   01 Jun 2027 05:18:52.484            71.307                Norilsk          2228.344
        12   01 Jun 2027 05:22:45.824   01 Jun 2027 05:22:58.435            12.611              Murmansk2           394.094
        13   01 Jun 2027 05:23:42.592   01 Jun 2027 05:23:53.558            10.966              Murmansk2           342.687
        14   01 Jun 2027 05:24:37.148   01 Jun 2027 05:24:51.436            14.288              Murmansk1           446.500
        15   01 Jun 2027 05:51:17.239   01 Jun 2027 05:54:31.102           193.863            RioGallegos          6058.219
        16   01 Jun 2027 05:55:15.002   01 Jun 2027 05:56:57.853           102.851            RioGallegos          3214.094
        17   01 Jun 2027 06:27:18.657   01 Jun 2027 06:30:37.909           199.252                Sumatra          6226.625
        18   01 Jun 2027 06:31:04.239   01 Jun 2027 06:31:14.608            10.369                Sumatra           324.031
        19   01 Jun 2027 06:47:46.887   01 Jun 2027 06:48:42.291            55.404                Norilsk          1731.375
        20   01 Jun 2027 06:48:51.539   01 Jun 2027 06:50:06.559            75.020                Novosib          2344.375
        21   01 Jun 2027 06:50:17.831   01 Jun 2027 06:52:51.605           153.774                Novosib          4805.437
        22   01 Jun 2027 06:53:13.866   01 Jun 2027 06:53:38.357            24.491              Murmansk2           765.344
        23   01 Jun 2027 07:30:02.259   01 Jun 2027 07:30:09.985             7.726            RioGallegos           241.437
        24   01 Jun 2027 08:02:30.422   01 Jun 2027 08:03:22.131            51.709                Sumatra          1615.906
        25   01 Jun 2027 08:04:39.339   01 Jun 2027 08:06:07.677            88.338                Sumatra          2760.562
        26   01 Jun 2027 08:07:06.725   01 Jun 2027 08:07:21.470            14.745                Sumatra           460.781
        27   01 Jun 2027 08:10:44.356   01 Jun 2027 08:14:42.612           238.256                  Delhi          7445.500
        28   01 Jun 2027 08:26:08.464   01 Jun 2027 08:28:10.312           121.848              Murmansk1          3807.750
        29   01 Jun 2027 08:28:18.780   01 Jun 2027 08:29:46.039            87.259                Novosib          2726.844
        30   01 Jun 2027 08:30:49.138   01 Jun 2027 08:30:50.326             1.188                 Moscow            37.125
        31   01 Jun 2027 09:47:24.539   01 Jun 2027 09:50:05.084           160.545                  Delhi          5017.031
        32   01 Jun 2027 10:02:01.743   01 Jun 2027 10:03:40.515            98.772                 Moscow          3086.625
        33   01 Jun 2027 10:03:56.198   01 Jun 2027 10:04:35.979            39.781                 Moscow          1243.156
        34   01 Jun 2027 10:09:02.245   01 Jun 2027 10:09:24.974            22.729              Murmansk2           710.281
        35   01 Jun 2027 11:50:28.335   01 Jun 2027 11:54:57.121           268.786                Anadyr1          8399.562
        36   01 Jun 2027 15:03:53.549   01 Jun 2027 15:06:55.619           182.070               Magadan2          5689.688
        37   01 Jun 2027 15:07:39.950   01 Jun 2027 15:09:41.233           121.283               Magadan2          3790.094
        38   01 Jun 2027 15:10:50.430   01 Jun 2027 15:12:55.700           125.270               Magadan2          3914.687
        39   01 Jun 2027 17:32:05.226   01 Jun 2027 17:38:21.508           376.282            RioGallegos         11758.812
        40   01 Jun 2027 18:17:26.560   01 Jun 2027 18:19:36.067           129.507                Norilsk          4047.094
        41   01 Jun 2027 18:23:13.558   01 Jun 2027 18:23:18.543             4.985                Irkutsk           155.781
        42   01 Jun 2027 18:25:21.945   01 Jun 2027 18:28:23.819           181.874                Irkutsk          5683.562
        43   01 Jun 2027 18:37:51.372   01 Jun 2027 18:39:58.747           127.375                Sumatra          3980.469
        44   01 Jun 2027 20:03:03.340   01 Jun 2027 20:10:36.874           453.534                  Delhi         14172.938
        45   01 Jun 2027 21:28:56.873   01 Jun 2027 21:34:41.856           344.983              Murmansk2         10780.719
        46   01 Jun 2027 21:34:41.921   01 Jun 2027 21:36:15.623            93.702              Murmansk1          2928.188
        47   01 Jun 2027 23:36:15.134   01 Jun 2027 23:39:53.581           218.447               CapeTown          6826.469
        48   02 Jun 2027 02:05:46.511   02 Jun 2027 02:06:19.074            32.563               Magadan2          1017.594
        49   02 Jun 2027 02:07:29.699   02 Jun 2027 02:07:35.188             5.489               Magadan1           171.531
        50   02 Jun 2027 02:07:58.676   02 Jun 2027 02:08:11.469            12.793               Magadan2           399.781
        51   02 Jun 2027 02:10:25.693   02 Jun 2027 02:10:48.783            23.090               Magadan1           721.562
        52   02 Jun 2027 02:14:28.248   02 Jun 2027 02:14:36.309             8.061                Norilsk           251.906
        53   02 Jun 2027 02:16:12.774   02 Jun 2027 02:16:21.429             8.655                Norilsk           270.469
        54   02 Jun 2027 02:16:22.492   02 Jun 2027 02:17:31.094            68.602              Murmansk1          2143.812
        55   02 Jun 2027 02:18:28.968   02 Jun 2027 02:18:51.124            22.156              Murmansk2           692.375
        56   02 Jun 2027 02:19:57.223   02 Jun 2027 02:20:46.559            49.336                 Moscow          1541.750
        57   02 Jun 2027 02:21:50.200   02 Jun 2027 02:22:10.400            20.200                 Moscow           631.250
        58   02 Jun 2027 02:24:58.785   02 Jun 2027 02:25:04.544             5.759              Murmansk2           179.969
        59   02 Jun 2027 02:25:54.247   02 Jun 2027 02:26:14.153            19.906                 Moscow           622.062
        60   02 Jun 2027 02:27:56.965   02 Jun 2027 02:29:25.932            88.967                 Moscow          2780.219
        61   02 Jun 2027 03:46:55.398   02 Jun 2027 03:47:35.331            39.933                Irkutsk          1247.906
        62   02 Jun 2027 03:47:59.946   02 Jun 2027 03:51:24.382           204.436               Magadan2          6388.625
        63   02 Jun 2027 03:51:24.382   02 Jun 2027 03:52:49.389            85.007               Magadan1          2656.469
        64   02 Jun 2027 04:32:39.255   02 Jun 2027 04:35:59.916           200.661            RioGallegos          6270.656
        65   02 Jun 2027 05:23:59.814   02 Jun 2027 05:24:39.574            39.760                Irkutsk          1242.500
        66   02 Jun 2027 05:25:34.052   02 Jun 2027 05:26:53.033            78.981               Magadan1          2468.156
        67   02 Jun 2027 05:26:53.033   02 Jun 2027 05:28:05.021            71.988               Magadan2          2249.625
        68   02 Jun 2027 07:04:19.835   02 Jun 2027 07:04:51.614            31.779                Norilsk           993.094
        69   02 Jun 2027 07:05:25.482   02 Jun 2027 07:06:01.155            35.673                Novosib          1114.781
        70   02 Jun 2027 07:06:10.334   02 Jun 2027 07:09:02.654           172.320              Murmansk1          5385.000
        71   02 Jun 2027 07:10:52.000   02 Jun 2027 07:12:03.743            71.743              Murmansk2          2241.969
        72   02 Jun 2027 07:45:21.331   02 Jun 2027 07:47:30.160           128.829            RioGallegos          4025.906
        73   02 Jun 2027 08:17:54.947   02 Jun 2027 08:23:02.095           307.148                Sumatra          9598.375
        74   02 Jun 2027 08:37:20.754   02 Jun 2027 08:37:34.313            13.559              Murmansk1           423.719
        75   02 Jun 2027 08:37:41.751   02 Jun 2027 08:37:58.113            16.362              Murmansk1           511.313
        76   02 Jun 2027 08:38:11.654   02 Jun 2027 08:39:02.080            50.426                Novosib          1575.813
        77   02 Jun 2027 08:39:10.384   02 Jun 2027 08:39:15.083             4.699                Irkutsk           146.844
        78   02 Jun 2027 08:40:19.592   02 Jun 2027 08:40:21.274             1.682                Norilsk            52.562
        79   02 Jun 2027 08:46:45.974   02 Jun 2027 08:46:58.585            12.611              Murmansk2           394.094
        80   02 Jun 2027 10:01:09.282   02 Jun 2027 10:04:08.367           179.085                  Delhi          5596.406
        81   02 Jun 2027 10:06:20.852   02 Jun 2027 10:08:02.906           102.054                  Delhi          3189.187
        82   02 Jun 2027 10:12:52.162   02 Jun 2027 10:13:31.176            39.014              Murmansk2          1219.188
        83   02 Jun 2027 10:18:17.564   02 Jun 2027 10:18:18.918             1.354                Norilsk            42.313
        84   02 Jun 2027 12:02:01.831   02 Jun 2027 12:08:02.704           360.873                Anadyr1         11277.281
        85   02 Jun 2027 13:36:53.193   02 Jun 2027 13:41:12.577           259.384                Anadyr2          8105.750
        86   02 Jun 2027 13:47:09.507   02 Jun 2027 13:47:55.317            45.810                Anadyr2          1431.562
        87   02 Jun 2027 15:05:58.618   02 Jun 2027 15:07:33.011            94.393              Murmansk1          2949.781
        88   02 Jun 2027 15:07:50.670   02 Jun 2027 15:08:52.112            61.442              Murmansk2          1920.063
        89   02 Jun 2027 15:12:41.901   02 Jun 2027 15:13:51.132            69.231                Anadyr2          2163.469
        90   02 Jun 2027 15:15:03.050   02 Jun 2027 15:15:33.120            30.070                Anadyr1           939.687
        91   02 Jun 2027 15:16:21.422   02 Jun 2027 15:16:38.903            17.481                Anadyr2           546.281
        92   02 Jun 2027 15:17:04.631   02 Jun 2027 15:17:06.540             1.909                Anadyr2            59.656
        93   02 Jun 2027 15:17:11.379   02 Jun 2027 15:18:56.905           105.526               Magadan1          3297.687
        94   02 Jun 2027 15:18:56.905   02 Jun 2027 15:20:58.287           121.382               Magadan2          3793.187
        95   02 Jun 2027 15:21:59.840   02 Jun 2027 15:22:16.293            16.453               Magadan1           514.156
        96   02 Jun 2027 15:23:44.261   02 Jun 2027 15:26:21.421           157.160               Magadan1          4911.250
        97   02 Jun 2027 16:50:53.820   02 Jun 2027 16:52:09.507            75.687               Magadan2          2365.219
        98   02 Jun 2027 16:53:05.232   02 Jun 2027 16:54:00.040            54.808               Magadan1          1712.750
        99   02 Jun 2027 16:59:53.492   02 Jun 2027 17:00:10.987            17.495               Magadan2           546.719
       100   02 Jun 2027 17:43:20.457   02 Jun 2027 17:49:35.956           375.499            RioGallegos         11734.344
       101   02 Jun 2027 18:26:59.332   02 Jun 2027 18:30:07.620           188.288                Norilsk          5884.000
       102   02 Jun 2027 18:30:47.561   02 Jun 2027 18:32:56.077           128.516                Irkutsk          4016.125
       103   02 Jun 2027 18:34:15.030   02 Jun 2027 18:35:39.599            84.569                Novosib          2642.781
       104   02 Jun 2027 18:44:41.104   02 Jun 2027 18:46:48.533           127.429                Sumatra          3982.156
       105   02 Jun 2027 18:48:32.680   02 Jun 2027 18:50:27.712           115.032                Sumatra          3594.750
       106   02 Jun 2027 18:50:52.984   02 Jun 2027 18:51:09.384            16.400                Sumatra           512.500
       107   02 Jun 2027 20:06:30.436   02 Jun 2027 20:08:27.826           117.390                Novosib          3668.438
       108   02 Jun 2027 20:08:52.773   02 Jun 2027 20:10:14.973            82.200                Novosib          2568.750
       109   02 Jun 2027 20:14:34.928   02 Jun 2027 20:15:15.451            40.523                  Delhi          1266.344
       110   02 Jun 2027 20:16:06.312   02 Jun 2027 20:17:58.633           112.321                  Delhi          3510.031
       111   02 Jun 2027 20:18:10.381   02 Jun 2027 20:21:21.138           190.757                  Delhi          5961.156
       112   02 Jun 2027 21:40:51.715   02 Jun 2027 21:48:56.489           484.774              Murmansk2         15149.188
       113   02 Jun 2027 21:50:42.745   02 Jun 2027 21:51:00.451            17.706                 Moscow           553.312
       114   02 Jun 2027 23:27:21.024   02 Jun 2027 23:28:24.073            63.049                 Moscow          1970.281
       115   02 Jun 2027 23:44:34.807   02 Jun 2027 23:46:09.983            95.176               CapeTown          2974.250
       116   02 Jun 2027 23:48:08.255   02 Jun 2027 23:50:06.196           117.941               CapeTown          3685.656
       117   03 Jun 2027 00:52:29.469   03 Jun 2027 00:53:34.507            65.038              Murmansk2          2032.437
       118   03 Jun 2027 00:55:42.473   03 Jun 2027 00:56:45.925            63.452                 Moscow          1982.875
       119   03 Jun 2027 01:05:38.208   03 Jun 2027 01:06:02.737            24.529                 Moscow           766.531
       120   03 Jun 2027 01:20:02.416   03 Jun 2027 01:20:51.289            48.873               CapeTown          1527.281
       121   03 Jun 2027 01:28:04.048   03 Jun 2027 01:28:56.966            52.918               CapeTown          1653.688
       122   03 Jun 2027 02:16:33.817   03 Jun 2027 02:19:01.978           148.161               Magadan2          4630.031
       123   03 Jun 2027 02:21:42.708   03 Jun 2027 02:22:25.466            42.758               Magadan1          1336.188
       124   03 Jun 2027 02:27:04.525   03 Jun 2027 02:27:13.592             9.067                Norilsk           283.344
       125   03 Jun 2027 02:28:22.734   03 Jun 2027 02:29:32.479            69.745              Murmansk2          2179.531
       126   03 Jun 2027 02:31:11.911   03 Jun 2027 02:31:22.945            11.034              Murmansk2           344.812
       127   03 Jun 2027 02:32:03.600   03 Jun 2027 02:32:29.184            25.584                 Moscow           799.500
       128   03 Jun 2027 02:32:53.683   03 Jun 2027 02:33:30.369            36.686              Murmansk2          1146.437
       129   03 Jun 2027 02:37:05.239   03 Jun 2027 02:37:10.724             5.485                 Moscow           171.406
       130   03 Jun 2027 02:38:44.723   03 Jun 2027 02:39:02.335            17.612                 Moscow           550.375
       131   03 Jun 2027 02:39:57.046   03 Jun 2027 02:41:20.060            83.014                 Moscow          2594.187
       132   03 Jun 2027 03:11:30.067   03 Jun 2027 03:11:38.680             8.613            RioGallegos           269.156
       133   03 Jun 2027 03:12:10.567   03 Jun 2027 03:13:11.264            60.697            RioGallegos          1896.781
       134   03 Jun 2027 03:58:54.466   03 Jun 2027 03:59:11.612            17.146               Magadan2           535.812
       135   03 Jun 2027 03:59:12.478   03 Jun 2027 04:03:54.064           281.586                Anadyr1          8799.563
       136   03 Jun 2027 04:43:28.849   03 Jun 2027 04:44:16.788            47.939            RioGallegos          1498.094
       137   03 Jun 2027 05:35:56.778   03 Jun 2027 05:39:58.502           241.724                Irkutsk          7553.875
       138   03 Jun 2027 07:12:56.010   03 Jun 2027 07:13:10.214            14.204                Novosib           443.875
       139   03 Jun 2027 07:13:17.002   03 Jun 2027 07:13:25.866             8.864              Murmansk1           277.000
       140   03 Jun 2027 07:13:39.103   03 Jun 2027 07:14:08.739            29.636                Novosib           926.125
       141   03 Jun 2027 07:14:30.700   03 Jun 2027 07:14:42.697            11.997                Irkutsk           374.906
       142   03 Jun 2027 07:15:01.058   03 Jun 2027 07:15:44.736            43.678                Irkutsk          1364.937
       143   03 Jun 2027 07:16:21.634   03 Jun 2027 07:16:48.178            26.544                Norilsk           829.500
       144   03 Jun 2027 07:57:28.668   03 Jun 2027 07:57:48.461            19.793            RioGallegos           618.531
       145   03 Jun 2027 07:59:25.421   03 Jun 2027 07:59:51.163            25.742            RioGallegos           804.438
       146   03 Jun 2027 08:27:45.253   03 Jun 2027 08:28:16.711            31.458                Sumatra           983.062
       147   03 Jun 2027 08:34:05.954   03 Jun 2027 08:34:52.995            47.041                Sumatra          1470.031
       148   03 Jun 2027 08:48:28.347   03 Jun 2027 08:48:30.462             2.115                Novosib            66.094
       149   03 Jun 2027 08:48:57.783   03 Jun 2027 08:49:09.265            11.482              Murmansk1           358.812
       150   03 Jun 2027 08:49:15.564   03 Jun 2027 08:49:21.626             6.062              Murmansk1           189.438
       151   03 Jun 2027 08:49:44.392   03 Jun 2027 08:49:59.386            14.994                Novosib           468.562
       152   03 Jun 2027 08:50:55.395   03 Jun 2027 08:51:01.884             6.489                Novosib           202.781
       153   03 Jun 2027 08:52:21.000   03 Jun 2027 08:52:22.705             1.705                Norilsk            53.281
       154   03 Jun 2027 10:12:59.400   03 Jun 2027 10:15:53.142           173.742                  Delhi          5429.437
       155   03 Jun 2027 10:30:18.896   03 Jun 2027 10:30:29.332            10.436                Norilsk           326.125
       156   03 Jun 2027 12:00:30.150   03 Jun 2027 12:00:46.654            16.504                 Moscow           515.750
       157   03 Jun 2027 12:05:52.735   03 Jun 2027 12:06:17.679            24.944              Murmansk2           779.500
       158   03 Jun 2027 12:06:46.852   03 Jun 2027 12:08:05.493            78.641              Murmansk2          2457.531
       159   03 Jun 2027 12:16:51.581   03 Jun 2027 12:20:01.609           190.028                Anadyr1          5938.375
       160   03 Jun 2027 13:40:13.647   03 Jun 2027 13:40:44.582            30.935              Murmansk1           966.719
       161   03 Jun 2027 13:41:36.699   03 Jun 2027 13:41:52.744            16.045              Murmansk1           501.406
       162   03 Jun 2027 13:42:25.929   03 Jun 2027 13:42:43.131            17.202              Murmansk2           537.563
       163   03 Jun 2027 13:42:43.131   03 Jun 2027 13:42:49.817             6.686              Murmansk1           208.937
       164   03 Jun 2027 13:43:20.583   03 Jun 2027 13:43:22.339             1.756              Murmansk2            54.875
       165   03 Jun 2027 13:44:03.443   03 Jun 2027 13:44:37.209            33.766              Murmansk1          1055.188
       166   03 Jun 2027 13:48:52.379   03 Jun 2027 13:50:19.632            87.253                Anadyr2          2726.656
       167   03 Jun 2027 13:50:57.237   03 Jun 2027 13:52:45.538           108.301                Anadyr1          3384.406
       168   03 Jun 2027 13:53:48.529   03 Jun 2027 13:54:16.140            27.611                Anadyr1           862.844
       169   03 Jun 2027 13:54:34.257   03 Jun 2027 13:56:33.769           119.512               Magadan2          3734.750
       170   03 Jun 2027 15:19:32.802   03 Jun 2027 15:20:00.762            27.960              Murmansk2           873.750
       171   03 Jun 2027 15:20:10.456   03 Jun 2027 15:20:47.893            37.437              Murmansk1          1169.906
       172   03 Jun 2027 15:24:43.197   03 Jun 2027 15:25:51.521            68.324                Anadyr1          2135.125
       173   03 Jun 2027 15:26:12.589   03 Jun 2027 15:26:55.265            42.676                Anadyr2          1333.625
       174   03 Jun 2027 15:27:15.526   03 Jun 2027 15:27:21.090             5.564               Magadan1           173.875
       175   03 Jun 2027 15:28:51.996   03 Jun 2027 15:32:57.889           245.893               Magadan2          7684.156
       176   03 Jun 2027 15:35:46.634   03 Jun 2027 15:35:55.610             8.976               Magadan2           280.500
       177   03 Jun 2027 15:38:29.906   03 Jun 2027 15:38:39.742             9.836               Magadan2           307.375
       178   03 Jun 2027 17:00:37.383   03 Jun 2027 17:02:08.618            91.235                Anadyr1          2851.094
       179   03 Jun 2027 17:02:54.919   03 Jun 2027 17:04:07.834            72.915               Magadan2          2278.594
       180   03 Jun 2027 17:04:54.135   03 Jun 2027 17:05:30.722            36.587               Magadan1          1143.344
       181   03 Jun 2027 17:05:30.722   03 Jun 2027 17:06:02.536            31.814               Magadan2           994.188
       182   03 Jun 2027 17:06:31.686   03 Jun 2027 17:07:21.945            50.259                Norilsk          1570.594
       183   03 Jun 2027 17:55:06.702   03 Jun 2027 17:58:56.399           229.697            RioGallegos          7178.031
       184   03 Jun 2027 17:59:17.084   03 Jun 2027 18:01:07.069           109.985            RioGallegos          3437.031
       185   03 Jun 2027 18:38:29.532   03 Jun 2027 18:38:39.949            10.417                Norilsk           325.531
       186   03 Jun 2027 18:40:07.954   03 Jun 2027 18:42:45.178           157.224                Norilsk          4913.250
       187   03 Jun 2027 18:43:41.470   03 Jun 2027 18:44:59.170            77.700                Irkutsk          2428.125
       188   03 Jun 2027 18:46:21.261   03 Jun 2027 18:49:48.079           206.818                Novosib          6463.062
       189   03 Jun 2027 18:59:05.968   03 Jun 2027 18:59:56.379            50.411                Sumatra          1575.344
       190   03 Jun 2027 19:00:36.183   03 Jun 2027 19:01:02.793            26.610                Sumatra           831.563
       191   03 Jun 2027 19:07:04.953   03 Jun 2027 19:08:06.065            61.112                Sumatra          1909.750
       192   03 Jun 2027 20:20:24.611   03 Jun 2027 20:20:48.760            24.149                Novosib           754.656
       193   03 Jun 2027 20:22:18.101   03 Jun 2027 20:23:59.083           100.982                Novosib          3155.687
       194   03 Jun 2027 20:25:51.876   03 Jun 2027 20:27:11.362            79.486                Novosib          2483.938
       195   03 Jun 2027 20:27:50.350   03 Jun 2027 20:32:35.552           285.202                  Delhi          8912.562
       196   03 Jun 2027 21:52:48.271   03 Jun 2027 21:58:19.827           331.556              Murmansk1         10361.125
       197   03 Jun 2027 21:58:31.906   03 Jun 2027 22:01:33.582           181.676              Murmansk2          5677.375
       198   03 Jun 2027 22:02:49.314   03 Jun 2027 22:04:17.194            87.880                 Moscow          2746.250
       199   03 Jun 2027 23:32:48.653   03 Jun 2027 23:33:21.226            32.573                 Moscow          1017.906
       200   03 Jun 2027 23:34:23.634   03 Jun 2027 23:34:33.360             9.726                 Moscow           303.938
       201   03 Jun 2027 23:37:07.811   03 Jun 2027 23:37:24.852            17.041                 Moscow           532.531
       202   03 Jun 2027 23:56:14.425   03 Jun 2027 23:58:05.720           111.295               CapeTown          3477.969
       203   03 Jun 2027 23:58:36.679   04 Jun 2027 00:00:04.872            88.193               CapeTown          2756.031
       204   04 Jun 2027 01:04:31.003   04 Jun 2027 01:05:36.135            65.132              Murmansk2          2035.375
       205   04 Jun 2027 01:07:45.213   04 Jun 2027 01:08:50.680            65.467                 Moscow          2045.844
       206   04 Jun 2027 01:12:03.065   04 Jun 2027 01:12:17.873            14.808                 Moscow           462.750
       207   04 Jun 2027 01:12:57.363   04 Jun 2027 01:13:24.720            27.357              Murmansk2           854.906
       208   04 Jun 2027 01:17:24.137   04 Jun 2027 01:17:38.138            14.001                 Moscow           437.531
       209   04 Jun 2027 01:32:25.216   04 Jun 2027 01:32:45.067            19.851               CapeTown           620.344
       210   04 Jun 2027 01:33:32.641   04 Jun 2027 01:34:18.631            45.990               CapeTown          1437.188
       211   04 Jun 2027 01:37:19.309   04 Jun 2027 01:38:36.248            76.939               CapeTown          2404.344
       212   04 Jun 2027 02:28:24.070   04 Jun 2027 02:29:48.575            84.505               Magadan1          2640.781
       213   04 Jun 2027 02:29:48.575   04 Jun 2027 02:30:32.876            44.301               Magadan2          1384.406
       214   04 Jun 2027 02:33:04.572   04 Jun 2027 02:33:44.986            40.414               Magadan2          1262.937
       215   04 Jun 2027 02:37:08.005   04 Jun 2027 02:37:37.452            29.447                Norilsk           920.219
       216   04 Jun 2027 02:40:22.675   04 Jun 2027 02:41:05.579            42.904              Murmansk1          1340.750
       217   04 Jun 2027 02:41:29.288   04 Jun 2027 02:41:33.710             4.422              Murmansk2           138.188
       218   04 Jun 2027 02:43:11.107   04 Jun 2027 02:43:15.947             4.840              Murmansk2           151.250
       219   04 Jun 2027 02:44:10.720   04 Jun 2027 02:45:39.123            88.403                 Moscow          2762.594
       220   04 Jun 2027 02:51:57.818   04 Jun 2027 02:52:08.742            10.924                 Moscow           341.375
       221   04 Jun 2027 03:21:55.822   04 Jun 2027 03:22:51.986            56.164            RioGallegos          1755.125
       222   04 Jun 2027 03:23:28.630   04 Jun 2027 03:24:12.042            43.412            RioGallegos          1356.625
       223   04 Jun 2027 03:24:47.809   04 Jun 2027 03:26:06.372            78.563            RioGallegos          2455.094
       224   04 Jun 2027 04:09:17.937   04 Jun 2027 04:09:27.339             9.402               Magadan1           293.812
       225   04 Jun 2027 04:09:46.109   04 Jun 2027 04:11:53.586           127.477               Magadan2          3983.656
       226   04 Jun 2027 04:11:53.586   04 Jun 2027 04:13:32.484            98.898               Magadan1          3090.563
       227   04 Jun 2027 04:13:53.596   04 Jun 2027 04:15:30.089            96.493               Magadan2          3015.406
       228   04 Jun 2027 04:15:55.443   04 Jun 2027 04:16:15.427            19.984                Anadyr1           624.500
       229   04 Jun 2027 04:52:35.371   04 Jun 2027 04:56:31.241           235.870            RioGallegos          7370.938
       230   04 Jun 2027 04:57:28.502   04 Jun 2027 04:58:28.528            60.026            RioGallegos          1875.813
       231   04 Jun 2027 05:47:28.293   04 Jun 2027 05:48:04.054            35.761                Irkutsk          1117.531
       232   04 Jun 2027 05:48:39.660   04 Jun 2027 05:49:02.768            23.108                Irkutsk           722.125
       233   04 Jun 2027 05:49:15.542   04 Jun 2027 05:51:50.491           154.949               Magadan2          4842.156
       234   04 Jun 2027 05:51:58.252   04 Jun 2027 05:52:34.543            36.291                Irkutsk          1134.094
       235   04 Jun 2027 07:24:17.413   04 Jun 2027 07:25:31.933            74.520                Irkutsk          2328.750
       236   04 Jun 2027 07:25:45.502   04 Jun 2027 07:25:53.536             8.034                Irkutsk           251.062
       237   04 Jun 2027 07:26:26.632   04 Jun 2027 07:26:43.836            17.204                Irkutsk           537.625
       238   04 Jun 2027 07:26:51.881   04 Jun 2027 07:28:05.232            73.351                Irkutsk          2292.219
       239   04 Jun 2027 07:29:22.819   04 Jun 2027 07:29:31.616             8.797                Norilsk           274.906
       240   04 Jun 2027 07:29:55.496   04 Jun 2027 07:30:18.436            22.940              Murmansk1           716.875
       241   04 Jun 2027 08:07:57.898   04 Jun 2027 08:08:23.110            25.212            RioGallegos           787.875
       242   04 Jun 2027 08:09:07.337   04 Jun 2027 08:09:35.315            27.978            RioGallegos           874.312
       243   04 Jun 2027 08:40:23.682   04 Jun 2027 08:41:28.434            64.752                Sumatra          2023.500
       244   04 Jun 2027 09:01:09.169   04 Jun 2027 09:01:15.038             5.869              Murmansk1           183.406
       245   04 Jun 2027 09:01:16.414   04 Jun 2027 09:01:39.483            23.069              Murmansk1           720.906
       246   04 Jun 2027 09:01:44.262   04 Jun 2027 09:02:10.925            26.663                Novosib           833.219
       247   04 Jun 2027 09:02:36.486   04 Jun 2027 09:03:04.759            28.273                Novosib           883.531
       248   04 Jun 2027 09:03:52.296   04 Jun 2027 09:04:04.569            12.273                Novosib           383.531
       249   04 Jun 2027 10:26:23.960   04 Jun 2027 10:28:43.889           139.929                  Delhi          4372.781
       250   04 Jun 2027 10:37:33.430   04 Jun 2027 10:37:35.394             1.964              Murmansk1            61.375
       251   04 Jun 2027 10:41:58.557   04 Jun 2027 10:42:00.519             1.962              Murmansk2            61.312
       252   04 Jun 2027 12:10:52.333   04 Jun 2027 12:11:45.495            53.162              Murmansk2          1661.313
       253   04 Jun 2027 12:12:50.083   04 Jun 2027 12:13:31.339            41.256              Murmansk2          1289.250
       254   04 Jun 2027 12:19:04.056   04 Jun 2027 12:20:06.864            62.808              Murmansk1          1962.750
       255   04 Jun 2027 12:25:33.501   04 Jun 2027 12:29:33.953           240.452                Anadyr1          7514.125
       256   04 Jun 2027 12:29:58.377   04 Jun 2027 12:31:29.681            91.304                Anadyr2          2853.250
       257   04 Jun 2027 13:53:21.685   04 Jun 2027 13:53:51.394            29.709              Murmansk2           928.406
       258   04 Jun 2027 13:55:57.228   04 Jun 2027 13:56:05.033             7.805              Murmansk1           243.906
       259   04 Jun 2027 13:56:21.007   04 Jun 2027 13:57:16.967            55.960              Murmansk2          1748.750
       260   04 Jun 2027 14:00:52.077   04 Jun 2027 14:02:14.805            82.728                Anadyr2          2585.250
       261   04 Jun 2027 14:02:52.830   04 Jun 2027 14:03:28.614            35.784                Anadyr1          1118.250
       262   04 Jun 2027 14:04:45.828   04 Jun 2027 14:06:34.984           109.156                Anadyr1          3411.125
       263   04 Jun 2027 14:07:04.913   04 Jun 2027 14:10:15.366           190.453               Magadan2          5951.656
       264   04 Jun 2027 15:36:44.532   04 Jun 2027 15:37:52.193            67.661                Anadyr1          2114.406
       265   04 Jun 2027 15:39:12.211   04 Jun 2027 15:41:15.106           122.895               Magadan2          3840.469
       266   04 Jun 2027 15:41:15.106   04 Jun 2027 15:43:00.326           105.220               Magadan1          3288.125
       267   04 Jun 2027 15:44:39.770   04 Jun 2027 15:44:42.741             2.971               Magadan1            92.844
       268   04 Jun 2027 15:45:36.383   04 Jun 2027 15:47:15.013            98.630               Magadan2          3082.187
       269   04 Jun 2027 17:14:31.020   04 Jun 2027 17:14:46.607            15.587                Anadyr2           487.094
       270   04 Jun 2027 17:14:54.845   04 Jun 2027 17:15:12.970            18.125                Anadyr2           566.406
       271   04 Jun 2027 17:15:35.294   04 Jun 2027 17:15:54.977            19.683                Norilsk           615.094
       272   04 Jun 2027 17:16:40.953   04 Jun 2027 17:18:02.785            81.832               Magadan2          2557.250
       273   04 Jun 2027 17:19:48.639   04 Jun 2027 17:20:16.091            27.452                Norilsk           857.875
       274   04 Jun 2027 17:21:42.166   04 Jun 2027 17:25:10.613           208.447                Irkutsk          6513.969
       275   04 Jun 2027 18:08:01.854   04 Jun 2027 18:09:03.567            61.713            RioGallegos          1928.531
       276   04 Jun 2027 18:16:24.515   04 Jun 2027 18:17:21.965            57.450            RioGallegos          1795.313
       277   04 Jun 2027 18:53:02.746   04 Jun 2027 18:53:18.169            15.423                Norilsk           481.969
       278   04 Jun 2027 18:54:31.894   04 Jun 2027 18:55:50.490            78.596                Norilsk          2456.125
       279   04 Jun 2027 18:56:03.596   04 Jun 2027 19:02:59.404           415.808                Novosib         12994.000
       280   04 Jun 2027 19:11:16.774   04 Jun 2027 19:11:49.480            32.706                Sumatra          1022.062
       281   04 Jun 2027 19:18:38.241   04 Jun 2027 19:18:43.849             5.608                Sumatra           175.250
       282   04 Jun 2027 19:20:11.986   04 Jun 2027 19:20:43.784            31.798                Sumatra           993.688
       283   04 Jun 2027 20:31:59.140   04 Jun 2027 20:32:52.279            53.139                Novosib          1660.594
       284   04 Jun 2027 20:34:18.898   04 Jun 2027 20:34:21.699             2.801                Novosib            87.531
       285   04 Jun 2027 20:34:41.255   04 Jun 2027 20:35:50.510            69.255                Novosib          2164.219
       286   04 Jun 2027 20:37:59.619   04 Jun 2027 20:42:01.108           241.489                  Delhi          7546.531
       287   04 Jun 2027 22:04:46.053   04 Jun 2027 22:11:27.430           401.377              Murmansk2         12543.031
       288   04 Jun 2027 22:11:36.809   04 Jun 2027 22:14:07.387           150.578              Murmansk2          4705.562
       289   04 Jun 2027 22:14:38.755   04 Jun 2027 22:16:06.984            88.229                 Moscow          2757.156
       290   04 Jun 2027 22:39:13.680   04 Jun 2027 22:39:54.982            41.302               CapeTown          1290.688
       291   04 Jun 2027 23:43:52.855   04 Jun 2027 23:44:27.304            34.449                 Moscow          1076.531
       292   04 Jun 2027 23:45:48.432   04 Jun 2027 23:46:11.673            23.241              Murmansk1           726.281
       293   04 Jun 2027 23:48:12.617   04 Jun 2027 23:48:30.785            18.168                 Moscow           567.750
       294   04 Jun 2027 23:56:01.476   04 Jun 2027 23:56:30.622            29.146                 Moscow           910.812
       295   05 Jun 2027 00:07:59.531   05 Jun 2027 00:09:58.222           118.691               CapeTown          3709.094
       296   05 Jun 2027 00:10:46.489   05 Jun 2027 00:11:44.666            58.177               CapeTown          1818.031
       297   05 Jun 2027 00:19:24.101   05 Jun 2027 00:19:41.988            17.887               CapeTown           558.969
       298   05 Jun 2027 01:16:32.437   05 Jun 2027 01:17:00.597            28.160              Murmansk2           880.000
       299   05 Jun 2027 01:17:28.367   05 Jun 2027 01:19:39.129           130.762              Murmansk1          4086.313
       300   05 Jun 2027 01:24:08.480   05 Jun 2027 01:24:22.680            14.200                 Moscow           443.750
       301   05 Jun 2027 01:24:42.222   05 Jun 2027 01:24:52.363            10.141                 Moscow           316.906
       302   05 Jun 2027 01:26:24.527   05 Jun 2027 01:28:14.483           109.956                 Moscow          3436.125
       303   05 Jun 2027 01:52:01.436   05 Jun 2027 01:52:48.548            47.112               CapeTown          1472.250
       304   05 Jun 2027 02:40:16.497   05 Jun 2027 02:42:27.114           130.617               Magadan1          4081.781
       305   05 Jun 2027 02:44:22.605   05 Jun 2027 02:44:53.568            30.963               Magadan2           967.594
       306   05 Jun 2027 02:47:13.305   05 Jun 2027 02:47:34.737            21.432               Magadan1           669.750
       307   05 Jun 2027 02:48:34.472   05 Jun 2027 02:48:52.230            17.758                Norilsk           554.938
       308   05 Jun 2027 02:52:22.274   05 Jun 2027 02:53:34.770            72.496              Murmansk1          2265.500
       309   05 Jun 2027 02:54:34.755   05 Jun 2027 02:55:07.926            33.171              Murmansk2          1036.594
       310   05 Jun 2027 02:56:18.742   05 Jun 2027 02:56:58.805            40.063                 Moscow          1251.969
       311   05 Jun 2027 02:59:08.046   05 Jun 2027 02:59:12.814             4.768                 Moscow           149.000
       312   05 Jun 2027 02:59:56.395   05 Jun 2027 03:00:42.581            46.186                 Moscow          1443.313
       313   05 Jun 2027 03:32:53.814   05 Jun 2027 03:34:34.891           101.077            RioGallegos          3158.656
       314   05 Jun 2027 03:34:51.796   05 Jun 2027 03:35:17.760            25.964            RioGallegos           811.375
       315   05 Jun 2027 03:38:43.400   05 Jun 2027 03:38:46.285             2.885            RioGallegos            90.156
       316   05 Jun 2027 04:21:23.900   05 Jun 2027 04:25:02.811           218.911               Magadan2          6840.969
       317   05 Jun 2027 04:25:02.811   05 Jun 2027 04:25:16.987            14.176               Magadan1           443.000
       318   05 Jun 2027 04:25:27.010   05 Jun 2027 04:26:27.787            60.777                Irkutsk          1899.281
       319   05 Jun 2027 04:26:37.444   05 Jun 2027 04:27:56.712            79.268                Anadyr2          2477.125
       320   05 Jun 2027 04:28:05.892   05 Jun 2027 04:28:34.389            28.497                Norilsk           890.531
       321   05 Jun 2027 04:28:34.855   05 Jun 2027 04:28:41.383             6.528              Murmansk1           204.000
       322   05 Jun 2027 05:04:16.244   05 Jun 2027 05:07:51.531           215.287            RioGallegos          6727.719
       323   05 Jun 2027 05:09:05.648   05 Jun 2027 05:10:26.757            81.109            RioGallegos          2534.656
       324   05 Jun 2027 05:59:59.780   05 Jun 2027 06:00:43.157            43.377               Magadan1          1355.531
       325   05 Jun 2027 06:00:44.367   05 Jun 2027 06:03:34.602           170.235                Irkutsk          5319.844
       326   05 Jun 2027 06:04:13.985   05 Jun 2027 06:04:38.326            24.341                Irkutsk           760.656
       327   05 Jun 2027 06:05:19.028   05 Jun 2027 06:05:52.381            33.353                Novosib          1042.281
       328   05 Jun 2027 07:36:58.245   05 Jun 2027 07:37:47.135            48.890                Novosib          1527.813
       329   05 Jun 2027 07:37:56.094   05 Jun 2027 07:38:42.745            46.651                Novosib          1457.844
       330   05 Jun 2027 07:39:31.610   05 Jun 2027 07:40:21.173            49.563                Irkutsk          1548.844
       331   05 Jun 2027 07:41:11.331   05 Jun 2027 07:41:16.245             4.914                Norilsk           153.562
       332   05 Jun 2027 07:42:05.848   05 Jun 2027 07:42:26.018            20.170              Murmansk1           630.313
       333   05 Jun 2027 08:18:52.661   05 Jun 2027 08:19:23.739            31.078            RioGallegos           971.188
       334   05 Jun 2027 08:20:26.496   05 Jun 2027 08:20:58.784            32.288            RioGallegos          1009.000
       335   05 Jun 2027 08:53:53.897   05 Jun 2027 08:54:22.777            28.880                Sumatra           902.500
       336   05 Jun 2027 08:55:34.803   05 Jun 2027 08:56:39.413            64.610                Sumatra          2019.063
       337   05 Jun 2027 09:12:41.116   05 Jun 2027 09:12:57.866            16.750                Novosib           523.437
       338   05 Jun 2027 09:14:20.230   05 Jun 2027 09:14:20.750             0.520                Novosib            16.250
       339   05 Jun 2027 09:15:55.857   05 Jun 2027 09:15:55.965             0.108                Novosib             3.375
       340   05 Jun 2027 09:16:40.601   05 Jun 2027 09:17:41.382            60.781                Novosib          1899.406
       341   05 Jun 2027 10:54:22.116   05 Jun 2027 10:54:32.667            10.551                Norilsk           329.719
       342   05 Jun 2027 12:23:07.267   05 Jun 2027 12:23:23.345            16.078              Murmansk1           502.438
       343   05 Jun 2027 12:23:58.519   05 Jun 2027 12:24:15.681            17.162              Murmansk1           536.313
       344   05 Jun 2027 12:24:33.216   05 Jun 2027 12:24:49.351            16.135              Murmansk1           504.219
       345   05 Jun 2027 12:25:00.689   05 Jun 2027 12:25:32.830            32.141              Murmansk1          1004.406
       346   05 Jun 2027 12:26:38.148   05 Jun 2027 12:27:27.880            49.732              Murmansk1          1554.125
       347   05 Jun 2027 12:29:16.820   05 Jun 2027 12:29:43.536            26.716              Murmansk1           834.875
       348   05 Jun 2027 12:30:02.350   05 Jun 2027 12:30:36.880            34.530              Murmansk1          1079.062
       349   05 Jun 2027 12:30:50.203   05 Jun 2027 12:30:59.124             8.921              Murmansk1           278.781
       350   05 Jun 2027 12:31:13.967   05 Jun 2027 12:32:08.367            54.400              Murmansk2          1700.000
       351   05 Jun 2027 12:32:08.367   05 Jun 2027 12:32:21.855            13.488              Murmansk1           421.500
       352   05 Jun 2027 12:32:39.648   05 Jun 2027 12:33:03.375            23.727              Murmansk1           741.469
       353   05 Jun 2027 12:37:25.171   05 Jun 2027 12:46:21.688           536.517                Anadyr2         16766.156
       354   05 Jun 2027 14:13:17.047   05 Jun 2027 14:13:36.557            19.510                Anadyr2           609.687
       355   05 Jun 2027 14:16:34.703   05 Jun 2027 14:23:21.821           407.118               Magadan2         12722.438
       356   05 Jun 2027 15:51:09.901   05 Jun 2027 15:52:40.856            90.955               Magadan2          2842.344
       357   05 Jun 2027 15:53:34.663   05 Jun 2027 15:55:02.381            87.718               Magadan2          2741.188
       358   05 Jun 2027 15:56:13.420   05 Jun 2027 15:56:37.747            24.327               Magadan2           760.219
       359   05 Jun 2027 17:24:37.768   05 Jun 2027 17:25:01.823            24.055                Anadyr2           751.719
       360   05 Jun 2027 17:25:41.138   05 Jun 2027 17:25:48.462             7.324                Anadyr2           228.875
       361   05 Jun 2027 17:26:58.026   05 Jun 2027 17:28:06.569            68.543               Magadan1          2141.969
       362   05 Jun 2027 17:29:44.955   05 Jun 2027 17:30:34.083            49.128                Norilsk          1535.250
       363   05 Jun 2027 17:31:05.942   05 Jun 2027 17:32:11.157            65.215                Norilsk          2037.969
       364   05 Jun 2027 17:32:39.688   05 Jun 2027 17:38:45.403           365.715                Irkutsk         11428.594
       365   05 Jun 2027 17:49:36.074   05 Jun 2027 17:52:38.662           182.588                Sumatra          5705.875
       366   05 Jun 2027 19:07:38.667   05 Jun 2027 19:14:21.396           402.729                Novosib         12585.281
       367   05 Jun 2027 20:43:56.245   05 Jun 2027 20:44:28.967            32.722              Murmansk1          1022.562
       368   05 Jun 2027 20:47:01.970   05 Jun 2027 20:47:48.452            46.482                Novosib          1452.563
       369   05 Jun 2027 20:49:49.553   05 Jun 2027 20:51:37.832           108.279                  Delhi          3383.719
       370   05 Jun 2027 20:59:02.474   05 Jun 2027 21:00:46.644           104.170                  Delhi          3255.312
       371   05 Jun 2027 21:00:56.138   05 Jun 2027 21:02:09.230            73.092                  Delhi          2284.125
       372   05 Jun 2027 22:16:44.771   05 Jun 2027 22:18:20.773            96.002              Murmansk1          3000.063
       373   05 Jun 2027 22:19:07.492   05 Jun 2027 22:22:29.095           201.603              Murmansk2          6300.094
       374   05 Jun 2027 22:22:35.474   05 Jun 2027 22:27:13.098           277.624                 Moscow          8675.750
       375   05 Jun 2027 22:48:37.808   05 Jun 2027 22:54:04.156           326.348               CapeTown         10198.375
       376   06 Jun 2027 01:28:33.744   06 Jun 2027 01:29:18.647            44.903              Murmansk1          1403.219
       377   06 Jun 2027 01:30:43.897   06 Jun 2027 01:31:48.206            64.309              Murmansk2          2009.656
       378   06 Jun 2027 01:31:52.147   06 Jun 2027 01:32:25.350            33.203                 Moscow          1037.594
       379   06 Jun 2027 01:33:39.902   06 Jun 2027 01:33:59.112            19.210                 Moscow           600.313
       380   06 Jun 2027 01:36:10.917   06 Jun 2027 01:36:28.018            17.101                 Moscow           534.406
       381   06 Jun 2027 01:38:38.808   06 Jun 2027 01:38:40.970             2.162              Murmansk2            67.562
       382   06 Jun 2027 01:40:12.751   06 Jun 2027 01:40:40.713            27.962                 Moscow           873.813
       383   06 Jun 2027 01:57:36.467   06 Jun 2027 01:58:51.466            74.999               CapeTown          2343.719
       384   06 Jun 2027 02:52:11.153   06 Jun 2027 02:54:17.827           126.674               Magadan1          3958.562
       385   06 Jun 2027 02:54:23.284   06 Jun 2027 02:54:44.218            20.934                Anadyr2           654.187
       386   06 Jun 2027 02:54:49.531   06 Jun 2027 02:55:23.823            34.292               Magadan2          1071.625
       387   06 Jun 2027 02:55:59.540   06 Jun 2027 02:56:25.296            25.756               Magadan2           804.875
       388   06 Jun 2027 02:58:07.722   06 Jun 2027 02:58:28.920            21.198               Magadan2           662.438
       389   06 Jun 2027 03:00:00.606   06 Jun 2027 03:00:31.087            30.481                Norilsk           952.531
       390   06 Jun 2027 03:00:39.866   06 Jun 2027 03:01:43.062            63.196               Magadan2          1974.875
       391   06 Jun 2027 03:01:53.191   06 Jun 2027 03:03:40.605           107.414               Magadan2          3356.688
       392   06 Jun 2027 03:03:42.877   06 Jun 2027 03:03:47.218             4.341               Magadan1           135.656
       393   06 Jun 2027 03:44:03.131   06 Jun 2027 03:47:58.354           235.223            RioGallegos          7350.719
       394   06 Jun 2027 04:31:54.140   06 Jun 2027 04:32:49.751            55.611                Irkutsk          1737.844
       395   06 Jun 2027 04:34:43.863   06 Jun 2027 04:40:08.379           324.516                Irkutsk         10141.125
       396   06 Jun 2027 06:11:27.483   06 Jun 2027 06:11:45.378            17.895               Magadan1           559.219
       397   06 Jun 2027 06:11:50.767   06 Jun 2027 06:12:11.422            20.655               Magadan1           645.469
       398   06 Jun 2027 06:12:20.303   06 Jun 2027 06:12:26.875             6.572               Magadan1           205.375
       399   06 Jun 2027 06:13:02.604   06 Jun 2027 06:13:12.015             9.411                Irkutsk           294.094
       400   06 Jun 2027 06:13:38.419   06 Jun 2027 06:14:30.598            52.179                Novosib          1630.594
       401   06 Jun 2027 06:14:45.608   06 Jun 2027 06:15:08.213            22.605               Magadan1           706.406
       402   06 Jun 2027 06:16:46.289   06 Jun 2027 06:17:25.556            39.267                Norilsk          1227.094
       403   06 Jun 2027 07:46:28.691   06 Jun 2027 07:46:28.807             0.116                Irkutsk             3.625
       404   06 Jun 2027 07:48:58.382   06 Jun 2027 07:49:31.817            33.435                Novosib          1044.844
       405   06 Jun 2027 07:50:13.130   06 Jun 2027 07:50:16.261             3.131              Murmansk1            97.844
       406   06 Jun 2027 07:50:52.345   06 Jun 2027 07:50:55.347             3.002                Novosib            93.812
       407   06 Jun 2027 07:53:19.428   06 Jun 2027 07:53:25.092             5.664                Novosib           177.000
       408   06 Jun 2027 07:54:32.103   06 Jun 2027 07:54:40.391             8.288                 Moscow           259.000
       409   06 Jun 2027 07:55:11.316   06 Jun 2027 07:55:44.989            33.673              Murmansk1          1052.281
       410   06 Jun 2027 08:32:26.675   06 Jun 2027 08:32:39.075            12.400            RioGallegos           387.500
       411   06 Jun 2027 08:33:09.519   06 Jun 2027 08:33:40.712            31.193            RioGallegos           974.781
       412   06 Jun 2027 09:28:24.955   06 Jun 2027 09:28:53.392            28.437                Norilsk           888.656
       413   06 Jun 2027 11:06:47.907   06 Jun 2027 11:06:59.130            11.223                Norilsk           350.719
       414   06 Jun 2027 12:32:18.144   06 Jun 2027 12:32:40.988            22.844                 Moscow           713.875
       415   06 Jun 2027 12:33:18.967   06 Jun 2027 12:34:24.157            65.190                 Moscow          2037.187
       416   06 Jun 2027 12:35:08.030   06 Jun 2027 12:36:14.932            66.902                 Moscow          2090.688
       417   06 Jun 2027 12:36:16.526   06 Jun 2027 12:36:49.101            32.575              Murmansk1          1017.969
       418   06 Jun 2027 12:36:57.441   06 Jun 2027 12:37:34.193            36.752              Murmansk1          1148.500
       419   06 Jun 2027 12:38:16.669   06 Jun 2027 12:38:39.835            23.166              Murmansk1           723.937
       420   06 Jun 2027 12:39:21.952   06 Jun 2027 12:40:10.341            48.389              Murmansk1          1512.156
       421   06 Jun 2027 12:41:14.517   06 Jun 2027 12:41:33.921            19.404              Murmansk2           606.375
       422   06 Jun 2027 12:44:09.962   06 Jun 2027 12:44:11.390             1.428              Murmansk1            44.625
       423   06 Jun 2027 12:44:27.627   06 Jun 2027 12:44:52.378            24.751              Murmansk1           773.469
       424   06 Jun 2027 12:49:19.087   06 Jun 2027 12:54:57.661           338.574                Anadyr1         10580.438
       425   06 Jun 2027 12:55:48.945   06 Jun 2027 12:58:49.970           181.025                Anadyr2          5657.031
       426   06 Jun 2027 14:24:52.624   06 Jun 2027 14:24:59.454             6.830                Anadyr2           213.437
       427   06 Jun 2027 14:26:08.581   06 Jun 2027 14:26:08.893             0.312                Anadyr1             9.750
       428   06 Jun 2027 14:26:34.033   06 Jun 2027 14:27:18.534            44.501                Anadyr2          1390.656
       429   06 Jun 2027 14:28:14.197   06 Jun 2027 14:36:14.575           480.378               Magadan2         15011.813
       430   06 Jun 2027 16:03:08.416   06 Jun 2027 16:04:26.494            78.078               Magadan2          2439.937
       431   06 Jun 2027 16:58:12.501   06 Jun 2027 17:00:58.363           165.862            RioGallegos          5183.188
       432   06 Jun 2027 17:38:52.533   06 Jun 2027 17:39:53.459            60.926                Norilsk          1903.937
       433   06 Jun 2027 17:43:04.797   06 Jun 2027 17:44:31.563            86.766                Norilsk          2711.437
       434   06 Jun 2027 17:44:51.703   06 Jun 2027 17:51:45.031           413.328                Irkutsk         12916.500
       435   06 Jun 2027 17:59:37.924   06 Jun 2027 18:06:29.714           411.790                Sumatra         12868.438
       436   06 Jun 2027 19:21:24.267   06 Jun 2027 19:25:34.785           250.518                Novosib          7828.688
       437   06 Jun 2027 20:53:49.457   06 Jun 2027 20:57:53.321           243.864              Murmansk1          7620.750
       438   06 Jun 2027 22:28:44.196   06 Jun 2027 22:30:12.290            88.094              Murmansk2          2752.938
       439   06 Jun 2027 22:30:44.531   06 Jun 2027 22:34:07.544           203.013              Murmansk1          6344.156
       440   06 Jun 2027 22:34:10.427   06 Jun 2027 22:35:53.903           103.476                 Moscow          3233.625
       441   06 Jun 2027 22:35:55.895   06 Jun 2027 22:40:42.444           286.549                 Moscow          8954.656
       442   06 Jun 2027 22:59:24.565   06 Jun 2027 23:06:53.851           449.286               CapeTown         14040.187
       443   07 Jun 2027 02:14:06.027   07 Jun 2027 02:14:08.507             2.480               CapeTown            77.500
       444   07 Jun 2027 02:15:29.230   07 Jun 2027 02:16:50.408            81.178               CapeTown          2536.812
       445   07 Jun 2027 03:04:59.097   07 Jun 2027 03:05:30.167            31.070               Magadan2           970.938
       446   07 Jun 2027 03:10:38.547   07 Jun 2027 03:14:19.132           220.585                Anadyr1          6893.281
       447   07 Jun 2027 03:15:19.183   07 Jun 2027 03:15:23.839             4.656                Anadyr1           145.500
       448   07 Jun 2027 03:16:30.038   07 Jun 2027 03:16:36.166             6.128               Magadan1           191.500
       449   07 Jun 2027 03:16:37.561   07 Jun 2027 03:17:11.628            34.067                Anadyr1          1064.594
       450   07 Jun 2027 04:47:22.052   07 Jun 2027 04:51:32.554           250.502                Irkutsk          7828.188
       451   07 Jun 2027 04:52:23.627   07 Jun 2027 04:52:43.164            19.537               Magadan2           610.531
       452   07 Jun 2027 06:22:24.984   07 Jun 2027 06:22:39.530            14.546               Magadan2           454.563
       453   07 Jun 2027 06:22:45.264   07 Jun 2027 06:23:38.697            53.433               Magadan1          1669.781
       454   07 Jun 2027 06:23:46.866   07 Jun 2027 06:23:48.440             1.574               Magadan1            49.188
       455   07 Jun 2027 06:24:00.277   07 Jun 2027 06:24:27.782            27.505               Magadan1           859.531
       456   07 Jun 2027 06:25:41.829   07 Jun 2027 06:25:48.028             6.199               Magadan1           193.719
       457   07 Jun 2027 06:25:49.906   07 Jun 2027 06:26:17.154            27.248               Magadan1           851.500
       458   07 Jun 2027 06:27:52.912   07 Jun 2027 06:28:12.480            19.568                Novosib           611.500
       459   07 Jun 2027 06:28:29.657   07 Jun 2027 06:28:36.471             6.814                Norilsk           212.938
       460   07 Jun 2027 06:28:42.947   07 Jun 2027 06:29:21.113            38.166                Norilsk          1192.688
       461   07 Jun 2027 08:01:42.743   07 Jun 2027 08:02:07.711            24.968              Murmansk2           780.250
       462   07 Jun 2027 08:02:09.502   07 Jun 2027 08:02:28.275            18.773              Murmansk2           586.656
       463   07 Jun 2027 08:04:19.604   07 Jun 2027 08:04:30.908            11.304                Novosib           353.250
       464   07 Jun 2027 08:05:46.542   07 Jun 2027 08:06:08.502            21.960              Murmansk2           686.250
       465   07 Jun 2027 08:45:55.244   07 Jun 2027 08:46:33.807            38.563            RioGallegos          1205.094
       466   07 Jun 2027 09:28:41.194   07 Jun 2027 09:28:53.487            12.293                  Delhi           384.156
       467   07 Jun 2027 09:40:53.270   07 Jun 2027 09:41:00.815             7.545                Novosib           235.781
       468   07 Jun 2027 11:20:31.692   07 Jun 2027 11:20:55.474            23.782                Norilsk           743.187
       469   07 Jun 2027 12:44:49.332   07 Jun 2027 12:45:26.898            37.566                 Moscow          1173.938
       470   07 Jun 2027 12:47:07.274   07 Jun 2027 12:47:59.525            52.251                 Moscow          1632.844
       471   07 Jun 2027 12:48:17.583   07 Jun 2027 12:49:38.405            80.822              Murmansk2          2525.687
       472   07 Jun 2027 12:50:18.363   07 Jun 2027 12:50:41.541            23.178              Murmansk1           724.312
       473   07 Jun 2027 12:52:11.795   07 Jun 2027 12:52:23.225            11.430              Murmansk1           357.187
       474   07 Jun 2027 12:56:10.934   07 Jun 2027 12:56:47.264            36.330              Murmansk1          1135.312
       475   07 Jun 2027 13:01:14.653   07 Jun 2027 13:03:21.485           126.832                Anadyr2          3963.500
       476   07 Jun 2027 13:04:56.122   07 Jun 2027 13:06:48.449           112.327                Anadyr2          3510.219
       477   07 Jun 2027 13:56:27.837   07 Jun 2027 13:57:30.857            63.020               CapeTown          1969.375
       478   07 Jun 2027 14:27:32.316   07 Jun 2027 14:28:10.060            37.744              Murmansk1          1179.500
       479   07 Jun 2027 14:29:59.741   07 Jun 2027 14:30:24.975            25.234              Murmansk1           788.562
       480   07 Jun 2027 14:36:53.332   07 Jun 2027 14:38:07.289            73.957                Anadyr1          2311.156
       481   07 Jun 2027 14:38:53.034   07 Jun 2027 14:39:31.180            38.146                Anadyr2          1192.062
       482   07 Jun 2027 14:39:55.948   07 Jun 2027 14:40:44.438            48.490                Anadyr2          1515.312
