uniorb/output/strategy_4/Drop/Drop_KinoSat_111106.txt

KinoSat_111106
-------------------------
    Access    *     Start Time (UTCG)     *     Stop Time (UTCG)  *   Duration (s)        *       Station  *  Data (Mbytes)
         1   01 Jun 2027 03:28:45.893   01 Jun 2027 03:29:04.518            18.625              Murmansk2           582.031
         2   01 Jun 2027 03:29:04.518   01 Jun 2027 03:29:41.953            37.435              Murmansk1          1169.844
         3   01 Jun 2027 03:30:09.461   01 Jun 2027 03:30:47.189            37.728              Murmansk2          1179.000
         4   01 Jun 2027 04:50:35.429   01 Jun 2027 04:51:02.895            27.466                Anadyr1           858.313
         5   01 Jun 2027 04:51:20.420   01 Jun 2027 04:53:08.487           108.067                Anadyr2          3377.094
         6   01 Jun 2027 04:56:21.434   01 Jun 2027 04:56:34.675            13.241                Anadyr2           413.781
         7   01 Jun 2027 06:27:44.772   01 Jun 2027 06:30:08.554           143.782               Magadan2          4493.187
         8   01 Jun 2027 06:30:34.197   01 Jun 2027 06:30:51.988            17.791               Magadan1           555.969
         9   01 Jun 2027 06:31:31.589   01 Jun 2027 06:32:07.888            36.299                Anadyr1          1134.344
        10   01 Jun 2027 08:03:18.956   01 Jun 2027 08:03:27.657             8.701                Novosib           271.906
        11   01 Jun 2027 08:03:30.888   01 Jun 2027 08:03:54.391            23.503               Magadan2           734.469
        12   01 Jun 2027 08:03:54.391   01 Jun 2027 08:04:41.093            46.702               Magadan1          1459.437
        13   01 Jun 2027 08:05:08.597   01 Jun 2027 08:07:27.630           139.033               Magadan2          4344.781
        14   01 Jun 2027 08:07:28.922   01 Jun 2027 08:08:58.276            89.354                Novosib          2792.313
        15   01 Jun 2027 08:09:11.290   01 Jun 2027 08:10:22.465            71.175              Murmansk1          2224.219
        16   01 Jun 2027 08:10:35.075   01 Jun 2027 08:10:40.463             5.388              Murmansk1           168.375
        17   01 Jun 2027 08:42:35.534   01 Jun 2027 08:44:00.672            85.138            RioGallegos          2660.563
        18   01 Jun 2027 09:17:57.314   01 Jun 2027 09:20:16.122           138.808                Sumatra          4337.750
        19   01 Jun 2027 09:31:16.865   01 Jun 2027 09:31:28.590            11.725                  Delhi           366.406
        20   01 Jun 2027 09:39:37.681   01 Jun 2027 09:39:57.900            20.219                Norilsk           631.844
        21   01 Jun 2027 09:40:02.184   01 Jun 2027 09:40:07.054             4.870                Novosib           152.187
        22   01 Jun 2027 09:40:14.892   01 Jun 2027 09:40:28.983            14.091                Novosib           440.344
        23   01 Jun 2027 09:40:31.408   01 Jun 2027 09:42:00.782            89.374                Norilsk          2792.938
        24   01 Jun 2027 09:42:03.022   01 Jun 2027 09:43:51.649           108.627                Irkutsk          3394.594
        25   01 Jun 2027 09:44:51.587   01 Jun 2027 09:45:25.317            33.730                Novosib          1054.063
        26   01 Jun 2027 10:20:32.290   01 Jun 2027 10:20:54.024            21.734            RioGallegos           679.187
        27   01 Jun 2027 10:21:57.898   01 Jun 2027 10:22:34.380            36.482            RioGallegos          1140.063
        28   01 Jun 2027 10:23:38.906   01 Jun 2027 10:25:01.575            82.669            RioGallegos          2583.406
        29   01 Jun 2027 10:54:45.068   01 Jun 2027 10:55:25.408            40.340                Sumatra          1260.625
        30   01 Jun 2027 10:56:38.521   01 Jun 2027 10:57:56.075            77.554                Sumatra          2423.562
        31   01 Jun 2027 11:17:03.305   01 Jun 2027 11:17:46.556            43.251                 Moscow          1351.594
        32   01 Jun 2027 11:18:05.906   01 Jun 2027 11:18:19.147            13.241                Irkutsk           413.781
        33   01 Jun 2027 11:18:45.104   01 Jun 2027 11:18:59.165            14.061                 Moscow           439.406
        34   01 Jun 2027 11:19:05.372   01 Jun 2027 11:19:09.813             4.441                Novosib           138.781
        35   01 Jun 2027 11:19:12.632   01 Jun 2027 11:21:01.352           108.720                Norilsk          3397.500
        36   01 Jun 2027 11:24:38.231   01 Jun 2027 11:24:52.740            14.509              Murmansk2           453.406
        37   01 Jun 2027 12:40:08.320   01 Jun 2027 12:42:55.668           167.348                  Delhi          5229.625
        38   01 Jun 2027 12:47:39.315   01 Jun 2027 12:48:49.523            70.208                 Moscow          2194.000
        39   01 Jun 2027 12:49:18.430   01 Jun 2027 12:51:39.537           141.107                Novosib          4409.594
        40   01 Jun 2027 12:51:46.819   01 Jun 2027 12:53:03.963            77.144                Norilsk          2410.750
        41   01 Jun 2027 14:02:57.263   01 Jun 2027 14:04:47.337           110.074               CapeTown          3439.812
        42   01 Jun 2027 14:06:27.047   01 Jun 2027 14:07:09.970            42.923               CapeTown          1341.344
        43   01 Jun 2027 14:22:30.907   01 Jun 2027 14:23:59.375            88.468                 Moscow          2764.625
        44   01 Jun 2027 14:25:58.555   01 Jun 2027 14:28:51.414           172.859              Murmansk1          5401.844
        45   01 Jun 2027 14:41:08.313   01 Jun 2027 14:42:53.838           105.525                Anadyr1          3297.656
        46   01 Jun 2027 14:43:44.263   01 Jun 2027 14:44:06.582            22.319                Anadyr1           697.469
        47   01 Jun 2027 14:44:28.466   01 Jun 2027 14:44:35.934             7.468                Anadyr1           233.375
        48   01 Jun 2027 14:45:19.966   01 Jun 2027 14:45:54.012            34.046                Anadyr1          1063.938
        49   01 Jun 2027 14:46:41.680   01 Jun 2027 14:46:49.375             7.695                Anadyr1           240.469
        50   01 Jun 2027 15:35:34.486   01 Jun 2027 15:35:35.202             0.716               CapeTown            22.375
        51   01 Jun 2027 15:36:34.932   01 Jun 2027 15:38:14.692            99.760               CapeTown          3117.500
        52   01 Jun 2027 16:04:22.898   01 Jun 2027 16:04:46.731            23.833              Murmansk1           744.781
        53   01 Jun 2027 16:05:04.925   01 Jun 2027 16:05:17.862            12.937              Murmansk2           404.281
        54   01 Jun 2027 16:05:46.455   01 Jun 2027 16:05:57.150            10.695              Murmansk1           334.219
        55   01 Jun 2027 16:06:45.784   01 Jun 2027 16:07:05.054            19.270              Murmansk2           602.188
        56   01 Jun 2027 16:08:32.681   01 Jun 2027 16:08:50.650            17.969              Murmansk1           561.531
        57   01 Jun 2027 16:12:16.275   01 Jun 2027 16:12:35.889            19.614              Murmansk1           612.937
        58   01 Jun 2027 16:16:13.837   01 Jun 2027 16:18:30.025           136.188                Anadyr2          4255.875
        59   01 Jun 2027 16:21:55.551   01 Jun 2027 16:23:22.993            87.442               Magadan1          2732.563
        60   01 Jun 2027 17:12:41.506   01 Jun 2027 17:13:35.409            53.903               CapeTown          1684.469
        61   01 Jun 2027 17:46:24.126   01 Jun 2027 17:48:41.255           137.129              Murmansk1          4285.281
        62   01 Jun 2027 17:52:04.663   01 Jun 2027 17:54:41.094           156.431                Anadyr2          4888.469
        63   01 Jun 2027 17:54:56.704   01 Jun 2027 17:55:25.400            28.696                Anadyr2           896.750
        64   01 Jun 2027 17:55:39.231   01 Jun 2027 17:58:33.736           174.505               Magadan2          5453.281
        65   01 Jun 2027 19:27:59.343   01 Jun 2027 19:32:03.530           244.187                Anadyr2          7630.844
        66   01 Jun 2027 19:32:03.781   01 Jun 2027 19:33:36.221            92.440               Magadan1          2888.750
        67   01 Jun 2027 19:33:36.221   01 Jun 2027 19:34:05.032            28.811               Magadan2           900.344
        68   01 Jun 2027 20:22:30.294   01 Jun 2027 20:25:47.869           197.575            RioGallegos          6174.219
        69   01 Jun 2027 21:04:11.237   01 Jun 2027 21:04:15.022             3.785                Anadyr2           118.281
        70   01 Jun 2027 21:05:41.786   01 Jun 2027 21:05:47.807             6.021                Anadyr1           188.156
        71   01 Jun 2027 21:05:50.523   01 Jun 2027 21:09:43.844           233.321                Norilsk          7291.281
        72   01 Jun 2027 21:10:02.956   01 Jun 2027 21:10:38.774            35.818                Irkutsk          1119.312
        73   01 Jun 2027 21:10:55.444   01 Jun 2027 21:11:13.581            18.137                Irkutsk           566.781
        74   01 Jun 2027 21:11:52.624   01 Jun 2027 21:12:56.320            63.696                Irkutsk          1990.500
        75   01 Jun 2027 21:13:02.583   01 Jun 2027 21:14:43.559           100.976                Novosib          3155.500
        76   01 Jun 2027 21:23:49.714   01 Jun 2027 21:24:46.097            56.383                Sumatra          1761.969
        77   01 Jun 2027 21:25:56.886   01 Jun 2027 21:27:05.641            68.755                Sumatra          2148.594
        78   01 Jun 2027 22:41:00.333   01 Jun 2027 22:41:05.384             5.051                Anadyr1           157.844
        79   01 Jun 2027 22:41:46.966   01 Jun 2027 22:43:04.374            77.408                Norilsk          2419.000
        80   01 Jun 2027 22:43:35.237   01 Jun 2027 22:43:46.311            11.074               Magadan1           346.062
        81   01 Jun 2027 22:43:46.311   01 Jun 2027 22:44:21.537            35.226               Magadan2          1100.813
        82   01 Jun 2027 22:44:28.782   01 Jun 2027 22:44:53.223            24.441               Magadan2           763.781
        83   01 Jun 2027 22:44:56.571   01 Jun 2027 22:45:10.753            14.182               Magadan2           443.187
        84   01 Jun 2027 22:45:38.724   01 Jun 2027 22:46:12.938            34.214                Irkutsk          1069.187
        85   01 Jun 2027 22:46:56.482   01 Jun 2027 22:47:53.954            57.472                Novosib          1796.000
        86   01 Jun 2027 22:48:10.546   01 Jun 2027 22:48:20.303             9.757                Novosib           304.906
        87   01 Jun 2027 22:52:36.391   01 Jun 2027 22:52:48.439            12.048                Novosib           376.500
        88   01 Jun 2027 22:53:15.238   01 Jun 2027 22:54:52.035            96.797                Novosib          3024.906
        89   01 Jun 2027 22:55:06.054   01 Jun 2027 22:56:59.597           113.543                  Delhi          3548.219
        90   02 Jun 2027 00:11:56.917   02 Jun 2027 00:12:31.017            34.100                Anadyr1          1065.625
        91   02 Jun 2027 00:13:22.260   02 Jun 2027 00:13:40.449            18.189                Anadyr2           568.406
        92   02 Jun 2027 00:13:43.396   02 Jun 2027 00:14:02.063            18.667                Anadyr2           583.344
        93   02 Jun 2027 00:14:26.657   02 Jun 2027 00:14:46.272            19.615                Anadyr1           612.969
        94   02 Jun 2027 00:17:29.304   02 Jun 2027 00:17:40.970            11.666                Anadyr1           364.563
        95   02 Jun 2027 00:17:46.333   02 Jun 2027 00:17:59.177            12.844                Norilsk           401.375
        96   02 Jun 2027 00:18:23.544   02 Jun 2027 00:19:51.690            88.146               Magadan1          2754.563
        97   02 Jun 2027 00:19:51.690   02 Jun 2027 00:20:55.607            63.917               Magadan2          1997.406
        98   02 Jun 2027 00:21:16.138   02 Jun 2027 00:22:21.772            65.634              Murmansk2          2051.063
        99   02 Jun 2027 00:22:35.535   02 Jun 2027 00:23:27.011            51.476                Novosib          1608.625
       100   02 Jun 2027 00:25:08.057   02 Jun 2027 00:25:47.437            39.380                 Moscow          1230.625
       101   02 Jun 2027 00:26:22.855   02 Jun 2027 00:27:21.004            58.149                 Moscow          1817.156
       102   02 Jun 2027 00:28:49.125   02 Jun 2027 00:29:47.971            58.846                 Moscow          1838.938
       103   02 Jun 2027 01:45:20.686   02 Jun 2027 01:47:00.136            99.450                Anadyr1          3107.812
       104   02 Jun 2027 01:47:14.492   02 Jun 2027 01:47:42.173            27.681                Anadyr1           865.031
       105   02 Jun 2027 01:48:03.681   02 Jun 2027 01:48:23.631            19.950                Anadyr2           623.438
       106   02 Jun 2027 01:50:29.837   02 Jun 2027 01:52:06.622            96.785               Magadan1          3024.531
       107   02 Jun 2027 01:53:34.371   02 Jun 2027 01:53:59.995            25.624                Norilsk           800.750
       108   02 Jun 2027 01:54:10.109   02 Jun 2027 01:54:18.961             8.852               Magadan2           276.625
       109   02 Jun 2027 01:54:29.790   02 Jun 2027 01:55:21.202            51.412               Magadan2          1606.625
       110   02 Jun 2027 01:55:54.141   02 Jun 2027 01:56:35.653            41.512              Murmansk2          1297.250
       111   02 Jun 2027 01:58:11.243   02 Jun 2027 01:58:19.526             8.283                Novosib           258.844
       112   02 Jun 2027 01:58:37.034   02 Jun 2027 01:59:52.912            75.878                Novosib          2371.188
       113   02 Jun 2027 02:05:21.573   02 Jun 2027 02:05:49.651            28.078                 Moscow           877.437
       114   02 Jun 2027 02:23:39.891   02 Jun 2027 02:24:37.994            58.103               CapeTown          1815.719
       115   02 Jun 2027 02:27:56.447   02 Jun 2027 02:28:19.220            22.773               CapeTown           711.656
       116   02 Jun 2027 02:35:30.083   02 Jun 2027 02:35:39.066             8.983               CapeTown           280.719
       117   02 Jun 2027 03:19:50.697   02 Jun 2027 03:21:19.933            89.236                Anadyr2          2788.625
       118   02 Jun 2027 03:27:00.357   02 Jun 2027 03:28:21.565            81.208                Anadyr1          2537.750
       119   02 Jun 2027 03:39:38.166   02 Jun 2027 03:40:06.097            27.931                Norilsk           872.844
       120   02 Jun 2027 03:40:52.777   02 Jun 2027 03:41:43.257            50.480              Murmansk2          1577.500
       121   02 Jun 2027 03:42:56.521   02 Jun 2027 03:43:09.938            13.417              Murmansk1           419.281
       122   02 Jun 2027 03:44:35.976   02 Jun 2027 03:44:49.663            13.687              Murmansk2           427.719
       123   02 Jun 2027 05:01:22.920   02 Jun 2027 05:01:40.600            17.680                Anadyr1           552.500
       124   02 Jun 2027 05:01:53.516   02 Jun 2027 05:02:19.455            25.939               Magadan2           810.594
       125   02 Jun 2027 05:02:19.455   02 Jun 2027 05:02:37.367            17.912               Magadan1           559.750
       126   02 Jun 2027 05:02:41.010   02 Jun 2027 05:03:18.017            37.007               Magadan2          1156.469
       127   02 Jun 2027 05:03:18.017   02 Jun 2027 05:04:17.342            59.325               Magadan1          1853.906
       128   02 Jun 2027 05:04:31.976   02 Jun 2027 05:06:17.787           105.811               Magadan1          3306.594
       129   02 Jun 2027 05:06:17.787   02 Jun 2027 05:07:38.395            80.608               Magadan2          2519.000
       130   02 Jun 2027 06:40:59.404   02 Jun 2027 06:41:46.344            46.940                Anadyr1          1466.875
       131   02 Jun 2027 06:41:46.344   02 Jun 2027 06:43:01.267            74.923                Anadyr2          2341.344
       132   02 Jun 2027 06:43:32.227   02 Jun 2027 06:44:01.715            29.488                Anadyr2           921.500
       133   02 Jun 2027 08:14:36.951   02 Jun 2027 08:15:16.545            39.594               Magadan1          1237.312
       134   02 Jun 2027 08:15:52.761   02 Jun 2027 08:17:13.683            80.922               Magadan2          2528.812
       135   02 Jun 2027 08:18:15.725   02 Jun 2027 08:19:16.046            60.321               Magadan1          1885.031
       136   02 Jun 2027 08:20:48.009   02 Jun 2027 08:21:05.789            17.780                Novosib           555.625
       137   02 Jun 2027 08:22:56.422   02 Jun 2027 08:23:14.855            18.433              Murmansk2           576.031
       138   02 Jun 2027 08:27:22.374   02 Jun 2027 08:27:55.157            32.783              Murmansk1          1024.469
       139   02 Jun 2027 08:54:38.313   02 Jun 2027 08:55:31.780            53.467            RioGallegos          1670.844
       140   02 Jun 2027 08:56:51.023   02 Jun 2027 08:57:19.672            28.649            RioGallegos           895.281
       141   02 Jun 2027 08:57:54.415   02 Jun 2027 08:58:28.429            34.014            RioGallegos          1062.938
       142   02 Jun 2027 09:01:42.511   02 Jun 2027 09:01:48.913             6.402            RioGallegos           200.063
       143   02 Jun 2027 09:02:23.065   02 Jun 2027 09:03:01.060            37.995            RioGallegos          1187.344
       144   02 Jun 2027 09:04:03.720   02 Jun 2027 09:04:17.437            13.717            RioGallegos           428.656
       145   02 Jun 2027 09:29:43.723   02 Jun 2027 09:30:39.933            56.210                Sumatra          1756.562
       146   02 Jun 2027 09:36:34.273   02 Jun 2027 09:37:48.795            74.522                Sumatra          2328.813
       147   02 Jun 2027 09:51:49.069   02 Jun 2027 09:52:25.123            36.054                Novosib          1126.688
       148   02 Jun 2027 09:52:50.684   02 Jun 2027 09:53:32.904            42.220                Novosib          1319.375
       149   02 Jun 2027 09:54:06.906   02 Jun 2027 09:54:08.657             1.751                Irkutsk            54.719
       150   02 Jun 2027 09:54:15.652   02 Jun 2027 09:54:20.674             5.022                Novosib           156.937
       151   02 Jun 2027 09:54:20.876   02 Jun 2027 09:54:45.022            24.146              Murmansk2           754.562
       152   02 Jun 2027 09:55:20.999   02 Jun 2027 09:55:32.919            11.920                Novosib           372.500
       153   02 Jun 2027 09:55:36.737   02 Jun 2027 09:55:49.554            12.817                Irkutsk           400.531
       154   02 Jun 2027 10:33:12.709   02 Jun 2027 10:33:40.322            27.613            RioGallegos           862.906
       155   02 Jun 2027 10:35:39.571   02 Jun 2027 10:35:58.026            18.455            RioGallegos           576.719
       156   02 Jun 2027 10:37:56.441   02 Jun 2027 10:38:38.559            42.118            RioGallegos          1316.188
       157   02 Jun 2027 11:07:33.620   02 Jun 2027 11:07:34.488             0.868                Sumatra            27.125
       158   02 Jun 2027 11:08:00.590   02 Jun 2027 11:09:42.607           102.017                Sumatra          3188.031
       159   02 Jun 2027 11:27:37.535   02 Jun 2027 11:27:42.006             4.471                Irkutsk           139.719
       160   02 Jun 2027 11:27:50.248   02 Jun 2027 11:27:53.463             3.215                Novosib           100.469
       161   02 Jun 2027 11:28:20.706   02 Jun 2027 11:29:32.358            71.652                Novosib          2239.125
       162   02 Jun 2027 11:29:44.111   02 Jun 2027 11:30:51.898            67.787                Novosib          2118.344
       163   02 Jun 2027 11:30:59.668   02 Jun 2027 11:31:15.577            15.909                Novosib           497.156
       164   02 Jun 2027 11:31:18.845   02 Jun 2027 11:31:34.399            15.554                Novosib           486.062
       165   02 Jun 2027 12:53:24.633   02 Jun 2027 12:56:36.363           191.730                  Delhi          5991.563
       166   02 Jun 2027 13:00:58.673   02 Jun 2027 13:01:04.063             5.390                 Moscow           168.437
       167   02 Jun 2027 13:01:33.966   02 Jun 2027 13:01:55.918            21.952              Murmansk1           686.000
       168   02 Jun 2027 13:03:10.153   02 Jun 2027 13:04:09.369            59.216              Murmansk1          1850.500
       169   02 Jun 2027 13:04:21.921   02 Jun 2027 13:05:05.515            43.594                Norilsk          1362.313
       170   02 Jun 2027 13:08:58.895   02 Jun 2027 13:09:11.867            12.972                Norilsk           405.375
       171   02 Jun 2027 14:13:53.404   02 Jun 2027 14:16:24.006           150.602               CapeTown          4706.313
       172   02 Jun 2027 14:18:59.314   02 Jun 2027 14:19:44.487            45.173               CapeTown          1411.656
       173   02 Jun 2027 14:38:11.268   02 Jun 2027 14:40:53.157           161.889              Murmansk2          5059.031
       174   02 Jun 2027 14:45:13.229   02 Jun 2027 14:45:14.435             1.206              Murmansk2            37.687
       175   02 Jun 2027 14:46:37.734   02 Jun 2027 14:47:00.166            22.432              Murmansk2           701.000
       176   02 Jun 2027 14:52:56.215   02 Jun 2027 14:54:42.257           106.042                Anadyr1          3313.813
       177   02 Jun 2027 14:56:03.078   02 Jun 2027 14:56:49.353            46.275                Anadyr2          1446.094
       178   02 Jun 2027 14:57:18.323   02 Jun 2027 14:57:28.945            10.622                Anadyr2           331.937
       179   02 Jun 2027 14:57:55.334   02 Jun 2027 14:58:24.454            29.120                Anadyr2           910.000
       180   02 Jun 2027 15:51:35.522   02 Jun 2027 15:51:59.134            23.612               CapeTown           737.875
       181   02 Jun 2027 16:16:53.702   02 Jun 2027 16:18:10.001            76.299              Murmansk1          2384.344
       182   02 Jun 2027 16:18:47.075   02 Jun 2027 16:19:06.969            19.894              Murmansk1           621.687
       183   02 Jun 2027 16:19:41.448   02 Jun 2027 16:20:29.750            48.302              Murmansk1          1509.437
       184   02 Jun 2027 16:24:50.887   02 Jun 2027 16:25:22.750            31.863              Murmansk2           995.719
       185   02 Jun 2027 16:28:13.602   02 Jun 2027 16:30:21.428           127.826                Anadyr1          3994.563
       186   02 Jun 2027 16:32:34.317   02 Jun 2027 16:35:46.735           192.418               Magadan2          6013.062
       187   02 Jun 2027 18:04:06.142   02 Jun 2027 18:08:00.699           234.557                Anadyr1          7329.906
       188   02 Jun 2027 18:08:31.292   02 Jun 2027 18:09:00.597            29.305               Magadan2           915.781
       189   02 Jun 2027 18:10:23.779   02 Jun 2027 18:11:45.165            81.386               Magadan2          2543.312
       190   02 Jun 2027 19:39:59.890   02 Jun 2027 19:43:50.467           230.577                Anadyr2          7205.531
       191   02 Jun 2027 19:44:19.422   02 Jun 2027 19:46:02.900           103.478                Norilsk          3233.688
       192   02 Jun 2027 19:46:26.681   02 Jun 2027 19:47:22.055            55.374               Magadan1          1730.437
       193   02 Jun 2027 19:47:31.804   02 Jun 2027 19:48:14.650            42.846               Magadan1          1338.938
       194   02 Jun 2027 19:49:22.869   02 Jun 2027 19:50:21.362            58.493                Irkutsk          1827.906
       195   02 Jun 2027 20:34:19.527   02 Jun 2027 20:36:11.019           111.492            RioGallegos          3484.125
       196   02 Jun 2027 20:37:33.092   02 Jun 2027 20:37:36.791             3.699            RioGallegos           115.594
       197   02 Jun 2027 20:40:25.247   02 Jun 2027 20:40:26.822             1.575            RioGallegos            49.219
       198   02 Jun 2027 20:44:46.492   02 Jun 2027 20:44:53.187             6.695            RioGallegos           209.219
       199   02 Jun 2027 21:16:40.216   02 Jun 2027 21:17:46.948            66.732                Anadyr2          2085.375
       200   02 Jun 2027 21:18:21.725   02 Jun 2027 21:20:14.266           112.541               Magadan1          3516.906
       201   02 Jun 2027 21:20:36.537   02 Jun 2027 21:21:03.807            27.270                Norilsk           852.187
       202   02 Jun 2027 21:21:57.469   02 Jun 2027 21:23:18.884            81.415                Irkutsk          2544.219
       203   02 Jun 2027 21:23:30.278   02 Jun 2027 21:24:49.063            78.785                Novosib          2462.031
       204   02 Jun 2027 21:25:59.524   02 Jun 2027 21:26:17.124            17.600                Novosib           550.000
       205   02 Jun 2027 21:28:12.213   02 Jun 2027 21:28:23.125            10.912                Novosib           341.000
       206   02 Jun 2027 21:35:39.243   02 Jun 2027 21:38:10.294           151.051                Sumatra          4720.344
       207   02 Jun 2027 22:52:49.688   02 Jun 2027 22:52:52.397             2.709                Anadyr1            84.656
       208   02 Jun 2027 22:53:30.094   02 Jun 2027 22:53:59.615            29.521                Anadyr1           922.531
       209   02 Jun 2027 22:54:06.052   02 Jun 2027 22:54:06.608             0.556                Norilsk            17.375
       210   02 Jun 2027 22:54:26.631   02 Jun 2027 22:55:49.556            82.925               Magadan1          2591.406
       211   02 Jun 2027 22:55:49.556   02 Jun 2027 22:56:19.685            30.129               Magadan2           941.531
       212   02 Jun 2027 22:56:53.142   02 Jun 2027 22:57:33.932            40.790               Magadan1          1274.687
       213   02 Jun 2027 22:57:41.841   02 Jun 2027 22:58:21.165            39.324                Irkutsk          1228.875
       214   02 Jun 2027 22:59:38.461   02 Jun 2027 23:00:24.768            46.307                Novosib          1447.094
       215   02 Jun 2027 23:05:23.729   02 Jun 2027 23:07:33.546           129.817                  Delhi          4056.781
       216   03 Jun 2027 00:23:37.942   03 Jun 2027 00:25:32.191           114.249                Anadyr1          3570.281
       217   03 Jun 2027 00:29:28.520   03 Jun 2027 00:29:36.087             7.567                Anadyr1           236.469
       218   03 Jun 2027 00:29:42.324   03 Jun 2027 00:29:49.026             6.702                Anadyr2           209.438
       219   03 Jun 2027 00:29:56.686   03 Jun 2027 00:32:30.397           153.711               Magadan1          4803.469
       220   03 Jun 2027 00:32:39.003   03 Jun 2027 00:34:29.494           110.491              Murmansk1          3452.844
       221   03 Jun 2027 00:35:37.119   03 Jun 2027 00:35:55.058            17.939                Novosib           560.594
       222   03 Jun 2027 00:36:39.182   03 Jun 2027 00:38:07.245            88.063                 Moscow          2751.969
       223   03 Jun 2027 00:40:55.485   03 Jun 2027 00:40:58.592             3.107                 Moscow            97.094
       224   03 Jun 2027 00:41:22.808   03 Jun 2027 00:41:48.804            25.996                 Moscow           812.375
       225   03 Jun 2027 01:57:06.524   03 Jun 2027 01:59:41.424           154.900                Anadyr2          4840.625
       226   03 Jun 2027 01:59:47.873   03 Jun 2027 02:00:15.869            27.996                Anadyr2           874.875
       227   03 Jun 2027 02:01:57.688   03 Jun 2027 02:03:27.571            89.883               Magadan1          2808.844
       228   03 Jun 2027 02:05:19.021   03 Jun 2027 02:05:45.777            26.756               Magadan1           836.125
       229   03 Jun 2027 02:07:03.954   03 Jun 2027 02:07:08.592             4.638               Magadan2           144.938
       230   03 Jun 2027 02:07:55.686   03 Jun 2027 02:08:30.146            34.460              Murmansk1          1076.875
       231   03 Jun 2027 02:09:09.509   03 Jun 2027 02:09:26.963            17.454              Murmansk1           545.438
       232   03 Jun 2027 02:10:02.680   03 Jun 2027 02:11:52.152           109.472                Novosib          3421.000
       233   03 Jun 2027 02:17:47.402   03 Jun 2027 02:18:20.902            33.500                 Moscow          1046.875
       234   03 Jun 2027 02:35:23.980   03 Jun 2027 02:36:30.273            66.293               CapeTown          2071.656
       235   03 Jun 2027 02:43:49.574   03 Jun 2027 02:44:33.397            43.823               CapeTown          1369.469
       236   03 Jun 2027 03:36:46.868   03 Jun 2027 03:36:54.048             7.180               Magadan2           224.375
       237   03 Jun 2027 03:37:28.523   03 Jun 2027 03:37:40.723            12.200                Anadyr1           381.250
       238   03 Jun 2027 03:38:34.365   03 Jun 2027 03:40:55.217           140.852               Magadan1          4401.625
       239   03 Jun 2027 03:40:55.217   03 Jun 2027 03:43:04.611           129.394               Magadan2          4043.562
       240   03 Jun 2027 05:15:06.209   03 Jun 2027 05:16:33.327            87.118                Anadyr1          2722.438
       241   03 Jun 2027 05:16:47.413   03 Jun 2027 05:20:35.417           228.004                Anadyr2          7125.125
       242   03 Jun 2027 06:48:46.827   03 Jun 2027 06:49:19.212            32.385                Anadyr1          1012.031
       243   03 Jun 2027 06:49:53.035   03 Jun 2027 06:51:00.407            67.372                Anadyr1          2105.375
       244   03 Jun 2027 06:51:07.370   03 Jun 2027 06:52:24.360            76.990               Magadan1          2405.937
       245   03 Jun 2027 06:52:32.956   03 Jun 2027 06:52:49.765            16.809                Anadyr1           525.281
       246   03 Jun 2027 06:53:30.005   03 Jun 2027 06:53:32.463             2.458               Magadan2            76.813
       247   03 Jun 2027 06:53:32.463   03 Jun 2027 06:53:45.401            12.938               Magadan1           404.313
       248   03 Jun 2027 06:53:53.927   03 Jun 2027 06:54:28.189            34.262               Magadan1          1070.687
       249   03 Jun 2027 06:54:41.230   03 Jun 2027 06:55:03.162            21.932                Anadyr1           685.375
       250   03 Jun 2027 06:55:34.802   03 Jun 2027 06:55:53.189            18.387                Anadyr2           574.594
       251   03 Jun 2027 08:25:00.545   03 Jun 2027 08:25:27.964            27.419                Irkutsk           856.844
       252   03 Jun 2027 08:27:36.434   03 Jun 2027 08:27:45.307             8.873               Magadan1           277.281
       253   03 Jun 2027 08:27:52.183   03 Jun 2027 08:28:06.130            13.947               Magadan1           435.844
       254   03 Jun 2027 08:28:17.507   03 Jun 2027 08:28:24.601             7.094                Norilsk           221.688
       255   03 Jun 2027 08:28:44.850   03 Jun 2027 08:29:21.439            36.589               Magadan2          1143.406
       256   03 Jun 2027 08:29:38.344   03 Jun 2027 08:30:19.945            41.601                Irkutsk          1300.031
       257   03 Jun 2027 08:30:33.119   03 Jun 2027 08:30:39.460             6.341              Murmansk2           198.156
       258   03 Jun 2027 08:30:52.057   03 Jun 2027 08:31:37.155            45.098                Irkutsk          1409.312
       259   03 Jun 2027 08:33:09.582   03 Jun 2027 08:33:13.723             4.141                Norilsk           129.406
       260   03 Jun 2027 09:06:44.532   03 Jun 2027 09:08:00.061            75.529            RioGallegos          2360.281
       261   03 Jun 2027 09:10:53.959   03 Jun 2027 09:11:08.456            14.497            RioGallegos           453.031
       262   03 Jun 2027 09:41:36.224   03 Jun 2027 09:42:22.645            46.421                Sumatra          1450.656
       263   03 Jun 2027 09:48:28.713   03 Jun 2027 09:49:44.928            76.215                Sumatra          2381.719
       264   03 Jun 2027 10:04:05.324   03 Jun 2027 10:04:07.206             1.882                Irkutsk            58.813
       265   03 Jun 2027 10:05:03.839   03 Jun 2027 10:05:17.385            13.546                Irkutsk           423.313
       266   03 Jun 2027 10:05:23.219   03 Jun 2027 10:05:45.618            22.399                Irkutsk           699.969
       267   03 Jun 2027 10:05:53.907   03 Jun 2027 10:06:02.217             8.310                Novosib           259.688
       268   03 Jun 2027 10:06:10.016   03 Jun 2027 10:06:39.027            29.011                Irkutsk           906.594
       269   03 Jun 2027 10:06:55.428   03 Jun 2027 10:07:46.138            50.710                Irkutsk          1584.688
       270   03 Jun 2027 10:48:04.037   03 Jun 2027 10:48:45.985            41.948            RioGallegos          1310.875
       271   03 Jun 2027 11:20:52.692   03 Jun 2027 11:21:35.290            42.598                Sumatra          1331.187
       272   03 Jun 2027 11:22:09.580   03 Jun 2027 11:23:10.507            60.927                Sumatra          1903.969
       273   03 Jun 2027 11:40:20.553   03 Jun 2027 11:40:48.904            28.351                Novosib           885.969
       274   03 Jun 2027 11:41:16.643   03 Jun 2027 11:41:36.597            19.954                Norilsk           623.563
       275   03 Jun 2027 11:41:49.312   03 Jun 2027 11:42:39.113            49.801                Novosib          1556.281
       276   03 Jun 2027 11:42:42.850   03 Jun 2027 11:43:01.922            19.072                Norilsk           596.000
       277   03 Jun 2027 11:43:06.085   03 Jun 2027 11:43:12.985             6.900                Novosib           215.625
       278   03 Jun 2027 11:43:15.404   03 Jun 2027 11:43:20.037             4.633                Norilsk           144.781
       279   03 Jun 2027 11:43:26.867   03 Jun 2027 11:43:39.518            12.651                Novosib           395.344
       280   03 Jun 2027 13:10:12.424   03 Jun 2027 13:11:22.100            69.676                 Moscow          2177.375
       281   03 Jun 2027 13:12:51.514   03 Jun 2027 13:13:22.282            30.768                 Moscow           961.500
       282   03 Jun 2027 13:15:58.558   03 Jun 2027 13:17:29.241            90.683                Novosib          2833.844
       283   03 Jun 2027 13:17:33.966   03 Jun 2027 13:19:59.608           145.642                Norilsk          4551.312
       284   03 Jun 2027 13:21:57.165   03 Jun 2027 13:22:48.215            51.050                Norilsk          1595.312
       285   03 Jun 2027 14:30:25.747   03 Jun 2027 14:31:38.565            72.818               CapeTown          2275.563
       286   03 Jun 2027 14:47:09.127   03 Jun 2027 14:47:35.782            26.655                 Moscow           832.969
       287   03 Jun 2027 14:50:25.916   03 Jun 2027 14:51:24.215            58.299              Murmansk1          1821.844
       288   03 Jun 2027 14:54:51.227   03 Jun 2027 14:55:03.876            12.649              Murmansk2           395.281
       289   03 Jun 2027 14:56:49.097   03 Jun 2027 14:56:55.652             6.555              Murmansk1           204.844
       290   03 Jun 2027 14:57:11.890   03 Jun 2027 14:58:10.356            58.466              Murmansk2          1827.063
       291   03 Jun 2027 15:04:47.594   03 Jun 2027 15:07:57.397           189.803                Anadyr2          5931.344
       292   03 Jun 2027 16:01:48.849   03 Jun 2027 16:02:01.913            13.064               CapeTown           408.250
       293   03 Jun 2027 16:04:21.151   03 Jun 2027 16:05:11.522            50.371               CapeTown          1574.094
       294   03 Jun 2027 16:29:27.463   03 Jun 2027 16:32:25.279           177.816              Murmansk1          5556.750
       295   03 Jun 2027 16:34:58.125   03 Jun 2027 16:35:53.489            55.364              Murmansk1          1730.125
       296   03 Jun 2027 16:40:13.786   03 Jun 2027 16:41:27.226            73.440                Anadyr1          2295.000
       297   03 Jun 2027 16:42:09.605   03 Jun 2027 16:42:19.251             9.646                Anadyr2           301.437
       298   03 Jun 2027 16:44:00.232   03 Jun 2027 16:46:01.772           121.540               Magadan1          3798.125
       299   03 Jun 2027 16:47:00.565   03 Jun 2027 16:47:07.923             7.358               Magadan1           229.938
       300   03 Jun 2027 16:47:49.358   03 Jun 2027 16:47:59.207             9.849               Magadan1           307.781
       301   03 Jun 2027 16:48:08.684   03 Jun 2027 16:49:04.801            56.117               Magadan1          1753.656
       302   03 Jun 2027 18:16:07.627   03 Jun 2027 18:19:50.359           222.732                Anadyr1          6960.375
       303   03 Jun 2027 18:19:57.903   03 Jun 2027 18:20:52.130            54.227               Magadan1          1694.594
       304   03 Jun 2027 18:20:53.288   03 Jun 2027 18:22:11.707            78.419               Magadan2          2450.594
       305   03 Jun 2027 19:52:00.136   03 Jun 2027 19:56:17.355           257.219                Anadyr2          8038.094
       306   03 Jun 2027 19:56:18.810   03 Jun 2027 19:57:30.837            72.027               Magadan2          2250.844
       307   03 Jun 2027 19:57:30.837   03 Jun 2027 19:57:56.099            25.262               Magadan1           789.438
       308   03 Jun 2027 19:58:27.994   03 Jun 2027 19:59:23.221            55.227               Magadan1          1725.844
       309   03 Jun 2027 20:00:08.991   03 Jun 2027 20:00:24.553            15.562                Irkutsk           486.313
       310   03 Jun 2027 20:01:58.356   03 Jun 2027 20:02:46.870            48.514                Irkutsk          1516.063
       311   03 Jun 2027 20:03:34.241   03 Jun 2027 20:04:24.849            50.608                Irkutsk          1581.500
       312   03 Jun 2027 20:17:57.793   03 Jun 2027 20:19:01.754            63.961                Sumatra          1998.781
       313   03 Jun 2027 20:55:12.861   03 Jun 2027 20:55:41.089            28.228            RioGallegos           882.125
       314   03 Jun 2027 21:27:33.500   03 Jun 2027 21:27:41.070             7.570                Anadyr1           236.562
       315   03 Jun 2027 21:27:48.855   03 Jun 2027 21:29:45.544           116.689                Anadyr1          3646.531
       316   03 Jun 2027 21:30:17.186   03 Jun 2027 21:30:31.947            14.761                Norilsk           461.281
       317   03 Jun 2027 21:30:51.781   03 Jun 2027 21:32:17.937            86.156                Norilsk          2692.375
       318   03 Jun 2027 21:33:53.627   03 Jun 2027 21:35:03.925            70.298                Irkutsk          2196.812
       319   03 Jun 2027 21:35:14.505   03 Jun 2027 21:36:16.387            61.882                Novosib          1933.813
       320   03 Jun 2027 21:38:39.468   03 Jun 2027 21:38:57.448            17.980                Novosib           561.875
       321   03 Jun 2027 21:40:48.502   03 Jun 2027 21:41:43.245            54.743                Novosib          1710.719
       322   03 Jun 2027 21:47:34.624   03 Jun 2027 21:48:11.258            36.634                Sumatra          1144.813
       323   03 Jun 2027 21:56:16.858   03 Jun 2027 21:57:09.422            52.564                Sumatra          1642.625
       324   03 Jun 2027 23:01:55.603   03 Jun 2027 23:03:56.560           120.957                Anadyr1          3779.906
       325   03 Jun 2027 23:05:51.041   03 Jun 2027 23:06:06.883            15.842                Norilsk           495.063
       326   03 Jun 2027 23:06:28.015   03 Jun 2027 23:07:07.571            39.556               Magadan2          1236.125
       327   03 Jun 2027 23:09:43.826   03 Jun 2027 23:11:18.309            94.483                Novosib          2952.594
       328   03 Jun 2027 23:15:58.226   03 Jun 2027 23:16:42.335            44.109                Novosib          1378.406
       329   03 Jun 2027 23:17:12.966   03 Jun 2027 23:18:20.964            67.998                  Delhi          2124.937
       330   03 Jun 2027 23:19:36.689   03 Jun 2027 23:19:37.505             0.816                  Delhi            25.500
       331   03 Jun 2027 23:22:59.400   03 Jun 2027 23:23:21.123            21.723                  Delhi           678.844
       332   03 Jun 2027 23:25:33.425   03 Jun 2027 23:27:46.911           133.486                  Delhi          4171.438
       333   04 Jun 2027 00:35:18.989   04 Jun 2027 00:35:30.437            11.448                Anadyr2           357.750
       334   04 Jun 2027 00:37:37.226   04 Jun 2027 00:37:55.978            18.752                Anadyr2           586.000
       335   04 Jun 2027 00:38:08.433   04 Jun 2027 00:38:22.401            13.968                Anadyr1           436.500
       336   04 Jun 2027 00:41:29.072   04 Jun 2027 00:43:59.448           150.376               Magadan1          4699.250
       337   04 Jun 2027 00:43:59.448   04 Jun 2027 00:44:14.413            14.965               Magadan2           467.656
       338   04 Jun 2027 00:44:18.407   04 Jun 2027 00:46:21.523           123.116              Murmansk1          3847.375
       339   04 Jun 2027 00:48:19.283   04 Jun 2027 00:49:49.010            89.727                 Moscow          2803.969
       340   04 Jun 2027 00:55:38.973   04 Jun 2027 00:56:22.456            43.483                 Moscow          1358.844
       341   04 Jun 2027 01:16:19.055   04 Jun 2027 01:17:26.959            67.904               CapeTown          2122.000
       342   04 Jun 2027 02:08:53.558   04 Jun 2027 02:09:23.589            30.031                Anadyr2           938.469
       343   04 Jun 2027 02:09:23.589   04 Jun 2027 02:09:30.926             7.337                Anadyr1           229.281
       344   04 Jun 2027 02:09:41.282   04 Jun 2027 02:10:19.500            38.218                Anadyr2          1194.313
       345   04 Jun 2027 02:11:33.194   04 Jun 2027 02:11:40.067             6.873                Anadyr2           214.781
       346   04 Jun 2027 02:12:09.292   04 Jun 2027 02:12:17.188             7.896                Anadyr1           246.750
       347   04 Jun 2027 02:13:25.770   04 Jun 2027 02:15:26.074           120.304               Magadan1          3759.500
       348   04 Jun 2027 02:19:57.344   04 Jun 2027 02:20:26.577            29.233              Murmansk2           913.531
       349   04 Jun 2027 02:20:56.604   04 Jun 2027 02:21:13.551            16.947              Murmansk1           529.594
       350   04 Jun 2027 02:21:33.486   04 Jun 2027 02:22:38.730            65.244              Murmansk2          2038.875
       351   04 Jun 2027 02:22:50.108   04 Jun 2027 02:23:37.631            47.523                Novosib          1485.094
       352   04 Jun 2027 02:31:06.169   04 Jun 2027 02:31:23.609            17.440                 Moscow           545.000
       353   04 Jun 2027 02:34:14.888   04 Jun 2027 02:34:30.434            15.546                 Moscow           485.812
       354   04 Jun 2027 02:48:25.009   04 Jun 2027 02:50:14.054           109.045               CapeTown          3407.656
       355   04 Jun 2027 03:49:48.667   04 Jun 2027 03:50:04.655            15.988               Magadan1           499.625
       356   04 Jun 2027 03:50:13.512   04 Jun 2027 03:51:56.434           102.922               Magadan1          3216.313
       357   04 Jun 2027 03:51:56.698   04 Jun 2027 03:52:01.032             4.334                Anadyr2           135.438
       358   04 Jun 2027 03:52:04.944   04 Jun 2027 03:52:11.613             6.669                Anadyr1           208.406
       359   04 Jun 2027 03:52:11.613   04 Jun 2027 03:52:53.670            42.057                Anadyr2          1314.281
       360   04 Jun 2027 03:53:24.404   04 Jun 2027 03:53:26.590             2.186               Magadan1            68.313
       361   04 Jun 2027 03:54:30.135   04 Jun 2027 03:54:40.850            10.715               Magadan1           334.844
       362   04 Jun 2027 03:55:06.799   04 Jun 2027 03:55:09.074             2.275                Anadyr2            71.094
       363   04 Jun 2027 03:55:09.261   04 Jun 2027 03:55:30.958            21.697               Magadan1           678.031
       364   04 Jun 2027 05:27:29.513   04 Jun 2027 05:28:29.039            59.526               Magadan1          1860.188
       365   04 Jun 2027 05:28:37.277   04 Jun 2027 05:30:26.548           109.271               Magadan2          3414.719
       366   04 Jun 2027 05:30:32.966   04 Jun 2027 05:30:46.323            13.357                Anadyr1           417.406
       367   04 Jun 2027 05:30:52.536   04 Jun 2027 05:31:34.931            42.395                Anadyr1          1324.844
       368   04 Jun 2027 05:32:11.949   04 Jun 2027 05:32:35.192            23.243                Anadyr1           726.344
       369   04 Jun 2027 07:00:38.203   04 Jun 2027 07:01:19.119            40.916                Anadyr2          1278.625
       370   04 Jun 2027 07:01:19.119   04 Jun 2027 07:02:00.982            41.863                Anadyr1          1308.219
       371   04 Jun 2027 07:02:18.989   04 Jun 2027 07:02:31.068            12.079               Magadan1           377.469
       372   04 Jun 2027 07:02:34.961   04 Jun 2027 07:02:40.986             6.025               Magadan2           188.281
       373   04 Jun 2027 07:02:44.455   04 Jun 2027 07:04:24.456           100.001               Magadan2          3125.031
       374   04 Jun 2027 07:04:45.124   04 Jun 2027 07:05:31.914            46.790               Magadan1          1462.187
       375   04 Jun 2027 07:05:36.361   04 Jun 2027 07:05:49.842            13.481               Magadan2           421.281
       376   04 Jun 2027 07:05:59.194   04 Jun 2027 07:06:05.366             6.172               Magadan1           192.875
       377   04 Jun 2027 07:06:10.522   04 Jun 2027 07:06:40.333            29.811                Anadyr1           931.594
       378   04 Jun 2027 07:07:01.350   04 Jun 2027 07:08:08.751            67.401               Magadan1          2106.281
       379   04 Jun 2027 08:36:58.196   04 Jun 2027 08:37:29.538            31.342               Magadan1           979.437
       380   04 Jun 2027 08:37:42.034   04 Jun 2027 08:38:20.417            38.383                Irkutsk          1199.469
       381   04 Jun 2027 08:38:27.637   04 Jun 2027 08:39:13.179            45.542                Irkutsk          1423.187
       382   04 Jun 2027 08:39:35.322   04 Jun 2027 08:40:28.904            53.582               Magadan2          1674.437
       383   04 Jun 2027 08:40:52.430   04 Jun 2027 08:40:53.077             0.647                Irkutsk            20.219
       384   04 Jun 2027 08:42:11.064   04 Jun 2027 08:42:37.417            26.353               Magadan2           823.531
       385   04 Jun 2027 08:42:45.189   04 Jun 2027 08:43:04.344            19.155              Murmansk1           598.594
       386   04 Jun 2027 08:43:12.189   04 Jun 2027 08:43:24.569            12.380                Irkutsk           386.875
       387   04 Jun 2027 08:43:36.150   04 Jun 2027 08:43:50.942            14.792                Novosib           462.250
       388   04 Jun 2027 08:43:55.305   04 Jun 2027 08:43:57.232             1.927                Irkutsk            60.219
       389   04 Jun 2027 08:43:58.967   04 Jun 2027 08:44:43.422            44.455                Novosib          1389.219
       390   04 Jun 2027 09:19:40.187   04 Jun 2027 09:20:27.244            47.057            RioGallegos          1470.531
       391   04 Jun 2027 09:53:34.424   04 Jun 2027 09:54:09.883            35.459                Sumatra          1108.094
       392   04 Jun 2027 09:55:40.108   04 Jun 2027 09:56:23.181            43.073                Sumatra          1346.031
       393   04 Jun 2027 10:04:15.870   04 Jun 2027 10:04:53.800            37.930                  Delhi          1185.313
       394   04 Jun 2027 10:13:43.605   04 Jun 2027 10:14:24.750            41.145                Irkutsk          1285.781
       395   04 Jun 2027 10:16:03.840   04 Jun 2027 10:16:06.595             2.755                Irkutsk            86.094
       396   04 Jun 2027 10:16:14.882   04 Jun 2027 10:16:58.317            43.435                Irkutsk          1357.344
       397   04 Jun 2027 10:17:25.341   04 Jun 2027 10:17:34.840             9.499                Novosib           296.844
       398   04 Jun 2027 10:17:39.978   04 Jun 2027 10:17:53.685            13.707                Novosib           428.344
       399   04 Jun 2027 10:18:12.340   04 Jun 2027 10:18:18.995             6.655                Irkutsk           207.969
       400   04 Jun 2027 10:18:42.442   04 Jun 2027 10:18:44.640             2.198                Irkutsk            68.688
       401   04 Jun 2027 10:18:48.523   04 Jun 2027 10:19:32.336            43.813                Novosib          1369.156
       402   04 Jun 2027 10:19:45.292   04 Jun 2027 10:20:42.377            57.085                Novosib          1783.906
       403   04 Jun 2027 11:00:09.135   04 Jun 2027 11:00:20.610            11.475            RioGallegos           358.594
       404   04 Jun 2027 11:02:36.170   04 Jun 2027 11:03:12.995            36.825            RioGallegos          1150.781
       405   04 Jun 2027 11:37:53.781   04 Jun 2027 11:38:07.004            13.223                  Delhi           413.219
       406   04 Jun 2027 11:39:59.729   04 Jun 2027 11:40:53.094            53.365                  Delhi          1667.656
       407   04 Jun 2027 11:53:18.773   04 Jun 2027 11:53:35.092            16.319                Norilsk           509.969
       408   04 Jun 2027 11:53:53.999   04 Jun 2027 11:54:18.444            24.445                Novosib           763.906
       409   04 Jun 2027 11:54:40.096   04 Jun 2027 11:55:00.159            20.063                Norilsk           626.969
       410   04 Jun 2027 11:55:16.371   04 Jun 2027 11:55:22.146             5.775                Norilsk           180.469
       411   04 Jun 2027 11:55:30.407   04 Jun 2027 11:55:41.152            10.745                Norilsk           335.781
       412   04 Jun 2027 12:02:40.175   04 Jun 2027 12:02:40.364             0.189              Murmansk1             5.906
       413   04 Jun 2027 13:22:10.672   04 Jun 2027 13:23:28.584            77.912                 Moscow          2434.750
       414   04 Jun 2027 13:25:13.378   04 Jun 2027 13:25:29.038            15.660                 Moscow           489.375
       415   04 Jun 2027 13:25:37.369   04 Jun 2027 13:25:45.733             8.364              Murmansk2           261.375
       416   04 Jun 2027 13:26:42.543   04 Jun 2027 13:27:21.121            38.578                 Moscow          1205.562
       417   04 Jun 2027 13:29:24.351   04 Jun 2027 13:29:40.807            16.456              Murmansk1           514.250
       418   04 Jun 2027 13:29:41.997   04 Jun 2027 13:33:26.055           224.058                Norilsk          7001.812
       419   04 Jun 2027 13:34:22.732   04 Jun 2027 13:35:06.739            44.007                Norilsk          1375.219
       420   04 Jun 2027 14:36:45.391   04 Jun 2027 14:37:59.398            74.007               CapeTown          2312.719
       421   04 Jun 2027 14:41:17.937   04 Jun 2027 14:42:17.576            59.639               CapeTown          1863.719
       422   04 Jun 2027 14:45:32.637   04 Jun 2027 14:46:03.159            30.522               CapeTown           953.812
       423   04 Jun 2027 14:59:34.504   04 Jun 2027 15:00:19.910            45.406                 Moscow          1418.937
       424   04 Jun 2027 15:03:27.348   04 Jun 2027 15:04:56.365            89.017              Murmansk2          2781.781
       425   04 Jun 2027 15:11:02.431   04 Jun 2027 15:11:26.700            24.269              Murmansk1           758.406
       426   04 Jun 2027 15:16:41.349   04 Jun 2027 15:17:33.342            51.993                Anadyr1          1624.781
       427   04 Jun 2027 15:18:10.488   04 Jun 2027 15:19:30.119            79.631                Anadyr2          2488.469
       428   04 Jun 2027 15:21:48.121   04 Jun 2027 15:22:40.297            52.176                Anadyr1          1630.500
       429   04 Jun 2027 15:26:02.534   04 Jun 2027 15:26:12.092             9.558                Anadyr2           298.687
       430   04 Jun 2027 16:20:51.254   04 Jun 2027 16:21:21.065            29.811               CapeTown           931.594
       431   04 Jun 2027 16:42:04.481   04 Jun 2027 16:44:07.529           123.048              Murmansk1          3845.250
       432   04 Jun 2027 16:44:56.256   04 Jun 2027 16:46:31.915            95.659              Murmansk2          2989.344
       433   04 Jun 2027 16:52:14.324   04 Jun 2027 16:53:15.459            61.135                Anadyr1          1910.469
       434   04 Jun 2027 16:55:38.519   04 Jun 2027 16:57:51.948           133.429               Magadan2          4169.656
       435   04 Jun 2027 17:00:01.288   04 Jun 2027 17:00:10.531             9.243               Magadan1           288.844
       436   04 Jun 2027 17:01:33.110   04 Jun 2027 17:02:38.467            65.357               Magadan2          2042.406
       437   04 Jun 2027 18:28:09.092   04 Jun 2027 18:30:27.919           138.827                Anadyr2          4338.344
       438   04 Jun 2027 18:30:30.424   04 Jun 2027 18:32:45.825           135.401               Magadan1          4231.281
       439   04 Jun 2027 18:33:42.497   04 Jun 2027 18:33:57.571            15.074               Magadan1           471.063
       440   04 Jun 2027 18:37:30.834   04 Jun 2027 18:38:27.523            56.689               Magadan2          1771.531
       441   04 Jun 2027 19:26:02.756   04 Jun 2027 19:27:20.413            77.657            RioGallegos          2426.781
       442   04 Jun 2027 20:04:00.016   04 Jun 2027 20:06:02.191           122.175                Anadyr1          3817.969
       443   04 Jun 2027 20:06:14.212   04 Jun 2027 20:09:57.905           223.693                Norilsk          6990.406
       444   04 Jun 2027 20:11:31.524   04 Jun 2027 20:12:21.017            49.493                Irkutsk          1546.656
       445   04 Jun 2027 20:14:21.359   04 Jun 2027 20:15:06.114            44.755                Irkutsk          1398.594
       446   04 Jun 2027 20:15:38.604   04 Jun 2027 20:16:24.715            46.111                Irkutsk          1440.969
       447   04 Jun 2027 20:17:12.871   04 Jun 2027 20:18:03.116            50.245                Irkutsk          1570.156
       448   04 Jun 2027 20:27:15.862   04 Jun 2027 20:28:49.672            93.810                Sumatra          2931.562
       449   04 Jun 2027 20:32:58.473   04 Jun 2027 20:33:36.625            38.152                Sumatra          1192.250
       450   04 Jun 2027 21:41:53.420   04 Jun 2027 21:43:06.735            73.315                Norilsk          2291.094
       451   04 Jun 2027 21:43:14.940   04 Jun 2027 21:43:26.422            11.482                Norilsk           358.812
       452   04 Jun 2027 21:45:51.154   04 Jun 2027 21:47:19.697            88.543                Irkutsk          2766.969
       453   04 Jun 2027 21:49:50.692   04 Jun 2027 21:50:07.660            16.968                Novosib           530.250
       454   04 Jun 2027 21:51:00.770   04 Jun 2027 21:51:39.197            38.427                Irkutsk          1200.844
       455   04 Jun 2027 21:53:44.015   04 Jun 2027 21:54:05.538            21.523                Novosib           672.594
       456   04 Jun 2027 22:02:11.698   04 Jun 2027 22:03:56.113           104.415                Sumatra          3262.969
       457   04 Jun 2027 23:13:40.383   04 Jun 2027 23:13:49.390             9.007                Anadyr1           281.469
       458   04 Jun 2027 23:14:08.516   04 Jun 2027 23:14:32.208            23.692                Anadyr2           740.375
       459   04 Jun 2027 23:15:51.973   04 Jun 2027 23:15:53.400             1.427                Anadyr2            44.594
       460   04 Jun 2027 23:16:54.254   04 Jun 2027 23:17:04.686            10.432                Anadyr2           326.000
       461   04 Jun 2027 23:17:53.055   04 Jun 2027 23:19:34.498           101.443                Norilsk          3170.094
       462   04 Jun 2027 23:19:36.357   04 Jun 2027 23:19:49.621            13.264               Magadan2           414.500
       463   04 Jun 2027 23:21:13.862   04 Jun 2027 23:22:34.589            80.727              Murmansk2          2522.719
       464   04 Jun 2027 23:23:12.475   04 Jun 2027 23:23:56.725            44.250                Novosib          1382.813
       465   04 Jun 2027 23:23:56.895   04 Jun 2027 23:24:27.902            31.007              Murmansk1           968.969
       466   04 Jun 2027 23:28:18.357   04 Jun 2027 23:28:33.854            15.497                Irkutsk           484.281
       467   04 Jun 2027 23:28:47.268   04 Jun 2027 23:29:30.213            42.945                Irkutsk          1342.031
       468   04 Jun 2027 23:32:06.389   04 Jun 2027 23:32:56.024            49.635                  Delhi          1551.094
       469   04 Jun 2027 23:34:46.585   04 Jun 2027 23:35:07.220            20.635                  Delhi           644.844
       470   04 Jun 2027 23:36:50.835   04 Jun 2027 23:37:14.292            23.457                  Delhi           733.031
       471   04 Jun 2027 23:38:38.059   04 Jun 2027 23:38:52.007            13.948                  Delhi           435.875
       472   05 Jun 2027 00:12:08.857   05 Jun 2027 00:13:18.742            69.885            RioGallegos          2183.906
       473   05 Jun 2027 00:47:00.261   05 Jun 2027 00:47:18.556            18.295                Anadyr1           571.719
       474   05 Jun 2027 00:47:54.767   05 Jun 2027 00:48:34.410            39.643                Anadyr2          1238.844
       475   05 Jun 2027 00:49:37.723   05 Jun 2027 00:49:51.603            13.880                Anadyr1           433.750
       476   05 Jun 2027 00:50:00.852   05 Jun 2027 00:50:05.005             4.153                Anadyr2           129.781
       477   05 Jun 2027 00:52:30.881   05 Jun 2027 00:52:48.099            17.218                Anadyr2           538.062
       478   05 Jun 2027 00:52:51.219   05 Jun 2027 00:52:59.056             7.837                Anadyr2           244.906
       479   05 Jun 2027 00:53:08.858   05 Jun 2027 00:54:21.431            72.573               Magadan2          2267.906
       480   05 Jun 2027 00:54:21.431   05 Jun 2027 00:56:54.449           153.018               Magadan1          4781.813
       481   05 Jun 2027 00:57:43.803   05 Jun 2027 00:58:51.624            67.821                Novosib          2119.406
       482   05 Jun 2027 01:00:04.789   05 Jun 2027 01:00:34.444            29.655                 Moscow           926.719
