uniorb/output/strategy_4/Drop/Drop_KinoSat_111001.txt

KinoSat_111001
-------------------------
    Access    *     Start Time (UTCG)     *     Stop Time (UTCG)  *   Duration (s)        *       Station  *  Data (Mbytes)
         1   01 Jun 2027 04:07:12.318   01 Jun 2027 04:07:18.878             6.560               Magadan1           205.000
         2   01 Jun 2027 04:07:21.802   01 Jun 2027 04:08:37.981            76.179                Anadyr2          2380.594
         3   01 Jun 2027 04:09:25.399   01 Jun 2027 04:10:23.040            57.641                Anadyr1          1801.281
         4   01 Jun 2027 04:10:33.298   01 Jun 2027 04:10:42.595             9.297               Magadan1           290.531
         5   01 Jun 2027 04:11:30.003   01 Jun 2027 04:11:37.005             7.002               Magadan1           218.813
         6   01 Jun 2027 04:11:37.005   01 Jun 2027 04:11:49.704            12.699               Magadan2           396.844
         7   01 Jun 2027 04:11:49.704   01 Jun 2027 04:12:03.810            14.106               Magadan1           440.812
         8   01 Jun 2027 05:43:52.014   01 Jun 2027 05:44:42.122            50.108                Irkutsk          1565.875
         9   01 Jun 2027 05:44:51.892   01 Jun 2027 05:47:47.502           175.610                Anadyr1          5487.812
        10   01 Jun 2027 05:47:47.502   01 Jun 2027 05:47:59.117            11.615                Anadyr2           362.969
        11   01 Jun 2027 07:19:38.456   01 Jun 2027 07:23:40.846           242.390                Irkutsk          7574.687
        12   01 Jun 2027 07:23:49.007   01 Jun 2027 07:24:45.387            56.380              Murmansk2          1761.875
        13   01 Jun 2027 07:58:35.837   01 Jun 2027 07:59:24.122            48.285            RioGallegos          1508.906
        14   01 Jun 2027 08:00:12.878   01 Jun 2027 08:01:02.069            49.191            RioGallegos          1537.219
        15   01 Jun 2027 08:34:27.289   01 Jun 2027 08:35:04.577            37.288                Sumatra          1165.250
        16   01 Jun 2027 08:35:39.477   01 Jun 2027 08:36:36.534            57.057                Sumatra          1783.031
        17   01 Jun 2027 08:55:57.553   01 Jun 2027 08:56:37.558            40.005                Irkutsk          1250.156
        18   01 Jun 2027 08:57:00.060   01 Jun 2027 09:00:18.706           198.646                Novosib          6207.687
        19   01 Jun 2027 09:35:45.850   01 Jun 2027 09:36:26.817            40.967            RioGallegos          1280.219
        20   01 Jun 2027 10:09:59.288   01 Jun 2027 10:11:14.777            75.489                Sumatra          2359.031
        21   01 Jun 2027 10:33:08.506   01 Jun 2027 10:33:39.505            30.999              Murmansk2           968.719
        22   01 Jun 2027 10:33:47.512   01 Jun 2027 10:34:47.256            59.744                Irkutsk          1867.000
        23   01 Jun 2027 10:35:13.537   01 Jun 2027 10:37:10.429           116.892                Norilsk          3652.875
        24   01 Jun 2027 10:37:14.413   01 Jun 2027 10:37:17.789             3.376                Novosib           105.500
        25   01 Jun 2027 10:37:36.054   01 Jun 2027 10:38:48.481            72.427                Norilsk          2263.344
        26   01 Jun 2027 11:54:58.514   01 Jun 2027 11:57:51.734           173.220                  Delhi          5413.125
        27   01 Jun 2027 11:58:05.996   01 Jun 2027 11:58:35.466            29.470                  Delhi           920.938
        28   01 Jun 2027 12:05:49.457   01 Jun 2027 12:08:00.426           130.969                Novosib          4092.781
        29   01 Jun 2027 13:39:16.699   01 Jun 2027 13:39:51.316            34.617                 Moscow          1081.781
        30   01 Jun 2027 13:40:50.197   01 Jun 2027 13:42:30.245           100.048                 Moscow          3126.500
        31   01 Jun 2027 13:43:17.088   01 Jun 2027 13:44:09.151            52.063              Murmansk1          1626.969
        32   01 Jun 2027 13:44:39.250   01 Jun 2027 13:44:56.824            17.574              Murmansk1           549.188
        33   01 Jun 2027 13:45:26.313   01 Jun 2027 13:46:18.746            52.433              Murmansk2          1638.531
        34   01 Jun 2027 13:46:36.655   01 Jun 2027 13:47:08.404            31.749              Murmansk2           992.156
        35   01 Jun 2027 13:48:22.358   01 Jun 2027 13:48:39.660            17.302              Murmansk2           540.688
        36   01 Jun 2027 13:48:48.403   01 Jun 2027 13:50:39.076           110.673                Norilsk          3458.531
        37   01 Jun 2027 13:57:35.278   01 Jun 2027 13:58:58.977            83.699                Anadyr2          2615.594
        38   01 Jun 2027 13:59:48.434   01 Jun 2027 14:00:18.472            30.038                Anadyr1           938.688
        39   01 Jun 2027 14:02:15.400   01 Jun 2027 14:02:45.615            30.215                Anadyr2           944.219
        40   01 Jun 2027 15:19:42.660   01 Jun 2027 15:20:10.401            27.741              Murmansk1           866.906
        41   01 Jun 2027 15:22:35.140   01 Jun 2027 15:22:48.001            12.861              Murmansk1           401.906
        42   01 Jun 2027 15:22:55.250   01 Jun 2027 15:23:19.971            24.721              Murmansk2           772.531
        43   01 Jun 2027 15:24:37.857   01 Jun 2027 15:24:53.364            15.507              Murmansk2           484.594
        44   01 Jun 2027 15:28:22.896   01 Jun 2027 15:28:31.380             8.484              Murmansk1           265.125
        45   01 Jun 2027 15:28:43.022   01 Jun 2027 15:29:10.052            27.030              Murmansk2           844.688
        46   01 Jun 2027 15:32:13.841   01 Jun 2027 15:33:22.042            68.201                Anadyr1          2131.281
        47   01 Jun 2027 15:33:22.042   01 Jun 2027 15:33:28.772             6.730                Anadyr2           210.313
        48   01 Jun 2027 15:33:28.772   01 Jun 2027 15:33:42.038            13.266                Anadyr1           414.563
        49   01 Jun 2027 15:37:28.664   01 Jun 2027 15:37:59.412            30.748                Anadyr2           960.875
        50   01 Jun 2027 15:42:56.997   01 Jun 2027 15:43:12.140            15.143                Anadyr1           473.219
        51   01 Jun 2027 15:43:28.378   01 Jun 2027 15:43:35.089             6.711                Anadyr1           209.719
        52   01 Jun 2027 16:35:44.239   01 Jun 2027 16:37:38.353           114.114               CapeTown          3566.063
        53   01 Jun 2027 17:00:37.079   01 Jun 2027 17:02:40.390           123.311              Murmansk1          3853.469
        54   01 Jun 2027 17:04:40.420   01 Jun 2027 17:04:46.816             6.396              Murmansk2           199.875
        55   01 Jun 2027 17:08:01.281   01 Jun 2027 17:09:40.871            99.590                Anadyr1          3112.187
        56   01 Jun 2027 17:10:43.405   01 Jun 2027 17:11:47.372            63.967               Magadan2          1998.969
        57   01 Jun 2027 17:11:55.497   01 Jun 2027 17:12:05.273             9.776               Magadan1           305.500
        58   01 Jun 2027 17:12:52.719   01 Jun 2027 17:12:57.642             4.923               Magadan1           153.844
        59   01 Jun 2027 17:15:07.139   01 Jun 2027 17:16:05.224            58.085               Magadan2          1815.156
        60   01 Jun 2027 18:43:56.652   01 Jun 2027 18:47:53.909           237.257                Anadyr1          7414.281
        61   01 Jun 2027 18:48:02.197   01 Jun 2027 18:49:29.771            87.574               Magadan1          2736.688
        62   01 Jun 2027 18:49:29.771   01 Jun 2027 18:50:22.972            53.201               Magadan2          1662.531
        63   01 Jun 2027 18:56:34.947   01 Jun 2027 18:56:38.725             3.778               Magadan2           118.063
        64   01 Jun 2027 18:57:12.026   01 Jun 2027 18:57:18.768             6.742               Magadan2           210.687
        65   01 Jun 2027 18:57:24.820   01 Jun 2027 18:57:47.588            22.768               Magadan2           711.500
        66   01 Jun 2027 19:38:50.810   01 Jun 2027 19:41:40.112           169.302            RioGallegos          5290.687
        67   01 Jun 2027 19:43:34.744   01 Jun 2027 19:44:22.881            48.137            RioGallegos          1504.281
        68   01 Jun 2027 19:44:41.101   01 Jun 2027 19:45:20.119            39.018            RioGallegos          1219.313
        69   01 Jun 2027 20:21:49.387   01 Jun 2027 20:25:40.226           230.839                Norilsk          7213.719
        70   01 Jun 2027 20:26:33.395   01 Jun 2027 20:27:10.365            36.970                Irkutsk          1155.312
        71   01 Jun 2027 20:28:00.018   01 Jun 2027 20:28:18.127            18.109                Irkutsk           565.906
        72   01 Jun 2027 20:35:35.856   01 Jun 2027 20:35:40.492             4.636                Irkutsk           144.875
        73   01 Jun 2027 20:40:14.384   01 Jun 2027 20:43:31.572           197.188                Sumatra          6162.125
        74   01 Jun 2027 21:58:19.899   01 Jun 2027 21:59:02.777            42.878               Magadan2          1339.937
        75   01 Jun 2027 21:59:31.869   01 Jun 2027 21:59:32.013             0.144                Norilsk             4.500
        76   01 Jun 2027 21:59:42.327   01 Jun 2027 22:00:05.365            23.038               Magadan2           719.937
        77   01 Jun 2027 22:00:39.279   01 Jun 2027 22:00:51.558            12.279                Norilsk           383.719
        78   01 Jun 2027 22:01:19.675   01 Jun 2027 22:01:37.107            17.432               Magadan2           544.750
        79   01 Jun 2027 22:01:38.271   01 Jun 2027 22:02:40.549            62.278                Irkutsk          1946.188
        80   01 Jun 2027 22:04:52.450   01 Jun 2027 22:05:43.866            51.416                Novosib          1606.750
        81   01 Jun 2027 22:08:14.163   01 Jun 2027 22:08:22.988             8.825                Novosib           275.781
        82   01 Jun 2027 22:08:23.144   01 Jun 2027 22:09:01.058            37.914                Novosib          1184.812
        83   01 Jun 2027 22:10:11.190   01 Jun 2027 22:11:36.044            84.854                  Delhi          2651.687
        84   01 Jun 2027 22:14:38.281   01 Jun 2027 22:15:33.684            55.403                  Delhi          1731.344
        85   01 Jun 2027 23:29:58.922   01 Jun 2027 23:30:00.434             1.512                Anadyr1            47.250
        86   01 Jun 2027 23:30:07.754   01 Jun 2027 23:30:46.255            38.501                Anadyr2          1203.156
        87   01 Jun 2027 23:31:26.587   01 Jun 2027 23:31:31.100             4.513                Anadyr2           141.031
        88   01 Jun 2027 23:33:16.463   01 Jun 2027 23:33:39.332            22.869                Anadyr1           714.656
        89   01 Jun 2027 23:33:42.740   01 Jun 2027 23:34:06.225            23.485                Norilsk           733.906
        90   01 Jun 2027 23:34:15.010   01 Jun 2027 23:35:09.884            54.874               Magadan2          1714.813
        91   01 Jun 2027 23:35:09.884   01 Jun 2027 23:35:13.294             3.410               Magadan1           106.562
        92   01 Jun 2027 23:35:23.467   01 Jun 2027 23:35:29.375             5.908                Norilsk           184.625
        93   01 Jun 2027 23:36:00.000   01 Jun 2027 23:36:08.512             8.513               Magadan1           266.031
        94   01 Jun 2027 23:36:12.315   01 Jun 2027 23:36:40.170            27.855               Magadan2           870.469
        95   01 Jun 2027 23:37:13.854   01 Jun 2027 23:40:16.172           182.318              Murmansk2          5697.437
        96   01 Jun 2027 23:41:48.792   01 Jun 2027 23:42:10.472            21.680              Murmansk2           677.500
        97   01 Jun 2027 23:42:33.213   01 Jun 2027 23:43:09.292            36.079                 Moscow          1127.469
        98   01 Jun 2027 23:44:00.090   01 Jun 2027 23:45:09.672            69.582                 Moscow          2174.437
        99   02 Jun 2027 01:01:41.017   02 Jun 2027 01:03:13.989            92.972                Anadyr1          2905.375
       100   02 Jun 2027 01:03:54.568   02 Jun 2027 01:04:25.256            30.688                Anadyr2           959.000
       101   02 Jun 2027 01:04:28.930   02 Jun 2027 01:04:53.011            24.081                Anadyr2           752.531
       102   02 Jun 2027 01:07:12.848   02 Jun 2027 01:08:53.984           101.136               Magadan1          3160.500
       103   02 Jun 2027 01:09:03.268   02 Jun 2027 01:09:15.173            11.905               Magadan1           372.031
       104   02 Jun 2027 01:09:33.700   02 Jun 2027 01:09:45.727            12.027                Norilsk           375.844
       105   02 Jun 2027 01:10:36.338   02 Jun 2027 01:10:59.740            23.402               Magadan1           731.312
       106   02 Jun 2027 01:11:50.982   02 Jun 2027 01:13:45.415           114.433              Murmansk2          3576.031
       107   02 Jun 2027 01:14:38.934   02 Jun 2027 01:15:20.871            41.937                Novosib          1310.531
       108   02 Jun 2027 01:15:44.388   02 Jun 2027 01:16:56.398            72.010              Murmansk1          2250.313
       109   02 Jun 2027 01:40:10.654   02 Jun 2027 01:40:28.309            17.655               CapeTown           551.719
       110   02 Jun 2027 01:40:40.146   02 Jun 2027 01:41:33.135            52.989               CapeTown          1655.906
       111   02 Jun 2027 01:51:11.208   02 Jun 2027 01:51:20.644             9.436               CapeTown           294.875
       112   02 Jun 2027 02:35:55.370   02 Jun 2027 02:38:22.314           146.944                Anadyr2          4592.000
       113   02 Jun 2027 02:38:54.262   02 Jun 2027 02:39:57.986            63.724               Magadan1          1991.375
       114   02 Jun 2027 02:39:57.986   02 Jun 2027 02:40:02.577             4.591               Magadan2           143.469
       115   02 Jun 2027 02:40:17.305   02 Jun 2027 02:40:29.705            12.400               Magadan2           387.500
       116   02 Jun 2027 02:46:55.867   02 Jun 2027 02:47:19.582            23.715                Norilsk           741.094
       117   02 Jun 2027 02:47:48.639   02 Jun 2027 02:47:56.016             7.377              Murmansk1           230.531
       118   02 Jun 2027 02:47:56.493   02 Jun 2027 02:48:51.780            55.287              Murmansk2          1727.719
       119   02 Jun 2027 02:49:23.143   02 Jun 2027 02:49:56.141            32.998              Murmansk2          1031.187
       120   02 Jun 2027 02:50:57.886   02 Jun 2027 02:51:50.970            53.084                Novosib          1658.875
       121   02 Jun 2027 02:57:07.148   02 Jun 2027 02:57:10.060             2.912                 Moscow            91.000
       122   02 Jun 2027 02:57:50.881   02 Jun 2027 02:58:38.577            47.696                 Moscow          1490.500
       123   02 Jun 2027 03:15:11.890   02 Jun 2027 03:15:50.059            38.169               CapeTown          1192.781
       124   02 Jun 2027 04:18:05.064   02 Jun 2027 04:18:09.570             4.506               Magadan1           140.812
       125   02 Jun 2027 04:18:16.953   02 Jun 2027 04:19:24.581            67.628               Magadan2          2113.375
       126   02 Jun 2027 04:19:24.581   02 Jun 2027 04:21:26.751           122.170               Magadan1          3817.812
       127   02 Jun 2027 05:56:37.957   02 Jun 2027 05:57:01.671            23.714               Magadan2           741.062
       128   02 Jun 2027 05:57:19.736   02 Jun 2027 05:58:01.291            41.555                Irkutsk          1298.594
       129   02 Jun 2027 05:58:08.955   02 Jun 2027 05:58:19.488            10.533               Magadan1           329.156
       130   02 Jun 2027 05:58:23.045   02 Jun 2027 05:58:54.600            31.555                Anadyr1           986.094
       131   02 Jun 2027 07:32:30.395   02 Jun 2027 07:32:56.095            25.700               Magadan2           803.125
       132   02 Jun 2027 07:32:56.095   02 Jun 2027 07:35:02.514           126.419               Magadan1          3950.594
       133   02 Jun 2027 07:35:17.052   02 Jun 2027 07:35:29.840            12.788               Magadan1           399.625
       134   02 Jun 2027 08:12:57.778   02 Jun 2027 08:13:00.767             2.989            RioGallegos            93.406
       135   02 Jun 2027 08:46:03.510   02 Jun 2027 08:49:02.373           178.863                Sumatra          5589.469
       136   02 Jun 2027 09:09:21.194   02 Jun 2027 09:10:30.240            69.046                Novosib          2157.688
       137   02 Jun 2027 09:10:31.376   02 Jun 2027 09:11:50.689            79.313                Irkutsk          2478.531
       138   02 Jun 2027 09:48:16.415   02 Jun 2027 09:48:37.816            21.401            RioGallegos           668.781
       139   02 Jun 2027 10:22:28.230   02 Jun 2027 10:23:14.730            46.500                Sumatra          1453.125
       140   02 Jun 2027 10:25:08.566   02 Jun 2027 10:25:57.711            49.145                Sumatra          1535.781
       141   02 Jun 2027 10:31:03.840   02 Jun 2027 10:31:28.392            24.552                  Delhi           767.250
       142   02 Jun 2027 10:45:25.384   02 Jun 2027 10:45:27.209             1.825                Novosib            57.031
       143   02 Jun 2027 10:45:27.569   02 Jun 2027 10:45:53.320            25.751                Norilsk           804.719
       144   02 Jun 2027 10:45:58.723   02 Jun 2027 10:46:27.634            28.911                Irkutsk           903.469
       145   02 Jun 2027 10:46:39.198   02 Jun 2027 10:47:01.254            22.056                Novosib           689.250
       146   02 Jun 2027 10:47:04.165   02 Jun 2027 10:47:15.224            11.059                Norilsk           345.594
       147   02 Jun 2027 10:47:23.618   02 Jun 2027 10:47:43.345            19.727                Novosib           616.469
       148   02 Jun 2027 12:07:43.466   02 Jun 2027 12:09:39.773           116.307                  Delhi          3634.594
       149   02 Jun 2027 12:11:22.447   02 Jun 2027 12:12:15.557            53.110                  Delhi          1659.688
       150   02 Jun 2027 12:16:15.398   02 Jun 2027 12:16:49.346            33.948                Novosib          1060.875
       151   02 Jun 2027 12:17:13.537   02 Jun 2027 12:17:49.939            36.402                Novosib          1137.563
       152   02 Jun 2027 12:19:31.883   02 Jun 2027 12:19:58.448            26.565                Norilsk           830.156
       153   02 Jun 2027 12:25:08.156   02 Jun 2027 12:25:46.105            37.949                Norilsk          1185.906
       154   02 Jun 2027 13:31:40.447   02 Jun 2027 13:32:59.331            78.884               CapeTown          2465.125
       155   02 Jun 2027 13:34:33.504   02 Jun 2027 13:35:14.659            41.155               CapeTown          1286.094
       156   02 Jun 2027 13:50:23.469   02 Jun 2027 13:51:19.871            56.402                 Moscow          1762.562
       157   02 Jun 2027 13:51:39.506   02 Jun 2027 13:51:50.448            10.942                 Moscow           341.937
       158   02 Jun 2027 13:53:52.448   02 Jun 2027 13:56:49.162           176.714              Murmansk2          5522.313
       159   02 Jun 2027 14:00:40.809   02 Jun 2027 14:00:49.132             8.323              Murmansk1           260.094
       160   02 Jun 2027 14:02:29.638   02 Jun 2027 14:02:35.529             5.891              Murmansk2           184.094
       161   02 Jun 2027 14:02:49.825   02 Jun 2027 14:03:19.361            29.536              Murmansk1           923.000
       162   02 Jun 2027 14:09:13.810   02 Jun 2027 14:12:40.286           206.476                Anadyr1          6452.375
       163   02 Jun 2027 15:11:27.756   02 Jun 2027 15:11:55.081            27.325               CapeTown           853.906
       164   02 Jun 2027 15:31:26.335   02 Jun 2027 15:31:55.189            28.854                 Moscow           901.688
       165   02 Jun 2027 15:32:09.650   02 Jun 2027 15:32:43.304            33.654              Murmansk2          1051.688
       166   02 Jun 2027 15:32:52.954   02 Jun 2027 15:33:01.639             8.685              Murmansk2           271.406
       167   02 Jun 2027 15:34:36.689   02 Jun 2027 15:34:56.884            20.195              Murmansk2           631.094
       168   02 Jun 2027 15:38:43.293   02 Jun 2027 15:40:08.324            85.031              Murmansk1          2657.219
       169   02 Jun 2027 15:44:12.774   02 Jun 2027 15:45:39.633            86.859                Anadyr2          2714.344
       170   02 Jun 2027 15:45:53.125   02 Jun 2027 15:46:01.421             8.296                Anadyr1           259.250
       171   02 Jun 2027 15:55:40.011   02 Jun 2027 15:55:55.804            15.793                Anadyr2           493.531
       172   02 Jun 2027 16:44:17.579   02 Jun 2027 16:45:36.969            79.390               CapeTown          2480.938
       173   02 Jun 2027 17:13:46.033   02 Jun 2027 17:16:14.387           148.354              Murmansk1          4636.062
       174   02 Jun 2027 17:20:02.630   02 Jun 2027 17:20:24.042            21.412                Anadyr2           669.125
       175   02 Jun 2027 17:20:28.432   02 Jun 2027 17:21:38.129            69.697                Anadyr1          2178.031
       176   02 Jun 2027 17:22:38.066   02 Jun 2027 17:23:56.376            78.310               Magadan1          2447.188
       177   02 Jun 2027 17:24:07.505   02 Jun 2027 17:24:45.841            38.336               Magadan2          1198.000
       178   02 Jun 2027 17:28:39.736   02 Jun 2027 17:28:43.251             3.515               Magadan2           109.844
       179   02 Jun 2027 17:30:40.681   02 Jun 2027 17:31:37.715            57.034               Magadan1          1782.312
       180   02 Jun 2027 18:55:57.501   02 Jun 2027 18:59:07.905           190.404                Anadyr2          5950.125
       181   02 Jun 2027 18:59:16.218   02 Jun 2027 19:02:07.204           170.986                Norilsk          5343.312
       182   02 Jun 2027 19:50:34.506   02 Jun 2027 19:52:38.471           123.965            RioGallegos          3873.906
       183   02 Jun 2027 19:54:03.984   02 Jun 2027 19:54:56.257            52.273            RioGallegos          1633.531
       184   02 Jun 2027 19:59:51.034   02 Jun 2027 19:59:58.989             7.955            RioGallegos           248.594
       185   02 Jun 2027 20:33:33.403   02 Jun 2027 20:33:39.806             6.403                Anadyr1           200.094
       186   02 Jun 2027 20:33:49.196   02 Jun 2027 20:35:52.085           122.889                Norilsk          3840.281
       187   02 Jun 2027 20:36:27.013   02 Jun 2027 20:37:05.184            38.171               Magadan2          1192.844
       188   02 Jun 2027 20:38:04.482   02 Jun 2027 20:39:29.782            85.300                Irkutsk          2665.625
       189   02 Jun 2027 20:40:41.172   02 Jun 2027 20:42:43.098           121.926                Novosib          3810.188
       190   02 Jun 2027 20:51:54.480   02 Jun 2027 20:52:24.358            29.878                Sumatra           933.688
       191   02 Jun 2027 20:52:53.186   02 Jun 2027 20:54:16.303            83.117                Sumatra          2597.406
       192   02 Jun 2027 20:55:19.112   02 Jun 2027 20:56:04.422            45.310                Sumatra          1415.937
       193   02 Jun 2027 22:10:13.735   02 Jun 2027 22:11:11.879            58.144                Norilsk          1817.000
       194   02 Jun 2027 22:11:31.638   02 Jun 2027 22:11:33.443             1.805                Norilsk            56.406
       195   02 Jun 2027 22:12:21.342   02 Jun 2027 22:12:41.614            20.272               Magadan1           633.500
       196   02 Jun 2027 22:12:57.364   02 Jun 2027 22:12:58.403             1.039               Magadan2            32.469
       197   02 Jun 2027 22:13:02.845   02 Jun 2027 22:13:24.867            22.022                Norilsk           688.188
       198   02 Jun 2027 22:13:36.185   02 Jun 2027 22:14:19.181            42.996                Irkutsk          1343.625
       199   02 Jun 2027 22:14:24.592   02 Jun 2027 22:14:39.288            14.696                Irkutsk           459.250
       200   02 Jun 2027 22:15:19.469   02 Jun 2027 22:15:33.543            14.074                Novosib           439.813
       201   02 Jun 2027 22:15:56.810   02 Jun 2027 22:16:20.057            23.247                Novosib           726.469
       202   02 Jun 2027 22:19:28.878   02 Jun 2027 22:19:59.990            31.112                Novosib           972.250
       203   02 Jun 2027 22:21:46.222   02 Jun 2027 22:25:04.947           198.725                  Delhi          6210.156
       204   02 Jun 2027 23:41:58.008   02 Jun 2027 23:42:13.499            15.491                Anadyr2           484.094
       205   02 Jun 2027 23:45:44.270   02 Jun 2027 23:45:47.370             3.100                Norilsk            96.875
       206   02 Jun 2027 23:45:57.890   02 Jun 2027 23:47:53.941           116.051               Magadan1          3626.594
       207   02 Jun 2027 23:47:53.941   02 Jun 2027 23:48:08.574            14.633               Magadan2           457.281
       208   02 Jun 2027 23:48:09.775   02 Jun 2027 23:50:45.240           155.465              Murmansk1          4858.281
       209   02 Jun 2027 23:50:51.501   02 Jun 2027 23:51:51.987            60.486              Murmansk2          1890.188
       210   02 Jun 2027 23:52:36.478   02 Jun 2027 23:52:51.953            15.475              Murmansk2           483.594
       211   02 Jun 2027 23:53:23.622   02 Jun 2027 23:54:02.113            38.491                 Moscow          1202.844
       212   02 Jun 2027 23:54:54.713   02 Jun 2027 23:55:09.913            15.200                 Moscow           475.000
       213   02 Jun 2027 23:56:15.616   02 Jun 2027 23:57:31.248            75.632                 Moscow          2363.500
       214   03 Jun 2027 01:13:25.328   03 Jun 2027 01:13:31.170             5.842                Anadyr1           182.563
       215   03 Jun 2027 01:13:41.162   03 Jun 2027 01:14:28.408            47.246                Anadyr2          1476.438
       216   03 Jun 2027 01:16:19.041   03 Jun 2027 01:16:44.209            25.168                Anadyr1           786.500
       217   03 Jun 2027 01:18:41.197   03 Jun 2027 01:20:21.766           100.569               Magadan2          3142.781
       218   03 Jun 2027 01:20:44.615   03 Jun 2027 01:20:54.583             9.968               Magadan1           311.500
       219   03 Jun 2027 01:21:10.722   03 Jun 2027 01:21:37.636            26.914               Magadan1           841.062
       220   03 Jun 2027 01:23:52.216   03 Jun 2027 01:24:30.705            38.489              Murmansk2          1202.781
       221   03 Jun 2027 01:24:35.084   03 Jun 2027 01:24:54.275            19.191              Murmansk1           599.719
       222   03 Jun 2027 01:25:25.663   03 Jun 2027 01:25:45.156            19.493              Murmansk1           609.156
       223   03 Jun 2027 01:25:50.865   03 Jun 2027 01:26:29.049            38.184                Novosib          1193.250
       224   03 Jun 2027 01:26:32.494   03 Jun 2027 01:28:53.260           140.766                Novosib          4398.937
       225   03 Jun 2027 01:59:00.928   03 Jun 2027 01:59:06.894             5.966               CapeTown           186.438
       226   03 Jun 2027 02:00:27.013   03 Jun 2027 02:01:06.153            39.140               CapeTown          1223.125
       227   03 Jun 2027 02:47:50.657   03 Jun 2027 02:49:09.873            79.216                Anadyr1          2475.500
       228   03 Jun 2027 02:49:32.353   03 Jun 2027 02:50:14.650            42.297                Anadyr1          1321.781
       229   03 Jun 2027 02:50:28.324   03 Jun 2027 02:50:37.560             9.236               Magadan2           288.625
       230   03 Jun 2027 02:50:50.313   03 Jun 2027 02:51:30.814            40.501               Magadan1          1265.656
       231   03 Jun 2027 02:53:22.016   03 Jun 2027 02:53:45.642            23.626               Magadan2           738.312
       232   03 Jun 2027 02:56:56.782   03 Jun 2027 02:57:09.228            12.446                Norilsk           388.938
       233   03 Jun 2027 02:59:50.322   03 Jun 2027 02:59:56.775             6.453              Murmansk2           201.656
       234   03 Jun 2027 03:07:10.662   03 Jun 2027 03:07:20.175             9.513              Murmansk1           297.281
       235   03 Jun 2027 03:07:26.786   03 Jun 2027 03:08:00.145            33.359              Murmansk2          1042.469
       236   03 Jun 2027 03:08:39.447   03 Jun 2027 03:10:53.750           134.303              Murmansk2          4196.969
       237   03 Jun 2027 04:24:14.564   03 Jun 2027 04:25:02.708            48.144                Anadyr1          1504.500
       238   03 Jun 2027 04:30:39.992   03 Jun 2027 04:33:11.224           151.232               Magadan2          4726.000
       239   03 Jun 2027 06:08:27.657   03 Jun 2027 06:09:03.411            35.754               Magadan2          1117.313
       240   03 Jun 2027 06:09:11.753   03 Jun 2027 06:10:14.798            63.045               Magadan2          1970.156
       241   03 Jun 2027 07:41:09.423   03 Jun 2027 07:41:14.419             4.996               Magadan1           156.125
       242   03 Jun 2027 07:42:25.055   03 Jun 2027 07:42:35.674            10.619               Magadan1           331.844
       243   03 Jun 2027 07:43:44.864   03 Jun 2027 07:43:50.325             5.461               Magadan1           170.656
       244   03 Jun 2027 07:44:32.527   03 Jun 2027 07:44:59.495            26.968               Magadan1           842.750
       245   03 Jun 2027 07:45:09.698   03 Jun 2027 07:45:13.166             3.468                Irkutsk           108.375
       246   03 Jun 2027 07:45:46.774   03 Jun 2027 07:46:01.431            14.657                Irkutsk           458.031
       247   03 Jun 2027 07:46:06.350   03 Jun 2027 07:46:30.581            24.231               Magadan2           757.219
       248   03 Jun 2027 07:46:42.711   03 Jun 2027 07:47:11.190            28.479               Magadan2           889.969
       249   03 Jun 2027 07:47:31.596   03 Jun 2027 07:47:52.861            21.265              Murmansk2           664.531
       250   03 Jun 2027 07:48:32.032   03 Jun 2027 07:49:04.554            32.522              Murmansk2          1016.312
       251   03 Jun 2027 08:22:35.284   03 Jun 2027 08:23:16.689            41.405            RioGallegos          1293.906
       252   03 Jun 2027 08:26:02.377   03 Jun 2027 08:26:51.714            49.337            RioGallegos          1541.781
       253   03 Jun 2027 08:57:47.146   03 Jun 2027 08:58:50.761            63.615                Sumatra          1987.969
       254   03 Jun 2027 09:20:50.790   03 Jun 2027 09:20:56.887             6.097                Irkutsk           190.531
       255   03 Jun 2027 09:21:11.110   03 Jun 2027 09:21:41.963            30.853                Irkutsk           964.156
       256   03 Jun 2027 09:21:54.640   03 Jun 2027 09:22:04.546             9.906                Irkutsk           309.562
       257   03 Jun 2027 09:22:20.503   03 Jun 2027 09:22:21.854             1.351                Novosib            42.219
       258   03 Jun 2027 09:22:28.658   03 Jun 2027 09:23:44.495            75.837                Irkutsk          2369.906
       259   03 Jun 2027 10:35:09.540   03 Jun 2027 10:35:20.346            10.806                Sumatra           337.687
       260   03 Jun 2027 10:37:39.815   03 Jun 2027 10:38:19.724            39.909                Sumatra          1247.156
       261   03 Jun 2027 10:44:41.128   03 Jun 2027 10:45:00.608            19.480                  Delhi           608.750
       262   03 Jun 2027 10:50:04.509   03 Jun 2027 10:50:26.514            22.005                  Delhi           687.656
       263   03 Jun 2027 10:55:55.847   03 Jun 2027 10:56:12.233            16.386                Novosib           512.062
       264   03 Jun 2027 10:56:23.344   03 Jun 2027 10:56:52.705            29.361                Norilsk           917.531
       265   03 Jun 2027 10:57:05.070   03 Jun 2027 10:57:28.047            22.977                Norilsk           718.031
       266   03 Jun 2027 10:57:52.890   03 Jun 2027 10:57:55.682             2.792                Norilsk            87.250
       267   03 Jun 2027 10:58:42.897   03 Jun 2027 10:58:57.355            14.458                Novosib           451.813
       268   03 Jun 2027 10:59:04.706   03 Jun 2027 10:59:10.791             6.085                Novosib           190.156
       269   03 Jun 2027 10:59:16.747   03 Jun 2027 10:59:31.002            14.255                Norilsk           445.469
       270   03 Jun 2027 12:20:47.139   03 Jun 2027 12:24:42.027           234.888                  Delhi          7340.250
       271   03 Jun 2027 12:30:16.998   03 Jun 2027 12:30:51.808            34.810              Murmansk2          1087.812
       272   03 Jun 2027 12:32:05.762   03 Jun 2027 12:32:43.662            37.900                Norilsk          1184.375
       273   03 Jun 2027 12:38:06.418   03 Jun 2027 12:38:34.528            28.110              Murmansk1           878.437
       274   03 Jun 2027 13:42:14.497   03 Jun 2027 13:44:33.584           139.087               CapeTown          4346.469
       275   03 Jun 2027 13:46:39.241   03 Jun 2027 13:47:52.561            73.320               CapeTown          2291.250
       276   03 Jun 2027 14:06:04.345   03 Jun 2027 14:08:50.889           166.544              Murmansk1          5204.500
       277   03 Jun 2027 14:10:40.082   03 Jun 2027 14:11:04.343            24.261              Murmansk1           758.156
       278   03 Jun 2027 14:20:59.622   03 Jun 2027 14:22:56.847           117.225                Anadyr1          3663.281
       279   03 Jun 2027 14:23:20.853   03 Jun 2027 14:24:34.444            73.591                Anadyr2          2299.719
       280   03 Jun 2027 14:26:17.041   03 Jun 2027 14:27:10.881            53.840                Anadyr1          1682.500
       281   03 Jun 2027 15:43:56.844   03 Jun 2027 15:43:57.741             0.897                 Moscow            28.031
       282   03 Jun 2027 15:44:39.282   03 Jun 2027 15:45:01.983            22.701              Murmansk2           709.406
       283   03 Jun 2027 15:45:43.862   03 Jun 2027 15:46:05.771            21.909              Murmansk1           684.656
       284   03 Jun 2027 15:46:38.049   03 Jun 2027 15:46:58.673            20.624              Murmansk2           644.500
       285   03 Jun 2027 15:48:55.242   03 Jun 2027 15:49:25.928            30.686              Murmansk2           958.938
       286   03 Jun 2027 15:56:12.281   03 Jun 2027 15:58:35.572           143.291                Anadyr1          4477.844
       287   03 Jun 2027 16:00:55.581   03 Jun 2027 16:01:19.739            24.158               Magadan2           754.937
       288   03 Jun 2027 16:02:46.105   03 Jun 2027 16:04:36.342           110.237               Magadan2          3444.906
       289   03 Jun 2027 16:04:36.342   03 Jun 2027 16:04:43.276             6.934               Magadan1           216.687
       290   03 Jun 2027 17:32:04.050   03 Jun 2027 17:34:41.989           157.939                Anadyr2          4935.594
       291   03 Jun 2027 17:34:54.386   03 Jun 2027 17:36:58.963           124.577               Magadan2          3893.031
       292   03 Jun 2027 17:40:19.367   03 Jun 2027 17:40:41.807            22.440               Magadan1           701.250
       293   03 Jun 2027 17:41:17.497   03 Jun 2027 17:42:09.164            51.667               Magadan2          1614.594
       294   03 Jun 2027 19:07:58.119   03 Jun 2027 19:11:53.682           235.563                Anadyr2          7361.344
       295   03 Jun 2027 19:11:58.822   03 Jun 2027 19:13:35.361            96.539               Magadan2          3016.844
       296   03 Jun 2027 19:17:23.284   03 Jun 2027 19:17:27.193             3.909               Magadan1           122.156
       297   03 Jun 2027 19:17:27.193   03 Jun 2027 19:18:13.489            46.296               Magadan2          1446.750
       298   03 Jun 2027 20:02:22.315   03 Jun 2027 20:05:51.719           209.404            RioGallegos          6543.875
       299   03 Jun 2027 20:45:32.792   03 Jun 2027 20:45:42.068             9.276                Anadyr1           289.875
       300   03 Jun 2027 20:45:49.555   03 Jun 2027 20:47:48.695           119.140                Norilsk          3723.125
       301   03 Jun 2027 20:49:20.925   03 Jun 2027 20:50:22.027            61.102                Norilsk          1909.438
       302   03 Jun 2027 20:51:00.288   03 Jun 2027 20:51:15.882            15.594                Norilsk           487.312
       303   03 Jun 2027 20:51:26.744   03 Jun 2027 20:52:04.901            38.157                Irkutsk          1192.406
       304   03 Jun 2027 20:52:22.141   03 Jun 2027 20:52:38.544            16.403                Irkutsk           512.594
       305   03 Jun 2027 20:53:20.596   03 Jun 2027 20:54:35.587            74.991                Novosib          2343.469
       306   03 Jun 2027 20:56:40.232   03 Jun 2027 20:57:39.658            59.426                Novosib          1857.063
       307   03 Jun 2027 21:03:41.402   03 Jun 2027 21:04:43.536            62.134                Sumatra          1941.687
       308   03 Jun 2027 21:06:18.151   03 Jun 2027 21:06:31.190            13.039                Sumatra           407.469
       309   03 Jun 2027 21:07:26.525   03 Jun 2027 21:07:29.737             3.212                Sumatra           100.375
       310   03 Jun 2027 21:11:43.359   03 Jun 2027 21:12:11.585            28.226                Sumatra           882.062
       311   03 Jun 2027 21:14:02.978   03 Jun 2027 21:15:15.105            72.127                Sumatra          2253.969
       312   03 Jun 2027 22:21:46.752   03 Jun 2027 22:22:06.855            20.103                Norilsk           628.219
       313   03 Jun 2027 22:25:38.929   03 Jun 2027 22:26:26.278            47.349                Irkutsk          1479.656
       314   03 Jun 2027 22:26:59.717   03 Jun 2027 22:27:29.438            29.721                Irkutsk           928.781
       315   03 Jun 2027 22:27:38.663   03 Jun 2027 22:29:07.097            88.434                Novosib          2763.562
       316   03 Jun 2027 22:31:24.066   03 Jun 2027 22:31:41.368            17.302                Novosib           540.688
       317   03 Jun 2027 22:33:28.184   03 Jun 2027 22:35:21.657           113.473                  Delhi          3546.031
       318   03 Jun 2027 22:35:55.162   03 Jun 2027 22:36:59.202            64.040                  Delhi          2001.250
       319   03 Jun 2027 23:52:59.960   03 Jun 2027 23:53:56.526            56.566                Anadyr1          1767.688
       320   03 Jun 2027 23:57:45.635   03 Jun 2027 23:57:49.452             3.817                Norilsk           119.281
       321   03 Jun 2027 23:58:03.843   03 Jun 2027 23:58:20.004            16.161               Magadan2           505.031
       322   03 Jun 2027 23:58:33.377   03 Jun 2027 23:59:37.501            64.124               Magadan1          2003.875
       323   04 Jun 2027 00:00:07.007   04 Jun 2027 00:02:28.484           141.477              Murmansk2          4421.156
       324   04 Jun 2027 00:03:37.872   04 Jun 2027 00:03:59.991            22.119              Murmansk1           691.219
       325   04 Jun 2027 00:04:48.649   04 Jun 2027 00:05:59.159            70.510                 Moscow          2203.437
       326   04 Jun 2027 00:07:53.757   04 Jun 2027 00:08:39.110            45.353                 Moscow          1417.281
       327   04 Jun 2027 00:09:34.536   04 Jun 2027 00:09:48.509            13.973                 Moscow           436.656
       328   04 Jun 2027 00:10:09.771   04 Jun 2027 00:11:53.048           103.277                 Moscow          3227.406
       329   04 Jun 2027 01:25:10.690   04 Jun 2027 01:25:16.965             6.275                Anadyr1           196.094
       330   04 Jun 2027 01:26:50.986   04 Jun 2027 01:27:13.056            22.070                Anadyr2           689.688
       331   04 Jun 2027 01:27:32.233   04 Jun 2027 01:27:51.700            19.467                Anadyr1           608.344
       332   04 Jun 2027 01:28:10.435   04 Jun 2027 01:28:21.829            11.394                Anadyr2           356.063
       333   04 Jun 2027 01:30:09.128   04 Jun 2027 01:31:28.398            79.270               Magadan2          2477.187
       334   04 Jun 2027 01:32:02.369   04 Jun 2027 01:32:23.556            21.187               Magadan1           662.094
       335   04 Jun 2027 01:33:07.732   04 Jun 2027 01:33:40.325            32.593               Magadan2          1018.531
       336   04 Jun 2027 01:35:53.650   04 Jun 2027 01:36:23.317            29.667              Murmansk2           927.094
       337   04 Jun 2027 01:36:29.362   04 Jun 2027 01:37:34.180            64.818              Murmansk1          2025.562
       338   04 Jun 2027 01:37:40.900   04 Jun 2027 01:37:45.424             4.524              Murmansk1           141.375
       339   04 Jun 2027 01:37:59.755   04 Jun 2027 01:38:18.525            18.770                Novosib           586.562
       340   04 Jun 2027 01:39:14.128   04 Jun 2027 01:40:54.626           100.498                 Moscow          3140.563
       341   04 Jun 2027 01:51:23.262   04 Jun 2027 01:51:27.111             3.849                 Moscow           120.281
       342   04 Jun 2027 02:04:39.384   04 Jun 2027 02:06:01.066            81.682               CapeTown          2552.563
       343   04 Jun 2027 02:59:47.671   04 Jun 2027 03:00:21.616            33.945                Anadyr1          1060.781
       344   04 Jun 2027 03:00:21.616   04 Jun 2027 03:01:10.239            48.623                Anadyr2          1519.469
       345   04 Jun 2027 03:01:59.394   04 Jun 2027 03:02:08.172             8.778                Anadyr1           274.313
       346   04 Jun 2027 03:02:14.287   04 Jun 2027 03:02:25.262            10.975               Magadan2           342.969
       347   04 Jun 2027 03:06:37.775   04 Jun 2027 03:07:42.156            64.381               Magadan1          2011.906
       348   04 Jun 2027 03:08:01.678   04 Jun 2027 03:10:30.610           148.932                Anadyr2          4654.125
       349   04 Jun 2027 03:10:45.152   04 Jun 2027 03:11:08.875            23.723                Anadyr2           741.344
       350   04 Jun 2027 03:11:35.508   04 Jun 2027 03:11:56.419            20.911               Magadan1           653.469
       351   04 Jun 2027 04:43:18.517   04 Jun 2027 04:43:19.134             0.617                Anadyr2            19.281
       352   04 Jun 2027 04:43:23.381   04 Jun 2027 04:45:56.622           153.241               Magadan1          4788.781
       353   04 Jun 2027 04:46:46.348   04 Jun 2027 04:47:42.779            56.431               Magadan1          1763.469
       354   04 Jun 2027 06:17:06.273   04 Jun 2027 06:17:27.539            21.266               Magadan2           664.562
       355   04 Jun 2027 06:18:27.033   04 Jun 2027 06:18:30.659             3.626               Magadan1           113.312
       356   04 Jun 2027 06:18:33.219   04 Jun 2027 06:19:01.712            28.493               Magadan2           890.406
       357   04 Jun 2027 06:19:06.613   04 Jun 2027 06:19:41.468            34.855                Anadyr1          1089.219
       358   04 Jun 2027 06:19:41.468   04 Jun 2027 06:20:10.399            28.931                Anadyr2           904.094
       359   04 Jun 2027 06:20:18.780   04 Jun 2027 06:20:30.808            12.028               Magadan1           375.875
       360   04 Jun 2027 06:20:57.006   04 Jun 2027 06:21:39.334            42.328                Anadyr1          1322.750
       361   04 Jun 2027 06:21:41.679   04 Jun 2027 06:22:01.126            19.447               Magadan1           607.719
       362   04 Jun 2027 06:22:01.874   04 Jun 2027 06:22:58.167            56.293                Anadyr1          1759.156
       363   04 Jun 2027 07:52:41.334   04 Jun 2027 07:52:47.483             6.149               Magadan1           192.156
       364   04 Jun 2027 07:53:14.549   04 Jun 2027 07:54:25.252            70.703               Magadan1          2209.469
       365   04 Jun 2027 07:55:43.839   04 Jun 2027 07:56:34.392            50.553               Magadan2          1579.781
       366   04 Jun 2027 07:57:02.044   04 Jun 2027 07:57:21.880            19.836                Irkutsk           619.875
       367   04 Jun 2027 07:57:23.880   04 Jun 2027 07:57:57.642            33.762                Norilsk          1055.063
       368   04 Jun 2027 07:58:04.970   04 Jun 2027 07:58:24.853            19.883               Magadan2           621.344
       369   04 Jun 2027 07:58:28.449   04 Jun 2027 07:59:51.227            82.778                Irkutsk          2586.812
       370   04 Jun 2027 08:00:26.453   04 Jun 2027 08:00:31.808             5.355              Murmansk1           167.344
       371   04 Jun 2027 08:34:40.039   04 Jun 2027 08:35:46.586            66.547            RioGallegos          2079.594
       372   04 Jun 2027 09:09:37.154   04 Jun 2027 09:10:34.632            57.478                Sumatra          1796.187
       373   04 Jun 2027 09:17:54.604   04 Jun 2027 09:18:24.868            30.264                Sumatra           945.750
       374   04 Jun 2027 09:30:49.426   04 Jun 2027 09:30:53.840             4.414                Irkutsk           137.937
       375   04 Jun 2027 09:33:11.188   04 Jun 2027 09:33:12.157             0.969                Irkutsk            30.281
       376   04 Jun 2027 09:33:28.499   04 Jun 2027 09:33:45.502            17.003                Irkutsk           531.344
       377   04 Jun 2027 09:33:51.520   04 Jun 2027 09:33:58.170             6.650                Irkutsk           207.812
       378   04 Jun 2027 09:34:16.182   04 Jun 2027 09:34:22.147             5.965                Novosib           186.406
       379   04 Jun 2027 09:34:29.101   04 Jun 2027 09:35:10.670            41.569                Irkutsk          1299.031
       380   04 Jun 2027 09:35:13.464   04 Jun 2027 09:35:55.129            41.665                Novosib          1302.031
       381   04 Jun 2027 10:13:58.746   04 Jun 2027 10:14:28.232            29.486            RioGallegos           921.438
       382   04 Jun 2027 10:48:12.236   04 Jun 2027 10:49:28.533            76.297                Sumatra          2384.281
       383   04 Jun 2027 11:07:40.599   04 Jun 2027 11:08:10.271            29.672                Novosib           927.250
       384   04 Jun 2027 11:09:00.872   04 Jun 2027 11:09:26.552            25.680                Novosib           802.500
       385   04 Jun 2027 11:10:50.389   04 Jun 2027 11:11:02.287            11.898                Novosib           371.813
       386   04 Jun 2027 11:11:15.359   04 Jun 2027 11:11:19.200             3.841                Novosib           120.031
       387   04 Jun 2027 11:11:28.406   04 Jun 2027 11:12:01.223            32.817                Novosib          1025.531
       388   04 Jun 2027 12:34:37.353   04 Jun 2027 12:36:18.874           101.521                  Delhi          3172.531
       389   04 Jun 2027 12:36:44.845   04 Jun 2027 12:37:32.966            48.121                  Delhi          1503.781
       390   04 Jun 2027 12:41:24.617   04 Jun 2027 12:41:36.243            11.626                 Moscow           363.312
       391   04 Jun 2027 12:41:39.303   04 Jun 2027 12:42:18.289            38.986              Murmansk1          1218.312
       392   04 Jun 2027 12:43:24.060   04 Jun 2027 12:43:37.710            13.650              Murmansk1           426.563
       393   04 Jun 2027 12:44:40.393   04 Jun 2027 12:45:31.403            51.010                Novosib          1594.062
       394   04 Jun 2027 12:46:52.438   04 Jun 2027 12:47:05.008            12.570                Norilsk           392.813
       395   04 Jun 2027 12:49:12.721   04 Jun 2027 12:49:22.753            10.032                Norilsk           313.500
       396   04 Jun 2027 12:50:11.050   04 Jun 2027 12:50:28.600            17.550                Norilsk           548.437
       397   04 Jun 2027 13:53:26.915   04 Jun 2027 13:56:14.839           167.924               CapeTown          5247.625
       398   04 Jun 2027 13:58:47.915   04 Jun 2027 13:59:47.914            59.999               CapeTown          1874.969
       399   04 Jun 2027 14:18:18.150   04 Jun 2027 14:20:52.545           154.395              Murmansk1          4824.844
       400   04 Jun 2027 14:32:49.646   04 Jun 2027 14:35:05.394           135.748                Anadyr1          4242.125
       401   04 Jun 2027 14:35:22.430   04 Jun 2027 14:36:24.672            62.242                Anadyr1          1945.062
       402   04 Jun 2027 15:30:46.074   04 Jun 2027 15:31:21.063            34.989               CapeTown          1093.406
       403   04 Jun 2027 15:57:11.756   04 Jun 2027 15:58:04.160            52.404              Murmansk1          1637.625
       404   04 Jun 2027 15:58:39.178   04 Jun 2027 15:58:59.107            19.929              Murmansk2           622.781
       405   04 Jun 2027 15:59:00.582   04 Jun 2027 16:00:29.661            89.079              Murmansk1          2783.719
       406   04 Jun 2027 16:08:12.255   04 Jun 2027 16:09:30.094            77.839                Anadyr1          2432.469
       407   04 Jun 2027 16:09:54.751   04 Jun 2027 16:10:40.481            45.730                Anadyr2          1429.062
       408   04 Jun 2027 16:12:11.289   04 Jun 2027 16:15:14.405           183.116               Magadan2          5722.375
       409   04 Jun 2027 16:16:39.041   04 Jun 2027 16:16:43.896             4.855               Magadan1           151.719
       410   04 Jun 2027 17:44:05.489   04 Jun 2027 17:45:56.297           110.808                Anadyr1          3462.750
       411   04 Jun 2027 17:46:01.511   04 Jun 2027 17:46:41.253            39.742                Anadyr2          1241.937
       412   04 Jun 2027 17:46:48.807   04 Jun 2027 17:49:01.006           132.199               Magadan1          4131.219
       413   04 Jun 2027 17:50:54.113   04 Jun 2027 17:52:19.188            85.075               Magadan2          2658.594
       414   04 Jun 2027 19:19:58.455   04 Jun 2027 19:23:52.949           234.494                Anadyr2          7327.938
       415   04 Jun 2027 19:23:54.131   04 Jun 2027 19:26:03.991           129.860                Norilsk          4058.125
       416   04 Jun 2027 19:28:30.893   04 Jun 2027 19:28:39.223             8.330                Irkutsk           260.313
       417   04 Jun 2027 19:29:46.098   04 Jun 2027 19:30:55.769            69.671                Irkutsk          2177.219
       418   04 Jun 2027 19:32:10.525   04 Jun 2027 19:32:45.709            35.184                Irkutsk          1099.500
       419   04 Jun 2027 20:14:13.169   04 Jun 2027 20:15:28.670            75.501            RioGallegos          2359.406
       420   04 Jun 2027 20:17:13.309   04 Jun 2027 20:17:15.955             2.646            RioGallegos            82.688
       421   04 Jun 2027 20:57:32.601   04 Jun 2027 20:58:04.098            31.497                Anadyr1           984.281
       422   04 Jun 2027 20:58:21.736   04 Jun 2027 20:58:22.225             0.489               Magadan1            15.281
       423   04 Jun 2027 20:58:27.961   04 Jun 2027 21:00:32.417           124.456                Norilsk          3889.250
       424   04 Jun 2027 21:01:10.436   04 Jun 2027 21:01:34.407            23.971                Norilsk           749.094
       425   04 Jun 2027 21:01:49.591   04 Jun 2027 21:02:17.140            27.549                Norilsk           860.906
       426   04 Jun 2027 21:03:03.100   04 Jun 2027 21:03:32.650            29.550                Norilsk           923.438
       427   04 Jun 2027 21:04:00.263   04 Jun 2027 21:05:02.842            62.579                Novosib          1955.594
       428   04 Jun 2027 21:05:43.726   04 Jun 2027 21:07:25.393           101.667                Irkutsk          3177.094
       429   04 Jun 2027 21:08:19.286   04 Jun 2027 21:10:02.717           103.431                Novosib          3232.219
       430   04 Jun 2027 21:24:40.685   04 Jun 2027 21:25:07.293            26.608                Sumatra           831.500
       431   04 Jun 2027 22:33:48.751   04 Jun 2027 22:33:56.288             7.537                Norilsk           235.531
       432   04 Jun 2027 22:34:25.623   04 Jun 2027 22:35:38.027            72.404               Magadan1          2262.625
       433   04 Jun 2027 22:37:42.439   04 Jun 2027 22:38:16.577            34.138                Irkutsk          1066.813
       434   04 Jun 2027 22:38:46.612   04 Jun 2027 22:39:29.551            42.939                Irkutsk          1341.844
       435   04 Jun 2027 22:39:44.343   04 Jun 2027 22:40:31.950            47.607                Novosib          1487.719
       436   04 Jun 2027 22:43:16.548   04 Jun 2027 22:43:33.992            17.444                Novosib           545.125
       437   04 Jun 2027 22:45:15.468   04 Jun 2027 22:47:44.435           148.967                  Delhi          4655.219
       438   04 Jun 2027 22:49:50.539   04 Jun 2027 22:51:25.106            94.567                  Delhi          2955.219
       439   05 Jun 2027 00:05:01.132   05 Jun 2027 00:05:53.170            52.038                Anadyr1          1626.188
       440   05 Jun 2027 00:09:33.873   05 Jun 2027 00:10:27.276            53.403               Magadan1          1668.844
       441   05 Jun 2027 00:10:27.276   05 Jun 2027 00:10:31.057             3.781               Magadan2           118.156
       442   05 Jun 2027 00:11:07.611   05 Jun 2027 00:11:23.063            15.452               Magadan1           482.875
       443   05 Jun 2027 00:12:05.330   05 Jun 2027 00:14:39.050           153.720              Murmansk2          4803.750
       444   05 Jun 2027 00:14:39.050   05 Jun 2027 00:15:31.921            52.871              Murmansk1          1652.219
       445   05 Jun 2027 00:16:25.547   05 Jun 2027 00:17:41.317            75.770                 Moscow          2367.812
       446   05 Jun 2027 00:20:53.018   05 Jun 2027 00:21:19.095            26.077                 Moscow           814.906
       447   05 Jun 2027 00:21:56.311   05 Jun 2027 00:22:10.385            14.074                 Moscow           439.813
       448   05 Jun 2027 00:45:06.144   05 Jun 2027 00:47:22.484           136.340               CapeTown          4260.625
       449   05 Jun 2027 01:41:37.111   05 Jun 2027 01:43:44.873           127.762               Magadan2          3992.563
       450   05 Jun 2027 01:45:09.695   05 Jun 2027 01:45:26.619            16.924               Magadan1           528.875
       451   05 Jun 2027 01:45:43.001   05 Jun 2027 01:46:14.538            31.537               Magadan2           985.531
       452   05 Jun 2027 01:47:55.220   05 Jun 2027 01:49:01.591            66.371              Murmansk1          2074.094
       453   05 Jun 2027 01:49:38.423   05 Jun 2027 01:50:31.346            52.923              Murmansk1          1653.844
       454   05 Jun 2027 01:58:14.889   05 Jun 2027 01:58:26.728            11.839                 Moscow           369.969
       455   05 Jun 2027 01:58:36.399   05 Jun 2027 01:59:14.219            37.820                 Moscow          1181.875
       456   05 Jun 2027 02:15:15.603   05 Jun 2027 02:15:43.281            27.678               CapeTown           864.938
       457   05 Jun 2027 02:18:09.804   05 Jun 2027 02:18:46.849            37.045               CapeTown          1157.656
       458   05 Jun 2027 02:27:43.869   05 Jun 2027 02:27:49.129             5.260               CapeTown           164.375
       459   05 Jun 2027 03:13:41.310   05 Jun 2027 03:14:20.578            39.268               Magadan1          1227.125
       460   05 Jun 2027 03:14:44.866   05 Jun 2027 03:15:49.011            64.145               Magadan2          2004.531
       461   05 Jun 2027 03:18:24.200   05 Jun 2027 03:20:44.092           139.892               Magadan2          4371.625
       462   05 Jun 2027 03:20:47.617   05 Jun 2027 03:24:42.169           234.552                Anadyr2          7329.750
       463   05 Jun 2027 04:54:46.903   05 Jun 2027 04:56:42.403           115.500                Anadyr1          3609.375
       464   05 Jun 2027 04:56:52.844   05 Jun 2027 04:57:02.240             9.396                Anadyr1           293.625
       465   05 Jun 2027 04:57:02.240   05 Jun 2027 04:58:23.315            81.075                Anadyr2          2533.594
       466   05 Jun 2027 04:58:48.951   05 Jun 2027 04:59:05.792            16.841                Anadyr2           526.281
       467   05 Jun 2027 04:59:53.884   05 Jun 2027 05:00:09.824            15.940                Anadyr2           498.125
       468   05 Jun 2027 06:28:41.178   05 Jun 2027 06:28:44.345             3.167               Magadan2            98.969
       469   05 Jun 2027 06:28:44.345   05 Jun 2027 06:29:14.804            30.459               Magadan1           951.844
       470   05 Jun 2027 06:29:30.810   05 Jun 2027 06:29:46.372            15.562                Anadyr2           486.313
       471   05 Jun 2027 06:30:16.313   05 Jun 2027 06:30:17.889             1.576               Magadan1            49.250
       472   05 Jun 2027 06:30:24.021   05 Jun 2027 06:30:32.070             8.049               Magadan1           251.531
       473   05 Jun 2027 06:30:33.764   05 Jun 2027 06:30:40.903             7.139               Magadan1           223.094
       474   05 Jun 2027 06:30:49.540   05 Jun 2027 06:31:40.301            50.761                Anadyr2          1586.281
       475   05 Jun 2027 06:32:15.507   05 Jun 2027 06:32:45.711            30.204                Anadyr2           943.875
       476   05 Jun 2027 06:32:48.178   05 Jun 2027 06:33:51.026            62.848                Anadyr1          1964.000
       477   05 Jun 2027 06:33:53.521   05 Jun 2027 06:34:30.722            37.201                Anadyr1          1162.531
       478   05 Jun 2027 06:34:49.559   05 Jun 2027 06:36:07.883            78.324               Magadan1          2447.625
       479   05 Jun 2027 08:04:49.759   05 Jun 2027 08:05:17.167            27.408               Magadan2           856.500
       480   05 Jun 2027 08:06:24.875   05 Jun 2027 08:06:42.002            17.127               Magadan1           535.219
       481   05 Jun 2027 08:10:02.724   05 Jun 2027 08:10:09.012             6.288               Magadan1           196.500
       482   05 Jun 2027 08:10:28.068   05 Jun 2027 08:10:49.642            21.574                Irkutsk           674.187
