uniorb/output/strategy_4/Drop/Drop_KinoSat_110701.txt

KinoSat_110701
-------------------------
    Access    *     Start Time (UTCG)     *     Stop Time (UTCG)  *   Duration (s)        *       Station  *  Data (Mbytes)
         1   01 Jun 2027 04:20:03.572   01 Jun 2027 04:20:18.386            14.814               Magadan1           462.938
         2   01 Jun 2027 04:20:18.386   01 Jun 2027 04:22:04.633           106.247               Magadan2          3320.219
         3   01 Jun 2027 04:22:07.181   01 Jun 2027 04:22:43.954            36.773                Anadyr2          1149.156
         4   01 Jun 2027 05:55:34.015   01 Jun 2027 05:56:03.864            29.849                Irkutsk           932.781
         5   01 Jun 2027 05:56:19.525   01 Jun 2027 05:57:38.171            78.646               Magadan2          2457.687
         6   01 Jun 2027 05:57:44.242   01 Jun 2027 05:58:55.576            71.334               Magadan1          2229.188
         7   01 Jun 2027 05:59:07.032   01 Jun 2027 05:59:57.335            50.303                Norilsk          1571.969
         8   01 Jun 2027 05:59:57.933   01 Jun 2027 06:00:38.983            41.050              Murmansk1          1282.812
         9   01 Jun 2027 06:00:38.983   01 Jun 2027 06:01:02.462            23.479              Murmansk2           733.719
        10   01 Jun 2027 06:34:53.326   01 Jun 2027 06:37:09.118           135.792            RioGallegos          4243.500
        11   01 Jun 2027 07:10:33.558   01 Jun 2027 07:11:53.274            79.716                Sumatra          2491.125
        12   01 Jun 2027 07:12:12.686   01 Jun 2027 07:14:06.225           113.539                Sumatra          3548.094
        13   01 Jun 2027 07:32:35.499   01 Jun 2027 07:33:39.679            64.180                Norilsk          2005.625
        14   01 Jun 2027 07:33:45.466   01 Jun 2027 07:36:09.878           144.412                Irkutsk          4512.875
        15   01 Jun 2027 07:36:23.456   01 Jun 2027 07:36:44.941            21.485              Murmansk1           671.406
        16   01 Jun 2027 07:36:50.932   01 Jun 2027 07:37:39.747            48.815                Novosib          1525.469
        17   01 Jun 2027 08:46:30.935   01 Jun 2027 08:47:04.541            33.606                Sumatra          1050.188
        18   01 Jun 2027 08:47:59.115   01 Jun 2027 08:49:10.466            71.351                Sumatra          2229.719
        19   01 Jun 2027 08:50:09.771   01 Jun 2027 08:50:17.449             7.678                Sumatra           239.937
        20   01 Jun 2027 08:54:11.871   01 Jun 2027 08:57:53.092           221.221                  Delhi          6913.156
        21   01 Jun 2027 09:09:41.228   01 Jun 2027 09:10:09.623            28.395                 Moscow           887.344
        22   01 Jun 2027 09:10:32.004   01 Jun 2027 09:10:51.149            19.145                Irkutsk           598.281
        23   01 Jun 2027 09:11:11.042   01 Jun 2027 09:11:44.515            33.473                Novosib          1046.031
        24   01 Jun 2027 09:12:52.301   01 Jun 2027 09:13:23.665            31.364              Murmansk2           980.125
        25   01 Jun 2027 09:13:36.943   01 Jun 2027 09:14:11.987            35.044              Murmansk1          1095.125
        26   01 Jun 2027 10:31:37.671   01 Jun 2027 10:33:25.233           107.562                  Delhi          3361.313
        27   01 Jun 2027 10:33:32.918   01 Jun 2027 10:34:24.791            51.873                  Delhi          1621.031
        28   01 Jun 2027 10:40:01.170   01 Jun 2027 10:40:55.444            54.274                  Delhi          1696.063
        29   01 Jun 2027 10:45:09.583   01 Jun 2027 10:45:28.566            18.983                Novosib           593.219
        30   01 Jun 2027 10:45:59.269   01 Jun 2027 10:47:58.794           119.525                Novosib          3735.156
        31   01 Jun 2027 12:14:35.764   01 Jun 2027 12:15:40.778            65.014                 Moscow          2031.687
        32   01 Jun 2027 12:18:06.007   01 Jun 2027 12:20:59.841           173.834              Murmansk2          5432.313
        33   01 Jun 2027 12:22:30.807   01 Jun 2027 12:23:07.127            36.320              Murmansk2          1135.000
        34   01 Jun 2027 12:26:05.586   01 Jun 2027 12:27:19.403            73.817              Murmansk1          2306.781
        35   01 Jun 2027 12:33:43.389   01 Jun 2027 12:37:17.883           214.494                Anadyr2          6702.938
        36   01 Jun 2027 12:38:16.039   01 Jun 2027 12:39:34.434            78.395                Anadyr1          2449.844
        37   01 Jun 2027 13:56:14.676   01 Jun 2027 13:57:01.699            47.023              Murmansk1          1469.469
        38   01 Jun 2027 13:58:23.329   01 Jun 2027 13:58:32.102             8.773              Murmansk1           274.156
        39   01 Jun 2027 14:00:03.727   01 Jun 2027 14:00:24.069            20.342              Murmansk2           635.688
        40   01 Jun 2027 14:08:32.354   01 Jun 2027 14:12:44.853           252.499                Anadyr1          7890.594
        41   01 Jun 2027 15:37:28.652   01 Jun 2027 15:39:47.844           139.192              Murmansk1          4349.750
        42   01 Jun 2027 15:44:20.795   01 Jun 2027 15:46:43.638           142.843                Anadyr1          4463.844
        43   01 Jun 2027 15:46:59.760   01 Jun 2027 15:51:02.583           242.823               Magadan2          7588.219
        44   01 Jun 2027 15:53:27.228   01 Jun 2027 15:54:55.005            87.777               Magadan1          2743.031
        45   01 Jun 2027 17:20:15.761   01 Jun 2027 17:20:56.743            40.982                Anadyr2          1280.688
        46   01 Jun 2027 17:21:45.733   01 Jun 2027 17:22:20.216            34.483                Anadyr2          1077.594
        47   01 Jun 2027 17:22:32.755   01 Jun 2027 17:24:00.534            87.779               Magadan1          2743.094
        48   01 Jun 2027 17:25:37.226   01 Jun 2027 17:25:37.914             0.688                Norilsk            21.500
        49   01 Jun 2027 17:30:47.483   01 Jun 2027 17:31:03.392            15.909               Magadan2           497.156
        50   01 Jun 2027 17:31:06.207   01 Jun 2027 17:31:17.989            11.782               Magadan2           368.187
        51   01 Jun 2027 17:34:01.740   01 Jun 2027 17:34:44.410            42.670               Magadan2          1333.437
        52   01 Jun 2027 18:15:01.489   01 Jun 2027 18:17:40.940           159.451            RioGallegos          4982.844
        53   01 Jun 2027 18:17:54.743   01 Jun 2027 18:21:20.278           205.535            RioGallegos          6422.969
        54   01 Jun 2027 18:59:25.499   01 Jun 2027 19:02:23.598           178.099                Norilsk          5565.594
        55   01 Jun 2027 19:03:44.360   01 Jun 2027 19:04:19.209            34.849                Irkutsk          1089.031
        56   01 Jun 2027 19:11:23.390   01 Jun 2027 19:12:45.191            81.801                Irkutsk          2556.281
        57   01 Jun 2027 19:16:22.619   01 Jun 2027 19:18:24.846           122.227                Sumatra          3819.594
        58   01 Jun 2027 19:20:48.388   01 Jun 2027 19:22:39.761           111.373                Sumatra          3480.406
        59   01 Jun 2027 20:38:10.075   01 Jun 2027 20:38:20.293            10.218                Novosib           319.312
        60   01 Jun 2027 20:40:16.902   01 Jun 2027 20:41:14.236            57.334                Novosib          1791.688
        61   01 Jun 2027 20:45:11.844   01 Jun 2027 20:45:39.024            27.180                Novosib           849.375
        62   01 Jun 2027 20:46:17.048   01 Jun 2027 20:47:32.038            74.990                  Delhi          2343.438
        63   01 Jun 2027 20:49:08.868   01 Jun 2027 20:51:30.623           141.755                  Delhi          4429.844
        64   01 Jun 2027 22:12:31.220   01 Jun 2027 22:16:31.767           240.547              Murmansk1          7517.094
        65   01 Jun 2027 22:16:31.767   01 Jun 2027 22:16:37.448             5.681              Murmansk2           177.531
        66   01 Jun 2027 22:17:06.026   01 Jun 2027 22:19:00.032           114.006              Murmansk1          3562.688
        67   01 Jun 2027 22:19:15.156   01 Jun 2027 22:22:27.408           192.252                 Moscow          6007.875
        68   01 Jun 2027 23:48:10.620   01 Jun 2027 23:48:24.422            13.802              Murmansk1           431.312
        69   01 Jun 2027 23:49:26.074   01 Jun 2027 23:51:51.063           144.989              Murmansk2          4530.906
        70   01 Jun 2027 23:52:34.481   01 Jun 2027 23:53:47.214            72.733                 Moscow          2272.906
        71   02 Jun 2027 00:02:46.015   02 Jun 2027 00:03:24.797            38.782                 Moscow          1211.938
        72   02 Jun 2027 00:16:16.870   02 Jun 2027 00:18:00.481           103.611               CapeTown          3237.844
        73   02 Jun 2027 00:19:42.516   02 Jun 2027 00:21:39.726           117.210               CapeTown          3662.813
        74   02 Jun 2027 01:21:12.276   02 Jun 2027 01:21:23.027            10.751               Magadan2           335.969
        75   02 Jun 2027 01:24:08.324   02 Jun 2027 01:26:28.580           140.256              Murmansk1          4383.000
        76   02 Jun 2027 01:30:43.270   02 Jun 2027 01:31:23.314            40.044                 Moscow          1251.375
        77   02 Jun 2027 01:51:39.077   02 Jun 2027 01:52:41.319            62.242               CapeTown          1945.062
        78   02 Jun 2027 02:01:05.579   02 Jun 2027 02:01:25.376            19.797               CapeTown           618.656
        79   02 Jun 2027 02:48:14.278   02 Jun 2027 02:51:00.987           166.709               Magadan1          5209.656
        80   02 Jun 2027 02:51:07.743   02 Jun 2027 02:51:09.913             2.170               Magadan2            67.812
        81   02 Jun 2027 02:51:16.807   02 Jun 2027 02:51:17.709             0.902                Anadyr2            28.187
        82   02 Jun 2027 02:51:34.346   02 Jun 2027 02:51:46.943            12.597               Magadan2           393.656
        83   02 Jun 2027 02:51:46.943   02 Jun 2027 02:52:00.574            13.631               Magadan1           425.969
        84   02 Jun 2027 02:53:35.338   02 Jun 2027 02:53:52.528            17.190               Magadan2           537.188
        85   02 Jun 2027 02:55:41.090   02 Jun 2027 02:55:52.087            10.997               Magadan2           343.656
        86   02 Jun 2027 02:56:03.268   02 Jun 2027 02:56:17.848            14.580               Magadan2           455.625
        87   02 Jun 2027 02:56:56.666   02 Jun 2027 02:57:23.757            27.091                Norilsk           846.594
        88   02 Jun 2027 03:00:01.799   02 Jun 2027 03:00:43.765            41.966              Murmansk1          1311.437
        89   02 Jun 2027 04:30:17.692   02 Jun 2027 04:30:44.360            26.668                Irkutsk           833.375
        90   02 Jun 2027 04:31:46.801   02 Jun 2027 04:32:42.025            55.224                Irkutsk          1725.750
        91   02 Jun 2027 04:33:35.476   02 Jun 2027 04:35:03.967            88.491                Irkutsk          2765.344
        92   02 Jun 2027 05:12:40.025   02 Jun 2027 05:14:37.276           117.251            RioGallegos          3664.094
        93   02 Jun 2027 06:08:41.405   02 Jun 2027 06:10:26.260           104.855                Novosib          3276.719
        94   02 Jun 2027 06:10:31.277   02 Jun 2027 06:10:41.055             9.778              Murmansk1           305.563
        95   02 Jun 2027 06:10:55.081   02 Jun 2027 06:11:46.404            51.323                Novosib          1603.844
        96   02 Jun 2027 06:12:10.036   02 Jun 2027 06:12:31.346            21.310                Novosib           665.937
        97   02 Jun 2027 06:12:48.462   02 Jun 2027 06:13:16.918            28.456                Novosib           889.250
        98   02 Jun 2027 07:43:40.059   02 Jun 2027 07:44:11.741            31.682                Novosib           990.062
        99   02 Jun 2027 07:44:46.102   02 Jun 2027 07:45:06.340            20.238              Murmansk1           632.438
       100   02 Jun 2027 07:45:09.401   02 Jun 2027 07:46:21.258            71.857                Irkutsk          2245.531
       101   02 Jun 2027 07:47:17.294   02 Jun 2027 07:47:30.211            12.917                Norilsk           403.656
       102   02 Jun 2027 07:48:45.913   02 Jun 2027 07:50:17.989            92.076              Murmansk1          2877.375
       103   02 Jun 2027 08:24:52.663   02 Jun 2027 08:29:46.656           293.993            RioGallegos          9187.281
       104   02 Jun 2027 08:59:28.890   02 Jun 2027 08:59:57.166            28.276                Sumatra           883.625
       105   02 Jun 2027 09:01:44.641   02 Jun 2027 09:03:31.082           106.441                Sumatra          3326.281
       106   02 Jun 2027 09:21:29.889   02 Jun 2027 09:22:03.044            33.155                Novosib          1036.094
       107   02 Jun 2027 09:22:17.491   02 Jun 2027 09:22:50.823            33.332                Novosib          1041.625
       108   02 Jun 2027 09:22:53.321   02 Jun 2027 09:22:59.590             6.269                Novosib           195.906
       109   02 Jun 2027 09:23:06.142   02 Jun 2027 09:23:42.926            36.784                Novosib          1149.500
       110   02 Jun 2027 10:44:30.362   02 Jun 2027 10:46:21.213           110.851                  Delhi          3464.094
       111   02 Jun 2027 10:52:03.957   02 Jun 2027 10:52:25.682            21.725                  Delhi           678.906
       112   02 Jun 2027 10:57:01.434   02 Jun 2027 10:57:11.139             9.705              Murmansk2           303.281
       113   02 Jun 2027 11:00:26.329   02 Jun 2027 11:00:27.691             1.362                Norilsk            42.562
       114   02 Jun 2027 11:02:26.806   02 Jun 2027 11:02:30.715             3.909                Norilsk           122.156
       115   02 Jun 2027 12:27:51.621   02 Jun 2027 12:28:08.465            16.844                 Moscow           526.375
       116   02 Jun 2027 12:28:25.017   02 Jun 2027 12:29:30.421            65.404                 Moscow          2043.875
       117   02 Jun 2027 12:30:16.894   02 Jun 2027 12:31:59.249           102.355              Murmansk1          3198.594
       118   02 Jun 2027 12:32:12.605   02 Jun 2027 12:32:15.103             2.498              Murmansk1            78.063
       119   02 Jun 2027 12:32:15.103   02 Jun 2027 12:33:15.479            60.376              Murmansk2          1886.750
       120   02 Jun 2027 12:33:40.261   02 Jun 2027 12:34:54.795            74.534              Murmansk1          2329.188
       121   02 Jun 2027 12:40:24.895   02 Jun 2027 12:40:47.951            23.056              Murmansk2           720.500
       122   02 Jun 2027 12:45:25.806   02 Jun 2027 12:49:11.796           225.990                Anadyr1          7062.188
       123   02 Jun 2027 12:50:34.637   02 Jun 2027 12:52:28.927           114.290                Anadyr2          3571.563
       124   02 Jun 2027 14:08:42.871   02 Jun 2027 14:09:46.105            63.234              Murmansk2          1976.062
       125   02 Jun 2027 14:20:31.483   02 Jun 2027 14:22:09.978            98.495                Anadyr1          3077.969
       126   02 Jun 2027 14:22:16.771   02 Jun 2027 14:23:51.432            94.661                Anadyr2          2958.156
       127   02 Jun 2027 14:26:05.283   02 Jun 2027 14:27:51.189           105.906               Magadan2          3309.562
       128   02 Jun 2027 15:51:51.494   02 Jun 2027 15:52:07.189            15.695              Murmansk2           490.469
       129   02 Jun 2027 15:56:22.097   02 Jun 2027 15:59:29.447           187.350                Anadyr2          5854.688
       130   02 Jun 2027 16:00:22.175   02 Jun 2027 16:02:16.388           114.213               Magadan1          3569.156
       131   02 Jun 2027 16:02:16.388   02 Jun 2027 16:03:01.104            44.716               Magadan2          1397.375
       132   02 Jun 2027 16:04:19.215   02 Jun 2027 16:04:49.959            30.744               Magadan2           960.750
       133   02 Jun 2027 16:05:34.976   02 Jun 2027 16:05:43.524             8.548               Magadan2           267.125
       134   02 Jun 2027 16:06:57.238   02 Jun 2027 16:07:20.878            23.640               Magadan2           738.750
       135   02 Jun 2027 17:32:16.414   02 Jun 2027 17:33:35.787            79.373                Anadyr1          2480.406
       136   02 Jun 2027 17:34:17.831   02 Jun 2027 17:34:47.514            29.683                Anadyr2           927.594
       137   02 Jun 2027 17:35:05.274   02 Jun 2027 17:35:50.612            45.338                Norilsk          1416.812
       138   02 Jun 2027 17:36:24.990   02 Jun 2027 17:37:04.101            39.111               Magadan1          1222.219
       139   02 Jun 2027 17:37:45.273   02 Jun 2027 17:38:19.924            34.651               Magadan1          1082.844
       140   02 Jun 2027 17:38:39.717   02 Jun 2027 17:38:45.564             5.847               Magadan1           182.719
       141   02 Jun 2027 17:43:32.275   02 Jun 2027 17:43:44.246            11.971               Magadan1           374.094
       142   02 Jun 2027 18:26:47.244   02 Jun 2027 18:31:20.672           273.428            RioGallegos          8544.625
       143   02 Jun 2027 19:10:08.505   02 Jun 2027 19:11:43.151            94.646                Norilsk          2957.688
       144   02 Jun 2027 19:14:20.161   02 Jun 2027 19:16:58.725           158.564                Irkutsk          4955.125
       145   02 Jun 2027 19:17:25.282   02 Jun 2027 19:21:16.275           230.993                Novosib          7218.531
       146   02 Jun 2027 19:28:08.182   02 Jun 2027 19:29:32.649            84.467                Sumatra          2639.594
       147   02 Jun 2027 19:30:43.218   02 Jun 2027 19:31:57.716            74.498                Sumatra          2328.062
       148   02 Jun 2027 20:51:13.914   02 Jun 2027 20:52:13.136            59.222                Novosib          1850.688
       149   02 Jun 2027 20:54:58.822   02 Jun 2027 20:56:33.417            94.595                Novosib          2956.094
       150   02 Jun 2027 20:57:55.642   02 Jun 2027 21:01:23.923           208.281                  Delhi          6508.781
       151   02 Jun 2027 22:24:27.614   02 Jun 2027 22:26:42.117           134.503              Murmansk2          4203.219
       152   02 Jun 2027 22:26:57.984   02 Jun 2027 22:28:36.870            98.886              Murmansk1          3090.187
       153   02 Jun 2027 22:29:24.094   02 Jun 2027 22:34:03.074           278.980                 Moscow          8718.125
       154   02 Jun 2027 22:35:46.540   02 Jun 2027 22:35:48.059             1.519                 Moscow            47.469
       155   03 Jun 2027 00:00:11.863   03 Jun 2027 00:01:03.328            51.465              Murmansk1          1608.281
       156   03 Jun 2027 00:01:18.861   03 Jun 2027 00:01:56.741            37.880              Murmansk1          1183.750
       157   03 Jun 2027 00:03:34.189   03 Jun 2027 00:04:15.711            41.522                 Moscow          1297.562
       158   03 Jun 2027 00:05:20.041   03 Jun 2027 00:05:50.068            30.027                 Moscow           938.344
       159   03 Jun 2027 00:06:10.403   03 Jun 2027 00:07:08.375            57.972                 Moscow          1811.625
       160   03 Jun 2027 00:27:55.761   03 Jun 2027 00:31:37.723           221.962               CapeTown          6936.312
       161   03 Jun 2027 00:39:38.979   03 Jun 2027 00:39:57.213            18.234               CapeTown           569.813
       162   03 Jun 2027 01:29:56.085   03 Jun 2027 01:29:58.771             2.686               Magadan2            83.938
       163   03 Jun 2027 01:31:14.319   03 Jun 2027 01:31:39.337            25.018               Magadan2           781.813
       164   03 Jun 2027 01:32:14.407   03 Jun 2027 01:32:43.413            29.006               Magadan2           906.437
       165   03 Jun 2027 01:36:09.882   03 Jun 2027 01:37:27.838            77.956              Murmansk1          2436.125
       166   03 Jun 2027 01:39:23.930   03 Jun 2027 01:42:24.084           180.154                 Moscow          5629.813
       167   03 Jun 2027 02:13:15.591   03 Jun 2027 02:13:58.435            42.844               CapeTown          1338.875
       168   03 Jun 2027 03:00:04.264   03 Jun 2027 03:01:54.386           110.122               Magadan1          3441.313
       169   03 Jun 2027 03:05:22.851   03 Jun 2027 03:09:45.208           262.357               Magadan2          8198.656
       170   03 Jun 2027 03:09:45.208   03 Jun 2027 03:11:30.454           105.246               Magadan1          3288.937
       171   03 Jun 2027 04:44:20.710   03 Jun 2027 04:45:23.515            62.805               Magadan1          1962.656
       172   03 Jun 2027 04:45:45.125   03 Jun 2027 04:47:09.277            84.152               Magadan2          2629.750
       173   03 Jun 2027 04:47:14.705   03 Jun 2027 04:47:20.999             6.294                Irkutsk           196.688
       174   03 Jun 2027 06:18:04.470   03 Jun 2027 06:18:56.333            51.863               Magadan2          1620.719
       175   03 Jun 2027 06:19:40.374   03 Jun 2027 06:19:50.920            10.546               Magadan1           329.562
       176   03 Jun 2027 06:19:51.976   03 Jun 2027 06:21:42.302           110.326               Magadan1          3447.688
       177   03 Jun 2027 06:21:52.587   03 Jun 2027 06:22:31.694            39.107               Magadan1          1222.094
       178   03 Jun 2027 06:22:37.309   03 Jun 2027 06:23:31.448            54.139               Magadan2          1691.844
       179   03 Jun 2027 06:25:49.643   03 Jun 2027 06:26:36.698            47.055              Murmansk2          1470.469
       180   03 Jun 2027 07:54:34.412   03 Jun 2027 07:54:38.531             4.119                Irkutsk           128.719
       181   03 Jun 2027 07:56:02.925   03 Jun 2027 07:57:22.627            79.702                Irkutsk          2490.687
       182   03 Jun 2027 07:57:28.921   03 Jun 2027 07:57:49.240            20.319                Novosib           634.969
       183   03 Jun 2027 07:58:02.042   03 Jun 2027 07:58:33.963            31.921              Murmansk1           997.531
       184   03 Jun 2027 07:59:01.199   03 Jun 2027 08:00:01.235            60.036                Irkutsk          1876.125
       185   03 Jun 2027 08:01:04.457   03 Jun 2027 08:01:22.816            18.359              Murmansk1           573.719
       186   03 Jun 2027 08:07:01.166   03 Jun 2027 08:07:32.511            31.345              Murmansk1           979.531
       187   03 Jun 2027 08:37:33.606   03 Jun 2027 08:37:51.989            18.383            RioGallegos           574.469
       188   03 Jun 2027 08:39:01.330   03 Jun 2027 08:39:18.622            17.292            RioGallegos           540.375
       189   03 Jun 2027 09:11:54.875   03 Jun 2027 09:13:21.070            86.195                Sumatra          2693.594
       190   03 Jun 2027 09:31:58.183   03 Jun 2027 09:32:46.631            48.448                Novosib          1514.000
       191   03 Jun 2027 09:32:57.420   03 Jun 2027 09:33:11.922            14.502              Murmansk2           453.187
       192   03 Jun 2027 09:33:29.764   03 Jun 2027 09:34:27.974            58.210                Novosib          1819.062
       193   03 Jun 2027 09:35:02.356   03 Jun 2027 09:35:10.677             8.321                Novosib           260.031
       194   03 Jun 2027 09:35:36.677   03 Jun 2027 09:35:39.201             2.524                Novosib            78.875
       195   03 Jun 2027 10:57:49.429   03 Jun 2027 11:00:07.178           137.749                  Delhi          4304.656
       196   03 Jun 2027 11:00:30.885   03 Jun 2027 11:00:54.448            23.563                  Delhi           736.344
       197   03 Jun 2027 11:12:51.958   03 Jun 2027 11:12:55.338             3.380                Norilsk           105.625
       198   03 Jun 2027 12:39:06.820   03 Jun 2027 12:40:39.814            92.994                 Moscow          2906.062
       199   03 Jun 2027 12:41:44.421   03 Jun 2027 12:42:24.829            40.408                 Moscow          1262.750
       200   03 Jun 2027 12:42:29.651   03 Jun 2027 12:44:03.599            93.948              Murmansk1          2935.875
       201   03 Jun 2027 12:44:36.204   03 Jun 2027 12:45:10.246            34.042              Murmansk1          1063.813
       202   03 Jun 2027 12:46:25.127   03 Jun 2027 12:47:35.121            69.994              Murmansk2          2187.313
       203   03 Jun 2027 12:57:13.733   03 Jun 2027 13:01:07.350           233.617                Anadyr2          7300.531
       204   03 Jun 2027 14:21:13.802   03 Jun 2027 14:22:17.725            63.923              Murmansk1          1997.594
       205   03 Jun 2027 14:22:26.051   03 Jun 2027 14:22:43.797            17.746              Murmansk1           554.563
       206   03 Jun 2027 14:24:07.347   03 Jun 2027 14:24:17.825            10.478              Murmansk2           327.438
       207   03 Jun 2027 14:24:25.264   03 Jun 2027 14:25:06.104            40.840              Murmansk2          1276.250
       208   03 Jun 2027 14:32:31.137   03 Jun 2027 14:35:51.952           200.815                Anadyr2          6275.469
       209   03 Jun 2027 14:36:03.878   03 Jun 2027 14:36:46.004            42.126                Anadyr2          1316.437
       210   03 Jun 2027 14:36:50.246   03 Jun 2027 14:41:44.676           294.430               Magadan1          9200.938
       211   03 Jun 2027 16:10:51.607   03 Jun 2027 16:14:13.010           201.403               Magadan1          6293.844
       212   03 Jun 2027 16:14:18.066   03 Jun 2027 16:15:00.311            42.245               Magadan1          1320.156
       213   03 Jun 2027 17:44:16.812   03 Jun 2027 17:45:35.784            78.972                Anadyr1          2467.875
       214   03 Jun 2027 17:46:35.218   03 Jun 2027 17:47:58.229            83.011               Magadan1          2594.094
       215   03 Jun 2027 17:48:11.887   03 Jun 2027 17:50:41.273           149.386                Norilsk          4668.313
       216   03 Jun 2027 17:50:52.664   03 Jun 2027 17:51:58.183            65.519                Norilsk          2047.469
       217   03 Jun 2027 17:53:34.335   03 Jun 2027 17:55:34.306           119.971                Irkutsk          3749.094
       218   03 Jun 2027 18:40:26.831   03 Jun 2027 18:41:45.038            78.207            RioGallegos          2443.969
       219   03 Jun 2027 19:22:08.974   03 Jun 2027 19:23:39.101            90.127                Norilsk          2816.469
       220   03 Jun 2027 19:26:14.654   03 Jun 2027 19:26:19.480             4.826                Irkutsk           150.812
       221   03 Jun 2027 19:26:49.482   03 Jun 2027 19:27:09.833            20.351                Irkutsk           635.969
       222   03 Jun 2027 19:27:46.446   03 Jun 2027 19:34:30.737           404.291                Novosib         12634.094
       223   03 Jun 2027 19:41:10.142   03 Jun 2027 19:41:51.105            40.963                Sumatra          1280.094
       224   03 Jun 2027 19:42:54.825   03 Jun 2027 19:43:31.211            36.386                Sumatra          1137.063
       225   03 Jun 2027 21:03:57.714   03 Jun 2027 21:05:38.312           100.598                Novosib          3143.688
       226   03 Jun 2027 21:09:40.254   03 Jun 2027 21:13:33.609           233.355                  Delhi          7292.344
       227   03 Jun 2027 22:36:25.280   03 Jun 2027 22:38:22.205           116.925              Murmansk1          3653.906
       228   03 Jun 2027 22:39:43.867   03 Jun 2027 22:41:59.205           135.338              Murmansk2          4229.312
       229   03 Jun 2027 22:43:01.136   03 Jun 2027 22:47:49.866           288.730                 Moscow          9022.812
       230   04 Jun 2027 00:12:13.273   04 Jun 2027 00:13:34.526            81.253              Murmansk2          2539.156
       231   04 Jun 2027 00:13:45.854   04 Jun 2027 00:14:08.590            22.736              Murmansk1           710.500
       232   04 Jun 2027 00:15:32.113   04 Jun 2027 00:17:47.438           135.325                 Moscow          4228.906
       233   04 Jun 2027 00:27:17.898   04 Jun 2027 00:27:58.327            40.429                 Moscow          1263.406
       234   04 Jun 2027 00:39:40.201   04 Jun 2027 00:41:27.612           107.411               CapeTown          3356.594
       235   04 Jun 2027 00:48:35.855   04 Jun 2027 00:49:06.043            30.188               CapeTown           943.375
       236   04 Jun 2027 01:38:53.203   04 Jun 2027 01:39:18.058            24.855               Magadan1           776.719
       237   04 Jun 2027 01:39:31.609   04 Jun 2027 01:40:09.517            37.908               Magadan2          1184.625
       238   04 Jun 2027 01:43:07.571   04 Jun 2027 01:43:17.002             9.431               Magadan2           294.719
       239   04 Jun 2027 01:47:07.112   04 Jun 2027 01:47:13.157             6.045               Magadan2           188.906
       240   04 Jun 2027 01:47:14.167   04 Jun 2027 01:47:22.156             7.989                Norilsk           249.656
       241   04 Jun 2027 01:48:11.343   04 Jun 2027 01:49:29.560            78.217              Murmansk1          2444.281
       242   04 Jun 2027 01:51:04.334   04 Jun 2027 01:51:10.221             5.887              Murmansk1           183.969
       243   04 Jun 2027 01:51:27.111   04 Jun 2027 01:52:42.599            75.488                 Moscow          2359.000
       244   04 Jun 2027 01:55:47.425   04 Jun 2027 01:55:53.651             6.226                 Moscow           194.563
       245   04 Jun 2027 01:56:00.602   04 Jun 2027 01:56:21.378            20.776                 Moscow           649.250
       246   04 Jun 2027 01:59:59.847   04 Jun 2027 02:00:33.155            33.308                 Moscow          1040.875
       247   04 Jun 2027 02:16:35.558   04 Jun 2027 02:17:43.935            68.377               CapeTown          2136.781
       248   04 Jun 2027 03:11:56.419   04 Jun 2027 03:12:11.291            14.872               Magadan1           464.750
       249   04 Jun 2027 03:12:12.355   04 Jun 2027 03:13:24.465            72.110               Magadan2          2253.438
       250   04 Jun 2027 03:16:40.037   04 Jun 2027 03:17:34.939            54.902                Anadyr2          1715.687
       251   04 Jun 2027 03:17:34.939   04 Jun 2027 03:17:39.689             4.750                Anadyr1           148.438
       252   04 Jun 2027 03:17:41.430   04 Jun 2027 03:18:00.137            18.707                Anadyr1           584.594
       253   04 Jun 2027 03:18:00.137   04 Jun 2027 03:18:50.400            50.263                Anadyr2          1570.719
       254   04 Jun 2027 03:18:55.605   04 Jun 2027 03:20:44.098           108.493                Anadyr1          3390.406
       255   04 Jun 2027 03:20:45.980   04 Jun 2027 03:21:04.990            19.010                Anadyr1           594.062
       256   04 Jun 2027 03:21:08.655   04 Jun 2027 03:22:16.355            67.700                Anadyr2          2115.625
       257   04 Jun 2027 03:22:16.355   04 Jun 2027 03:22:29.840            13.485                Anadyr1           421.406
       258   04 Jun 2027 03:23:40.028   04 Jun 2027 03:23:58.003            17.975                Anadyr2           561.719
       259   04 Jun 2027 04:55:48.558   04 Jun 2027 05:00:27.135           278.577               Magadan2          8705.531
       260   04 Jun 2027 06:30:07.573   04 Jun 2027 06:31:07.535            59.962               Magadan2          1873.812
       261   04 Jun 2027 06:31:11.721   04 Jun 2027 06:31:17.113             5.392               Magadan2           168.500
       262   04 Jun 2027 06:31:34.632   04 Jun 2027 06:31:45.165            10.533               Magadan2           329.156
       263   04 Jun 2027 06:31:52.866   04 Jun 2027 06:32:02.667             9.801               Magadan1           306.281
       264   04 Jun 2027 06:32:22.398   04 Jun 2027 06:33:23.181            60.783                Novosib          1899.469
       265   04 Jun 2027 06:33:42.687   04 Jun 2027 06:34:12.869            30.182               Magadan2           943.187
       266   04 Jun 2027 06:34:31.509   04 Jun 2027 06:35:03.365            31.856               Magadan1           995.500
       267   04 Jun 2027 06:37:36.866   04 Jun 2027 06:37:49.604            12.738              Murmansk2           398.062
       268   04 Jun 2027 06:43:08.065   04 Jun 2027 06:43:12.370             4.305              Murmansk1           134.531
       269   04 Jun 2027 06:43:39.865   04 Jun 2027 06:44:26.283            46.418              Murmansk1          1450.563
       270   04 Jun 2027 08:06:29.843   04 Jun 2027 08:06:38.978             9.135                Irkutsk           285.469
       271   04 Jun 2027 08:07:04.505   04 Jun 2027 08:07:32.295            27.790                Novosib           868.438
       272   04 Jun 2027 08:07:54.501   04 Jun 2027 08:08:30.467            35.966                Novosib          1123.938
       273   04 Jun 2027 08:08:39.731   04 Jun 2027 08:09:26.855            47.124              Murmansk2          1472.625
       274   04 Jun 2027 08:09:32.711   04 Jun 2027 08:09:45.828            13.117                Novosib           409.906
       275   04 Jun 2027 08:09:57.340   04 Jun 2027 08:10:17.330            19.990                Irkutsk           624.688
       276   04 Jun 2027 08:11:08.679   04 Jun 2027 08:11:11.580             2.901                Irkutsk            90.656
       277   04 Jun 2027 08:11:32.629   04 Jun 2027 08:12:10.805            38.176                Novosib          1193.000
       278   04 Jun 2027 08:13:04.153   04 Jun 2027 08:13:23.694            19.541              Murmansk2           610.656
       279   04 Jun 2027 08:50:24.390   04 Jun 2027 08:51:08.577            44.187            RioGallegos          1380.844
       280   04 Jun 2027 08:55:26.467   04 Jun 2027 08:55:40.402            13.935            RioGallegos           435.469
       281   04 Jun 2027 09:25:17.284   04 Jun 2027 09:27:22.267           124.983                Sumatra          3905.719
       282   04 Jun 2027 09:44:43.446   04 Jun 2027 09:44:52.411             8.965                Novosib           280.156
       283   04 Jun 2027 09:46:37.052   04 Jun 2027 09:47:04.470            27.418                Novosib           856.812
       284   04 Jun 2027 09:47:09.616   04 Jun 2027 09:47:18.596             8.980                Norilsk           280.625
       285   04 Jun 2027 09:47:31.950   04 Jun 2027 09:47:48.391            16.441                Novosib           513.781
       286   04 Jun 2027 11:24:55.171   04 Jun 2027 11:24:57.618             2.447                Norilsk            76.469
       287   04 Jun 2027 12:51:28.072   04 Jun 2027 12:51:57.794            29.722                 Moscow           928.812
       288   04 Jun 2027 12:52:44.263   04 Jun 2027 12:53:23.374            39.111                 Moscow          1222.219
       289   04 Jun 2027 12:53:36.101   04 Jun 2027 12:54:02.875            26.774                 Moscow           836.687
       290   04 Jun 2027 12:54:31.683   04 Jun 2027 12:54:59.583            27.900                 Moscow           871.875
       291   04 Jun 2027 12:55:17.088   04 Jun 2027 12:55:41.207            24.119              Murmansk1           753.719
       292   04 Jun 2027 12:55:45.755   04 Jun 2027 12:55:55.355             9.600              Murmansk1           300.000
       293   04 Jun 2027 12:56:15.631   04 Jun 2027 12:57:07.929            52.298              Murmansk1          1634.313
       294   04 Jun 2027 12:58:11.850   04 Jun 2027 12:59:15.790            63.940              Murmansk1          1998.125
       295   04 Jun 2027 13:09:05.082   04 Jun 2027 13:11:59.524           174.442                Anadyr2          5451.313
       296   04 Jun 2027 14:07:43.887   04 Jun 2027 14:08:31.705            47.818               CapeTown          1494.312
       297   04 Jun 2027 14:33:47.707   04 Jun 2027 14:36:09.116           141.409              Murmansk1          4419.031
       298   04 Jun 2027 14:44:31.207   04 Jun 2027 14:46:02.210            91.003                Anadyr2          2843.844
       299   04 Jun 2027 14:46:03.406   04 Jun 2027 14:46:47.045            43.639                Anadyr1          1363.719
       300   04 Jun 2027 14:46:55.974   04 Jun 2027 14:47:08.744            12.770                Anadyr1           399.062
       301   04 Jun 2027 14:48:16.850   04 Jun 2027 14:54:53.564           396.714               Magadan1         12397.313
       302   04 Jun 2027 16:22:49.200   04 Jun 2027 16:26:15.734           206.534               Magadan2          6454.187
       303   04 Jun 2027 17:56:16.903   04 Jun 2027 17:58:45.873           148.970                Anadyr1          4655.313
       304   04 Jun 2027 17:59:11.398   04 Jun 2027 18:04:42.473           331.075                Norilsk         10346.094
       305   04 Jun 2027 18:05:36.697   04 Jun 2027 18:07:17.218           100.521                Irkutsk          3141.281
       306   04 Jun 2027 18:08:31.241   04 Jun 2027 18:10:15.054           103.813                Irkutsk          3244.156
       307   04 Jun 2027 18:21:46.418   04 Jun 2027 18:23:47.417           120.999                Sumatra          3781.219
       308   04 Jun 2027 19:34:09.839   04 Jun 2027 19:35:10.198            60.359                Norilsk          1886.219
       309   04 Jun 2027 19:39:20.327   04 Jun 2027 19:44:22.166           301.839                Novosib          9432.469
       310   04 Jun 2027 19:46:17.589   04 Jun 2027 19:46:34.162            16.573                Novosib           517.906
       311   04 Jun 2027 21:14:01.033   04 Jun 2027 21:16:15.771           134.738                Novosib          4210.563
       312   04 Jun 2027 21:18:14.146   04 Jun 2027 21:19:00.800            46.654                Novosib          1457.937
       313   04 Jun 2027 21:21:29.665   04 Jun 2027 21:24:11.533           161.868                  Delhi          5058.375
       314   04 Jun 2027 22:47:08.865   04 Jun 2027 22:47:37.891            29.026               Magadan2           907.062
       315   04 Jun 2027 22:47:45.298   04 Jun 2027 22:48:01.152            15.854               Magadan1           495.438
       316   04 Jun 2027 22:48:23.913   04 Jun 2027 22:50:10.231           106.318              Murmansk2          3322.437
       317   04 Jun 2027 22:50:15.377   04 Jun 2027 22:54:50.912           275.535              Murmansk1          8610.469
       318   04 Jun 2027 22:55:04.644   04 Jun 2027 22:59:50.004           285.360                 Moscow          8917.500
       319   04 Jun 2027 23:20:28.565   04 Jun 2027 23:21:41.825            73.260               CapeTown          2289.375
       320   04 Jun 2027 23:21:50.417   04 Jun 2027 23:22:07.601            17.184               CapeTown           537.000
       321   04 Jun 2027 23:24:02.916   04 Jun 2027 23:25:34.716            91.800               CapeTown          2868.750
       322   05 Jun 2027 00:36:49.501   05 Jun 2027 00:37:05.196            15.695                 Moscow           490.469
       323   05 Jun 2027 00:51:29.832   05 Jun 2027 00:53:17.282           107.450               CapeTown          3357.812
       324   05 Jun 2027 01:49:13.919   05 Jun 2027 01:49:32.361            18.442                Anadyr1           576.312
       325   05 Jun 2027 01:49:49.351   05 Jun 2027 01:50:57.677            68.326               Magadan1          2135.187
       326   05 Jun 2027 01:52:07.178   05 Jun 2027 01:53:06.840            59.662               Magadan1          1864.438
       327   05 Jun 2027 02:00:12.681   05 Jun 2027 02:01:09.032            56.351              Murmansk2          1760.969
       328   05 Jun 2027 02:01:23.872   05 Jun 2027 02:01:31.289             7.417              Murmansk1           231.781
       329   05 Jun 2027 02:02:59.512   05 Jun 2027 02:03:33.706            34.194              Murmansk2          1068.563
       330   05 Jun 2027 02:03:40.571   05 Jun 2027 02:04:31.054            50.483              Murmansk2          1577.594
       331   05 Jun 2027 02:09:18.246   05 Jun 2027 02:09:24.308             6.062                 Moscow           189.438
       332   05 Jun 2027 02:10:21.023   05 Jun 2027 02:10:55.384            34.361                 Moscow          1073.781
       333   05 Jun 2027 02:29:09.772   05 Jun 2027 02:30:46.181            96.409               CapeTown          3012.781
       334   05 Jun 2027 03:28:37.163   05 Jun 2027 03:34:51.676           374.513                Anadyr1         11703.531
       335   05 Jun 2027 05:06:27.316   05 Jun 2027 05:06:45.706            18.390                Irkutsk           574.687
       336   05 Jun 2027 05:06:56.483   05 Jun 2027 05:07:51.514            55.031               Magadan1          1719.719
       337   05 Jun 2027 05:08:01.132   05 Jun 2027 05:11:42.206           221.074               Magadan1          6908.563
       338   05 Jun 2027 05:11:43.760   05 Jun 2027 05:11:46.108             2.348                Irkutsk            73.375
       339   05 Jun 2027 05:12:00.262   05 Jun 2027 05:12:25.369            25.107               Magadan2           784.594
       340   05 Jun 2027 06:41:53.413   05 Jun 2027 06:42:10.590            17.177               Magadan2           536.781
       341   05 Jun 2027 06:42:58.800   05 Jun 2027 06:43:30.329            31.529               Magadan2           985.281
       342   05 Jun 2027 06:43:36.106   05 Jun 2027 06:43:54.540            18.434               Magadan1           576.063
       343   05 Jun 2027 06:44:05.972   05 Jun 2027 06:44:13.525             7.553               Magadan1           236.031
       344   05 Jun 2027 06:44:13.525   05 Jun 2027 06:44:29.143            15.618               Magadan2           488.063
       345   05 Jun 2027 06:44:47.567   05 Jun 2027 06:45:33.133            45.566                Novosib          1423.938
       346   05 Jun 2027 06:45:47.968   05 Jun 2027 06:45:56.015             8.047               Magadan1           251.469
       347   05 Jun 2027 06:45:58.054   05 Jun 2027 06:46:28.008            29.954               Magadan1           936.062
       348   05 Jun 2027 06:46:34.942   05 Jun 2027 06:46:51.208            16.266               Magadan1           508.313
       349   05 Jun 2027 06:49:30.880   05 Jun 2027 06:49:37.256             6.376              Murmansk1           199.250
       350   05 Jun 2027 06:55:01.027   05 Jun 2027 06:55:01.659             0.632              Murmansk1            19.750
       351   05 Jun 2027 06:55:10.320   05 Jun 2027 06:55:26.270            15.950              Murmansk1           498.438
       352   05 Jun 2027 07:58:18.877   05 Jun 2027 07:58:47.212            28.335                Sumatra           885.469
       353   05 Jun 2027 08:19:26.122   05 Jun 2027 08:20:09.927            43.805                Novosib          1368.906
       354   05 Jun 2027 08:20:38.467   05 Jun 2027 08:20:58.130            19.663              Murmansk2           614.469
       355   05 Jun 2027 08:21:06.007   05 Jun 2027 08:21:28.223            22.216                Irkutsk           694.250
       356   05 Jun 2027 08:21:36.020   05 Jun 2027 08:22:31.443            55.423                Novosib          1731.969
       357   05 Jun 2027 08:22:53.807   05 Jun 2027 08:23:15.200            21.393                Novosib           668.531
       358   05 Jun 2027 08:24:20.457   05 Jun 2027 08:24:32.887            12.430                Novosib           388.438
       359   05 Jun 2027 09:03:30.487   05 Jun 2027 09:04:18.875            48.388            RioGallegos          1512.125
       360   05 Jun 2027 09:05:11.077   05 Jun 2027 09:06:02.605            51.528            RioGallegos          1610.250
       361   05 Jun 2027 09:43:51.488   05 Jun 2027 09:44:28.180            36.692                  Delhi          1146.625
       362   05 Jun 2027 09:56:06.982   05 Jun 2027 09:56:57.630            50.648                Novosib          1582.750
       363   05 Jun 2027 09:57:27.003   05 Jun 2027 09:58:06.127            39.124                Novosib          1222.625
       364   05 Jun 2027 09:59:06.316   05 Jun 2027 09:59:55.645            49.329                Novosib          1541.531
       365   05 Jun 2027 11:38:31.495   05 Jun 2027 11:38:36.226             4.731                Norilsk           147.844
       366   05 Jun 2027 13:03:53.670   05 Jun 2027 13:05:01.606            67.936                 Moscow          2123.000
       367   05 Jun 2027 13:05:15.194   05 Jun 2027 13:05:17.673             2.479                 Moscow            77.469
       368   05 Jun 2027 13:05:30.500   05 Jun 2027 13:06:37.872            67.372                 Moscow          2105.375
       369   05 Jun 2027 13:07:01.052   05 Jun 2027 13:07:47.881            46.829              Murmansk2          1463.406
       370   05 Jun 2027 13:08:50.998   05 Jun 2027 13:09:05.110            14.112              Murmansk2           441.000
       371   05 Jun 2027 13:09:13.159   05 Jun 2027 13:09:59.120            45.961              Murmansk2          1436.281
       372   05 Jun 2027 13:20:58.775   05 Jun 2027 13:23:36.661           157.886                Anadyr1          4933.937
       373   05 Jun 2027 13:24:23.771   05 Jun 2027 13:25:01.948            38.177                Anadyr2          1193.031
       374   05 Jun 2027 14:15:58.063   05 Jun 2027 14:16:33.968            35.905               CapeTown          1122.031
       375   05 Jun 2027 14:19:07.916   05 Jun 2027 14:20:04.552            56.636               CapeTown          1769.875
       376   05 Jun 2027 14:46:24.906   05 Jun 2027 14:48:10.814           105.908              Murmansk2          3309.625
       377   05 Jun 2027 14:56:31.628   05 Jun 2027 14:58:57.659           146.031                Anadyr2          4563.469
       378   05 Jun 2027 14:59:52.073   05 Jun 2027 15:00:07.270            15.197                Anadyr2           474.906
       379   05 Jun 2027 15:00:10.902   05 Jun 2027 15:06:24.980           374.078               Magadan2         11689.937
       380   05 Jun 2027 16:34:47.639   05 Jun 2027 16:38:18.459           210.820               Magadan2          6588.125
       381   05 Jun 2027 17:30:10.614   05 Jun 2027 17:31:46.126            95.512            RioGallegos          2984.750
       382   05 Jun 2027 18:08:16.633   05 Jun 2027 18:09:36.942            80.309                Anadyr2          2509.656
       383   05 Jun 2027 18:10:32.142   05 Jun 2027 18:14:37.414           245.272                Norilsk          7664.750
       384   05 Jun 2027 18:15:38.176   05 Jun 2027 18:16:51.828            73.652                Norilsk          2301.625
       385   05 Jun 2027 18:17:40.972   05 Jun 2027 18:19:44.432           123.460                Irkutsk          3858.125
       386   05 Jun 2027 18:20:20.127   05 Jun 2027 18:20:57.027            36.900                Irkutsk          1153.125
       387   05 Jun 2027 18:22:24.847   05 Jun 2027 18:23:21.322            56.475                Irkutsk          1764.844
       388   05 Jun 2027 18:31:27.309   05 Jun 2027 18:33:11.157           103.848                Sumatra          3245.250
       389   05 Jun 2027 18:36:42.040   05 Jun 2027 18:37:59.304            77.264                Sumatra          2414.500
       390   05 Jun 2027 19:49:02.730   05 Jun 2027 19:49:41.643            38.913                Norilsk          1216.031
       391   05 Jun 2027 19:51:01.934   05 Jun 2027 19:54:43.304           221.370                Novosib          6917.812
       392   05 Jun 2027 19:56:56.026   05 Jun 2027 19:57:19.102            23.076                Novosib           721.125
       393   05 Jun 2027 20:12:20.744   05 Jun 2027 20:12:41.915            21.171                Sumatra           661.594
       394   05 Jun 2027 21:23:27.272   05 Jun 2027 21:23:40.055            12.783               Magadan2           399.469
       395   05 Jun 2027 21:25:31.587   05 Jun 2027 21:29:23.967           232.380              Murmansk1          7261.875
       396   05 Jun 2027 21:33:23.111   05 Jun 2027 21:34:52.670            89.559                  Delhi          2798.719
       397   05 Jun 2027 21:35:27.115   05 Jun 2027 21:35:38.522            11.407                  Delhi           356.469
       398   05 Jun 2027 22:57:25.298   05 Jun 2027 22:57:49.389            24.091               Magadan2           752.844
       399   05 Jun 2027 22:59:15.872   05 Jun 2027 22:59:27.144            11.272                Norilsk           352.250
       400   05 Jun 2027 22:59:30.730   05 Jun 2027 22:59:44.726            13.996               Magadan1           437.375
       401   05 Jun 2027 23:00:10.374   05 Jun 2027 23:00:44.538            34.164               Magadan1          1067.625
       402   05 Jun 2027 23:00:45.060   05 Jun 2027 23:02:02.395            77.335              Murmansk2          2416.719
       403   05 Jun 2027 23:02:11.387   05 Jun 2027 23:05:52.889           221.502              Murmansk1          6921.938
       404   05 Jun 2027 23:07:01.501   05 Jun 2027 23:07:08.700             7.199              Murmansk2           224.969
       405   05 Jun 2027 23:07:12.179   05 Jun 2027 23:10:01.230           169.051                 Moscow          5282.844
       406   05 Jun 2027 23:10:30.293   05 Jun 2027 23:11:52.538            82.245                 Moscow          2570.156
       407   05 Jun 2027 23:31:11.546   05 Jun 2027 23:33:08.403           116.857               CapeTown          3651.781
       408   05 Jun 2027 23:36:22.653   05 Jun 2027 23:38:27.819           125.166               CapeTown          3911.438
       409   06 Jun 2027 00:49:51.285   06 Jun 2027 00:50:14.188            22.903                 Moscow           715.719
       410   06 Jun 2027 01:03:24.455   06 Jun 2027 01:04:08.598            44.143               CapeTown          1379.469
       411   06 Jun 2027 01:07:08.876   06 Jun 2027 01:07:49.228            40.352               CapeTown          1261.000
       412   06 Jun 2027 01:11:55.535   06 Jun 2027 01:12:21.160            25.625               CapeTown           800.781
       413   06 Jun 2027 02:00:06.713   06 Jun 2027 02:00:46.374            39.661                Anadyr2          1239.406
       414   06 Jun 2027 02:01:29.364   06 Jun 2027 02:02:32.505            63.141               Magadan2          1973.156
       415   06 Jun 2027 02:03:00.383   06 Jun 2027 02:03:35.666            35.283               Magadan2          1102.594
       416   06 Jun 2027 02:04:05.998   06 Jun 2027 02:04:13.601             7.603               Magadan1           237.594
       417   06 Jun 2027 02:08:53.915   06 Jun 2027 02:09:04.794            10.879                Norilsk           339.969
       418   06 Jun 2027 02:10:14.773   06 Jun 2027 02:10:31.015            16.242               Magadan2           507.562
       419   06 Jun 2027 02:12:13.862   06 Jun 2027 02:13:52.983            99.121              Murmansk2          3097.531
       420   06 Jun 2027 02:15:33.087   06 Jun 2027 02:15:44.823            11.736              Murmansk2           366.750
       421   06 Jun 2027 02:16:01.998   06 Jun 2027 02:17:01.953            59.955                 Moscow          1873.594
       422   06 Jun 2027 02:23:45.223   06 Jun 2027 02:24:48.828            63.605                 Moscow          1987.656
       423   06 Jun 2027 02:42:02.744   06 Jun 2027 02:42:33.500            30.756               CapeTown           961.125
       424   06 Jun 2027 02:49:28.070   06 Jun 2027 02:49:55.630            27.560               CapeTown           861.250
       425   06 Jun 2027 03:41:06.921   06 Jun 2027 03:41:22.469            15.548                Anadyr2           485.875
       426   06 Jun 2027 03:42:09.637   06 Jun 2027 03:43:24.924            75.287                Anadyr1          2352.719
       427   06 Jun 2027 03:43:24.924   06 Jun 2027 03:44:14.868            49.944                Anadyr2          1560.750
       428   06 Jun 2027 03:44:22.515   06 Jun 2027 03:46:19.130           116.615                Anadyr1          3644.219
       429   06 Jun 2027 03:46:19.130   06 Jun 2027 03:46:30.233            11.103                Anadyr2           346.969
       430   06 Jun 2027 03:46:39.771   06 Jun 2027 03:47:09.090            29.319               Magadan2           916.219
       431   06 Jun 2027 04:34:05.006   06 Jun 2027 04:34:54.458            49.452            RioGallegos          1545.375
       432   06 Jun 2027 05:19:14.307   06 Jun 2027 05:22:59.220           224.913                Irkutsk          7028.531
       433   06 Jun 2027 05:23:29.558   06 Jun 2027 05:23:55.828            26.270                Irkutsk           820.937
       434   06 Jun 2027 06:53:52.225   06 Jun 2027 06:54:13.496            21.271               Magadan1           664.719
       435   06 Jun 2027 06:54:36.081   06 Jun 2027 06:54:52.294            16.213               Magadan1           506.656
       436   06 Jun 2027 06:55:23.963   06 Jun 2027 06:55:52.397            28.434               Magadan1           888.563
       437   06 Jun 2027 06:55:55.887   06 Jun 2027 06:56:38.035            42.148               Magadan1          1317.125
       438   06 Jun 2027 06:56:47.526   06 Jun 2027 06:57:10.774            23.248                Norilsk           726.500
       439   06 Jun 2027 06:57:17.218   06 Jun 2027 06:57:46.439            29.221                Novosib           913.156
       440   06 Jun 2027 06:57:51.135   06 Jun 2027 06:58:00.532             9.397               Magadan1           293.656
       441   06 Jun 2027 06:58:05.079   06 Jun 2027 06:58:32.372            27.293                Norilsk           852.906
       442   06 Jun 2027 07:00:29.458   06 Jun 2027 07:00:46.383            16.925                Novosib           528.906
       443   06 Jun 2027 07:45:53.647   06 Jun 2027 07:46:27.148            33.501            RioGallegos          1046.906
       444   06 Jun 2027 08:18:24.772   06 Jun 2027 08:18:34.173             9.401                Sumatra           293.781
       445   06 Jun 2027 08:32:30.415   06 Jun 2027 08:33:04.217            33.802                Novosib          1056.312
       446   06 Jun 2027 08:33:11.935   06 Jun 2027 08:33:38.850            26.915                Novosib           841.094
       447   06 Jun 2027 08:33:50.683   06 Jun 2027 08:34:26.311            35.628                Irkutsk          1113.375
       448   06 Jun 2027 08:35:20.811   06 Jun 2027 08:35:50.320            29.509                Irkutsk           922.156
       449   06 Jun 2027 08:36:42.826   06 Jun 2027 08:37:51.180            68.354                Novosib          2136.062
       450   06 Jun 2027 09:17:13.133   06 Jun 2027 09:18:21.135            68.002            RioGallegos          2125.062
       451   06 Jun 2027 09:57:02.379   06 Jun 2027 09:58:05.322            62.943                  Delhi          1966.969
       452   06 Jun 2027 10:07:23.947   06 Jun 2027 10:07:33.757             9.810                Novosib           306.562
       453   06 Jun 2027 10:07:49.623   06 Jun 2027 10:08:09.538            19.915                Novosib           622.344
       454   06 Jun 2027 10:10:08.785   06 Jun 2027 10:10:52.240            43.455                Novosib          1357.969
       455   06 Jun 2027 10:11:00.877   06 Jun 2027 10:11:08.526             7.649                Norilsk           239.031
       456   06 Jun 2027 10:12:28.128   06 Jun 2027 10:12:29.432             1.304                Novosib            40.750
       457   06 Jun 2027 11:49:35.441   06 Jun 2027 11:50:25.567            50.126              Murmansk1          1566.437
       458   06 Jun 2027 13:16:51.716   06 Jun 2027 13:17:27.652            35.936                 Moscow          1123.000
       459   06 Jun 2027 13:18:58.635   06 Jun 2027 13:20:00.126            61.491                 Moscow          1921.594
       460   06 Jun 2027 13:20:23.607   06 Jun 2027 13:20:48.300            24.693              Murmansk2           771.656
       461   06 Jun 2027 13:28:09.123   06 Jun 2027 13:29:10.651            61.528              Murmansk1          1922.750
       462   06 Jun 2027 13:32:54.178   06 Jun 2027 13:34:37.605           103.427                Anadyr2          3232.094
       463   06 Jun 2027 13:36:02.205   06 Jun 2027 13:36:14.349            12.144                Anadyr2           379.500
       464   06 Jun 2027 13:39:12.793   06 Jun 2027 13:40:52.469            99.676                Anadyr1          3114.875
       465   06 Jun 2027 14:29:17.737   06 Jun 2027 14:29:21.453             3.716               CapeTown           116.125
       466   06 Jun 2027 14:32:05.958   06 Jun 2027 14:32:11.887             5.929               CapeTown           185.281
       467   06 Jun 2027 14:36:01.183   06 Jun 2027 14:36:31.463            30.280               CapeTown           946.250
       468   06 Jun 2027 14:37:25.524   06 Jun 2027 14:37:48.713            23.189               CapeTown           724.656
       469   06 Jun 2027 14:59:05.897   06 Jun 2027 15:02:09.197           183.300              Murmansk2          5728.125
       470   06 Jun 2027 15:08:32.319   06 Jun 2027 15:10:57.458           145.139                Anadyr1          4535.594
       471   06 Jun 2027 15:11:40.219   06 Jun 2027 15:15:27.366           227.147               Magadan1          7098.344
       472   06 Jun 2027 15:16:32.477   06 Jun 2027 15:19:04.271           151.794               Magadan2          4743.562
       473   06 Jun 2027 16:46:46.783   06 Jun 2027 16:49:06.946           140.163               Magadan1          4380.094
       474   06 Jun 2027 16:54:01.746   06 Jun 2027 16:54:07.218             5.472               Magadan2           171.000
       475   06 Jun 2027 16:54:35.898   06 Jun 2027 16:55:07.393            31.495               Magadan2           984.219
       476   06 Jun 2027 17:40:42.578   06 Jun 2027 17:43:27.684           165.106            RioGallegos          5159.563
       477   06 Jun 2027 18:20:15.943   06 Jun 2027 18:21:37.952            82.009                Anadyr2          2562.781
       478   06 Jun 2027 18:22:27.992   06 Jun 2027 18:26:36.828           248.836                Norilsk          7776.125
       479   06 Jun 2027 18:27:57.777   06 Jun 2027 18:28:59.524            61.747                Norilsk          1929.594
       480   06 Jun 2027 18:29:46.030   06 Jun 2027 18:30:54.833            68.803                Irkutsk          2150.094
       481   06 Jun 2027 18:32:05.959   06 Jun 2027 18:33:03.427            57.468                Irkutsk          1795.875
       482   06 Jun 2027 18:42:19.764   06 Jun 2027 18:44:48.307           148.543                Sumatra          4641.969
