uniorb/output/strategy_4/Drop/Drop_KinoSat_110901.txt

KinoSat_110901
-------------------------
    Access    *     Start Time (UTCG)     *     Stop Time (UTCG)  *   Duration (s)        *       Station  *  Data (Mbytes)
         1   01 Jun 2027 04:10:23.040   01 Jun 2027 04:13:21.893           178.853                Anadyr2          5589.156
         2   01 Jun 2027 04:13:21.893   01 Jun 2027 04:16:29.285           187.392                Anadyr1          5856.000
         3   01 Jun 2027 05:46:35.698   01 Jun 2027 05:47:27.202            51.504                Anadyr2          1609.500
         4   01 Jun 2027 05:47:47.502   01 Jun 2027 05:49:56.971           129.469                Anadyr1          4045.906
         5   01 Jun 2027 05:50:08.280   01 Jun 2027 05:52:04.999           116.719               Magadan1          3647.469
         6   01 Jun 2027 07:22:24.464   01 Jun 2027 07:23:04.474            40.010               Magadan1          1250.312
         7   01 Jun 2027 07:23:17.047   01 Jun 2027 07:23:37.553            20.506               Magadan2           640.812
         8   01 Jun 2027 07:23:37.553   01 Jun 2027 07:24:06.043            28.490               Magadan1           890.313
         9   01 Jun 2027 07:24:14.185   01 Jun 2027 07:25:31.864            77.679               Magadan2          2427.469
        10   01 Jun 2027 07:25:43.799   01 Jun 2027 07:27:50.739           126.940                Irkutsk          3966.875
        11   01 Jun 2027 07:28:02.235   01 Jun 2027 07:28:34.620            32.385                Novosib          1012.031
        12   01 Jun 2027 07:29:19.994   01 Jun 2027 07:29:38.484            18.490              Murmansk2           577.812
        13   01 Jun 2027 07:30:42.007   01 Jun 2027 07:31:02.566            20.559                Norilsk           642.469
        14   01 Jun 2027 08:02:33.806   01 Jun 2027 08:03:26.944            53.138            RioGallegos          1660.563
        15   01 Jun 2027 08:04:06.272   01 Jun 2027 08:04:30.706            24.434            RioGallegos           763.563
        16   01 Jun 2027 08:37:35.291   01 Jun 2027 08:40:03.595           148.304                Sumatra          4634.500
        17   01 Jun 2027 09:00:44.165   01 Jun 2027 09:03:42.754           178.589                Irkutsk          5580.906
        18   01 Jun 2027 09:05:04.940   01 Jun 2027 09:05:12.401             7.461                 Moscow           233.156
        19   01 Jun 2027 09:42:07.149   01 Jun 2027 09:42:42.483            35.334            RioGallegos          1104.187
        20   01 Jun 2027 09:43:31.732   01 Jun 2027 09:44:29.749            58.017            RioGallegos          1813.031
        21   01 Jun 2027 10:15:44.683   01 Jun 2027 10:17:17.146            92.463                Sumatra          2889.469
        22   01 Jun 2027 10:35:56.315   01 Jun 2027 10:36:22.912            26.597                Irkutsk           831.156
        23   01 Jun 2027 10:37:24.624   01 Jun 2027 10:37:27.848             3.224                Irkutsk           100.750
        24   01 Jun 2027 10:38:05.004   01 Jun 2027 10:39:17.922            72.918                Norilsk          2278.687
        25   01 Jun 2027 10:39:24.726   01 Jun 2027 10:40:02.761            38.035                Norilsk          1188.594
        26   01 Jun 2027 12:01:48.284   01 Jun 2027 12:04:14.819           146.535                  Delhi          4579.219
        27   01 Jun 2027 12:07:46.596   01 Jun 2027 12:08:26.483            39.887                 Moscow          1246.469
        28   01 Jun 2027 12:09:28.198   01 Jun 2027 12:10:05.071            36.873              Murmansk1          1152.281
        29   01 Jun 2027 12:10:45.572   01 Jun 2027 12:10:55.722            10.150              Murmansk1           317.188
        30   01 Jun 2027 12:11:50.337   01 Jun 2027 12:12:49.512            59.175              Murmansk2          1849.219
        31   01 Jun 2027 12:13:05.953   01 Jun 2027 12:13:50.335            44.382                Norilsk          1386.938
        32   01 Jun 2027 13:21:35.543   01 Jun 2027 13:24:18.980           163.437               CapeTown          5107.406
        33   01 Jun 2027 13:29:35.842   01 Jun 2027 13:29:48.434            12.592               CapeTown           393.500
        34   01 Jun 2027 13:47:08.404   01 Jun 2027 13:47:12.399             3.995              Murmansk1           124.844
        35   01 Jun 2027 13:47:27.928   01 Jun 2027 13:48:22.358            54.430              Murmansk2          1700.937
        36   01 Jun 2027 13:50:13.883   01 Jun 2027 13:50:49.643            35.760              Murmansk1          1117.500
        37   01 Jun 2027 13:52:24.618   01 Jun 2027 13:52:52.576            27.958              Murmansk1           873.688
        38   01 Jun 2027 14:00:48.313   01 Jun 2027 14:04:43.055           234.742                Anadyr1          7335.688
        39   01 Jun 2027 15:25:51.041   01 Jun 2027 15:26:28.526            37.485                 Moscow          1171.406
        40   01 Jun 2027 15:27:04.407   01 Jun 2027 15:28:22.896            78.489              Murmansk1          2452.781
        41   01 Jun 2027 15:36:07.918   01 Jun 2027 15:37:01.591            53.673                Anadyr1          1677.281
        42   01 Jun 2027 15:37:59.412   01 Jun 2027 15:38:00.953             1.541                Anadyr1            48.156
        43   01 Jun 2027 15:38:01.672   01 Jun 2027 15:38:22.498            20.826                Anadyr2           650.813
        44   01 Jun 2027 15:40:18.326   01 Jun 2027 15:43:17.917           179.591               Magadan2          5612.219
        45   01 Jun 2027 15:43:37.330   01 Jun 2027 15:45:18.824           101.494               Magadan1          3171.688
        46   01 Jun 2027 17:12:00.647   01 Jun 2027 17:12:35.041            34.394                Anadyr2          1074.813
        47   01 Jun 2027 17:13:02.540   01 Jun 2027 17:13:25.803            23.263                Anadyr2           726.969
        48   01 Jun 2027 17:13:42.667   01 Jun 2027 17:14:01.816            19.149                Anadyr1           598.406
        49   01 Jun 2027 17:15:07.139   01 Jun 2027 17:16:05.224            58.085               Magadan1          1815.156
        50   01 Jun 2027 17:18:56.283   01 Jun 2027 17:20:17.835            81.552               Magadan1          2548.500
        51   01 Jun 2027 17:24:35.132   01 Jun 2027 17:25:32.284            57.152               Magadan2          1786.000
        52   01 Jun 2027 18:47:53.909   01 Jun 2027 18:49:38.276           104.367                Anadyr1          3261.469
        53   01 Jun 2027 18:49:57.677   01 Jun 2027 18:51:35.768            98.091                Anadyr2          3065.344
        54   01 Jun 2027 18:51:46.416   01 Jun 2027 18:52:26.196            39.780               Magadan1          1243.125
        55   01 Jun 2027 18:52:48.324   01 Jun 2027 18:54:05.848            77.524                Norilsk          2422.625
        56   01 Jun 2027 18:56:50.265   01 Jun 2027 18:59:00.617           130.352                Irkutsk          4073.500
        57   01 Jun 2027 19:00:26.355   01 Jun 2027 19:00:36.821            10.466                Irkutsk           327.063
        58   01 Jun 2027 19:44:22.881   01 Jun 2027 19:45:20.119            57.238            RioGallegos          1788.688
        59   01 Jun 2027 19:48:06.776   01 Jun 2027 19:48:11.904             5.128            RioGallegos           160.250
        60   01 Jun 2027 19:49:59.140   01 Jun 2027 19:50:26.737            27.597            RioGallegos           862.406
        61   01 Jun 2027 19:51:39.823   01 Jun 2027 19:52:56.717            76.894            RioGallegos          2402.937
        62   01 Jun 2027 20:25:45.820   01 Jun 2027 20:25:48.335             2.515                Norilsk            78.594
        63   01 Jun 2027 20:26:16.350   01 Jun 2027 20:27:09.105            52.755               Magadan2          1648.594
        64   01 Jun 2027 20:28:35.130   01 Jun 2027 20:29:17.794            42.664               Magadan1          1333.250
        65   01 Jun 2027 20:29:50.474   01 Jun 2027 20:30:24.419            33.945                Norilsk          1060.781
        66   01 Jun 2027 20:30:52.737   01 Jun 2027 20:31:10.131            17.394                Norilsk           543.563
        67   01 Jun 2027 20:31:16.850   01 Jun 2027 20:34:25.010           188.160                Novosib          5880.000
        68   01 Jun 2027 20:37:12.735   01 Jun 2027 20:38:10.075            57.340                Novosib          1791.875
        69   01 Jun 2027 20:51:46.911   01 Jun 2027 20:52:46.540            59.629                Sumatra          1863.406
        70   01 Jun 2027 20:53:03.097   01 Jun 2027 20:53:45.214            42.117                Sumatra          1316.156
        71   01 Jun 2027 22:01:43.791   01 Jun 2027 22:02:42.429            58.638                Norilsk          1832.438
        72   01 Jun 2027 22:05:36.826   01 Jun 2027 22:05:51.300            14.474                Irkutsk           452.312
        73   01 Jun 2027 22:06:41.275   01 Jun 2027 22:07:30.921            49.646                Novosib          1551.437
        74   01 Jun 2027 22:10:30.509   01 Jun 2027 22:11:10.203            39.694                Irkutsk          1240.437
        75   01 Jun 2027 22:13:01.886   01 Jun 2027 22:13:07.114             5.228                Novosib           163.375
        76   01 Jun 2027 22:13:14.628   01 Jun 2027 22:14:38.281            83.653                  Delhi          2614.156
        77   01 Jun 2027 22:16:58.236   01 Jun 2027 22:18:01.087            62.851                  Delhi          1964.094
        78   01 Jun 2027 22:22:36.600   01 Jun 2027 22:22:41.068             4.468                  Delhi           139.625
        79   01 Jun 2027 22:24:05.134   01 Jun 2027 22:25:22.977            77.843                  Delhi          2432.594
        80   01 Jun 2027 23:33:28.762   01 Jun 2027 23:33:45.819            17.057                Anadyr2           533.031
        81   01 Jun 2027 23:35:43.809   01 Jun 2027 23:36:50.452            66.643                Anadyr1          2082.594
        82   01 Jun 2027 23:37:33.732   01 Jun 2027 23:38:21.600            47.868               Magadan1          1495.875
        83   01 Jun 2027 23:38:31.465   01 Jun 2027 23:38:59.589            28.124               Magadan1           878.875
        84   01 Jun 2027 23:40:01.570   01 Jun 2027 23:42:02.105           120.535              Murmansk2          3766.719
        85   01 Jun 2027 23:42:52.841   01 Jun 2027 23:44:51.724           118.883              Murmansk1          3715.094
        86   01 Jun 2027 23:46:10.724   01 Jun 2027 23:46:40.950            30.226                 Moscow           944.563
        87   01 Jun 2027 23:49:08.025   01 Jun 2027 23:49:35.457            27.432                 Moscow           857.250
        88   01 Jun 2027 23:50:30.975   01 Jun 2027 23:50:50.564            19.589                 Moscow           612.156
        89   02 Jun 2027 00:14:01.551   02 Jun 2027 00:15:36.858            95.307               CapeTown          2978.344
        90   02 Jun 2027 01:09:23.536   02 Jun 2027 01:10:03.998            40.462                Anadyr1          1264.437
        91   02 Jun 2027 01:10:20.650   02 Jun 2027 01:11:04.014            43.364               Magadan1          1355.125
        92   02 Jun 2027 01:11:49.608   02 Jun 2027 01:13:39.606           109.998               Magadan1          3437.437
        93   02 Jun 2027 01:15:50.394   02 Jun 2027 01:16:56.398            66.004              Murmansk2          2062.625
        94   02 Jun 2027 01:17:47.874   02 Jun 2027 01:18:00.199            12.325              Murmansk1           385.156
        95   02 Jun 2027 01:18:08.374   02 Jun 2027 01:18:22.238            13.864              Murmansk1           433.250
        96   02 Jun 2027 01:20:01.715   02 Jun 2027 01:20:35.845            34.130                Novosib          1066.562
        97   02 Jun 2027 01:22:58.242   02 Jun 2027 01:23:14.694            16.452              Murmansk2           514.125
        98   02 Jun 2027 01:26:26.887   02 Jun 2027 01:26:47.180            20.293                Novosib           634.156
        99   02 Jun 2027 01:27:13.971   02 Jun 2027 01:27:21.234             7.263                 Moscow           226.969
       100   02 Jun 2027 01:28:20.771   02 Jun 2027 01:28:42.384            21.613                 Moscow           675.406
       101   02 Jun 2027 01:31:40.904   02 Jun 2027 01:31:44.801             3.897                 Moscow           121.781
       102   02 Jun 2027 01:44:41.946   02 Jun 2027 01:45:30.933            48.987               CapeTown          1530.844
       103   02 Jun 2027 01:51:20.644   02 Jun 2027 01:51:39.077            18.433               CapeTown           576.031
       104   02 Jun 2027 01:54:10.400   02 Jun 2027 01:55:37.527            87.127               CapeTown          2722.719
       105   02 Jun 2027 02:40:41.149   02 Jun 2027 02:40:54.514            13.365                Anadyr2           417.656
       106   02 Jun 2027 02:41:04.691   02 Jun 2027 02:41:34.857            30.166                Anadyr1           942.688
       107   02 Jun 2027 02:41:43.746   02 Jun 2027 02:42:28.900            45.154               Magadan1          1411.063
       108   02 Jun 2027 02:42:32.258   02 Jun 2027 02:42:33.421             1.163               Magadan1            36.344
       109   02 Jun 2027 02:44:14.341   02 Jun 2027 02:44:25.241            10.900               Magadan2           340.625
       110   02 Jun 2027 02:45:00.560   02 Jun 2027 02:45:20.819            20.259               Magadan2           633.094
       111   02 Jun 2027 02:46:41.188   02 Jun 2027 02:46:43.707             2.519               Magadan1            78.719
       112   02 Jun 2027 02:46:46.343   02 Jun 2027 02:47:12.327            25.984               Magadan1           812.000
       113   02 Jun 2027 02:50:51.713   02 Jun 2027 02:51:09.493            17.780                Norilsk           555.625
       114   02 Jun 2027 02:51:45.481   02 Jun 2027 02:52:19.444            33.963                Norilsk          1061.344
       115   02 Jun 2027 02:52:22.705   02 Jun 2027 02:52:42.134            19.429              Murmansk2           607.156
       116   02 Jun 2027 02:53:23.316   02 Jun 2027 02:53:29.034             5.718              Murmansk2           178.687
       117   02 Jun 2027 02:53:32.954   02 Jun 2027 02:53:35.064             2.110              Murmansk1            65.938
       118   02 Jun 2027 02:53:41.164   02 Jun 2027 02:53:48.662             7.498              Murmansk1           234.313
       119   02 Jun 2027 02:55:04.828   02 Jun 2027 02:56:01.148            56.320                 Moscow          1760.000
       120   02 Jun 2027 02:57:54.996   02 Jun 2027 02:58:38.577            43.581                 Moscow          1361.906
       121   02 Jun 2027 04:21:17.702   02 Jun 2027 04:21:50.585            32.883                Anadyr1          1027.594
       122   02 Jun 2027 04:22:28.560   02 Jun 2027 04:23:55.130            86.570               Magadan2          2705.312
       123   02 Jun 2027 04:24:06.044   02 Jun 2027 04:25:08.942            62.898               Magadan1          1965.562
       124   02 Jun 2027 04:25:27.830   02 Jun 2027 04:25:57.072            29.242               Magadan1           913.813
       125   02 Jun 2027 04:26:10.180   02 Jun 2027 04:26:53.951            43.771               Magadan1          1367.844
       126   02 Jun 2027 04:27:53.529   02 Jun 2027 04:28:04.334            10.805               Magadan1           337.656
       127   02 Jun 2027 05:57:01.671   02 Jun 2027 05:58:08.955            67.284               Magadan2          2102.625
       128   02 Jun 2027 05:58:12.453   02 Jun 2027 05:58:19.488             7.035               Magadan1           219.844
       129   02 Jun 2027 05:58:23.045   02 Jun 2027 06:00:08.241           105.196                Anadyr1          3287.375
       130   02 Jun 2027 06:00:16.537   02 Jun 2027 06:00:27.122            10.585                Irkutsk           330.781
       131   02 Jun 2027 06:01:02.847   02 Jun 2027 06:01:37.740            34.893                Irkutsk          1090.406
       132   02 Jun 2027 06:01:47.930   02 Jun 2027 06:02:14.906            26.976                Anadyr1           843.000
       133   02 Jun 2027 06:02:34.000   02 Jun 2027 06:02:54.803            20.803               Magadan2           650.094
       134   02 Jun 2027 06:02:55.834   02 Jun 2027 06:03:10.433            14.599                Novosib           456.219
       135   02 Jun 2027 06:03:35.948   02 Jun 2027 06:03:48.501            12.553                Novosib           392.281
       136   02 Jun 2027 06:04:00.768   02 Jun 2027 06:04:03.895             3.127               Magadan1            97.719
       137   02 Jun 2027 07:34:51.679   02 Jun 2027 07:36:00.588            68.909                Novosib          2153.406
       138   02 Jun 2027 07:36:09.456   02 Jun 2027 07:37:47.973            98.517               Magadan1          3078.656
       139   02 Jun 2027 07:38:15.605   02 Jun 2027 07:39:43.787            88.182                Irkutsk          2755.688
       140   02 Jun 2027 08:14:40.934   02 Jun 2027 08:16:23.119           102.185            RioGallegos          3193.281
       141   02 Jun 2027 08:49:29.288   02 Jun 2027 08:52:35.442           186.154                Sumatra          5817.313
       142   02 Jun 2027 09:12:52.429   02 Jun 2027 09:13:02.413             9.984                Irkutsk           312.000
       143   02 Jun 2027 09:13:18.143   02 Jun 2027 09:13:20.635             2.492                Irkutsk            77.875
       144   02 Jun 2027 09:13:20.890   02 Jun 2027 09:14:38.716            77.826                Irkutsk          2432.062
       145   02 Jun 2027 09:14:46.459   02 Jun 2027 09:14:57.982            11.523                Irkutsk           360.094
       146   02 Jun 2027 09:14:59.877   02 Jun 2027 09:16:01.172            61.295                Novosib          1915.469
       147   02 Jun 2027 09:55:37.817   02 Jun 2027 09:56:22.217            44.400            RioGallegos          1387.500
       148   02 Jun 2027 10:29:49.981   02 Jun 2027 10:31:04.491            74.510                Sumatra          2328.437
       149   02 Jun 2027 10:38:15.372   02 Jun 2027 10:38:24.716             9.344                  Delhi           292.000
       150   02 Jun 2027 10:47:43.345   02 Jun 2027 10:47:54.189            10.844                Novosib           338.875
       151   02 Jun 2027 10:47:58.341   02 Jun 2027 10:48:15.195            16.854                Irkutsk           526.687
       152   02 Jun 2027 10:48:17.802   02 Jun 2027 10:49:16.515            58.713                Novosib          1834.781
       153   02 Jun 2027 10:50:22.246   02 Jun 2027 10:50:38.632            16.386                Novosib           512.062
       154   02 Jun 2027 10:50:48.391   02 Jun 2027 10:51:06.629            18.238                Novosib           569.938
       155   02 Jun 2027 10:51:13.014   02 Jun 2027 10:51:13.590             0.576                Novosib            18.000
       156   02 Jun 2027 10:51:19.860   02 Jun 2027 10:51:32.767            12.907                Norilsk           403.344
       157   02 Jun 2027 12:21:29.499   02 Jun 2027 12:25:28.552           239.053              Murmansk1          7470.406
       158   02 Jun 2027 12:25:30.236   02 Jun 2027 12:25:42.642            12.406              Murmansk2           387.687
       159   02 Jun 2027 12:25:46.105   02 Jun 2027 12:26:46.528            60.423                Norilsk          1888.219
       160   02 Jun 2027 13:32:59.331   02 Jun 2027 13:34:33.504            94.173               CapeTown          2942.906
       161   02 Jun 2027 13:34:44.186   02 Jun 2027 13:35:14.659            30.473               CapeTown           952.281
       162   02 Jun 2027 13:35:23.898   02 Jun 2027 13:36:04.557            40.659               CapeTown          1270.594
       163   02 Jun 2027 13:37:41.033   02 Jun 2027 13:38:10.916            29.883               CapeTown           933.844
       164   02 Jun 2027 13:39:24.167   02 Jun 2027 13:40:01.717            37.550               CapeTown          1173.438
       165   02 Jun 2027 13:58:24.398   02 Jun 2027 13:58:45.619            21.221              Murmansk2           663.156
       166   02 Jun 2027 13:59:07.726   02 Jun 2027 13:59:27.191            19.465              Murmansk1           608.281
       167   02 Jun 2027 14:00:40.809   02 Jun 2027 14:01:16.022            35.213              Murmansk2          1100.406
       168   02 Jun 2027 14:01:48.242   02 Jun 2027 14:02:29.638            41.396              Murmansk2          1293.625
       169   02 Jun 2027 14:02:49.825   02 Jun 2027 14:03:37.722            47.897              Murmansk2          1496.781
       170   02 Jun 2027 14:10:21.776   02 Jun 2027 14:10:24.779             3.003              Murmansk2            93.844
       171   02 Jun 2027 14:12:40.286   02 Jun 2027 14:15:45.065           184.779                Anadyr1          5774.344
       172   02 Jun 2027 15:17:40.951   02 Jun 2027 15:18:56.961            76.010               CapeTown          2375.312
       173   02 Jun 2027 15:37:31.576   02 Jun 2027 15:38:26.345            54.769              Murmansk2          1711.531
       174   02 Jun 2027 15:39:41.965   02 Jun 2027 15:40:24.689            42.724              Murmansk2          1335.125
       175   02 Jun 2027 15:48:08.122   02 Jun 2027 15:49:05.356            57.234                Anadyr1          1788.562
       176   02 Jun 2027 15:49:57.199   02 Jun 2027 15:50:06.161             8.962                Anadyr2           280.063
       177   02 Jun 2027 15:51:04.272   02 Jun 2027 15:52:11.356            67.084                Anadyr2          2096.375
       178   02 Jun 2027 15:52:33.704   02 Jun 2027 15:55:56.229           202.525               Magadan1          6328.906
       179   02 Jun 2027 15:55:56.229   02 Jun 2027 15:57:20.913            84.684               Magadan2          2646.375
       180   02 Jun 2027 17:24:02.050   02 Jun 2027 17:24:48.298            46.248                Anadyr2          1445.250
       181   02 Jun 2027 17:25:21.606   02 Jun 2027 17:25:43.845            22.239                Anadyr2           694.969
       182   02 Jun 2027 17:26:25.663   02 Jun 2027 17:27:52.187            86.524               Magadan2          2703.875
       183   02 Jun 2027 17:28:17.109   02 Jun 2027 17:28:32.123            15.014               Magadan1           469.188
       184   02 Jun 2027 17:28:52.131   02 Jun 2027 17:30:24.631            92.500               Magadan2          2890.625
       185   02 Jun 2027 18:59:53.982   02 Jun 2027 19:03:11.617           197.635                Anadyr1          6176.094
       186   02 Jun 2027 19:03:16.008   02 Jun 2027 19:04:21.210            65.202               Magadan2          2037.562
       187   02 Jun 2027 19:04:27.628   02 Jun 2027 19:06:03.313            95.685                Norilsk          2990.156
       188   02 Jun 2027 19:07:51.910   02 Jun 2027 19:10:43.068           171.158                Irkutsk          5348.688
       189   02 Jun 2027 19:11:12.930   02 Jun 2027 19:11:35.473            22.543                Irkutsk           704.469
       190   02 Jun 2027 19:12:52.281   02 Jun 2027 19:14:07.394            75.113                Irkutsk          2347.281
       191   02 Jun 2027 19:24:37.811   02 Jun 2027 19:25:11.166            33.355                Sumatra          1042.344
       192   02 Jun 2027 19:27:23.252   02 Jun 2027 19:28:08.182            44.930                Sumatra          1404.062
       193   02 Jun 2027 20:41:47.027   02 Jun 2027 20:43:35.827           108.800                Irkutsk          3400.000
       194   02 Jun 2027 20:44:05.804   02 Jun 2027 20:46:16.034           130.230                Novosib          4069.687
       195   02 Jun 2027 20:49:00.436   02 Jun 2027 20:49:21.805            21.369                Novosib           667.781
       196   02 Jun 2027 20:55:28.409   02 Jun 2027 20:56:04.422            36.013                Sumatra          1125.406
       197   02 Jun 2027 21:03:39.212   02 Jun 2027 21:04:03.190            23.978                Sumatra           749.312
       198   02 Jun 2027 21:05:04.387   02 Jun 2027 21:05:14.706            10.319                Sumatra           322.469
       199   02 Jun 2027 22:14:21.623   02 Jun 2027 22:16:01.811           100.188               Magadan2          3130.875
       200   02 Jun 2027 22:17:37.665   02 Jun 2027 22:19:28.878           111.213                Novosib          3475.406
       201   02 Jun 2027 22:25:04.947   02 Jun 2027 22:27:51.559           166.612                  Delhi          5206.625
       202   02 Jun 2027 22:34:34.567   02 Jun 2027 22:35:41.884            67.317                  Delhi          2103.656
       203   02 Jun 2027 23:49:16.702   02 Jun 2027 23:49:42.994            26.292               Magadan2           821.625
       204   02 Jun 2027 23:49:42.994   02 Jun 2027 23:50:51.118            68.124               Magadan1          2128.875
       205   02 Jun 2027 23:52:00.436   02 Jun 2027 23:54:01.886           121.450              Murmansk1          3795.313
       206   02 Jun 2027 23:54:02.461   02 Jun 2027 23:54:54.387            51.926              Murmansk2          1622.688
       207   02 Jun 2027 23:55:05.886   02 Jun 2027 23:56:32.066            86.180              Murmansk2          2693.125
       208   02 Jun 2027 23:57:31.248   03 Jun 2027 00:00:29.707           178.459                 Moscow          5576.844
       209   03 Jun 2027 00:23:47.640   03 Jun 2027 00:25:10.139            82.499               CapeTown          2578.094
       210   03 Jun 2027 01:21:10.722   03 Jun 2027 01:21:37.636            26.914               Magadan2           841.062
       211   03 Jun 2027 01:21:37.636   03 Jun 2027 01:22:21.519            43.883               Magadan1          1371.344
       212   03 Jun 2027 01:24:58.000   03 Jun 2027 01:25:20.820            22.820               Magadan1           713.125
       213   03 Jun 2027 01:27:37.725   03 Jun 2027 01:27:38.114             0.389                Norilsk            12.156
       214   03 Jun 2027 01:27:52.001   03 Jun 2027 01:28:53.320            61.319              Murmansk1          1916.219
       215   03 Jun 2027 01:28:53.320   03 Jun 2027 01:29:33.620            40.300              Murmansk2          1259.375
       216   03 Jun 2027 01:30:08.273   03 Jun 2027 01:30:36.367            28.094              Murmansk1           877.937
       217   03 Jun 2027 01:31:07.770   03 Jun 2027 01:32:56.058           108.288                 Moscow          3384.000
       218   03 Jun 2027 01:55:05.337   03 Jun 2027 01:56:20.125            74.788               CapeTown          2337.125
       219   03 Jun 2027 02:51:42.308   03 Jun 2027 02:53:18.956            96.648                Anadyr2          3020.250
       220   03 Jun 2027 02:53:22.296   03 Jun 2027 02:54:25.104            62.808               Magadan1          1962.750
       221   03 Jun 2027 02:54:25.723   03 Jun 2027 02:54:28.518             2.795               Magadan2            87.344
       222   03 Jun 2027 02:55:42.847   03 Jun 2027 02:56:07.968            25.121               Magadan1           785.031
       223   03 Jun 2027 02:58:43.869   03 Jun 2027 02:59:36.489            52.620               Magadan2          1644.375
       224   03 Jun 2027 04:34:26.153   03 Jun 2027 04:35:52.639            86.486               Magadan1          2702.687
       225   03 Jun 2027 04:36:13.174   03 Jun 2027 04:36:41.286            28.112               Magadan1           878.500
       226   03 Jun 2027 04:36:48.022   03 Jun 2027 04:37:35.074            47.052                Norilsk          1470.375
       227   03 Jun 2027 06:08:27.657   03 Jun 2027 06:10:14.798           107.141               Magadan2          3348.156
       228   03 Jun 2027 06:10:21.644   03 Jun 2027 06:11:37.903            76.259               Magadan1          2383.094
       229   03 Jun 2027 06:12:02.778   03 Jun 2027 06:12:39.878            37.100                Anadyr1          1159.375
       230   03 Jun 2027 06:12:41.559   03 Jun 2027 06:12:45.671             4.112                Anadyr1           128.500
       231   03 Jun 2027 06:12:58.830   03 Jun 2027 06:13:36.229            37.399                Anadyr2          1168.719
       232   03 Jun 2027 06:13:40.446   03 Jun 2027 06:14:44.864            64.418                Anadyr2          2013.063
       233   03 Jun 2027 06:15:13.002   03 Jun 2027 06:15:30.476            17.474                Anadyr2           546.062
       234   03 Jun 2027 06:18:49.747   03 Jun 2027 06:19:01.618            11.871                Norilsk           370.969
       235   03 Jun 2027 06:22:28.459   03 Jun 2027 06:22:55.710            27.251              Murmansk2           851.594
       236   03 Jun 2027 07:44:59.495   03 Jun 2027 07:46:06.350            66.855               Magadan1          2089.219
       237   03 Jun 2027 07:46:27.889   03 Jun 2027 07:47:37.233            69.344                Irkutsk          2167.000
       238   03 Jun 2027 07:48:17.260   03 Jun 2027 07:48:22.341             5.081               Magadan1           158.781
       239   03 Jun 2027 07:48:31.903   03 Jun 2027 07:48:45.783            13.880                Irkutsk           433.750
       240   03 Jun 2027 07:48:58.465   03 Jun 2027 07:49:45.274            46.809               Magadan2          1462.781
       241   03 Jun 2027 07:49:51.930   03 Jun 2027 07:50:21.259            29.329               Magadan2           916.531
       242   03 Jun 2027 07:51:13.183   03 Jun 2027 07:51:30.417            17.234              Murmansk2           538.562
       243   03 Jun 2027 07:51:38.342   03 Jun 2027 07:51:47.070             8.728                Novosib           272.750
       244   03 Jun 2027 07:52:07.425   03 Jun 2027 07:52:30.514            23.089              Murmansk1           721.531
       245   03 Jun 2027 08:26:51.714   03 Jun 2027 08:27:25.734            34.020            RioGallegos          1063.125
       246   03 Jun 2027 08:27:46.385   03 Jun 2027 08:28:04.753            18.368            RioGallegos           574.000
       247   03 Jun 2027 08:30:27.595   03 Jun 2027 08:30:44.733            17.138            RioGallegos           535.562
       248   03 Jun 2027 09:01:28.914   03 Jun 2027 09:01:57.104            28.190                Sumatra           880.937
       249   03 Jun 2027 09:08:12.949   03 Jun 2027 09:10:08.843           115.894                Sumatra          3621.687
       250   03 Jun 2027 09:22:28.817   03 Jun 2027 09:23:07.204            38.387                Novosib          1199.594
       251   03 Jun 2027 09:23:44.495   03 Jun 2027 09:23:49.038             4.543                Irkutsk           141.969
       252   03 Jun 2027 09:23:54.692   03 Jun 2027 09:24:53.210            58.518                Irkutsk          1828.688
       253   03 Jun 2027 09:25:06.000   03 Jun 2027 09:25:17.054            11.054                Irkutsk           345.437
       254   03 Jun 2027 09:25:21.989   03 Jun 2027 09:25:25.716             3.727                Novosib           116.469
       255   03 Jun 2027 09:25:38.304   03 Jun 2027 09:25:43.104             4.800                Irkutsk           150.000
       256   03 Jun 2027 09:25:45.694   03 Jun 2027 09:26:01.933            16.239                Irkutsk           507.469
       257   03 Jun 2027 09:26:30.127   03 Jun 2027 09:27:05.248            35.121                Novosib          1097.531
       258   03 Jun 2027 09:27:59.141   03 Jun 2027 09:28:22.199            23.058                Novosib           720.563
       259   03 Jun 2027 10:07:23.309   03 Jun 2027 10:08:17.907            54.598            RioGallegos          1706.187
       260   03 Jun 2027 10:46:03.789   03 Jun 2027 10:47:08.953            65.164                  Delhi          2036.375
       261   03 Jun 2027 10:50:26.514   03 Jun 2027 10:50:53.368            26.854                  Delhi           839.187
       262   03 Jun 2027 10:59:56.216   03 Jun 2027 11:00:10.244            14.028                Novosib           438.375
       263   03 Jun 2027 11:00:21.128   03 Jun 2027 11:00:57.004            35.876                Norilsk          1121.125
       264   03 Jun 2027 11:01:12.358   03 Jun 2027 11:01:35.184            22.826                Norilsk           713.312
       265   03 Jun 2027 11:01:58.843   03 Jun 2027 11:02:46.883            48.040                Norilsk          1501.250
       266   03 Jun 2027 11:02:52.338   03 Jun 2027 11:02:58.903             6.565                Norilsk           205.156
       267   03 Jun 2027 11:03:13.765   03 Jun 2027 11:03:14.270             0.505                Novosib            15.781
       268   03 Jun 2027 11:03:42.466   03 Jun 2027 11:03:52.676            10.210                Norilsk           319.062
       269   03 Jun 2027 12:30:26.568   03 Jun 2027 12:30:59.542            32.974                 Moscow          1030.438
       270   03 Jun 2027 12:31:55.400   03 Jun 2027 12:32:44.463            49.063                 Moscow          1533.219
       271   03 Jun 2027 12:32:59.155   03 Jun 2027 12:34:18.582            79.427                 Moscow          2482.094
       272   03 Jun 2027 12:34:22.865   03 Jun 2027 12:35:19.049            56.184              Murmansk2          1755.750
       273   03 Jun 2027 12:35:34.437   03 Jun 2027 12:35:40.292             5.855              Murmansk2           182.969
       274   03 Jun 2027 12:36:14.379   03 Jun 2027 12:36:52.482            38.103              Murmansk1          1190.719
       275   03 Jun 2027 12:37:17.975   03 Jun 2027 12:37:44.305            26.330              Murmansk2           822.812
       276   03 Jun 2027 12:37:44.305   03 Jun 2027 12:37:56.002            11.697              Murmansk1           365.531
       277   03 Jun 2027 12:39:09.906   03 Jun 2027 12:39:45.386            35.480                Norilsk          1108.750
       278   03 Jun 2027 13:44:33.584   03 Jun 2027 13:46:39.241           125.657               CapeTown          3926.781
       279   03 Jun 2027 13:47:52.561   03 Jun 2027 13:49:07.638            75.077               CapeTown          2346.156
       280   03 Jun 2027 13:49:33.115   03 Jun 2027 13:50:31.422            58.307               CapeTown          1822.094
       281   03 Jun 2027 14:10:41.560   03 Jun 2027 14:12:42.159           120.599              Murmansk2          3768.719
       282   03 Jun 2027 14:24:34.444   03 Jun 2027 14:27:12.545           158.101                Anadyr2          4940.656
       283   03 Jun 2027 15:19:36.425   03 Jun 2027 15:21:21.273           104.848               CapeTown          3276.500
       284   03 Jun 2027 15:50:09.510   03 Jun 2027 15:50:26.940            17.430              Murmansk1           544.688
       285   03 Jun 2027 15:50:26.940   03 Jun 2027 15:50:45.275            18.335              Murmansk2           572.969
       286   03 Jun 2027 15:51:35.580   03 Jun 2027 15:52:17.379            41.799              Murmansk2          1306.219
       287   03 Jun 2027 16:00:08.655   03 Jun 2027 16:01:56.998           108.343                Anadyr2          3385.719
       288   03 Jun 2027 16:03:01.970   03 Jun 2027 16:03:29.452            27.482                Anadyr1           858.812
       289   03 Jun 2027 16:04:36.342   03 Jun 2027 16:09:23.178           286.836               Magadan2          8963.625
       290   03 Jun 2027 17:36:03.427   03 Jun 2027 17:37:10.674            67.247                Anadyr2          2101.469
       291   03 Jun 2027 17:37:54.466   03 Jun 2027 17:38:10.554            16.088                Anadyr1           502.750
       292   03 Jun 2027 17:38:24.312   03 Jun 2027 17:40:19.367           115.055               Magadan2          3595.469
       293   03 Jun 2027 17:42:09.164   03 Jun 2027 17:42:23.119            13.955               Magadan2           436.094
       294   03 Jun 2027 17:46:06.113   03 Jun 2027 17:46:14.033             7.920               Magadan2           247.500
       295   03 Jun 2027 18:33:17.998   03 Jun 2027 18:35:12.625           114.627            RioGallegos          3582.094
       296   03 Jun 2027 19:11:53.682   03 Jun 2027 19:13:41.608           107.926                Anadyr2          3372.688
       297   03 Jun 2027 19:14:07.686   03 Jun 2027 19:18:01.885           234.199                Norilsk          7318.719
       298   03 Jun 2027 19:18:34.612   03 Jun 2027 19:19:25.707            51.095                Norilsk          1596.719
       299   03 Jun 2027 19:20:06.575   03 Jun 2027 19:22:29.988           143.413                Irkutsk          4481.656
       300   03 Jun 2027 19:24:58.336   03 Jun 2027 19:26:12.351            74.015                Irkutsk          2312.969
       301   03 Jun 2027 19:34:47.996   03 Jun 2027 19:36:38.368           110.372                Sumatra          3449.125
       302   03 Jun 2027 19:39:55.980   03 Jun 2027 19:41:10.142            74.162                Sumatra          2317.562
       303   03 Jun 2027 20:54:35.587   03 Jun 2027 20:54:44.983             9.396                Novosib           293.625
       304   03 Jun 2027 20:54:54.736   03 Jun 2027 20:56:01.109            66.373                Novosib          2074.156
       305   03 Jun 2027 20:58:57.121   03 Jun 2027 20:59:21.064            23.943                Novosib           748.219
       306   03 Jun 2027 20:59:32.051   03 Jun 2027 20:59:49.066            17.015                Novosib           531.719
       307   03 Jun 2027 21:00:49.397   03 Jun 2027 21:01:32.386            42.989                Novosib          1343.406
       308   03 Jun 2027 21:06:47.346   03 Jun 2027 21:07:06.128            18.782                  Delhi           586.937
       309   03 Jun 2027 21:12:11.585   03 Jun 2027 21:13:09.798            58.213                Sumatra          1819.156
       310   03 Jun 2027 22:26:22.034   03 Jun 2027 22:27:18.532            56.498               Magadan2          1765.562
       311   03 Jun 2027 22:29:02.587   03 Jun 2027 22:33:15.567           252.980              Murmansk1          7905.625
       312   03 Jun 2027 22:39:33.242   03 Jun 2027 22:39:48.264            15.022                  Delhi           469.438
       313   03 Jun 2027 22:44:05.025   03 Jun 2027 22:45:14.898            69.873                  Delhi          2183.531
       314   03 Jun 2027 23:54:49.026   03 Jun 2027 23:54:52.204             3.178                Anadyr2            99.312
       315   03 Jun 2027 23:57:31.397   03 Jun 2027 23:57:31.498             0.101                Anadyr2             3.156
       316   03 Jun 2027 23:59:26.443   03 Jun 2027 23:59:47.260            20.817                Anadyr2           650.531
       317   04 Jun 2027 00:00:23.344   04 Jun 2027 00:00:50.205            26.861                Anadyr1           839.406
       318   04 Jun 2027 00:00:55.378   04 Jun 2027 00:02:03.062            67.684               Magadan2          2115.125
       319   04 Jun 2027 00:02:03.062   04 Jun 2027 00:02:23.897            20.835               Magadan1           651.094
       320   04 Jun 2027 00:03:12.109   04 Jun 2027 00:03:19.659             7.550                Norilsk           235.937
       321   04 Jun 2027 00:03:34.248   04 Jun 2027 00:03:38.373             4.125               Magadan1           128.906
       322   04 Jun 2027 00:03:59.991   04 Jun 2027 00:05:56.172           116.181              Murmansk1          3630.656
       323   04 Jun 2027 00:06:02.525   04 Jun 2027 00:08:04.693           122.168              Murmansk2          3817.750
       324   04 Jun 2027 00:08:15.224   04 Jun 2027 00:09:34.536            79.312                 Moscow          2478.500
       325   04 Jun 2027 00:17:47.438   04 Jun 2027 00:17:57.969            10.531                 Moscow           329.094
       326   04 Jun 2027 00:34:36.243   04 Jun 2027 00:36:35.949           119.706               CapeTown          3740.812
       327   04 Jun 2027 00:37:54.953   04 Jun 2027 00:38:46.411            51.458               CapeTown          1608.063
       328   04 Jun 2027 00:41:27.612   04 Jun 2027 00:42:12.555            44.943               CapeTown          1404.469
       329   04 Jun 2027 01:33:07.732   04 Jun 2027 01:33:40.325            32.593               Magadan1          1018.531
       330   04 Jun 2027 01:39:13.469   04 Jun 2027 01:39:17.289             3.820                Norilsk           119.375
       331   04 Jun 2027 01:39:30.549   04 Jun 2027 01:39:40.305             9.756                Norilsk           304.875
       332   04 Jun 2027 01:39:53.684   04 Jun 2027 01:40:48.983            55.299              Murmansk2          1728.094
       333   04 Jun 2027 01:40:48.983   04 Jun 2027 01:41:33.188            44.205              Murmansk1          1381.406
       334   04 Jun 2027 01:41:56.618   04 Jun 2027 01:42:48.581            51.963              Murmansk1          1623.844
       335   04 Jun 2027 01:47:14.262   04 Jun 2027 01:47:20.373             6.111              Murmansk1           190.969
       336   04 Jun 2027 01:47:25.540   04 Jun 2027 01:47:38.344            12.804                 Moscow           400.125
       337   04 Jun 2027 01:50:53.315   04 Jun 2027 01:50:59.175             5.860                 Moscow           183.125
       338   04 Jun 2027 01:51:23.262   04 Jun 2027 01:51:27.111             3.849                 Moscow           120.281
       339   04 Jun 2027 01:51:32.882   04 Jun 2027 01:51:41.729             8.847              Murmansk2           276.469
       340   04 Jun 2027 01:53:57.268   04 Jun 2027 01:54:16.135            18.867                 Moscow           589.594
       341   04 Jun 2027 02:07:00.985   04 Jun 2027 02:07:27.805            26.820               CapeTown           838.125
       342   04 Jun 2027 02:10:13.515   04 Jun 2027 02:10:58.708            45.193               CapeTown          1412.281
       343   04 Jun 2027 03:03:44.263   04 Jun 2027 03:05:04.087            79.824                Anadyr1          2494.500
       344   04 Jun 2027 03:09:44.037   04 Jun 2027 03:10:54.693            70.656               Magadan1          2208.000
       345   04 Jun 2027 03:11:08.875   04 Jun 2027 03:12:55.798           106.923                Anadyr2          3341.344
       346   04 Jun 2027 03:12:55.798   04 Jun 2027 03:13:56.085            60.287                Anadyr1          1883.969
       347   04 Jun 2027 03:13:56.484   04 Jun 2027 03:15:00.640            64.156               Magadan2          2004.875
       348   04 Jun 2027 03:15:58.504   04 Jun 2027 03:16:00.065             1.561               Magadan2            48.781
       349   04 Jun 2027 04:49:33.293   04 Jun 2027 04:50:02.844            29.551               Magadan2           923.469
       350   04 Jun 2027 04:50:27.289   04 Jun 2027 04:52:27.855           120.566                Anadyr2          3767.688
       351   04 Jun 2027 06:20:18.780   04 Jun 2027 06:20:30.808            12.028               Magadan1           375.875
       352   04 Jun 2027 06:21:33.049   04 Jun 2027 06:21:41.679             8.630               Magadan2           269.687
       353   04 Jun 2027 06:21:44.269   04 Jun 2027 06:22:01.874            17.605                Anadyr2           550.156
       354   04 Jun 2027 06:22:16.236   04 Jun 2027 06:22:25.815             9.579               Magadan1           299.344
       355   04 Jun 2027 06:22:25.815   04 Jun 2027 06:24:08.632           102.817               Magadan2          3213.031
       356   04 Jun 2027 06:24:18.837   04 Jun 2027 06:24:53.341            34.504               Magadan1          1078.250
       357   04 Jun 2027 06:25:01.562   04 Jun 2027 06:25:03.181             1.619               Magadan2            50.594
       358   04 Jun 2027 06:25:07.225   04 Jun 2027 06:25:34.592            27.367                Anadyr2           855.219
       359   04 Jun 2027 06:25:41.750   04 Jun 2027 06:25:51.046             9.296                Anadyr1           290.500
       360   04 Jun 2027 06:25:52.554   04 Jun 2027 06:25:54.013             1.459               Magadan1            45.594
       361   04 Jun 2027 06:25:54.013   04 Jun 2027 06:26:04.824            10.811               Magadan2           337.844
       362   04 Jun 2027 06:26:10.858   04 Jun 2027 06:26:17.952             7.094               Magadan2           221.688
       363   04 Jun 2027 06:26:17.952   04 Jun 2027 06:26:47.303            29.351               Magadan1           917.219
       364   04 Jun 2027 06:27:40.278   04 Jun 2027 06:27:55.208            14.930               Magadan1           466.563
       365   04 Jun 2027 06:30:48.091   04 Jun 2027 06:30:52.158             4.067                Norilsk           127.094
       366   04 Jun 2027 06:33:24.249   04 Jun 2027 06:33:26.231             1.982              Murmansk2            61.937
       367   04 Jun 2027 06:33:45.971   04 Jun 2027 06:34:15.656            29.685              Murmansk2           927.656
       368   04 Jun 2027 07:58:04.970   04 Jun 2027 07:58:24.853            19.883               Magadan1           621.344
       369   04 Jun 2027 07:58:28.449   04 Jun 2027 07:59:51.227            82.778                Irkutsk          2586.812
       370   04 Jun 2027 08:00:18.234   04 Jun 2027 08:00:22.973             4.739               Magadan2           148.094
       371   04 Jun 2027 08:00:39.648   04 Jun 2027 08:00:42.889             3.241                Irkutsk           101.281
       372   04 Jun 2027 08:01:12.110   04 Jun 2027 08:01:38.948            26.838               Magadan2           838.688
       373   04 Jun 2027 08:02:08.693   04 Jun 2027 08:02:12.759             4.066                Novosib           127.063
       374   04 Jun 2027 08:02:15.989   04 Jun 2027 08:02:31.212            15.223                Irkutsk           475.719
       375   04 Jun 2027 08:02:35.480   04 Jun 2027 08:02:54.044            18.564                Irkutsk           580.125
       376   04 Jun 2027 08:02:56.285   04 Jun 2027 08:03:07.528            11.243                Irkutsk           351.344
       377   04 Jun 2027 08:04:23.294   04 Jun 2027 08:04:27.006             3.712              Murmansk1           116.000
       378   04 Jun 2027 08:08:39.731   04 Jun 2027 08:09:26.855            47.124              Murmansk1          1472.625
       379   04 Jun 2027 08:39:06.383   04 Jun 2027 08:39:31.269            24.886            RioGallegos           777.688
       380   04 Jun 2027 08:39:42.060   04 Jun 2027 08:40:08.407            26.347            RioGallegos           823.344
       381   04 Jun 2027 09:13:34.171   04 Jun 2027 09:14:33.245            59.074                Sumatra          1846.063
       382   04 Jun 2027 09:35:51.324   04 Jun 2027 09:36:15.750            24.426                Irkutsk           763.313
       383   04 Jun 2027 09:36:54.206   04 Jun 2027 09:37:29.254            35.048                Irkutsk          1095.250
       384   04 Jun 2027 09:37:55.449   04 Jun 2027 09:38:00.773             5.324                Novosib           166.375
       385   04 Jun 2027 09:38:10.297   04 Jun 2027 09:38:11.492             1.195                Novosib            37.344
       386   04 Jun 2027 09:38:31.308   04 Jun 2027 09:39:25.801            54.493                Irkutsk          1702.906
       387   04 Jun 2027 09:39:56.010   04 Jun 2027 09:40:11.753            15.743                Novosib           491.969
       388   04 Jun 2027 10:21:25.606   04 Jun 2027 10:22:42.288            76.682            RioGallegos          2396.313
       389   04 Jun 2027 10:58:06.124   04 Jun 2027 10:59:30.223            84.099                  Delhi          2628.094
       390   04 Jun 2027 11:12:01.223   04 Jun 2027 11:12:02.446             1.223                Novosib            38.219
       391   04 Jun 2027 11:12:59.002   04 Jun 2027 11:13:13.695            14.693                Norilsk           459.156
       392   04 Jun 2027 11:13:25.307   04 Jun 2027 11:13:28.550             3.243                Novosib           101.344
       393   04 Jun 2027 11:13:36.789   04 Jun 2027 11:13:52.957            16.168                Norilsk           505.250
       394   04 Jun 2027 11:13:59.728   04 Jun 2027 11:14:07.031             7.303                Novosib           228.219
       395   04 Jun 2027 11:14:54.395   04 Jun 2027 11:15:06.236            11.841                Norilsk           370.031
       396   04 Jun 2027 11:15:14.874   04 Jun 2027 11:15:20.211             5.337                Novosib           166.781
       397   04 Jun 2027 11:15:20.837   04 Jun 2027 11:15:28.784             7.947                Norilsk           248.344
       398   04 Jun 2027 12:42:06.530   04 Jun 2027 12:43:06.334            59.804                 Moscow          1868.875
       399   04 Jun 2027 12:43:50.505   04 Jun 2027 12:44:08.056            17.551                 Moscow           548.469
       400   04 Jun 2027 12:44:23.683   04 Jun 2027 12:44:51.927            28.244                 Moscow           882.625
       401   04 Jun 2027 12:45:24.633   04 Jun 2027 12:45:44.918            20.285                 Moscow           633.906
       402   04 Jun 2027 12:45:49.302   04 Jun 2027 12:46:41.084            51.782              Murmansk1          1618.188
       403   04 Jun 2027 12:47:24.187   04 Jun 2027 12:48:47.597            83.410              Murmansk2          2606.563
       404   04 Jun 2027 12:48:47.597   04 Jun 2027 12:49:59.220            71.623              Murmansk1          2238.219
       405   04 Jun 2027 12:53:33.977   04 Jun 2027 12:54:18.289            44.312                Norilsk          1384.750
       406   04 Jun 2027 13:56:14.839   04 Jun 2027 13:57:47.699            92.860               CapeTown          2901.875
       407   04 Jun 2027 13:58:47.915   04 Jun 2027 13:59:47.914            59.999               CapeTown          1874.969
       408   04 Jun 2027 14:20:07.935   04 Jun 2027 14:20:10.283             2.348                 Moscow            73.375
       409   04 Jun 2027 14:23:00.829   04 Jun 2027 14:23:45.859            45.030              Murmansk1          1407.187
       410   04 Jun 2027 14:24:43.678   04 Jun 2027 14:25:10.264            26.586              Murmansk1           830.813
       411   04 Jun 2027 14:26:33.253   04 Jun 2027 14:27:16.267            43.014              Murmansk2          1344.187
       412   04 Jun 2027 14:27:30.560   04 Jun 2027 14:28:08.454            37.894              Murmansk1          1184.188
       413   04 Jun 2027 14:36:30.201   04 Jun 2027 14:39:11.642           161.441                Anadyr2          5045.031
       414   04 Jun 2027 15:31:44.817   04 Jun 2027 15:33:17.110            92.293               CapeTown          2884.156
       415   04 Jun 2027 16:02:51.357   04 Jun 2027 16:03:30.349            38.992              Murmansk1          1218.500
       416   04 Jun 2027 16:03:30.349   04 Jun 2027 16:04:04.489            34.140              Murmansk2          1066.875
       417   04 Jun 2027 16:06:15.164   04 Jun 2027 16:06:32.926            17.762              Murmansk1           555.063
       418   04 Jun 2027 16:12:09.453   04 Jun 2027 16:14:12.529           123.076                Anadyr1          3846.125
       419   04 Jun 2027 16:14:23.379   04 Jun 2027 16:15:06.807            43.428                Anadyr1          1357.125
       420   04 Jun 2027 16:15:14.405   04 Jun 2027 16:17:25.692           131.287               Magadan2          4102.719
       421   04 Jun 2027 16:18:04.679   04 Jun 2027 16:19:54.343           109.664               Magadan1          3427.000
       422   04 Jun 2027 17:48:04.729   04 Jun 2027 17:49:46.572           101.843                Anadyr2          3182.594
       423   04 Jun 2027 17:49:49.471   04 Jun 2027 17:50:16.149            26.678                Anadyr1           833.688
       424   04 Jun 2027 17:50:23.646   04 Jun 2027 17:52:06.501           102.855               Magadan1          3214.219
       425   04 Jun 2027 17:52:19.188   04 Jun 2027 17:52:43.538            24.350               Magadan2           760.938
       426   04 Jun 2027 17:57:39.978   04 Jun 2027 17:57:43.901             3.923               Magadan2           122.594
       427   04 Jun 2027 17:57:48.990   04 Jun 2027 17:58:17.081            28.091               Magadan2           877.844
       428   04 Jun 2027 18:44:09.055   04 Jun 2027 18:46:53.675           164.620            RioGallegos          5144.375
       429   04 Jun 2027 19:23:52.949   04 Jun 2027 19:23:54.915             1.966                Anadyr2            61.438
       430   04 Jun 2027 19:25:08.629   04 Jun 2027 19:25:25.900            17.271                Anadyr1           539.719
       431   04 Jun 2027 19:26:03.991   04 Jun 2027 19:29:38.286           214.295                Norilsk          6696.719
       432   04 Jun 2027 19:30:55.769   04 Jun 2027 19:32:10.525            74.756                Irkutsk          2336.125
       433   04 Jun 2027 19:32:38.902   04 Jun 2027 19:32:45.709             6.807                Irkutsk           212.719
       434   04 Jun 2027 19:33:15.344   04 Jun 2027 19:34:20.142            64.798                Irkutsk          2024.938
       435   04 Jun 2027 19:34:56.028   04 Jun 2027 19:35:38.350            42.322                Irkutsk          1322.562
       436   04 Jun 2027 19:35:57.027   04 Jun 2027 19:37:05.318            68.291                Irkutsk          2134.094
       437   04 Jun 2027 19:45:46.109   04 Jun 2027 19:48:14.760           148.651                Sumatra          4645.344
       438   04 Jun 2027 19:51:51.641   04 Jun 2027 19:52:23.865            32.224                Sumatra          1007.000
       439   04 Jun 2027 21:05:43.726   04 Jun 2027 21:07:25.393           101.667                Irkutsk          3177.094
       440   04 Jun 2027 21:08:04.496   04 Jun 2027 21:10:02.717           118.221                Novosib          3694.406
       441   04 Jun 2027 21:16:09.210   04 Jun 2027 21:18:43.716           154.506                  Delhi          4828.312
       442   04 Jun 2027 22:40:44.831   04 Jun 2027 22:45:06.593           261.762              Murmansk1          8180.062
       443   04 Jun 2027 22:45:33.297   04 Jun 2027 22:46:15.193            41.896              Murmansk1          1309.250
       444   05 Jun 2027 00:06:30.818   05 Jun 2027 00:06:42.078            11.260                Anadyr1           351.875
       445   05 Jun 2027 00:07:23.827   05 Jun 2027 00:07:57.954            34.127                Anadyr2          1066.469
       446   05 Jun 2027 00:08:58.850   05 Jun 2027 00:09:25.537            26.687                Anadyr1           833.969
       447   05 Jun 2027 00:12:30.260   05 Jun 2027 00:13:53.908            83.648               Magadan1          2614.000
       448   05 Jun 2027 00:13:58.149   05 Jun 2027 00:14:05.490             7.341               Magadan1           229.406
       449   05 Jun 2027 00:14:37.263   05 Jun 2027 00:14:56.168            18.905               Magadan1           590.781
       450   05 Jun 2027 00:15:07.221   05 Jun 2027 00:15:27.816            20.595               Magadan1           643.594
       451   05 Jun 2027 00:16:00.086   05 Jun 2027 00:18:57.676           177.590              Murmansk2          5549.687
       452   05 Jun 2027 00:18:57.676   05 Jun 2027 00:20:27.250            89.574              Murmansk1          2799.187
       453   05 Jun 2027 00:21:19.095   05 Jun 2027 00:21:38.305            19.210                 Moscow           600.313
       454   05 Jun 2027 00:22:10.385   05 Jun 2027 00:22:57.255            46.870                 Moscow          1464.688
       455   05 Jun 2027 00:46:03.964   05 Jun 2027 00:47:22.484            78.520               CapeTown          2453.750
       456   05 Jun 2027 00:49:16.529   05 Jun 2027 00:49:53.879            37.350               CapeTown          1167.188
       457   05 Jun 2027 00:51:05.732   05 Jun 2027 00:51:29.832            24.100               CapeTown           753.125
       458   05 Jun 2027 01:44:09.460   05 Jun 2027 01:45:26.619            77.159               Magadan2          2411.219
       459   05 Jun 2027 01:45:43.001   05 Jun 2027 01:45:48.733             5.732               Magadan1           179.125
       460   05 Jun 2027 01:49:48.366   05 Jun 2027 01:49:49.351             0.985               Magadan1            30.781
       461   05 Jun 2027 01:51:05.524   05 Jun 2027 01:51:22.718            17.194                Norilsk           537.312
       462   05 Jun 2027 01:51:55.411   05 Jun 2027 01:53:58.640           123.229              Murmansk1          3850.906
       463   05 Jun 2027 01:55:08.276   05 Jun 2027 01:56:18.539            70.263                 Moscow          2195.719
       464   05 Jun 2027 02:04:33.781   05 Jun 2027 02:04:43.721             9.940                 Moscow           310.625
       465   05 Jun 2027 02:07:25.545   05 Jun 2027 02:07:58.061            32.516                 Moscow          1016.125
       466   05 Jun 2027 02:19:01.583   05 Jun 2027 02:19:03.059             1.476               CapeTown            46.125
       467   05 Jun 2027 02:20:05.636   05 Jun 2027 02:21:25.653            80.017               CapeTown          2500.531
       468   05 Jun 2027 03:16:28.199   05 Jun 2027 03:16:33.640             5.441                Anadyr2           170.031
       469   05 Jun 2027 03:17:33.486   05 Jun 2027 03:17:38.150             4.664                Anadyr2           145.750
       470   05 Jun 2027 03:17:43.234   05 Jun 2027 03:19:02.374            79.140                Anadyr2          2473.125
       471   05 Jun 2027 03:21:54.654   05 Jun 2027 03:25:01.734           187.080                Anadyr2          5846.250
       472   05 Jun 2027 03:25:19.282   05 Jun 2027 03:25:52.430            33.148               Magadan1          1035.875
       473   05 Jun 2027 03:25:52.430   05 Jun 2027 03:26:06.728            14.298               Magadan2           446.813
       474   05 Jun 2027 03:26:14.711   05 Jun 2027 03:26:21.642             6.931                Anadyr2           216.594
       475   05 Jun 2027 03:28:37.163   05 Jun 2027 03:28:41.262             4.099                Anadyr2           128.094
       476   05 Jun 2027 05:00:02.419   05 Jun 2027 05:00:09.902             7.483                Irkutsk           233.844
       477   05 Jun 2027 05:01:24.739   05 Jun 2027 05:01:37.312            12.573               Magadan1           392.906
       478   05 Jun 2027 05:02:28.505   05 Jun 2027 05:04:26.171           117.666                Anadyr2          3677.062
       479   05 Jun 2027 06:34:07.483   05 Jun 2027 06:34:09.024             1.541               Magadan2            48.156
       480   05 Jun 2027 06:34:29.098   05 Jun 2027 06:36:07.883            98.785               Magadan1          3087.031
       481   05 Jun 2027 06:36:21.611   05 Jun 2027 06:37:23.088            61.477               Magadan1          1921.156
       482   05 Jun 2027 06:37:30.447   05 Jun 2027 06:37:36.185             5.738                Anadyr1           179.313
