uniorb/output/strategy_4/Drop/Drop_KinoSat_111204.txt

KinoSat_111204
-------------------------
    Access    *     Start Time (UTCG)     *     Stop Time (UTCG)  *   Duration (s)        *       Station  *  Data (Mbytes)
         1   01 Jun 2027 03:44:03.912   01 Jun 2027 03:44:46.906            42.994              Murmansk2          1343.562
         2   01 Jun 2027 03:45:07.387   01 Jun 2027 03:48:04.921           177.534              Murmansk2          5547.938
         3   01 Jun 2027 03:48:31.055   01 Jun 2027 03:48:49.736            18.681                 Moscow           583.781
         4   01 Jun 2027 03:49:09.215   01 Jun 2027 03:49:41.255            32.040                 Moscow          1001.250
         5   01 Jun 2027 04:02:28.493   01 Jun 2027 04:03:26.008            57.515               CapeTown          1797.344
         6   01 Jun 2027 04:05:38.464   01 Jun 2027 04:07:07.007            88.543               CapeTown          2766.969
         7   01 Jun 2027 05:06:09.064   01 Jun 2027 05:10:00.197           231.133                Anadyr2          7222.906
         8   01 Jun 2027 05:10:00.899   01 Jun 2027 05:10:29.353            28.454               Magadan2           889.187
         9   01 Jun 2027 05:10:43.198   01 Jun 2027 05:11:34.294            51.096               Magadan2          1596.750
        10   01 Jun 2027 06:43:13.593   01 Jun 2027 06:47:27.745           254.152                Anadyr2          7942.250
        11   01 Jun 2027 07:24:10.229   01 Jun 2027 07:24:15.721             5.492            RioGallegos           171.625
        12   01 Jun 2027 07:26:02.421   01 Jun 2027 07:26:58.401            55.980            RioGallegos          1749.375
        13   01 Jun 2027 08:18:28.059   01 Jun 2027 08:20:23.483           115.424                Novosib          3607.000
        14   01 Jun 2027 08:20:32.879   01 Jun 2027 08:22:47.912           135.033               Magadan1          4219.781
        15   01 Jun 2027 08:22:47.912   01 Jun 2027 08:22:57.478             9.566               Magadan2           298.937
        16   01 Jun 2027 08:23:07.982   01 Jun 2027 08:24:12.412            64.430                Novosib          2013.438
        17   01 Jun 2027 08:57:57.736   01 Jun 2027 08:59:09.139            71.403            RioGallegos          2231.344
        18   01 Jun 2027 09:33:36.856   01 Jun 2027 09:34:09.194            32.338                Sumatra          1010.562
        19   01 Jun 2027 09:55:39.814   01 Jun 2027 09:55:49.012             9.198                Novosib           287.438
        20   01 Jun 2027 09:55:59.739   01 Jun 2027 09:58:27.776           148.037                Novosib          4626.156
        21   01 Jun 2027 09:58:42.604   01 Jun 2027 10:00:25.863           103.259                Norilsk          3226.844
        22   01 Jun 2027 10:00:50.539   01 Jun 2027 10:02:32.096           101.557              Murmansk1          3173.656
        23   01 Jun 2027 10:35:24.473   01 Jun 2027 10:36:10.329            45.856            RioGallegos          1433.000
        24   01 Jun 2027 11:09:36.835   01 Jun 2027 11:10:49.190            72.355                Sumatra          2261.094
        25   01 Jun 2027 11:13:10.592   01 Jun 2027 11:13:37.910            27.318                Sumatra           853.688
        26   01 Jun 2027 11:19:14.288   01 Jun 2027 11:20:08.808            54.520                  Delhi          1703.750
        27   01 Jun 2027 11:30:51.051   01 Jun 2027 11:31:22.737            31.686                Irkutsk           990.187
        28   01 Jun 2027 11:31:44.147   01 Jun 2027 11:32:17.024            32.877                Irkutsk          1027.406
        29   01 Jun 2027 11:33:49.189   01 Jun 2027 11:37:46.231           237.042                 Moscow          7407.562
        30   01 Jun 2027 12:54:43.885   01 Jun 2027 12:58:07.208           203.323                  Delhi          6353.844
        31   01 Jun 2027 12:59:13.708   01 Jun 2027 12:59:36.786            23.078                  Delhi           721.187
        32   01 Jun 2027 13:01:25.190   01 Jun 2027 13:01:49.103            23.913                  Delhi           747.281
        33   01 Jun 2027 13:03:13.604   01 Jun 2027 13:04:06.986            53.382                Novosib          1668.187
        34   01 Jun 2027 13:04:43.704   01 Jun 2027 13:05:20.323            36.619                Novosib          1144.344
        35   01 Jun 2027 13:05:58.638   01 Jun 2027 13:07:54.580           115.942                Novosib          3623.188
        36   01 Jun 2027 13:09:29.433   01 Jun 2027 13:10:18.315            48.882                Norilsk          1527.563
        37   01 Jun 2027 13:12:22.965   01 Jun 2027 13:12:41.505            18.540                Norilsk           579.375
        38   01 Jun 2027 14:37:40.624   01 Jun 2027 14:39:25.283           104.659                 Moscow          3270.594
        39   01 Jun 2027 14:40:36.936   01 Jun 2027 14:40:52.044            15.108                 Moscow           472.125
        40   01 Jun 2027 14:41:10.741   01 Jun 2027 14:44:11.787           181.046              Murmansk1          5657.687
        41   01 Jun 2027 14:44:11.787   01 Jun 2027 14:45:07.827            56.040              Murmansk2          1751.250
        42   01 Jun 2027 14:48:03.074   01 Jun 2027 14:48:19.022            15.948              Murmansk1           498.375
        43   01 Jun 2027 14:48:44.148   01 Jun 2027 14:49:59.253            75.105              Murmansk1          2347.031
        44   01 Jun 2027 14:56:44.889   01 Jun 2027 14:57:52.478            67.589                Anadyr2          2112.156
        45   01 Jun 2027 14:58:21.304   01 Jun 2027 14:59:06.911            45.607                Anadyr1          1425.219
        46   01 Jun 2027 14:59:14.998   01 Jun 2027 14:59:44.658            29.660                Anadyr1           926.875
        47   01 Jun 2027 15:00:40.693   01 Jun 2027 15:01:41.052            60.359                Anadyr1          1886.219
        48   01 Jun 2027 15:53:35.253   01 Jun 2027 15:53:56.591            21.338               CapeTown           666.812
        49   01 Jun 2027 16:17:27.545   01 Jun 2027 16:17:46.680            19.135                 Moscow           597.969
        50   01 Jun 2027 16:18:53.647   01 Jun 2027 16:19:28.730            35.083                 Moscow          1096.344
        51   01 Jun 2027 16:19:59.104   01 Jun 2027 16:20:29.856            30.752              Murmansk1           961.000
        52   01 Jun 2027 16:20:41.578   01 Jun 2027 16:21:36.034            54.456                 Moscow          1701.750
        53   01 Jun 2027 16:21:43.975   01 Jun 2027 16:22:11.595            27.620              Murmansk1           863.125
        54   01 Jun 2027 16:24:16.849   01 Jun 2027 16:24:29.617            12.768              Murmansk2           399.000
        55   01 Jun 2027 16:31:36.215   01 Jun 2027 16:33:38.368           122.153                Anadyr1          3817.281
        56   01 Jun 2027 16:33:47.091   01 Jun 2027 16:35:00.600            73.509                Anadyr2          2297.156
        57   01 Jun 2027 17:27:41.277   01 Jun 2027 17:28:56.285            75.008               CapeTown          2344.000
        58   01 Jun 2027 17:33:56.398   01 Jun 2027 17:34:03.473             7.075               CapeTown           221.094
        59   01 Jun 2027 18:00:33.039   01 Jun 2027 18:04:20.020           226.981              Murmansk2          7093.156
        60   01 Jun 2027 18:07:25.273   01 Jun 2027 18:08:09.280            44.007                Anadyr1          1375.219
        61   01 Jun 2027 18:08:39.325   01 Jun 2027 18:09:28.769            49.444                Anadyr2          1545.125
        62   01 Jun 2027 18:10:03.338   01 Jun 2027 18:11:06.574            63.236               Magadan1          1976.125
        63   01 Jun 2027 18:11:25.839   01 Jun 2027 18:11:34.917             9.078               Magadan2           283.687
        64   01 Jun 2027 18:13:40.160   01 Jun 2027 18:14:07.898            27.738               Magadan1           866.812
        65   01 Jun 2027 18:14:51.460   01 Jun 2027 18:15:04.437            12.977               Magadan1           405.531
        66   01 Jun 2027 18:16:03.423   01 Jun 2027 18:16:04.096             0.673               Magadan2            21.031
        67   01 Jun 2027 18:17:25.888   01 Jun 2027 18:17:29.442             3.554               Magadan2           111.063
        68   01 Jun 2027 18:19:02.845   01 Jun 2027 18:19:14.058            11.213               Magadan1           350.406
        69   01 Jun 2027 18:20:07.634   01 Jun 2027 18:20:25.891            18.257               Magadan1           570.531
        70   01 Jun 2027 19:43:20.632   01 Jun 2027 19:45:24.026           123.394                Anadyr1          3856.062
        71   01 Jun 2027 19:45:37.226   01 Jun 2027 19:49:28.836           231.610               Magadan2          7237.813
        72   01 Jun 2027 19:49:28.836   01 Jun 2027 19:50:17.677            48.841               Magadan1          1526.281
        73   01 Jun 2027 19:50:25.142   01 Jun 2027 19:50:26.985             1.843               Magadan1            57.594
        74   01 Jun 2027 19:50:32.011   01 Jun 2027 19:50:45.726            13.715               Magadan1           428.594
        75   01 Jun 2027 19:50:58.213   01 Jun 2027 19:51:15.752            17.539               Magadan1           548.094
        76   01 Jun 2027 19:55:24.519   01 Jun 2027 19:55:53.532            29.013               Magadan1           906.656
        77   01 Jun 2027 19:56:22.820   01 Jun 2027 19:56:50.884            28.064               Magadan1           877.000
        78   01 Jun 2027 20:38:04.403   01 Jun 2027 20:40:52.585           168.182            RioGallegos          5255.687
        79   01 Jun 2027 20:42:46.986   01 Jun 2027 20:42:51.143             4.157            RioGallegos           129.906
        80   01 Jun 2027 20:47:17.296   01 Jun 2027 20:47:27.507            10.211            RioGallegos           319.094
        81   01 Jun 2027 21:19:01.172   01 Jun 2027 21:19:40.420            39.248                Anadyr1          1226.500
        82   01 Jun 2027 21:21:12.023   01 Jun 2027 21:22:02.962            50.939                Norilsk          1591.844
        83   01 Jun 2027 21:22:13.862   01 Jun 2027 21:23:32.823            78.961               Magadan1          2467.531
        84   01 Jun 2027 21:23:32.823   01 Jun 2027 21:23:56.158            23.335               Magadan2           729.219
        85   01 Jun 2027 21:25:31.178   01 Jun 2027 21:27:11.244           100.066                Irkutsk          3127.063
        86   01 Jun 2027 21:28:32.860   01 Jun 2027 21:28:41.333             8.473                Irkutsk           264.781
        87   01 Jun 2027 21:28:50.266   01 Jun 2027 21:28:55.123             4.857                Norilsk           151.781
        88   01 Jun 2027 21:29:13.349   01 Jun 2027 21:30:04.705            51.356                Novosib          1604.875
        89   01 Jun 2027 21:30:29.465   01 Jun 2027 21:31:06.014            36.549                Irkutsk          1142.156
        90   01 Jun 2027 21:39:26.132   01 Jun 2027 21:40:02.954            36.822                Sumatra          1150.688
        91   01 Jun 2027 21:41:30.132   01 Jun 2027 21:42:44.729            74.597                Sumatra          2331.156
        92   01 Jun 2027 21:45:50.058   01 Jun 2027 21:45:58.495             8.437                Sumatra           263.656
        93   01 Jun 2027 22:53:54.895   01 Jun 2027 22:55:28.194            93.299                Anadyr1          2915.594
        94   01 Jun 2027 22:55:54.528   01 Jun 2027 22:56:42.235            47.707                Anadyr2          1490.844
        95   01 Jun 2027 22:57:06.985   01 Jun 2027 22:57:33.976            26.991                Norilsk           843.469
        96   01 Jun 2027 22:57:45.059   01 Jun 2027 22:59:13.711            88.652               Magadan1          2770.375
        97   01 Jun 2027 22:59:13.711   01 Jun 2027 22:59:37.410            23.699               Magadan2           740.594
        98   01 Jun 2027 23:00:36.962   01 Jun 2027 23:01:05.583            28.621               Magadan2           894.406
        99   01 Jun 2027 23:01:13.878   01 Jun 2027 23:02:18.250            64.372                Novosib          2011.625
       100   01 Jun 2027 23:03:03.915   01 Jun 2027 23:03:56.399            52.484                Novosib          1640.125
       101   01 Jun 2027 23:07:41.882   01 Jun 2027 23:08:16.627            34.745                Novosib          1085.781
       102   01 Jun 2027 23:09:19.958   01 Jun 2027 23:12:25.716           185.758                  Delhi          5804.937
       103   02 Jun 2027 00:27:35.666   02 Jun 2027 00:27:44.175             8.509                Anadyr1           265.906
       104   02 Jun 2027 00:27:47.092   02 Jun 2027 00:28:37.340            50.248                Anadyr1          1570.250
       105   02 Jun 2027 00:29:21.483   02 Jun 2027 00:30:02.334            40.851                Anadyr2          1276.594
       106   02 Jun 2027 00:30:21.150   02 Jun 2027 00:30:39.692            18.542                Anadyr1           579.437
       107   02 Jun 2027 00:33:06.905   02 Jun 2027 00:33:23.876            16.971                Norilsk           530.344
       108   02 Jun 2027 00:33:26.166   02 Jun 2027 00:34:43.256            77.090               Magadan1          2409.063
       109   02 Jun 2027 00:34:54.646   02 Jun 2027 00:35:07.788            13.142                Norilsk           410.688
       110   02 Jun 2027 00:35:19.835   02 Jun 2027 00:35:37.363            17.528               Magadan2           547.750
       111   02 Jun 2027 00:35:52.631   02 Jun 2027 00:36:25.189            32.558               Magadan2          1017.437
       112   02 Jun 2027 00:36:38.673   02 Jun 2027 00:38:38.836           120.163              Murmansk1          3755.094
       113   02 Jun 2027 00:38:59.211   02 Jun 2027 00:40:08.393            69.182                Novosib          2161.938
       114   02 Jun 2027 00:41:10.126   02 Jun 2027 00:41:45.010            34.884                 Moscow          1090.125
       115   02 Jun 2027 00:42:48.829   02 Jun 2027 00:43:13.477            24.648                 Moscow           770.250
       116   02 Jun 2027 00:52:19.902   02 Jun 2027 00:52:24.337             4.435                  Delhi           138.594
       117   02 Jun 2027 00:53:11.719   02 Jun 2027 00:53:54.165            42.446                  Delhi          1326.438
       118   02 Jun 2027 01:27:59.027   02 Jun 2027 01:28:53.965            54.938            RioGallegos          1716.812
       119   02 Jun 2027 02:00:56.119   02 Jun 2027 02:02:36.622           100.503                Anadyr1          3140.719
       120   02 Jun 2027 02:03:19.821   02 Jun 2027 02:03:37.325            17.504                Anadyr1           547.000
       121   02 Jun 2027 02:03:37.325   02 Jun 2027 02:04:07.592            30.267                Anadyr2           945.844
       122   02 Jun 2027 02:06:20.513   02 Jun 2027 02:06:39.824            19.311               Magadan2           603.469
       123   02 Jun 2027 02:06:39.824   02 Jun 2027 02:07:35.188            55.364               Magadan1          1730.125
       124   02 Jun 2027 02:07:58.676   02 Jun 2027 02:08:01.813             3.137               Magadan2            98.031
       125   02 Jun 2027 02:08:14.448   02 Jun 2027 02:08:23.938             9.490               Magadan2           296.563
       126   02 Jun 2027 02:08:56.957   02 Jun 2027 02:09:09.780            12.823                Norilsk           400.719
       127   02 Jun 2027 02:10:25.693   02 Jun 2027 02:10:48.783            23.090               Magadan2           721.562
       128   02 Jun 2027 02:11:14.683   02 Jun 2027 02:12:06.495            51.812              Murmansk2          1619.125
       129   02 Jun 2027 02:13:11.589   02 Jun 2027 02:14:03.809            52.220                Novosib          1631.875
       130   02 Jun 2027 02:16:11.450   02 Jun 2027 02:16:23.419            11.969                Novosib           374.031
       131   02 Jun 2027 02:16:57.764   02 Jun 2027 02:17:09.489            11.725                 Moscow           366.406
       132   02 Jun 2027 02:20:29.697   02 Jun 2027 02:20:56.148            26.451                Novosib           826.594
       133   02 Jun 2027 02:21:41.749   02 Jun 2027 02:22:10.351            28.602                Novosib           893.812
       134   02 Jun 2027 02:25:58.537   02 Jun 2027 02:26:14.153            15.616                 Moscow           488.000
       135   02 Jun 2027 02:44:06.524   02 Jun 2027 02:45:20.257            73.733               CapeTown          2304.156
       136   02 Jun 2027 03:44:53.264   02 Jun 2027 03:46:11.512            78.248                Anadyr2          2445.250
       137   02 Jun 2027 03:55:00.533   02 Jun 2027 03:55:38.087            37.554                Norilsk          1173.563
       138   02 Jun 2027 03:56:48.655   02 Jun 2027 03:59:08.962           140.307              Murmansk1          4384.594
       139   02 Jun 2027 03:59:08.962   02 Jun 2027 03:59:48.439            39.477              Murmansk2          1233.656
       140   02 Jun 2027 05:17:53.396   02 Jun 2027 05:18:04.126            10.730               Magadan1           335.312
       141   02 Jun 2027 05:18:04.126   02 Jun 2027 05:18:29.369            25.243               Magadan2           788.844
       142   02 Jun 2027 05:18:43.599   02 Jun 2027 05:19:39.423            55.824               Magadan1          1744.500
       143   02 Jun 2027 05:19:39.423   02 Jun 2027 05:20:13.649            34.226               Magadan2          1069.562
       144   02 Jun 2027 05:20:28.781   02 Jun 2027 05:23:30.558           181.777                Anadyr2          5680.531
       145   02 Jun 2027 06:55:58.635   02 Jun 2027 06:56:39.265            40.630                Irkutsk          1269.687
       146   02 Jun 2027 06:56:58.855   02 Jun 2027 06:57:24.698            25.843                Irkutsk           807.594
       147   02 Jun 2027 06:57:30.329   02 Jun 2027 06:57:42.008            11.679               Magadan1           364.969
       148   02 Jun 2027 08:31:04.473   02 Jun 2027 08:31:22.439            17.966               Magadan1           561.438
       149   02 Jun 2027 08:32:05.828   02 Jun 2027 08:34:48.619           162.791               Magadan2          5087.219
       150   02 Jun 2027 10:06:32.530   02 Jun 2027 10:06:44.271            11.741                Novosib           366.906
       151   02 Jun 2027 10:06:56.665   02 Jun 2027 10:07:04.813             8.148                Novosib           254.625
       152   02 Jun 2027 10:07:33.236   02 Jun 2027 10:07:57.285            24.049                Norilsk           751.531
       153   02 Jun 2027 10:08:12.274   02 Jun 2027 10:08:42.291            30.017                Norilsk           938.031
       154   02 Jun 2027 10:08:51.463   02 Jun 2027 10:09:05.976            14.513                Norilsk           453.531
       155   02 Jun 2027 10:09:16.701   02 Jun 2027 10:09:34.622            17.921                Novosib           560.031
       156   02 Jun 2027 10:09:44.260   02 Jun 2027 10:10:03.875            19.615                Irkutsk           612.969
       157   02 Jun 2027 10:10:22.143   02 Jun 2027 10:11:13.442            51.299                Irkutsk          1603.094
       158   02 Jun 2027 10:47:58.451   02 Jun 2027 10:48:24.584            26.133            RioGallegos           816.656
       159   02 Jun 2027 10:51:13.058   02 Jun 2027 10:51:24.061            11.003            RioGallegos           343.844
       160   02 Jun 2027 11:22:11.880   02 Jun 2027 11:22:33.615            21.735                Sumatra           679.219
       161   02 Jun 2027 11:25:55.834   02 Jun 2027 11:27:11.369            75.535                Sumatra          2360.469
       162   02 Jun 2027 11:43:15.158   02 Jun 2027 11:43:33.771            18.613                Novosib           581.656
       163   02 Jun 2027 11:43:50.386   02 Jun 2027 11:44:57.548            67.162                Novosib          2098.812
       164   02 Jun 2027 11:45:03.678   02 Jun 2027 11:45:46.571            42.893                Novosib          1340.406
       165   02 Jun 2027 11:45:58.432   02 Jun 2027 11:46:19.735            21.303                Novosib           665.719
       166   02 Jun 2027 11:46:27.165   02 Jun 2027 11:46:36.222             9.057                Novosib           283.031
       167   02 Jun 2027 11:46:41.917   02 Jun 2027 11:46:44.250             2.333                Norilsk            72.906
       168   02 Jun 2027 13:07:37.544   02 Jun 2027 13:12:09.333           271.789                  Delhi          8493.406
       169   02 Jun 2027 13:16:56.274   02 Jun 2027 13:19:32.515           156.241              Murmansk2          4882.531
       170   02 Jun 2027 13:22:15.936   02 Jun 2027 13:22:44.895            28.959                Norilsk           904.969
       171   02 Jun 2027 14:30:09.025   02 Jun 2027 14:32:04.588           115.563               CapeTown          3611.344
       172   02 Jun 2027 14:35:08.234   02 Jun 2027 14:35:51.494            43.260               CapeTown          1351.875
       173   02 Jun 2027 14:49:54.617   02 Jun 2027 14:50:59.944            65.327                 Moscow          2041.469
       174   02 Jun 2027 14:53:21.824   02 Jun 2027 14:55:32.840           131.016              Murmansk1          4094.250
       175   02 Jun 2027 15:08:28.128   02 Jun 2027 15:09:51.028            82.900                Anadyr2          2590.625
       176   02 Jun 2027 15:10:50.156   02 Jun 2027 15:11:52.553            62.397                Anadyr1          1949.906
       177   02 Jun 2027 15:12:02.341   02 Jun 2027 15:12:41.901            39.560                Anadyr2          1236.250
       178   02 Jun 2027 16:05:00.085   02 Jun 2027 16:05:37.239            37.154               CapeTown          1161.062
       179   02 Jun 2027 16:09:52.570   02 Jun 2027 16:10:01.189             8.619               CapeTown           269.344
       180   02 Jun 2027 16:30:36.720   02 Jun 2027 16:31:30.762            54.042                 Moscow          1688.813
       181   02 Jun 2027 16:31:48.136   02 Jun 2027 16:32:31.968            43.832              Murmansk2          1369.750
       182   02 Jun 2027 16:34:13.108   02 Jun 2027 16:34:26.581            13.473              Murmansk2           421.031
       183   02 Jun 2027 16:35:50.954   02 Jun 2027 16:36:18.905            27.951              Murmansk1           873.469
       184   02 Jun 2027 16:36:18.905   02 Jun 2027 16:36:54.046            35.141              Murmansk2          1098.156
       185   02 Jun 2027 16:43:35.571   02 Jun 2027 16:45:34.296           118.725                Anadyr2          3710.156
       186   02 Jun 2027 16:47:48.392   02 Jun 2027 16:48:28.861            40.469                Anadyr1          1264.656
       187   02 Jun 2027 16:48:57.101   02 Jun 2027 16:50:53.820           116.719               Magadan2          3647.469
       188   02 Jun 2027 18:13:57.515   02 Jun 2027 18:15:57.159           119.644              Murmansk2          3738.875
       189   02 Jun 2027 18:19:26.759   02 Jun 2027 18:21:34.706           127.947                Anadyr2          3998.344
       190   02 Jun 2027 18:21:45.008   02 Jun 2027 18:22:16.859            31.851                Anadyr1           995.344
       191   02 Jun 2027 18:22:53.760   02 Jun 2027 18:25:33.532           159.772               Magadan2          4992.875
       192   02 Jun 2027 19:55:21.452   02 Jun 2027 19:59:09.026           227.574                Anadyr1          7111.688
       193   02 Jun 2027 19:59:11.673   02 Jun 2027 20:01:32.416           140.743               Magadan1          4398.219
       194   02 Jun 2027 20:01:34.853   02 Jun 2027 20:02:09.465            34.612                Norilsk          1081.625
       195   02 Jun 2027 20:49:50.580   02 Jun 2027 20:52:07.805           137.225            RioGallegos          4288.281
       196   02 Jun 2027 20:52:49.774   02 Jun 2027 20:53:16.664            26.890            RioGallegos           840.313
       197   02 Jun 2027 21:30:58.242   02 Jun 2027 21:33:14.660           136.418                Anadyr2          4263.063
       198   02 Jun 2027 21:33:22.076   02 Jun 2027 21:35:21.530           119.454                Norilsk          3732.937
       199   02 Jun 2027 21:37:24.002   02 Jun 2027 21:37:50.237            26.235                Irkutsk           819.844
       200   02 Jun 2027 21:38:40.784   02 Jun 2027 21:39:00.603            19.819                Irkutsk           619.344
       201   02 Jun 2027 21:39:12.755   02 Jun 2027 21:39:17.566             4.811                Irkutsk           150.344
       202   02 Jun 2027 21:39:27.632   02 Jun 2027 21:39:53.944            26.312                Novosib           822.250
       203   02 Jun 2027 21:40:17.599   02 Jun 2027 21:40:17.852             0.253                Irkutsk             7.906
       204   02 Jun 2027 21:40:30.817   02 Jun 2027 21:41:07.254            36.437                Novosib          1138.656
       205   02 Jun 2027 21:41:48.199   02 Jun 2027 21:42:11.813            23.614                Novosib           737.938
       206   02 Jun 2027 21:51:10.050   02 Jun 2027 21:52:00.420            50.370                Sumatra          1574.063
       207   02 Jun 2027 21:53:41.176   02 Jun 2027 21:54:43.453            62.277                Sumatra          1946.156
       208   02 Jun 2027 23:05:43.243   02 Jun 2027 23:06:55.846            72.603                Anadyr1          2268.844
       209   02 Jun 2027 23:07:08.093   02 Jun 2027 23:07:53.564            45.471                Anadyr1          1420.969
       210   02 Jun 2027 23:09:09.048   02 Jun 2027 23:09:46.828            37.780                Norilsk          1180.625
       211   02 Jun 2027 23:09:47.293   02 Jun 2027 23:10:40.970            53.677               Magadan2          1677.406
       212   02 Jun 2027 23:12:54.562   02 Jun 2027 23:13:21.243            26.681               Magadan1           833.781
       213   02 Jun 2027 23:13:31.094   02 Jun 2027 23:13:51.714            20.620                Novosib           644.375
       214   02 Jun 2027 23:14:03.877   02 Jun 2027 23:14:04.233             0.356                Irkutsk            11.125
       215   02 Jun 2027 23:14:24.674   02 Jun 2027 23:15:08.191            43.517                Novosib          1359.906
       216   02 Jun 2027 23:18:35.779   02 Jun 2027 23:19:07.282            31.503                Novosib           984.469
       217   02 Jun 2027 23:20:59.032   02 Jun 2027 23:22:31.718            92.686                  Delhi          2896.437
       218   02 Jun 2027 23:22:58.489   02 Jun 2027 23:24:17.458            78.969                  Delhi          2467.781
       219   02 Jun 2027 23:32:18.148   02 Jun 2027 23:32:27.943             9.795                  Delhi           306.094
       220   03 Jun 2027 00:39:16.826   03 Jun 2027 00:39:33.365            16.539                Anadyr2           516.844
       221   03 Jun 2027 00:39:49.788   03 Jun 2027 00:40:31.940            42.152                Anadyr1          1317.250
       222   03 Jun 2027 00:40:51.378   03 Jun 2027 00:41:02.816            11.438                Anadyr2           357.437
       223   03 Jun 2027 00:41:48.654   03 Jun 2027 00:42:03.194            14.540                Anadyr2           454.375
       224   03 Jun 2027 00:44:46.772   03 Jun 2027 00:45:02.019            15.247                Anadyr2           476.469
       225   03 Jun 2027 00:45:06.419   03 Jun 2027 00:45:20.929            14.510                Anadyr1           453.437
       226   03 Jun 2027 00:45:26.058   03 Jun 2027 00:45:45.731            19.673                Norilsk           614.781
       227   03 Jun 2027 00:46:06.246   03 Jun 2027 00:47:45.157            98.911               Magadan2          3090.969
       228   03 Jun 2027 00:48:10.719   03 Jun 2027 00:50:40.234           149.515              Murmansk1          4672.344
       229   03 Jun 2027 00:52:25.409   03 Jun 2027 00:52:56.097            30.688                 Moscow           959.000
       230   03 Jun 2027 00:54:19.102   03 Jun 2027 00:55:11.165            52.063                 Moscow          1626.969
       231   03 Jun 2027 01:02:40.852   03 Jun 2027 01:03:17.952            37.100                  Delhi          1159.375
       232   03 Jun 2027 02:12:40.988   03 Jun 2027 02:15:20.553           159.565                Anadyr1          4986.406
       233   03 Jun 2027 02:15:47.854   03 Jun 2027 02:15:55.387             7.533                Anadyr1           235.406
       234   03 Jun 2027 02:17:48.453   03 Jun 2027 02:19:17.320            88.867               Magadan1          2777.094
       235   03 Jun 2027 02:20:56.288   03 Jun 2027 02:21:26.959            30.671                Norilsk           958.469
       236   03 Jun 2027 02:23:16.130   03 Jun 2027 02:24:00.117            43.987              Murmansk1          1374.594
       237   03 Jun 2027 02:24:06.183   03 Jun 2027 02:24:31.268            25.085              Murmansk2           783.906
       238   03 Jun 2027 02:25:18.331   03 Jun 2027 02:25:29.214            10.883                Novosib           340.094
       239   03 Jun 2027 02:26:02.128   03 Jun 2027 02:27:03.935            61.807                Novosib          1931.469
       240   03 Jun 2027 02:32:14.965   03 Jun 2027 02:33:44.327            89.362                Novosib          2792.562
       241   03 Jun 2027 02:53:59.945   03 Jun 2027 02:54:16.255            16.310               CapeTown           509.688
       242   03 Jun 2027 03:01:19.110   03 Jun 2027 03:02:36.751            77.641               CapeTown          2426.281
       243   03 Jun 2027 03:54:16.981   03 Jun 2027 03:55:49.392            92.411               Magadan1          2887.844
       244   03 Jun 2027 03:56:25.947   03 Jun 2027 03:57:07.827            41.880               Magadan1          1308.750
       245   03 Jun 2027 04:08:00.793   03 Jun 2027 04:08:18.816            18.023              Murmansk1           563.219
       246   03 Jun 2027 04:08:18.816   03 Jun 2027 04:09:09.947            51.131              Murmansk2          1597.844
       247   03 Jun 2027 04:12:04.107   03 Jun 2027 04:12:11.836             7.729              Murmansk2           241.531
       248   03 Jun 2027 05:28:44.224   03 Jun 2027 05:29:07.280            23.056                Anadyr1           720.500
       249   03 Jun 2027 05:29:16.090   03 Jun 2027 05:30:31.088            74.998               Magadan1          2343.688
       250   03 Jun 2027 05:30:36.155   03 Jun 2027 05:30:39.008             2.853               Magadan1            89.156
       251   03 Jun 2027 05:30:56.728   03 Jun 2027 05:33:21.365           144.637                Anadyr1          4519.906
       252   03 Jun 2027 05:33:21.365   03 Jun 2027 05:35:52.431           151.066                Anadyr2          4720.812
       253   03 Jun 2027 07:06:27.683   03 Jun 2027 07:07:04.253            36.570                Anadyr2          1142.813
       254   03 Jun 2027 07:07:04.253   03 Jun 2027 07:07:30.433            26.180                Anadyr1           818.125
       255   03 Jun 2027 07:07:48.850   03 Jun 2027 07:08:10.295            21.445               Magadan1           670.156
       256   03 Jun 2027 07:08:30.561   03 Jun 2027 07:09:15.220            44.659                Anadyr2          1395.594
       257   03 Jun 2027 07:09:20.315   03 Jun 2027 07:09:26.307             5.992               Magadan1           187.250
       258   03 Jun 2027 07:09:34.813   03 Jun 2027 07:09:45.296            10.483               Magadan2           327.594
       259   03 Jun 2027 07:10:19.950   03 Jun 2027 07:11:33.115            73.165               Magadan1          2286.406
       260   03 Jun 2027 08:40:48.148   03 Jun 2027 08:42:03.935            75.787               Magadan2          2368.344
       261   03 Jun 2027 08:43:16.620   03 Jun 2027 08:43:19.368             2.748               Magadan2            85.875
       262   03 Jun 2027 08:43:48.119   03 Jun 2027 08:44:30.352            42.233                Irkutsk          1319.781
       263   03 Jun 2027 08:44:41.787   03 Jun 2027 08:45:43.222            61.435               Magadan2          1919.844
       264   03 Jun 2027 08:45:48.296   03 Jun 2027 08:46:14.956            26.660                Norilsk           833.125
       265   03 Jun 2027 08:46:28.322   03 Jun 2027 08:46:51.968            23.646                Irkutsk           738.937
       266   03 Jun 2027 08:49:09.265   03 Jun 2027 08:49:15.564             6.299              Murmansk1           196.844
       267   03 Jun 2027 09:22:00.807   03 Jun 2027 09:23:09.823            69.016            RioGallegos          2156.750
       268   03 Jun 2027 09:57:04.440   03 Jun 2027 09:57:06.212             1.772                Sumatra            55.375
       269   03 Jun 2027 09:57:54.552   03 Jun 2027 09:59:54.968           120.416                Sumatra          3763.000
       270   03 Jun 2027 10:20:17.465   03 Jun 2027 10:20:58.469            41.004                Novosib          1281.375
       271   03 Jun 2027 10:21:07.097   03 Jun 2027 10:21:18.975            11.878                Norilsk           371.188
       272   03 Jun 2027 10:21:24.848   03 Jun 2027 10:21:35.539            10.691                Irkutsk           334.094
       273   03 Jun 2027 10:21:37.512   03 Jun 2027 10:21:41.965             4.453                Novosib           139.156
       274   03 Jun 2027 10:22:03.796   03 Jun 2027 10:22:53.534            49.738                Irkutsk          1554.313
       275   03 Jun 2027 10:23:00.277   03 Jun 2027 10:24:12.256            71.979                Novosib          2249.344
       276   03 Jun 2027 11:00:39.881   03 Jun 2027 11:00:43.025             3.144            RioGallegos            98.250
       277   03 Jun 2027 11:35:02.933   03 Jun 2027 11:35:04.498             1.565                Sumatra            48.906
       278   03 Jun 2027 11:35:34.239   03 Jun 2027 11:37:07.721            93.482                Sumatra          2921.313
       279   03 Jun 2027 11:55:11.548   03 Jun 2027 11:55:50.196            38.648                Irkutsk          1207.750
       280   03 Jun 2027 11:57:08.363   03 Jun 2027 11:57:26.149            17.786                Norilsk           555.813
       281   03 Jun 2027 11:58:08.843   03 Jun 2027 11:58:16.088             7.245                Novosib           226.406
       282   03 Jun 2027 11:58:23.422   03 Jun 2027 11:58:24.974             1.552                Novosib            48.500
       283   03 Jun 2027 11:58:32.397   03 Jun 2027 11:58:46.234            13.837                Norilsk           432.406
       284   03 Jun 2027 12:02:05.791   03 Jun 2027 12:02:20.205            14.414                Norilsk           450.437
       285   03 Jun 2027 12:02:25.738   03 Jun 2027 12:02:32.108             6.370                Norilsk           199.062
       286   03 Jun 2027 13:20:58.568   03 Jun 2027 13:23:56.667           178.099                  Delhi          5565.594
       287   03 Jun 2027 13:25:58.986   03 Jun 2027 13:26:21.094            22.108                  Delhi           690.875
       288   03 Jun 2027 13:28:08.425   03 Jun 2027 13:28:46.803            38.378                 Moscow          1199.313
       289   03 Jun 2027 13:28:55.959   03 Jun 2027 13:30:03.069            67.110              Murmansk2          2097.187
       290   03 Jun 2027 13:30:27.375   03 Jun 2027 13:30:39.128            11.753              Murmansk2           367.281
       291   03 Jun 2027 13:30:39.128   03 Jun 2027 13:31:13.665            34.537              Murmansk1          1079.281
       292   03 Jun 2027 13:31:46.785   03 Jun 2027 13:33:06.128            79.343                Novosib          2479.469
       293   03 Jun 2027 13:37:17.719   03 Jun 2027 13:37:38.442            20.723                Norilsk           647.594
       294   03 Jun 2027 13:38:32.333   03 Jun 2027 13:38:53.995            21.662                Norilsk           676.938
       295   03 Jun 2027 14:41:09.443   03 Jun 2027 14:43:41.478           152.035               CapeTown          4751.094
       296   03 Jun 2027 14:45:24.942   03 Jun 2027 14:45:29.345             4.403               CapeTown           137.594
       297   03 Jun 2027 14:48:18.612   03 Jun 2027 14:49:02.644            44.032               CapeTown          1376.000
       298   03 Jun 2027 15:05:34.798   03 Jun 2027 15:06:24.362            49.564              Murmansk2          1548.875
       299   03 Jun 2027 15:06:31.408   03 Jun 2027 15:06:45.383            13.975              Murmansk2           436.719
       300   03 Jun 2027 15:08:15.411   03 Jun 2027 15:08:36.439            21.028              Murmansk2           657.125
       301   03 Jun 2027 15:10:35.907   03 Jun 2027 15:12:06.116            90.209              Murmansk1          2819.031
       302   03 Jun 2027 15:20:16.621   03 Jun 2027 15:21:50.219            93.598                Anadyr1          2924.937
       303   03 Jun 2027 15:23:35.489   03 Jun 2027 15:23:47.402            11.913                Anadyr1           372.281
       304   03 Jun 2027 15:23:52.938   03 Jun 2027 15:24:03.363            10.425                Anadyr2           325.781
       305   03 Jun 2027 15:24:12.083   03 Jun 2027 15:25:09.795            57.712                Anadyr2          1803.500
       306   03 Jun 2027 16:24:32.031   03 Jun 2027 16:24:39.601             7.570               CapeTown           236.562
       307   03 Jun 2027 16:24:47.252   03 Jun 2027 16:25:26.879            39.627               CapeTown          1238.344
       308   03 Jun 2027 16:44:19.308   03 Jun 2027 16:45:41.334            82.026              Murmansk2          2563.312
       309   03 Jun 2027 16:47:07.137   03 Jun 2027 16:47:48.054            40.917              Murmansk1          1278.656
       310   03 Jun 2027 16:51:22.103   03 Jun 2027 16:52:05.907            43.804              Murmansk2          1368.875
       311   03 Jun 2027 16:55:35.440   03 Jun 2027 16:56:53.728            78.288                Anadyr2          2446.500
       312   03 Jun 2027 16:59:22.352   03 Jun 2027 16:59:23.685             1.333                Anadyr2            41.656
       313   03 Jun 2027 16:59:46.620   03 Jun 2027 17:00:18.364            31.744                Anadyr1           992.000
       314   03 Jun 2027 17:00:52.231   03 Jun 2027 17:02:31.559            99.328               Magadan1          3104.000
       315   03 Jun 2027 18:31:28.285   03 Jun 2027 18:35:18.849           230.564                Anadyr2          7205.125
       316   03 Jun 2027 18:35:57.608   03 Jun 2027 18:37:38.808           101.200               Magadan2          3162.500
       317   03 Jun 2027 18:38:01.162   03 Jun 2027 18:38:11.388            10.226               Magadan1           319.563
       318   03 Jun 2027 18:38:25.559   03 Jun 2027 18:39:12.536            46.977               Magadan1          1468.031
       319   03 Jun 2027 18:43:05.932   03 Jun 2027 18:43:26.332            20.400               Magadan2           637.500
       320   03 Jun 2027 20:07:22.013   03 Jun 2027 20:09:27.025           125.012                Anadyr2          3906.625
       321   03 Jun 2027 20:09:39.325   03 Jun 2027 20:11:08.669            89.344                Anadyr1          2792.000
       322   03 Jun 2027 20:11:23.435   03 Jun 2027 20:13:49.672           146.237               Magadan1          4569.906
       323   03 Jun 2027 20:14:25.845   03 Jun 2027 20:15:07.769            41.924                Norilsk          1310.125
       324   03 Jun 2027 20:16:30.024   03 Jun 2027 20:17:30.672            60.648                Irkutsk          1895.250
       325   03 Jun 2027 20:18:00.115   03 Jun 2027 20:18:24.622            24.507                Irkutsk           765.844
       326   03 Jun 2027 20:19:17.288   03 Jun 2027 20:19:47.165            29.877                Irkutsk           933.656
       327   03 Jun 2027 21:01:40.234   03 Jun 2027 21:02:58.347            78.113            RioGallegos          2441.031
       328   03 Jun 2027 21:03:15.397   03 Jun 2027 21:03:18.673             3.276            RioGallegos           102.375
       329   03 Jun 2027 21:04:36.661   03 Jun 2027 21:04:55.428            18.767            RioGallegos           586.469
       330   03 Jun 2027 21:07:43.805   03 Jun 2027 21:07:48.474             4.669            RioGallegos           145.906
       331   03 Jun 2027 21:43:06.993   03 Jun 2027 21:43:11.968             4.975                Anadyr2           155.469
       332   03 Jun 2027 21:43:22.087   03 Jun 2027 21:45:13.734           111.647                Anadyr2          3488.969
       333   03 Jun 2027 21:45:44.185   03 Jun 2027 21:47:18.213            94.028               Magadan1          2938.375
       334   03 Jun 2027 21:47:18.213   03 Jun 2027 21:47:22.338             4.125               Magadan2           128.906
       335   03 Jun 2027 21:48:00.532   03 Jun 2027 21:48:00.600             0.068               Magadan2             2.125
       336   03 Jun 2027 21:48:25.215   03 Jun 2027 21:49:11.746            46.531               Magadan1          1454.094
       337   03 Jun 2027 21:50:09.330   03 Jun 2027 21:51:15.065            65.735                Irkutsk          2054.219
       338   03 Jun 2027 21:51:26.975   03 Jun 2027 21:51:42.661            15.686                Novosib           490.187
       339   03 Jun 2027 21:52:25.534   03 Jun 2027 21:53:11.540            46.006                Novosib          1437.687
       340   03 Jun 2027 21:53:48.977   03 Jun 2027 21:54:24.191            35.214                Novosib          1100.437
       341   03 Jun 2027 21:57:19.987   03 Jun 2027 21:57:39.726            19.739                Novosib           616.844
       342   03 Jun 2027 22:11:18.504   03 Jun 2027 22:12:31.205            72.701                Sumatra          2271.906
       343   03 Jun 2027 23:17:30.304   03 Jun 2027 23:18:57.082            86.778                Anadyr1          2711.813
       344   03 Jun 2027 23:19:09.176   03 Jun 2027 23:19:49.092            39.916                Anadyr2          1247.375
       345   03 Jun 2027 23:21:11.136   03 Jun 2027 23:21:32.848            21.712                Norilsk           678.500
       346   03 Jun 2027 23:21:49.170   03 Jun 2027 23:23:00.214            71.044               Magadan2          2220.125
       347   03 Jun 2027 23:23:00.214   03 Jun 2027 23:23:15.597            15.383               Magadan1           480.719
       348   03 Jun 2027 23:23:28.364   03 Jun 2027 23:23:30.422             2.058               Magadan1            64.313
       349   03 Jun 2027 23:24:21.871   03 Jun 2027 23:24:47.009            25.138               Magadan2           785.562
       350   03 Jun 2027 23:24:49.665   03 Jun 2027 23:25:37.161            47.496               Magadan2          1484.250
       351   03 Jun 2027 23:27:27.661   03 Jun 2027 23:28:23.597            55.936                Novosib          1748.000
       352   03 Jun 2027 23:32:44.084   03 Jun 2027 23:33:40.496            56.412                  Delhi          1762.875
       353   03 Jun 2027 23:34:46.135   03 Jun 2027 23:34:58.264            12.129                  Delhi           379.031
       354   03 Jun 2027 23:35:56.835   03 Jun 2027 23:36:36.021            39.186                  Delhi          1224.562
       355   04 Jun 2027 00:17:11.551   04 Jun 2027 00:17:40.605            29.054            RioGallegos           907.938
       356   04 Jun 2027 00:50:57.846   04 Jun 2027 00:51:18.433            20.587                Anadyr1           643.344
       357   04 Jun 2027 00:51:26.938   04 Jun 2027 00:52:50.877            83.939                Anadyr2          2623.094
       358   04 Jun 2027 00:53:27.087   04 Jun 2027 00:53:31.603             4.516                Anadyr1           141.125
       359   04 Jun 2027 00:53:41.542   04 Jun 2027 00:54:19.959            38.417                Anadyr1          1200.531
       360   04 Jun 2027 00:57:06.045   04 Jun 2027 00:57:56.855            50.810               Magadan1          1587.812
       361   04 Jun 2027 00:57:56.855   04 Jun 2027 00:58:34.018            37.163               Magadan2          1161.344
       362   04 Jun 2027 00:59:10.325   04 Jun 2027 00:59:11.908             1.583                Norilsk            49.469
       363   04 Jun 2027 00:59:22.634   04 Jun 2027 00:59:44.023            21.389               Magadan2           668.406
       364   04 Jun 2027 01:00:12.397   04 Jun 2027 01:01:53.537           101.140              Murmansk1          3160.625
       365   04 Jun 2027 01:02:53.955   04 Jun 2027 01:03:27.719            33.764                Novosib          1055.125
       366   04 Jun 2027 01:03:38.447   04 Jun 2027 01:03:44.790             6.343              Murmansk2           198.219
       367   04 Jun 2027 01:03:58.041   04 Jun 2027 01:04:52.966            54.925                 Moscow          1716.406
       368   04 Jun 2027 01:13:30.602   04 Jun 2027 01:13:43.494            12.892                  Delhi           402.875
       369   04 Jun 2027 01:14:16.031   04 Jun 2027 01:14:24.025             7.994                  Delhi           249.812
       370   04 Jun 2027 01:15:06.410   04 Jun 2027 01:16:12.078            65.668                  Delhi          2052.125
       371   04 Jun 2027 02:24:26.973   04 Jun 2027 02:26:24.070           117.097                Anadyr1          3659.281
       372   04 Jun 2027 02:26:54.390   04 Jun 2027 02:27:04.775            10.385                Anadyr2           324.531
       373   04 Jun 2027 02:27:22.276   04 Jun 2027 02:27:40.427            18.151                Anadyr1           567.219
       374   04 Jun 2027 02:29:16.255   04 Jun 2027 02:30:13.094            56.839               Magadan2          1776.219
       375   04 Jun 2027 02:30:16.953   04 Jun 2027 02:30:32.876            15.923               Magadan1           497.594
       376   04 Jun 2027 02:32:27.950   04 Jun 2027 02:32:36.483             8.533               Magadan2           266.656
       377   04 Jun 2027 02:32:56.651   04 Jun 2027 02:33:28.930            32.279                Norilsk          1008.719
       378   04 Jun 2027 02:35:17.735   04 Jun 2027 02:36:39.685            81.950              Murmansk1          2560.937
       379   04 Jun 2027 02:37:50.563   04 Jun 2027 02:39:33.705           103.142                Novosib          3223.187
       380   04 Jun 2027 03:02:44.421   04 Jun 2027 03:02:55.449            11.028               CapeTown           344.625
       381   04 Jun 2027 03:06:15.578   04 Jun 2027 03:06:28.665            13.087               CapeTown           408.969
       382   04 Jun 2027 03:09:02.071   04 Jun 2027 03:09:29.117            27.046               CapeTown           845.188
       383   04 Jun 2027 03:11:01.605   04 Jun 2027 03:11:12.295            10.690               CapeTown           334.062
       384   04 Jun 2027 03:11:30.524   04 Jun 2027 03:12:10.445            39.921               CapeTown          1247.531
       385   04 Jun 2027 04:06:11.488   04 Jun 2027 04:09:17.937           186.449               Magadan1          5826.531
       386   04 Jun 2027 04:10:44.551   04 Jun 2027 04:12:04.966            80.415                Anadyr2          2512.969
       387   04 Jun 2027 05:42:03.513   04 Jun 2027 05:43:51.846           108.333               Magadan1          3385.406
       388   04 Jun 2027 05:43:59.073   04 Jun 2027 05:45:37.020            97.947               Magadan1          3060.844
       389   04 Jun 2027 05:45:37.020   04 Jun 2027 05:47:41.568           124.548               Magadan2          3892.125
       390   04 Jun 2027 05:47:41.677   04 Jun 2027 05:47:57.512            15.835                Anadyr2           494.844
       391   04 Jun 2027 07:17:02.387   04 Jun 2027 07:17:18.770            16.383                Anadyr2           511.969
       392   04 Jun 2027 07:17:41.339   04 Jun 2027 07:17:54.710            13.371               Magadan2           417.844
       393   04 Jun 2027 07:18:10.342   04 Jun 2027 07:18:36.103            25.761               Magadan1           805.031
       394   04 Jun 2027 07:18:37.928   04 Jun 2027 07:20:06.917            88.989               Magadan1          2780.906
       395   04 Jun 2027 07:20:23.409   04 Jun 2027 07:21:26.723            63.314                Anadyr2          1978.562
       396   04 Jun 2027 07:21:48.668   04 Jun 2027 07:21:56.487             7.819               Magadan1           244.344
       397   04 Jun 2027 07:22:09.043   04 Jun 2027 07:22:20.655            11.612                Anadyr2           362.875
       398   04 Jun 2027 07:22:20.655   04 Jun 2027 07:22:56.589            35.934                Anadyr1          1122.938
       399   04 Jun 2027 07:22:57.032   04 Jun 2027 07:23:32.252            35.220               Magadan2          1100.625
       400   04 Jun 2027 08:52:50.337   04 Jun 2027 08:54:03.729            73.392               Magadan1          2293.500
       401   04 Jun 2027 08:54:53.092   04 Jun 2027 08:54:57.439             4.347                Novosib           135.844
       402   04 Jun 2027 08:55:24.433   04 Jun 2027 08:55:39.570            15.137               Magadan2           473.031
       403   04 Jun 2027 08:55:39.570   04 Jun 2027 08:56:09.576            30.006               Magadan1           937.688
       404   04 Jun 2027 08:56:20.169   04 Jun 2027 08:56:20.888             0.719                Irkutsk            22.469
       405   04 Jun 2027 08:56:25.777   04 Jun 2027 08:56:33.388             7.611                Novosib           237.844
       406   04 Jun 2027 08:56:39.963   04 Jun 2027 08:57:08.582            28.619                Irkutsk           894.344
       407   04 Jun 2027 08:57:33.348   04 Jun 2027 08:58:23.458            50.110                Irkutsk          1565.938
       408   04 Jun 2027 08:58:29.384   04 Jun 2027 08:58:37.050             7.666                Norilsk           239.562
       409   04 Jun 2027 08:58:41.612   04 Jun 2027 08:59:20.866            39.254                Irkutsk          1226.688
       410   04 Jun 2027 09:34:07.476   04 Jun 2027 09:35:03.374            55.898            RioGallegos          1746.813
       411   04 Jun 2027 10:08:57.680   04 Jun 2027 10:10:24.635            86.955                Sumatra          2717.344
       412   04 Jun 2027 10:22:32.497   04 Jun 2027 10:22:47.968            15.471                  Delhi           483.469
       413   04 Jun 2027 10:31:32.996   04 Jun 2027 10:32:32.404            59.408                Irkutsk          1856.500
       414   04 Jun 2027 10:32:40.737   04 Jun 2027 10:32:59.843            19.106                Irkutsk           597.062
       415   04 Jun 2027 10:33:02.218   04 Jun 2027 10:33:06.787             4.569                Novosib           142.781
       416   04 Jun 2027 10:33:08.620   04 Jun 2027 10:33:38.507            29.887                Irkutsk           933.969
       417   04 Jun 2027 10:34:06.971   04 Jun 2027 10:34:12.283             5.312                Irkutsk           166.000
       418   04 Jun 2027 10:34:34.727   04 Jun 2027 10:34:53.073            18.346                Norilsk           573.312
       419   04 Jun 2027 10:34:56.082   04 Jun 2027 10:35:00.005             3.923                Novosib           122.594
       420   04 Jun 2027 10:35:19.010   04 Jun 2027 10:35:43.746            24.736                Norilsk           773.000
       421   04 Jun 2027 11:13:31.288   04 Jun 2027 11:14:01.408            30.120            RioGallegos           941.250
       422   04 Jun 2027 11:14:55.319   04 Jun 2027 11:15:25.967            30.648            RioGallegos           957.750
       423   04 Jun 2027 11:48:28.795   04 Jun 2027 11:49:02.004            33.209                Sumatra          1037.781
       424   04 Jun 2027 11:52:07.516   04 Jun 2027 11:52:20.313            12.797                Sumatra           399.906
       425   04 Jun 2027 11:55:36.983   04 Jun 2027 11:55:59.180            22.197                  Delhi           693.656
       426   04 Jun 2027 11:56:18.147   04 Jun 2027 11:57:27.501            69.354                  Delhi          2167.312
       427   04 Jun 2027 12:15:16.368   04 Jun 2027 12:15:39.574            23.206                Norilsk           725.187
       428   04 Jun 2027 13:37:34.065   04 Jun 2027 13:38:52.333            78.268                 Moscow          2445.875
       429   04 Jun 2027 13:38:56.261   04 Jun 2027 13:41:22.719           146.458                 Moscow          4576.812
       430   04 Jun 2027 13:42:23.807   04 Jun 2027 13:43:09.445            45.638              Murmansk1          1426.187
       431   04 Jun 2027 13:43:21.358   04 Jun 2027 13:43:56.573            35.215              Murmansk1          1100.469
       432   04 Jun 2027 13:44:26.625   04 Jun 2027 13:46:00.045            93.420                Norilsk          2919.375
       433   04 Jun 2027 14:52:31.312   04 Jun 2027 14:53:59.816            88.504               CapeTown          2765.750
       434   04 Jun 2027 14:55:23.269   04 Jun 2027 14:55:24.669             1.400               CapeTown            43.750
       435   04 Jun 2027 14:56:17.509   04 Jun 2027 14:57:12.233            54.724               CapeTown          1710.125
       436   04 Jun 2027 14:58:01.010   04 Jun 2027 14:58:52.320            51.310               CapeTown          1603.437
       437   04 Jun 2027 15:15:04.004   04 Jun 2027 15:15:07.142             3.138                 Moscow            98.062
       438   04 Jun 2027 15:17:49.713   04 Jun 2027 15:18:33.283            43.570              Murmansk2          1361.562
       439   04 Jun 2027 15:18:44.877   04 Jun 2027 15:20:17.114            92.237              Murmansk1          2882.406
       440   04 Jun 2027 15:32:08.413   04 Jun 2027 15:34:44.371           155.958                Anadyr1          4873.687
       441   04 Jun 2027 15:40:15.671   04 Jun 2027 15:40:27.039            11.368                Anadyr2           355.250
       442   04 Jun 2027 15:40:52.068   04 Jun 2027 15:41:03.715            11.647                Anadyr2           363.969
       443   04 Jun 2027 16:35:35.881   04 Jun 2027 16:35:54.344            18.463               CapeTown           576.969
       444   04 Jun 2027 16:37:11.862   04 Jun 2027 16:38:10.438            58.576               CapeTown          1830.500
       445   04 Jun 2027 16:56:53.464   04 Jun 2027 16:58:07.929            74.465              Murmansk1          2327.031
       446   04 Jun 2027 17:00:22.819   04 Jun 2027 17:00:48.677            25.858              Murmansk1           808.063
       447   04 Jun 2027 17:07:35.725   04 Jun 2027 17:08:50.912            75.187                Anadyr1          2349.594
       448   04 Jun 2027 17:09:00.091   04 Jun 2027 17:09:28.059            27.968                Anadyr2           874.000
       449   04 Jun 2027 17:11:09.877   04 Jun 2027 17:11:14.662             4.785                Anadyr2           149.531
       450   04 Jun 2027 17:11:18.672   04 Jun 2027 17:12:10.362            51.690               Magadan2          1615.313
       451   04 Jun 2027 17:12:50.379   04 Jun 2027 17:13:39.411            49.032               Magadan1          1532.250
       452   04 Jun 2027 17:14:06.258   04 Jun 2027 17:14:18.885            12.627               Magadan1           394.594
       453   04 Jun 2027 18:43:29.817   04 Jun 2027 18:47:40.298           250.481                Anadyr1          7827.531
       454   04 Jun 2027 18:47:53.999   04 Jun 2027 18:50:08.847           134.848               Magadan2          4214.000
       455   04 Jun 2027 18:51:12.850   04 Jun 2027 18:51:17.902             5.052               Magadan1           157.875
       456   04 Jun 2027 18:53:34.484   04 Jun 2027 18:53:40.007             5.523               Magadan1           172.594
       457   04 Jun 2027 18:55:50.458   04 Jun 2027 18:56:49.102            58.644               Magadan1          1832.625
       458   04 Jun 2027 20:19:22.263   04 Jun 2027 20:21:28.339           126.076                Anadyr2          3939.875
       459   04 Jun 2027 20:21:41.042   04 Jun 2027 20:25:17.489           216.447                Norilsk          6763.969
       460   04 Jun 2027 20:25:39.935   04 Jun 2027 20:26:06.951            27.016               Magadan1           844.250
       461   04 Jun 2027 20:27:24.937   04 Jun 2027 20:29:17.843           112.906                Irkutsk          3528.313
       462   04 Jun 2027 20:31:27.056   04 Jun 2027 20:33:21.465           114.409                Irkutsk          3575.281
       463   04 Jun 2027 20:44:36.814   04 Jun 2027 20:44:45.326             8.512                Sumatra           266.000
       464   04 Jun 2027 20:47:00.876   04 Jun 2027 20:47:05.588             4.712                Sumatra           147.250
       465   04 Jun 2027 21:54:49.879   04 Jun 2027 21:57:12.234           142.355                Anadyr1          4448.594
       466   04 Jun 2027 21:57:14.065   04 Jun 2027 21:57:43.061            28.996                Norilsk           906.125
       467   04 Jun 2027 21:58:07.006   04 Jun 2027 21:58:17.698            10.692               Magadan1           334.125
       468   04 Jun 2027 21:58:31.900   04 Jun 2027 21:58:59.364            27.464               Magadan1           858.250
       469   04 Jun 2027 22:01:15.170   04 Jun 2027 22:02:28.393            73.223                Irkutsk          2288.219
       470   04 Jun 2027 22:03:28.739   04 Jun 2027 22:04:04.996            36.257                Novosib          1133.031
       471   04 Jun 2027 22:05:58.618   04 Jun 2027 22:06:39.846            41.228                Novosib          1288.375
       472   04 Jun 2027 22:14:56.440   04 Jun 2027 22:15:51.003            54.563                Sumatra          1705.094
       473   04 Jun 2027 22:19:49.312   04 Jun 2027 22:20:55.958            66.646                Sumatra          2082.687
       474   04 Jun 2027 23:29:16.114   04 Jun 2027 23:29:40.507            24.393                Anadyr2           762.281
       475   04 Jun 2027 23:30:58.197   04 Jun 2027 23:31:22.687            24.490                Anadyr1           765.312
       476   04 Jun 2027 23:31:31.428   04 Jun 2027 23:32:13.943            42.515                Anadyr2          1328.594
       477   04 Jun 2027 23:33:13.222   04 Jun 2027 23:33:33.327            20.105                Norilsk           628.281
       478   04 Jun 2027 23:33:50.572   04 Jun 2027 23:35:15.859            85.287               Magadan1          2665.219
       479   04 Jun 2027 23:37:05.600   04 Jun 2027 23:38:28.570            82.970                Novosib          2592.813
       480   04 Jun 2027 23:39:30.856   04 Jun 2027 23:39:57.535            26.679                Novosib           833.719
       481   04 Jun 2027 23:42:11.625   04 Jun 2027 23:42:23.184            11.559                Novosib           361.219
       482   04 Jun 2027 23:43:19.726   04 Jun 2027 23:44:09.360            49.634                Novosib          1551.063
