uniorb/output/strategy_4/Drop/Drop_KinoSat_111407.txt

KinoSat_111407
-------------------------
    Access    *     Start Time (UTCG)     *     Stop Time (UTCG)  *   Duration (s)        *       Station  *  Data (Mbytes)
         1   01 Jun 2027 03:04:21.230   01 Jun 2027 03:04:44.506            23.276                Novosib           727.375
         2   01 Jun 2027 03:04:52.878   01 Jun 2027 03:05:53.130            60.252                 Moscow          1882.875
         3   01 Jun 2027 03:06:16.329   01 Jun 2027 03:08:24.522           128.193              Murmansk2          4006.031
         4   01 Jun 2027 03:08:33.905   01 Jun 2027 03:09:22.474            48.569              Murmansk2          1517.781
         5   01 Jun 2027 03:26:59.895   01 Jun 2027 03:27:49.974            50.079               CapeTown          1564.969
         6   01 Jun 2027 04:43:20.143   01 Jun 2027 04:45:44.390           144.247                 Moscow          4507.719
         7   01 Jun 2027 04:46:01.032   01 Jun 2027 04:47:43.386           102.354              Murmansk2          3198.562
         8   01 Jun 2027 05:03:31.349   01 Jun 2027 05:03:55.320            23.971               CapeTown           749.094
         9   01 Jun 2027 06:06:32.974   01 Jun 2027 06:09:52.683           199.709                Anadyr1          6240.906
        10   01 Jun 2027 06:09:52.683   01 Jun 2027 06:10:19.687            27.004                Anadyr2           843.875
        11   01 Jun 2027 06:10:45.463   01 Jun 2027 06:11:31.649            46.186                Anadyr2          1443.312
        12   01 Jun 2027 07:43:18.405   01 Jun 2027 07:47:05.865           227.460                Anadyr1          7108.125
        13   01 Jun 2027 09:18:12.308   01 Jun 2027 09:22:25.887           253.579               Magadan1          7924.344
        14   01 Jun 2027 10:53:21.375   01 Jun 2027 10:57:08.180           226.805                Irkutsk          7087.656
        15   01 Jun 2027 10:57:42.434   01 Jun 2027 10:58:45.968            63.534                Irkutsk          1985.438
        16   01 Jun 2027 14:03:32.697   01 Jun 2027 14:05:19.562           106.865                Novosib          3339.531
        17   01 Jun 2027 14:06:40.687   01 Jun 2027 14:07:11.367            30.680                Norilsk           958.750
        18   01 Jun 2027 14:07:42.348   01 Jun 2027 14:08:07.691            25.343                Novosib           791.969
        19   01 Jun 2027 14:09:47.647   01 Jun 2027 14:10:18.392            30.745                Norilsk           960.781
        20   01 Jun 2027 15:17:58.255   01 Jun 2027 15:19:12.357            74.102               CapeTown          2315.688
        21   01 Jun 2027 15:37:26.591   01 Jun 2027 15:39:04.951            98.360                 Moscow          3073.750
        22   01 Jun 2027 15:40:54.436   01 Jun 2027 15:42:34.581           100.145              Murmansk2          3129.531
        23   01 Jun 2027 15:44:03.225   01 Jun 2027 15:45:02.731            59.506              Murmansk2          1859.563
        24   01 Jun 2027 15:56:04.537   01 Jun 2027 15:56:50.034            45.497                Anadyr2          1421.781
        25   01 Jun 2027 15:56:50.034   01 Jun 2027 15:57:04.584            14.550                Anadyr1           454.687
        26   01 Jun 2027 15:58:05.894   01 Jun 2027 15:58:14.132             8.238                Anadyr2           257.438
        27   01 Jun 2027 15:58:21.886   01 Jun 2027 15:58:30.189             8.303                Anadyr2           259.469
        28   01 Jun 2027 16:50:31.324   01 Jun 2027 16:52:55.932           144.608               CapeTown          4519.000
        29   01 Jun 2027 17:17:56.419   01 Jun 2027 17:22:05.041           248.622                 Moscow          7769.438
        30   01 Jun 2027 17:31:10.217   01 Jun 2027 17:31:11.873             1.656                Anadyr2            51.750
        31   01 Jun 2027 17:33:11.088   01 Jun 2027 17:33:17.655             6.567                Anadyr1           205.219
        32   01 Jun 2027 17:33:27.248   01 Jun 2027 17:33:28.456             1.208                Anadyr1            37.750
        33   01 Jun 2027 17:33:41.020   01 Jun 2027 17:34:04.753            23.733                Anadyr1           741.656
        34   01 Jun 2027 17:36:58.146   01 Jun 2027 17:38:11.010            72.864               Magadan1          2277.000
        35   01 Jun 2027 18:27:37.223   01 Jun 2027 18:28:42.289            65.066               CapeTown          2033.313
        36   01 Jun 2027 18:31:22.189   01 Jun 2027 18:32:55.402            93.213               CapeTown          2912.906
        37   01 Jun 2027 19:01:10.012   01 Jun 2027 19:03:46.401           156.389              Murmansk2          4887.156
        38   01 Jun 2027 19:07:01.352   01 Jun 2027 19:07:02.856             1.504                Anadyr1            47.000
        39   01 Jun 2027 19:08:30.941   01 Jun 2027 19:08:56.662            25.721                Anadyr2           803.781
        40   01 Jun 2027 19:09:34.120   01 Jun 2027 19:11:58.229           144.109               Magadan2          4503.406
        41   01 Jun 2027 20:42:56.443   01 Jun 2027 20:45:03.960           127.517                Anadyr1          3984.906
        42   01 Jun 2027 20:45:13.124   01 Jun 2027 20:51:06.272           353.148               Magadan1         11035.875
        43   01 Jun 2027 21:37:27.221   01 Jun 2027 21:40:43.030           195.809            RioGallegos          6119.031
        44   01 Jun 2027 22:18:34.219   01 Jun 2027 22:20:27.553           113.334                Anadyr2          3541.687
        45   01 Jun 2027 22:20:46.519   01 Jun 2027 22:22:34.884           108.365                Norilsk          3386.406
        46   01 Jun 2027 22:22:46.223   01 Jun 2027 22:23:11.890            25.667               Magadan2           802.094
        47   01 Jun 2027 22:24:59.722   01 Jun 2027 22:25:32.295            32.573                Irkutsk          1017.906
        48   01 Jun 2027 22:27:11.058   01 Jun 2027 22:27:51.494            40.436                Novosib          1263.625
        49   01 Jun 2027 22:27:53.444   01 Jun 2027 22:27:57.300             3.856                Irkutsk           120.500
        50   01 Jun 2027 22:28:21.085   01 Jun 2027 22:28:57.209            36.124                Novosib          1128.875
        51   01 Jun 2027 22:38:47.292   01 Jun 2027 22:39:27.928            40.636                Sumatra          1269.875
        52   01 Jun 2027 22:41:00.036   01 Jun 2027 22:42:13.326            73.290                Sumatra          2290.312
        53   01 Jun 2027 23:53:21.011   01 Jun 2027 23:54:36.013            75.002                Anadyr2          2343.813
        54   01 Jun 2027 23:54:38.969   01 Jun 2027 23:54:56.277            17.308                Anadyr2           540.875
        55   01 Jun 2027 23:55:46.833   01 Jun 2027 23:56:05.918            19.085                Anadyr1           596.406
        56   01 Jun 2027 23:56:43.363   01 Jun 2027 23:58:34.949           111.586                Norilsk          3487.062
        57   01 Jun 2027 23:58:46.504   01 Jun 2027 23:59:54.299            67.795               Magadan2          2118.594
        58   02 Jun 2027 00:00:35.484   02 Jun 2027 00:00:59.037            23.553                Irkutsk           736.031
        59   02 Jun 2027 00:01:45.422   02 Jun 2027 00:02:52.928            67.506                Novosib          2109.563
        60   02 Jun 2027 00:08:36.963   02 Jun 2027 00:09:45.121            68.158                  Delhi          2129.938
        61   02 Jun 2027 00:14:36.871   02 Jun 2027 00:14:50.763            13.892                  Delhi           434.125
        62   02 Jun 2027 00:21:25.794   02 Jun 2027 00:22:19.428            53.634                Sumatra          1676.062
        63   02 Jun 2027 00:56:42.722   02 Jun 2027 00:57:18.013            35.291            RioGallegos          1102.844
        64   02 Jun 2027 01:28:01.297   02 Jun 2027 01:29:15.193            73.896                Anadyr2          2309.250
        65   02 Jun 2027 01:32:43.093   02 Jun 2027 01:33:01.765            18.672                Norilsk           583.500
        66   02 Jun 2027 01:33:17.237   02 Jun 2027 01:34:39.995            82.758               Magadan1          2586.188
        67   02 Jun 2027 01:34:42.592   02 Jun 2027 01:34:48.030             5.438                Norilsk           169.938
        68   02 Jun 2027 01:35:05.562   02 Jun 2027 01:36:43.150            97.588              Murmansk1          3049.625
        69   02 Jun 2027 01:36:43.767   02 Jun 2027 01:37:42.511            58.744              Murmansk2          1835.750
        70   02 Jun 2027 01:37:45.703   02 Jun 2027 01:38:19.794            34.091                Novosib          1065.344
        71   02 Jun 2027 01:39:01.729   02 Jun 2027 01:39:39.925            38.196                Novosib          1193.625
        72   02 Jun 2027 01:44:05.410   02 Jun 2027 01:44:23.844            18.434                  Delhi           576.062
        73   02 Jun 2027 01:49:44.210   02 Jun 2027 01:50:08.650            24.440                  Delhi           763.750
        74   02 Jun 2027 03:00:18.807   02 Jun 2027 03:02:10.894           112.087                Anadyr2          3502.719
        75   02 Jun 2027 03:17:56.508   02 Jun 2027 03:18:30.619            34.111                Norilsk          1065.969
        76   02 Jun 2027 03:18:36.884   02 Jun 2027 03:18:57.120            20.236                Norilsk           632.375
        77   02 Jun 2027 03:18:57.273   02 Jun 2027 03:19:57.485            60.212              Murmansk1          1881.625
        78   02 Jun 2027 03:19:57.485   02 Jun 2027 03:20:02.190             4.705              Murmansk2           147.031
        79   02 Jun 2027 03:20:26.187   02 Jun 2027 03:22:00.407            94.220              Murmansk1          2944.375
        80   02 Jun 2027 03:22:04.544   02 Jun 2027 03:22:16.656            12.112              Murmansk2           378.500
        81   02 Jun 2027 03:22:17.011   02 Jun 2027 03:22:29.865            12.854                Novosib           401.688
        82   02 Jun 2027 03:22:41.778   02 Jun 2027 03:23:46.294            64.516                 Moscow          2016.125
        83   02 Jun 2027 03:38:37.993   02 Jun 2027 03:40:51.611           133.618               CapeTown          4175.563
        84   02 Jun 2027 03:41:34.311   02 Jun 2027 03:41:50.172            15.861               CapeTown           495.656
        85   02 Jun 2027 04:34:47.822   02 Jun 2027 04:36:45.077           117.255                Anadyr1          3664.219
        86   02 Jun 2027 04:36:58.112   02 Jun 2027 04:38:27.312            89.200                Anadyr2          2787.500
        87   02 Jun 2027 04:42:13.701   02 Jun 2027 04:43:27.490            73.789                Anadyr2          2305.906
        88   02 Jun 2027 06:10:45.351   02 Jun 2027 06:11:19.772            34.421               Magadan2          1075.656
        89   02 Jun 2027 06:11:43.490   02 Jun 2027 06:11:48.304             4.814               Magadan2           150.437
        90   02 Jun 2027 06:12:03.958   02 Jun 2027 06:12:19.201            15.243               Magadan2           476.344
        91   02 Jun 2027 06:16:28.071   02 Jun 2027 06:17:19.691            51.620               Magadan1          1613.125
        92   02 Jun 2027 06:17:24.891   02 Jun 2027 06:17:53.334            28.443               Magadan1           888.844
        93   02 Jun 2027 06:18:05.918   02 Jun 2027 06:18:33.625            27.707                Anadyr1           865.844
        94   02 Jun 2027 06:19:07.565   02 Jun 2027 06:23:32.376           264.811                Anadyr1          8275.344
        95   02 Jun 2027 07:55:03.628   02 Jun 2027 07:55:25.851            22.223                Irkutsk           694.469
        96   02 Jun 2027 07:55:30.334   02 Jun 2027 07:57:46.854           136.520                Anadyr1          4266.250
        97   02 Jun 2027 09:29:32.556   02 Jun 2027 09:30:21.443            48.887               Magadan1          1527.719
        98   02 Jun 2027 09:30:36.795   02 Jun 2027 09:30:56.438            19.643                Irkutsk           613.844
        99   02 Jun 2027 09:31:12.177   02 Jun 2027 09:31:28.338            16.161               Magadan2           505.031
       100   02 Jun 2027 09:31:28.338   02 Jun 2027 09:32:08.098            39.760               Magadan1          1242.500
       101   02 Jun 2027 09:32:50.975   02 Jun 2027 09:32:55.588             4.613                Irkutsk           144.156
       102   02 Jun 2027 09:33:07.809   02 Jun 2027 09:33:36.264            28.455                Irkutsk           889.219
       103   02 Jun 2027 09:34:17.036   02 Jun 2027 09:35:06.476            49.440                Novosib          1545.000
       104   02 Jun 2027 10:10:35.762   02 Jun 2027 10:10:59.630            23.868            RioGallegos           745.875
       105   02 Jun 2027 10:44:41.163   02 Jun 2027 10:45:23.502            42.339                Sumatra          1323.094
       106   02 Jun 2027 10:48:10.746   02 Jun 2027 10:48:13.990             3.244                Sumatra           101.375
       107   02 Jun 2027 10:52:53.274   02 Jun 2027 10:53:31.893            38.619                Sumatra          1206.844
       108   02 Jun 2027 11:01:38.295   02 Jun 2027 11:02:57.445            79.150                  Delhi          2473.438
       109   02 Jun 2027 11:06:05.718   02 Jun 2027 11:06:24.327            18.609                Novosib           581.531
       110   02 Jun 2027 11:06:36.404   02 Jun 2027 11:06:52.083            15.679                Novosib           489.969
       111   02 Jun 2027 11:07:07.675   02 Jun 2027 11:07:29.910            22.235                Novosib           694.844
       112   02 Jun 2027 11:08:00.039   02 Jun 2027 11:08:15.006            14.967                Irkutsk           467.719
       113   02 Jun 2027 11:08:21.736   02 Jun 2027 11:08:44.640            22.904                Norilsk           715.750
       114   02 Jun 2027 11:08:56.109   02 Jun 2027 11:09:17.485            21.376                Novosib           668.000
       115   02 Jun 2027 11:09:35.035   02 Jun 2027 11:09:42.130             7.095                Irkutsk           221.719
       116   02 Jun 2027 11:09:55.135   02 Jun 2027 11:10:02.351             7.216                Norilsk           225.500
       117   02 Jun 2027 11:10:07.104   02 Jun 2027 11:10:25.451            18.347                Norilsk           573.344
       118   02 Jun 2027 11:10:29.822   02 Jun 2027 11:10:57.880            28.058                Norilsk           876.813
       119   02 Jun 2027 11:48:06.373   02 Jun 2027 11:48:19.581            13.208            RioGallegos           412.750
       120   02 Jun 2027 11:49:03.112   02 Jun 2027 11:49:38.973            35.861            RioGallegos          1120.656
       121   02 Jun 2027 11:52:55.028   02 Jun 2027 11:53:01.438             6.410            RioGallegos           200.313
       122   02 Jun 2027 12:22:27.272   02 Jun 2027 12:24:43.196           135.924                Sumatra          4247.625
       123   02 Jun 2027 12:37:06.613   02 Jun 2027 12:37:15.776             9.163                Novosib           286.344
       124   02 Jun 2027 12:38:39.664   02 Jun 2027 12:39:51.888            72.224                Novosib          2257.000
       125   02 Jun 2027 12:40:02.445   02 Jun 2027 12:40:33.007            30.562                Norilsk           955.062
       126   02 Jun 2027 12:41:26.029   02 Jun 2027 12:41:39.629            13.600              Murmansk1           425.000
       127   02 Jun 2027 12:47:50.237   02 Jun 2027 12:48:06.579            16.342                Norilsk           510.688
       128   02 Jun 2027 14:08:15.244   02 Jun 2027 14:11:29.316           194.072                  Delhi          6064.750
       129   02 Jun 2027 14:14:19.829   02 Jun 2027 14:15:03.472            43.643                 Moscow          1363.844
       130   02 Jun 2027 14:16:30.876   02 Jun 2027 14:18:41.867           130.991              Murmansk1          4093.469
       131   02 Jun 2027 14:19:15.687   02 Jun 2027 14:20:02.637            46.950                Norilsk          1467.187
       132   02 Jun 2027 14:20:39.637   02 Jun 2027 14:20:39.968             0.331                Novosib            10.344
       133   02 Jun 2027 14:21:19.873   02 Jun 2027 14:21:44.449            24.576                Norilsk           768.000
       134   02 Jun 2027 14:24:02.452   02 Jun 2027 14:24:33.176            30.724                Norilsk           960.125
       135   02 Jun 2027 15:28:52.369   02 Jun 2027 15:31:17.460           145.091               CapeTown          4534.094
       136   02 Jun 2027 15:53:07.130   02 Jun 2027 15:55:40.489           153.359              Murmansk2          4792.469
       137   02 Jun 2027 16:07:52.502   02 Jun 2027 16:09:29.170            96.668                Anadyr2          3020.875
       138   02 Jun 2027 16:10:07.149   02 Jun 2027 16:10:15.394             8.245                Anadyr2           257.656
       139   02 Jun 2027 16:10:53.745   02 Jun 2027 16:11:18.351            24.606                Anadyr2           768.938
       140   02 Jun 2027 17:02:30.641   02 Jun 2027 17:03:04.003            33.362               CapeTown          1042.562
       141   02 Jun 2027 17:05:02.548   02 Jun 2027 17:05:16.983            14.435               CapeTown           451.094
       142   02 Jun 2027 17:07:08.440   02 Jun 2027 17:07:35.130            26.690               CapeTown           834.062
       143   02 Jun 2027 17:31:33.859   02 Jun 2027 17:34:11.201           157.342                 Moscow          4916.937
       144   02 Jun 2027 17:35:54.498   02 Jun 2027 17:36:25.086            30.588              Murmansk2           955.875
       145   02 Jun 2027 17:43:10.118   02 Jun 2027 17:44:42.989            92.871                Anadyr1          2902.219
       146   02 Jun 2027 17:46:47.882   02 Jun 2027 17:46:53.415             5.533                Anadyr2           172.906
       147   02 Jun 2027 17:47:31.688   02 Jun 2027 17:49:20.782           109.094               Magadan1          3409.188
       148   02 Jun 2027 19:19:02.985   02 Jun 2027 19:22:48.648           225.663                Anadyr1          7051.969
       149   02 Jun 2027 19:23:16.172   02 Jun 2027 19:25:08.939           112.767               Magadan1          3523.969
       150   02 Jun 2027 19:25:08.939   02 Jun 2027 19:26:25.824            76.885               Magadan2          2402.656
       151   02 Jun 2027 20:54:57.161   02 Jun 2027 20:57:05.533           128.372                Anadyr2          4011.625
       152   02 Jun 2027 20:57:12.504   02 Jun 2027 20:58:39.279            86.775                Anadyr1          2711.719
       153   02 Jun 2027 20:58:41.486   02 Jun 2027 21:01:42.186           180.700                Norilsk          5646.875
       154   02 Jun 2027 21:04:24.034   02 Jun 2027 21:06:01.573            97.539                Irkutsk          3048.094
       155   02 Jun 2027 21:49:16.458   02 Jun 2027 21:51:12.445           115.987            RioGallegos          3624.594
       156   02 Jun 2027 21:52:33.223   02 Jun 2027 21:52:35.655             2.432            RioGallegos            76.000
       157   02 Jun 2027 21:57:55.714   02 Jun 2027 21:58:34.815            39.101            RioGallegos          1221.906
       158   02 Jun 2027 22:30:30.737   02 Jun 2027 22:31:19.290            48.553                Anadyr1          1517.281
       159   02 Jun 2027 22:32:47.289   02 Jun 2027 22:32:57.776            10.487                Norilsk           327.719
       160   02 Jun 2027 22:33:18.978   02 Jun 2027 22:35:02.711           103.733               Magadan2          3241.656
       161   02 Jun 2027 22:35:02.711   02 Jun 2027 22:35:20.301            17.590               Magadan1           549.687
       162   02 Jun 2027 22:36:44.050   02 Jun 2027 22:36:50.250             6.200               Magadan1           193.750
       163   02 Jun 2027 22:36:54.302   02 Jun 2027 22:37:53.133            58.831                Irkutsk          1838.469
       164   02 Jun 2027 22:38:27.659   02 Jun 2027 22:38:41.904            14.245                Novosib           445.156
       165   02 Jun 2027 22:39:11.177   02 Jun 2027 22:39:40.098            28.921                Irkutsk           903.781
       166   02 Jun 2027 22:39:42.134   02 Jun 2027 22:39:52.759            10.625                Novosib           332.031
       167   02 Jun 2027 22:40:35.977   02 Jun 2027 22:41:12.766            36.789                Novosib          1149.656
       168   02 Jun 2027 22:50:36.564   02 Jun 2027 22:52:57.081           140.517                Sumatra          4391.156
       169   03 Jun 2027 00:05:08.352   03 Jun 2027 00:06:08.315            59.963                Anadyr2          1873.844
       170   03 Jun 2027 00:06:34.832   03 Jun 2027 00:07:25.110            50.278                Anadyr1          1571.188
       171   03 Jun 2027 00:08:45.557   03 Jun 2027 00:09:00.743            15.186                Norilsk           474.563
       172   03 Jun 2027 00:09:24.705   03 Jun 2027 00:10:52.535            87.830               Magadan1          2744.687
       173   03 Jun 2027 00:11:29.965   03 Jun 2027 00:11:48.970            19.005               Magadan2           593.906
       174   03 Jun 2027 00:12:26.181   03 Jun 2027 00:13:01.486            35.305               Magadan1          1103.281
       175   03 Jun 2027 00:13:25.323   03 Jun 2027 00:13:54.680            29.357                Irkutsk           917.406
       176   03 Jun 2027 00:14:15.937   03 Jun 2027 00:15:20.903            64.966                Novosib          2030.187
       177   03 Jun 2027 00:17:05.824   03 Jun 2027 00:17:36.631            30.807                Novosib           962.719
       178   03 Jun 2027 00:20:21.148   03 Jun 2027 00:21:04.601            43.453                  Delhi          1357.906
       179   03 Jun 2027 00:21:39.408   03 Jun 2027 00:21:43.726             4.318                  Delhi           134.937
       180   03 Jun 2027 00:21:53.457   03 Jun 2027 00:22:29.112            35.655                  Delhi          1114.219
       181   03 Jun 2027 00:29:29.427   03 Jun 2027 00:29:46.527            17.100                  Delhi           534.375
       182   03 Jun 2027 00:32:13.697   03 Jun 2027 00:32:20.232             6.535                  Delhi           204.219
       183   03 Jun 2027 01:02:03.474   03 Jun 2027 01:02:53.559            50.085            RioGallegos          1565.156
       184   03 Jun 2027 01:08:18.462   03 Jun 2027 01:08:37.656            19.194            RioGallegos           599.812
       185   03 Jun 2027 01:38:36.706   03 Jun 2027 01:39:55.524            78.818                Anadyr2          2463.062
       186   03 Jun 2027 01:40:58.082   03 Jun 2027 01:41:34.269            36.187                Anadyr1          1130.844
       187   03 Jun 2027 01:44:43.563   03 Jun 2027 01:45:02.690            19.127                Anadyr2           597.719
       188   03 Jun 2027 01:45:06.978   03 Jun 2027 01:46:08.114            61.136               Magadan2          1910.500
       189   03 Jun 2027 01:46:10.575   03 Jun 2027 01:46:17.800             7.225                Norilsk           225.781
       190   03 Jun 2027 01:46:35.020   03 Jun 2027 01:47:21.259            46.239                Norilsk          1444.969
       191   03 Jun 2027 01:47:54.890   03 Jun 2027 01:49:58.697           123.807              Murmansk1          3868.969
       192   03 Jun 2027 01:52:00.590   03 Jun 2027 01:52:09.640             9.050                 Moscow           282.812
       193   03 Jun 2027 01:52:29.702   03 Jun 2027 01:52:37.989             8.287                Irkutsk           258.969
       194   03 Jun 2027 01:52:42.630   03 Jun 2027 01:52:43.068             0.438                Irkutsk            13.687
       195   03 Jun 2027 01:53:55.436   03 Jun 2027 01:54:03.324             7.888                Novosib           246.500
       196   03 Jun 2027 01:54:22.285   03 Jun 2027 01:54:32.536            10.251                 Moscow           320.344
       197   03 Jun 2027 01:56:20.070   03 Jun 2027 01:56:26.040             5.970                  Delhi           186.563
       198   03 Jun 2027 01:57:13.950   03 Jun 2027 01:57:23.599             9.649                  Delhi           301.531
       199   03 Jun 2027 02:00:22.613   03 Jun 2027 02:00:40.077            17.464                  Delhi           545.750
       200   03 Jun 2027 02:01:57.086   03 Jun 2027 02:02:35.905            38.819                  Delhi          1213.094
       201   03 Jun 2027 03:12:43.943   03 Jun 2027 03:14:10.975            87.032                Anadyr2          2719.750
       202   03 Jun 2027 03:18:08.080   03 Jun 2027 03:18:20.297            12.217                Anadyr1           381.781
       203   03 Jun 2027 03:20:03.649   03 Jun 2027 03:20:33.798            30.149                Anadyr1           942.156
       204   03 Jun 2027 03:31:43.775   03 Jun 2027 03:32:24.219            40.444                Novosib          1263.875
       205   03 Jun 2027 03:32:31.883   03 Jun 2027 03:33:59.579            87.696                Novosib          2740.500
       206   03 Jun 2027 03:34:18.330   03 Jun 2027 03:35:06.774            48.444              Murmansk1          1513.875
       207   03 Jun 2027 03:35:11.137   03 Jun 2027 03:36:14.677            63.540                 Moscow          1985.625
       208   03 Jun 2027 03:36:57.040   03 Jun 2027 03:37:32.769            35.729                 Moscow          1116.531
       209   03 Jun 2027 03:50:21.787   03 Jun 2027 03:53:46.039           204.252               CapeTown          6382.875
       210   03 Jun 2027 04:46:45.553   03 Jun 2027 04:48:55.684           130.131                Anadyr2          4066.594
       211   03 Jun 2027 04:48:56.373   03 Jun 2027 04:49:16.146            19.773                Anadyr1           617.906
       212   03 Jun 2027 04:50:02.609   03 Jun 2027 04:50:26.613            24.004                Anadyr1           750.125
       213   03 Jun 2027 04:53:44.002   03 Jun 2027 04:55:21.759            97.757               Magadan2          3054.906
       214   03 Jun 2027 04:55:22.501   03 Jun 2027 04:56:19.426            56.925                Anadyr2          1778.906
       215   03 Jun 2027 04:56:19.426   03 Jun 2027 04:57:36.888            77.462                Anadyr1          2420.688
       216   03 Jun 2027 04:58:01.925   03 Jun 2027 04:59:09.938            68.013               Magadan2          2125.406
       217   03 Jun 2027 04:59:35.945   03 Jun 2027 04:59:39.669             3.724                Anadyr1           116.375
       218   03 Jun 2027 05:07:07.491   03 Jun 2027 05:07:27.512            20.021                 Moscow           625.656
       219   03 Jun 2027 05:09:55.282   03 Jun 2027 05:09:58.831             3.549                 Moscow           110.906
       220   03 Jun 2027 05:10:38.151   03 Jun 2027 05:11:02.494            24.343                 Moscow           760.719
       221   03 Jun 2027 05:27:05.808   03 Jun 2027 05:27:28.249            22.441               CapeTown           701.281
       222   03 Jun 2027 05:28:46.064   03 Jun 2027 05:30:09.237            83.173               CapeTown          2599.156
       223   03 Jun 2027 06:27:26.426   03 Jun 2027 06:27:39.754            13.328                Anadyr1           416.500
       224   03 Jun 2027 06:27:41.248   03 Jun 2027 06:28:42.834            61.586               Magadan2          1924.562
       225   03 Jun 2027 06:29:21.217   03 Jun 2027 06:29:26.891             5.674               Magadan2           177.313
       226   03 Jun 2027 06:29:34.462   03 Jun 2027 06:29:39.835             5.373                Anadyr1           167.906
       227   03 Jun 2027 06:29:39.835   03 Jun 2027 06:30:36.210            56.375                Anadyr2          1761.719
       228   03 Jun 2027 06:30:58.451   03 Jun 2027 06:31:56.302            57.851                Anadyr2          1807.844
       229   03 Jun 2027 06:32:06.887   03 Jun 2027 06:32:53.265            46.378               Magadan1          1449.312
       230   03 Jun 2027 06:33:20.011   03 Jun 2027 06:33:56.259            36.248                Anadyr2          1132.750
       231   03 Jun 2027 08:02:44.987   03 Jun 2027 08:03:27.628            42.641                Anadyr1          1332.531
       232   03 Jun 2027 08:03:27.628   03 Jun 2027 08:03:52.603            24.975                Anadyr2           780.469
       233   03 Jun 2027 08:04:36.928   03 Jun 2027 08:06:02.288            85.360                Anadyr1          2667.500
       234   03 Jun 2027 08:06:15.221   03 Jun 2027 08:07:26.619            71.398               Magadan1          2231.188
       235   03 Jun 2027 08:07:38.049   03 Jun 2027 08:07:52.997            14.948                Anadyr1           467.125
       236   03 Jun 2027 08:07:57.771   03 Jun 2027 08:08:51.246            53.475                Anadyr2          1671.094
       237   03 Jun 2027 08:08:55.710   03 Jun 2027 08:09:33.403            37.693               Magadan1          1177.906
       238   03 Jun 2027 08:09:46.638   03 Jun 2027 08:10:51.949            65.311                Anadyr2          2040.969
       239   03 Jun 2027 09:41:39.755   03 Jun 2027 09:41:56.039            16.284                Irkutsk           508.875
       240   03 Jun 2027 09:42:48.140   03 Jun 2027 09:42:57.630             9.490               Magadan1           296.563
       241   03 Jun 2027 09:43:14.084   03 Jun 2027 09:43:30.307            16.223               Magadan2           506.969
       242   03 Jun 2027 09:43:57.434   03 Jun 2027 09:44:20.666            23.232                Irkutsk           726.000
       243   03 Jun 2027 09:44:32.825   03 Jun 2027 09:45:18.958            46.133               Magadan1          1441.656
       244   03 Jun 2027 09:45:38.573   03 Jun 2027 09:45:43.676             5.103                Irkutsk           159.469
       245   03 Jun 2027 09:45:47.084   03 Jun 2027 09:46:29.167            42.083                Irkutsk          1315.094
       246   03 Jun 2027 09:47:15.735   03 Jun 2027 09:47:20.994             5.259                Novosib           164.344
       247   03 Jun 2027 10:21:40.995   03 Jun 2027 10:22:30.317            49.322            RioGallegos          1541.312
       248   03 Jun 2027 10:28:28.782   03 Jun 2027 10:28:45.557            16.775            RioGallegos           524.219
       249   03 Jun 2027 10:56:33.440   03 Jun 2027 10:58:10.442            97.002                Sumatra          3031.313
       250   03 Jun 2027 11:17:48.545   03 Jun 2027 11:18:07.862            19.317                Novosib           603.656
       251   03 Jun 2027 11:18:47.487   03 Jun 2027 11:18:59.353            11.866                Norilsk           370.813
       252   03 Jun 2027 11:19:08.160   03 Jun 2027 11:20:03.145            54.985                Irkutsk          1718.281
       253   03 Jun 2027 11:20:09.078   03 Jun 2027 11:20:23.199            14.121                Norilsk           441.281
       254   03 Jun 2027 11:20:39.485   03 Jun 2027 11:20:56.131            16.646                Novosib           520.188
       255   03 Jun 2027 11:21:13.381   03 Jun 2027 11:22:23.752            70.371                Novosib          2199.094
       256   03 Jun 2027 11:22:29.775   03 Jun 2027 11:22:56.469            26.694                Norilsk           834.188
       257   03 Jun 2027 12:00:55.750   03 Jun 2027 12:01:45.671            49.921            RioGallegos          1560.031
       258   03 Jun 2027 12:04:55.214   03 Jun 2027 12:05:37.504            42.290            RioGallegos          1321.563
       259   03 Jun 2027 12:35:43.905   03 Jun 2027 12:36:36.442            52.537                Sumatra          1641.781
       260   03 Jun 2027 12:43:16.901   03 Jun 2027 12:44:51.753            94.852                  Delhi          2964.125
       261   03 Jun 2027 12:48:17.039   03 Jun 2027 12:49:08.994            51.955                Novosib          1623.594
       262   03 Jun 2027 12:50:58.706   03 Jun 2027 12:52:54.202           115.496                Novosib          3609.250
       263   03 Jun 2027 14:25:09.668   03 Jun 2027 14:26:20.015            70.347                 Moscow          2198.344
       264   03 Jun 2027 14:28:31.816   03 Jun 2027 14:30:48.364           136.548              Murmansk1          4267.125
       265   03 Jun 2027 14:31:06.206   03 Jun 2027 14:32:43.042            96.836                Novosib          3026.125
       266   03 Jun 2027 14:32:48.856   03 Jun 2027 14:33:02.703            13.847                Norilsk           432.719
       267   03 Jun 2027 14:36:02.392   03 Jun 2027 14:37:05.205            62.813                Norilsk          1962.906
       268   03 Jun 2027 15:40:11.645   03 Jun 2027 15:41:19.029            67.384               CapeTown          2105.750
       269   03 Jun 2027 16:02:04.551   03 Jun 2027 16:02:41.040            36.489                 Moscow          1140.281
       270   03 Jun 2027 16:05:13.007   03 Jun 2027 16:06:24.985            71.978                 Moscow          2249.312
       271   03 Jun 2027 16:11:37.533   03 Jun 2027 16:11:57.324            19.791              Murmansk2           618.469
       272   03 Jun 2027 16:13:42.780   03 Jun 2027 16:14:26.075            43.295              Murmansk1          1352.969
       273   03 Jun 2027 16:19:43.984   03 Jun 2027 16:20:57.008            73.024                Anadyr2          2282.000
       274   03 Jun 2027 16:20:57.008   03 Jun 2027 16:21:10.264            13.256                Anadyr1           414.250
       275   03 Jun 2027 16:22:16.565   03 Jun 2027 16:22:56.467            39.902                Anadyr1          1246.938
       276   03 Jun 2027 17:14:32.753   03 Jun 2027 17:16:52.690           139.937               CapeTown          4373.031
       277   03 Jun 2027 17:44:21.633   03 Jun 2027 17:45:04.250            42.617              Murmansk1          1331.781
       278   03 Jun 2027 17:45:54.318   03 Jun 2027 17:47:16.177            81.859              Murmansk2          2558.094
       279   03 Jun 2027 17:47:56.539   03 Jun 2027 17:49:36.129            99.590              Murmansk2          3112.187
       280   03 Jun 2027 17:55:10.451   03 Jun 2027 17:55:28.992            18.541                Anadyr1           579.406
       281   03 Jun 2027 17:56:20.882   03 Jun 2027 17:56:23.242             2.360                Anadyr1            73.750
       282   03 Jun 2027 17:56:49.301   03 Jun 2027 17:56:55.080             5.779                Anadyr1           180.594
       283   03 Jun 2027 17:58:54.407   03 Jun 2027 17:59:12.177            17.770                Anadyr2           555.313
       284   03 Jun 2027 17:59:27.007   03 Jun 2027 18:00:27.109            60.102               Magadan1          1878.187
       285   03 Jun 2027 18:00:36.628   03 Jun 2027 18:00:56.864            20.236               Magadan2           632.375
       286   03 Jun 2027 18:04:05.691   03 Jun 2027 18:04:38.200            32.509               Magadan1          1015.906
       287   03 Jun 2027 19:31:04.625   03 Jun 2027 19:34:56.174           231.549                Anadyr2          7235.906
       288   03 Jun 2027 19:35:02.444   03 Jun 2027 19:37:37.038           154.594               Magadan1          4831.063
       289   03 Jun 2027 21:06:57.580   03 Jun 2027 21:10:38.709           221.129                Anadyr2          6910.281
       290   03 Jun 2027 21:10:40.772   03 Jun 2027 21:13:03.959           143.187               Magadan2          4474.594
       291   03 Jun 2027 21:13:05.833   03 Jun 2027 21:14:35.426            89.593                Norilsk          2799.781
       292   03 Jun 2027 21:16:07.129   03 Jun 2027 21:17:39.324            92.195                Irkutsk          2881.094
       293   03 Jun 2027 22:01:08.455   03 Jun 2027 22:01:52.825            44.370            RioGallegos          1386.562
       294   03 Jun 2027 22:06:31.741   03 Jun 2027 22:07:14.953            43.212            RioGallegos          1350.375
       295   03 Jun 2027 22:10:38.042   03 Jun 2027 22:10:46.970             8.928            RioGallegos           279.000
       296   03 Jun 2027 22:42:26.364   03 Jun 2027 22:43:12.871            46.507                Anadyr2          1453.344
       297   03 Jun 2027 22:43:21.181   03 Jun 2027 22:44:51.393            90.212                Anadyr1          2819.125
       298   03 Jun 2027 22:44:59.592   03 Jun 2027 22:45:24.572            24.980                Norilsk           780.625
       299   03 Jun 2027 22:45:41.657   03 Jun 2027 22:46:37.266            55.609               Magadan2          1737.781
       300   03 Jun 2027 22:46:37.266   03 Jun 2027 22:46:43.977             6.711               Magadan1           209.719
       301   03 Jun 2027 22:47:06.018   03 Jun 2027 22:48:13.447            67.429               Magadan1          2107.156
       302   03 Jun 2027 22:50:00.893   03 Jun 2027 22:51:32.656            91.763                Novosib          2867.594
       303   03 Jun 2027 22:53:47.956   03 Jun 2027 22:56:03.573           135.617                Novosib          4238.031
       304   03 Jun 2027 23:11:34.103   03 Jun 2027 23:12:06.325            32.222                Sumatra          1006.938
       305   04 Jun 2027 00:16:54.420   04 Jun 2027 00:18:16.934            82.514                Anadyr2          2578.562
       306   04 Jun 2027 00:19:30.157   04 Jun 2027 00:19:42.451            12.294                Anadyr2           384.188
       307   04 Jun 2027 00:20:47.753   04 Jun 2027 00:22:37.980           110.227                Norilsk          3444.594
       308   04 Jun 2027 00:23:04.006   04 Jun 2027 00:23:40.472            36.466               Magadan2          1139.562
       309   04 Jun 2027 00:24:30.034   04 Jun 2027 00:25:39.448            69.414               Magadan2          2169.188
       310   04 Jun 2027 00:25:52.163   04 Jun 2027 00:26:48.005            55.842                Novosib          1745.062
       311   04 Jun 2027 00:32:10.290   04 Jun 2027 00:34:05.605           115.315                  Delhi          3603.594
       312   04 Jun 2027 01:13:22.882   04 Jun 2027 01:14:21.748            58.866            RioGallegos          1839.562
       313   04 Jun 2027 01:16:12.544   04 Jun 2027 01:16:47.523            34.979            RioGallegos          1093.094
       314   04 Jun 2027 01:21:32.546   04 Jun 2027 01:21:44.716            12.170            RioGallegos           380.312
       315   04 Jun 2027 01:50:17.753   04 Jun 2027 01:50:33.929            16.176                Anadyr2           505.500
       316   04 Jun 2027 01:51:10.852   04 Jun 2027 01:51:47.609            36.757                Anadyr2          1148.656
       317   04 Jun 2027 01:52:16.506   04 Jun 2027 01:52:32.866            16.360                Anadyr2           511.250
       318   04 Jun 2027 01:53:11.658   04 Jun 2027 01:53:16.087             4.429                Anadyr1           138.406
       319   04 Jun 2027 01:53:17.635   04 Jun 2027 01:53:23.988             6.353                Anadyr2           198.531
       320   04 Jun 2027 01:55:57.287   04 Jun 2027 01:56:18.978            21.691                Anadyr1           677.844
       321   04 Jun 2027 01:56:30.047   04 Jun 2027 01:58:08.351            98.304               Magadan2          3072.000
       322   04 Jun 2027 01:58:18.568   04 Jun 2027 01:58:25.078             6.510                Norilsk           203.438
       323   04 Jun 2027 01:59:02.427   04 Jun 2027 02:01:08.190           125.763              Murmansk1          3930.094
       324   04 Jun 2027 02:01:28.471   04 Jun 2027 02:01:45.076            16.605                Novosib           518.906
       325   04 Jun 2027 02:03:16.323   04 Jun 2027 02:03:41.477            25.154                 Moscow           786.063
       326   04 Jun 2027 02:07:03.080   04 Jun 2027 02:07:17.033            13.953                 Moscow           436.031
       327   04 Jun 2027 02:08:39.796   04 Jun 2027 02:08:59.161            19.365                  Delhi           605.156
       328   04 Jun 2027 02:10:05.639   04 Jun 2027 02:11:51.846           106.207                  Delhi          3318.969
       329   04 Jun 2027 03:23:51.596   04 Jun 2027 03:24:40.659            49.063                Anadyr1          1533.219
       330   04 Jun 2027 03:42:52.449   04 Jun 2027 03:43:42.981            50.532                Norilsk          1579.125
       331   04 Jun 2027 03:44:18.955   04 Jun 2027 03:44:25.362             6.407                Norilsk           200.219
       332   04 Jun 2027 03:44:42.544   04 Jun 2027 03:47:20.063           157.519              Murmansk2          4922.469
       333   04 Jun 2027 03:47:30.299   04 Jun 2027 03:48:08.789            38.490                 Moscow          1202.813
       334   04 Jun 2027 05:05:25.314   04 Jun 2027 05:07:29.162           123.848               Magadan2          3870.250
       335   04 Jun 2027 05:07:42.395   04 Jun 2027 05:09:33.527           111.132                Anadyr1          3472.875
       336   04 Jun 2027 05:10:00.318   04 Jun 2027 05:10:56.808            56.490               Magadan1          1765.312
       337   04 Jun 2027 06:39:44.283   04 Jun 2027 06:40:34.229            49.946               Magadan2          1560.812
       338   04 Jun 2027 06:41:07.690   04 Jun 2027 06:42:09.622            61.932                Anadyr2          1935.375
       339   04 Jun 2027 06:42:40.817   04 Jun 2027 06:42:45.622             4.805                Anadyr1           150.156
       340   04 Jun 2027 06:43:15.690   04 Jun 2027 06:43:51.346            35.656                Anadyr2          1114.250
       341   04 Jun 2027 06:43:57.943   04 Jun 2027 06:45:02.736            64.793                Anadyr2          2024.781
       342   04 Jun 2027 08:14:37.608   04 Jun 2027 08:15:26.795            49.187               Magadan2          1537.094
       343   04 Jun 2027 08:15:41.352   04 Jun 2027 08:16:29.258            47.906               Magadan2          1497.063
       344   04 Jun 2027 08:16:44.309   04 Jun 2027 08:18:02.779            78.470                Anadyr2          2452.188
       345   04 Jun 2027 08:18:15.460   04 Jun 2027 08:19:27.516            72.056               Magadan1          2251.750
       346   04 Jun 2027 08:19:54.681   04 Jun 2027 08:20:16.099            21.418                Anadyr2           669.313
       347   04 Jun 2027 08:20:21.580   04 Jun 2027 08:20:32.284            10.704               Magadan2           334.500
       348   04 Jun 2027 08:20:41.116   04 Jun 2027 08:21:35.313            54.197               Magadan2          1693.656
       349   04 Jun 2027 08:22:07.940   04 Jun 2027 08:22:08.026             0.086               Magadan1             2.688
       350   04 Jun 2027 08:23:31.679   04 Jun 2027 08:23:31.941             0.262              Murmansk1             8.188
       351   04 Jun 2027 08:58:23.475   04 Jun 2027 08:58:47.691            24.216            RioGallegos           756.750
       352   04 Jun 2027 08:58:55.755   04 Jun 2027 08:59:31.507            35.752            RioGallegos          1117.250
       353   04 Jun 2027 09:03:31.629   04 Jun 2027 09:03:49.531            17.902            RioGallegos           559.438
       354   04 Jun 2027 09:37:13.385   04 Jun 2027 09:38:06.609            53.224                Sumatra          1663.250
       355   04 Jun 2027 09:53:11.989   04 Jun 2027 09:53:15.761             3.772                Novosib           117.875
       356   04 Jun 2027 09:53:20.057   04 Jun 2027 09:53:45.433            25.376                Irkutsk           793.000
       357   04 Jun 2027 09:54:47.385   04 Jun 2027 09:55:09.046            21.661                Irkutsk           676.906
       358   04 Jun 2027 09:55:31.937   04 Jun 2027 09:55:37.554             5.617               Magadan1           175.531
       359   04 Jun 2027 09:55:37.554   04 Jun 2027 09:56:26.130            48.576               Magadan2          1518.000
       360   04 Jun 2027 09:56:33.131   04 Jun 2027 09:56:35.470             2.339                Norilsk            73.094
       361   04 Jun 2027 09:56:56.829   04 Jun 2027 09:58:01.685            64.856                Irkutsk          2026.750
       362   04 Jun 2027 09:58:15.800   04 Jun 2027 09:58:17.272             1.472                Irkutsk            46.000
       363   04 Jun 2027 09:58:25.645   04 Jun 2027 09:58:50.925            25.280                Novosib           790.000
       364   04 Jun 2027 09:58:57.213   04 Jun 2027 09:58:57.653             0.440                Novosib            13.750
       365   04 Jun 2027 09:59:09.592   04 Jun 2027 10:00:14.779            65.187                Novosib          2037.094
       366   04 Jun 2027 10:37:37.992   04 Jun 2027 10:38:10.950            32.958            RioGallegos          1029.937
       367   04 Jun 2027 11:08:31.463   04 Jun 2027 11:09:06.373            34.910                Sumatra          1090.937
       368   04 Jun 2027 11:21:16.569   04 Jun 2027 11:21:47.757            31.188                  Delhi           974.625
       369   04 Jun 2027 11:28:42.453   04 Jun 2027 11:28:42.616             0.163                  Delhi             5.094
       370   04 Jun 2027 11:30:39.258   04 Jun 2027 11:30:39.396             0.138                Novosib             4.312
       371   04 Jun 2027 11:30:58.291   04 Jun 2027 11:31:06.756             8.465                Irkutsk           264.531
       372   04 Jun 2027 11:31:24.497   04 Jun 2027 11:31:58.099            33.602                Novosib          1050.063
       373   04 Jun 2027 11:32:10.956   04 Jun 2027 11:32:24.847            13.891                Norilsk           434.094
       374   04 Jun 2027 11:32:28.046   04 Jun 2027 11:32:38.016             9.970                Irkutsk           311.562
       375   04 Jun 2027 11:32:42.922   04 Jun 2027 11:32:48.599             5.677                Novosib           177.406
       376   04 Jun 2027 11:32:51.010   04 Jun 2027 11:34:06.574            75.564                Norilsk          2361.375
       377   04 Jun 2027 11:34:18.993   04 Jun 2027 11:34:39.008            20.015                Irkutsk           625.469
       378   04 Jun 2027 11:34:50.357   04 Jun 2027 11:34:55.059             4.702                Norilsk           146.937
       379   04 Jun 2027 11:35:24.644   04 Jun 2027 11:35:31.074             6.430                Norilsk           200.937
       380   04 Jun 2027 12:14:27.155   04 Jun 2027 12:15:32.532            65.377            RioGallegos          2043.031
       381   04 Jun 2027 12:17:38.334   04 Jun 2027 12:18:21.330            42.996            RioGallegos          1343.625
       382   04 Jun 2027 12:54:54.791   04 Jun 2027 12:55:50.609            55.818                  Delhi          1744.313
       383   04 Jun 2027 13:00:38.829   04 Jun 2027 13:01:48.017            69.188                Novosib          2162.125
       384   04 Jun 2027 13:03:02.783   04 Jun 2027 13:04:54.358           111.575                Novosib          3486.719
       385   04 Jun 2027 14:37:07.826   04 Jun 2027 14:39:47.219           159.393                 Moscow          4981.031
       386   04 Jun 2027 14:40:34.268   04 Jun 2027 14:41:45.936            71.668              Murmansk1          2239.625
       387   04 Jun 2027 14:44:35.396   04 Jun 2027 14:46:25.260           109.864                Norilsk          3433.250
       388   04 Jun 2027 14:48:01.577   04 Jun 2027 14:49:26.385            84.808                Norilsk          2650.250
       389   04 Jun 2027 15:51:43.277   04 Jun 2027 15:52:25.403            42.126               CapeTown          1316.437
       390   04 Jun 2027 15:52:57.980   04 Jun 2027 15:53:33.061            35.081               CapeTown          1096.281
       391   04 Jun 2027 16:14:29.778   04 Jun 2027 16:14:59.045            29.267                 Moscow           914.594
       392   04 Jun 2027 16:17:38.422   04 Jun 2027 16:19:27.800           109.378              Murmansk2          3418.063
       393   04 Jun 2027 16:25:44.710   04 Jun 2027 16:25:47.983             3.273              Murmansk2           102.281
       394   04 Jun 2027 16:27:23.786   04 Jun 2027 16:27:26.311             2.525              Murmansk2            78.906
       395   04 Jun 2027 16:31:37.860   04 Jun 2027 16:32:51.265            73.405                Anadyr2          2293.906
       396   04 Jun 2027 16:32:51.265   04 Jun 2027 16:33:15.410            24.145                Anadyr1           754.531
       397   04 Jun 2027 16:34:17.607   04 Jun 2027 16:35:10.181            52.574                Anadyr1          1642.938
       398   04 Jun 2027 16:38:39.890   04 Jun 2027 16:38:45.599             5.709                Anadyr2           178.406
       399   04 Jun 2027 16:38:45.599   04 Jun 2027 16:38:52.471             6.872                Anadyr1           214.750
       400   04 Jun 2027 16:39:57.861   04 Jun 2027 16:40:30.459            32.598                Anadyr2          1018.688
       401   04 Jun 2027 16:40:48.367   04 Jun 2027 16:40:55.903             7.536                Anadyr1           235.500
       402   04 Jun 2027 17:26:37.628   04 Jun 2027 17:28:18.688           101.060               CapeTown          3158.125
       403   04 Jun 2027 17:56:58.522   04 Jun 2027 17:58:03.085            64.563              Murmansk1          2017.594
       404   04 Jun 2027 17:58:41.500   04 Jun 2027 18:01:35.628           174.128              Murmansk2          5441.500
       405   04 Jun 2027 18:07:11.133   04 Jun 2027 18:07:15.582             4.449                Anadyr1           139.031
       406   04 Jun 2027 18:10:35.399   04 Jun 2027 18:12:01.941            86.542               Magadan1          2704.438
       407   04 Jun 2027 18:12:45.123   04 Jun 2027 18:13:32.726            47.603               Magadan1          1487.594
       408   04 Jun 2027 18:16:34.370   04 Jun 2027 18:16:56.041            21.671               Magadan2           677.219
       409   04 Jun 2027 18:17:02.308   04 Jun 2027 18:18:05.666            63.358               Magadan2          1979.938
       410   04 Jun 2027 19:43:06.246   04 Jun 2027 19:44:51.114           104.868                Anadyr2          3277.125
       411   04 Jun 2027 19:45:03.580   04 Jun 2027 19:46:52.645           109.065                Anadyr1          3408.281
       412   04 Jun 2027 19:47:16.280   04 Jun 2027 19:48:53.386            97.106               Magadan2          3034.562
       413   04 Jun 2027 19:48:53.386   04 Jun 2027 19:49:46.798            53.412               Magadan1          1669.125
       414   04 Jun 2027 19:50:30.178   04 Jun 2027 19:50:35.102             4.924               Magadan1           153.875
       415   04 Jun 2027 19:56:28.503   04 Jun 2027 19:57:01.091            32.588               Magadan2          1018.375
       416   04 Jun 2027 20:41:07.292   04 Jun 2027 20:42:15.237            67.945            RioGallegos          2123.281
       417   04 Jun 2027 21:18:57.633   04 Jun 2027 21:21:08.240           130.607                Anadyr1          4081.469
       418   04 Jun 2027 21:21:10.124   04 Jun 2027 21:22:42.581            92.457                Norilsk          2889.281
       419   04 Jun 2027 21:22:43.530   04 Jun 2027 21:24:01.511            77.981               Magadan1          2436.906
       420   04 Jun 2027 21:24:01.511   04 Jun 2027 21:24:27.496            25.985               Magadan2           812.031
       421   04 Jun 2027 21:25:41.330   04 Jun 2027 21:25:44.441             3.111               Magadan1            97.219
       422   04 Jun 2027 21:26:18.990   04 Jun 2027 21:26:36.440            17.450               Magadan1           545.312
       423   04 Jun 2027 21:27:55.895   04 Jun 2027 21:28:11.395            15.500                Norilsk           484.375
       424   04 Jun 2027 21:28:43.067   04 Jun 2027 21:28:59.895            16.828                Irkutsk           525.875
       425   04 Jun 2027 21:29:14.284   04 Jun 2027 21:29:20.110             5.826                Irkutsk           182.063
       426   04 Jun 2027 21:30:31.790   04 Jun 2027 21:32:06.054            94.264                Irkutsk          2945.750
       427   04 Jun 2027 21:42:17.734   04 Jun 2027 21:43:31.247            73.513                Sumatra          2297.281
       428   04 Jun 2027 21:43:42.326   04 Jun 2027 21:43:47.198             4.872                Sumatra           152.250
       429   04 Jun 2027 21:47:20.531   04 Jun 2027 21:48:28.757            68.226                Sumatra          2132.062
       430   04 Jun 2027 22:54:21.005   04 Jun 2027 22:54:55.177            34.172                Anadyr1          1067.875
       431   04 Jun 2027 22:55:02.227   04 Jun 2027 22:55:13.944            11.717                Anadyr2           366.156
       432   04 Jun 2027 22:55:42.709   04 Jun 2027 22:56:49.420            66.711                Anadyr1          2084.719
       433   04 Jun 2027 22:57:19.235   04 Jun 2027 22:58:07.757            48.522                Norilsk          1516.312
       434   04 Jun 2027 22:58:50.089   04 Jun 2027 22:59:41.475            51.386               Magadan2          1605.812
       435   04 Jun 2027 23:00:48.175   04 Jun 2027 23:01:57.656            69.481                Irkutsk          2171.281
       436   04 Jun 2027 23:05:27.950   04 Jun 2027 23:05:53.241            25.291                Novosib           790.344
       437   04 Jun 2027 23:10:48.450   04 Jun 2027 23:10:48.451             0.001                Novosib             0.031
       438   04 Jun 2027 23:17:13.822   04 Jun 2027 23:17:40.903            27.081                Sumatra           846.281
       439   04 Jun 2027 23:18:39.470   04 Jun 2027 23:19:33.918            54.448                Sumatra          1701.500
       440   04 Jun 2027 23:53:05.327   04 Jun 2027 23:53:49.059            43.732            RioGallegos          1366.625
       441   05 Jun 2027 00:28:39.305   05 Jun 2027 00:30:27.774           108.469                Anadyr1          3389.656
       442   05 Jun 2027 00:30:33.869   05 Jun 2027 00:30:49.631            15.762                Anadyr2           492.562
       443   05 Jun 2027 00:32:49.916   05 Jun 2027 00:33:02.121            12.205                Norilsk           381.406
       444   05 Jun 2027 00:33:27.456   05 Jun 2027 00:35:24.391           116.935               Magadan1          3654.219
       445   05 Jun 2027 00:36:09.441   05 Jun 2027 00:37:10.090            60.649              Murmansk2          1895.281
       446   05 Jun 2027 00:37:10.090   05 Jun 2027 00:38:09.401            59.311              Murmansk1          1853.469
       447   05 Jun 2027 00:38:28.311   05 Jun 2027 00:39:46.537            78.226                Novosib          2444.563
       448   05 Jun 2027 00:44:03.574   05 Jun 2027 00:44:53.524            49.950                  Delhi          1560.938
       449   05 Jun 2027 00:49:29.741   05 Jun 2027 00:50:08.822            39.081                  Delhi          1221.281
       450   05 Jun 2027 01:25:36.369   05 Jun 2027 01:26:45.631            69.262            RioGallegos          2164.437
       451   05 Jun 2027 01:30:04.197   05 Jun 2027 01:30:37.423            33.226            RioGallegos          1038.312
       452   05 Jun 2027 02:01:59.015   05 Jun 2027 02:02:08.308             9.293                Anadyr1           290.406
       453   05 Jun 2027 02:03:08.048   05 Jun 2027 02:03:36.619            28.571                Anadyr1           892.844
       454   05 Jun 2027 02:04:05.620   05 Jun 2027 02:04:31.889            26.269                Anadyr2           820.906
       455   05 Jun 2027 02:06:32.079   05 Jun 2027 02:07:11.241            39.162                Anadyr1          1223.813
       456   05 Jun 2027 02:08:10.043   05 Jun 2027 02:09:06.292            56.249               Magadan1          1757.781
       457   05 Jun 2027 02:10:11.054   05 Jun 2027 02:10:37.226            26.172               Magadan2           817.875
       458   05 Jun 2027 02:11:02.079   05 Jun 2027 02:11:41.367            39.288              Murmansk2          1227.750
       459   05 Jun 2027 02:11:41.367   05 Jun 2027 02:12:29.681            48.314              Murmansk1          1509.813
       460   05 Jun 2027 02:12:41.055   05 Jun 2027 02:13:50.026            68.971                Novosib          2155.344
       461   05 Jun 2027 02:18:56.065   05 Jun 2027 02:19:03.200             7.135                 Moscow           222.969
       462   05 Jun 2027 02:19:47.754   05 Jun 2027 02:19:55.915             8.161                 Moscow           255.031
       463   05 Jun 2027 02:21:06.273   05 Jun 2027 02:22:08.771            62.498                  Delhi          1953.063
       464   05 Jun 2027 02:43:20.658   05 Jun 2027 02:43:46.685            26.027               CapeTown           813.344
       465   05 Jun 2027 02:48:07.699   05 Jun 2027 02:48:30.920            23.221               CapeTown           725.656
       466   05 Jun 2027 03:40:23.211   05 Jun 2027 03:40:23.420             0.209                Anadyr1             6.531
       467   05 Jun 2027 03:41:51.868   05 Jun 2027 03:42:01.110             9.242                Anadyr1           288.813
       468   05 Jun 2027 03:42:36.697   05 Jun 2027 03:43:53.342            76.645                Anadyr1          2395.156
       469   05 Jun 2027 03:54:29.142   05 Jun 2027 03:54:36.095             6.953                Norilsk           217.281
       470   05 Jun 2027 03:56:42.396   05 Jun 2027 03:56:49.812             7.416                Novosib           231.750
       471   05 Jun 2027 03:57:13.403   05 Jun 2027 04:03:02.559           349.156                 Moscow         10911.125
       472   05 Jun 2027 04:14:05.027   05 Jun 2027 04:20:09.467           364.440               CapeTown         11388.750
       473   05 Jun 2027 04:23:36.304   05 Jun 2027 04:23:38.316             2.012               CapeTown            62.875
       474   05 Jun 2027 05:10:46.570   05 Jun 2027 05:12:03.769            77.199                Anadyr1          2412.469
       475   05 Jun 2027 05:12:25.369   05 Jun 2027 05:13:16.396            51.027               Magadan2          1594.594
       476   05 Jun 2027 05:13:39.247   05 Jun 2027 05:13:46.280             7.033               Magadan2           219.781
       477   05 Jun 2027 05:14:39.649   05 Jun 2027 05:15:17.662            38.013                Anadyr1          1187.906
       478   05 Jun 2027 05:15:17.662   05 Jun 2027 05:15:42.595            24.933                Anadyr2           779.156
       479   05 Jun 2027 05:17:27.855   05 Jun 2027 05:21:10.323           222.468               Magadan2          6952.125
       480   05 Jun 2027 05:21:16.629   05 Jun 2027 05:23:42.893           146.264                Anadyr1          4570.750
       481   05 Jun 2027 06:54:10.426   05 Jun 2027 06:54:23.896            13.470               Magadan1           420.937
       482   05 Jun 2027 06:54:26.633   05 Jun 2027 06:55:51.909            85.276                Anadyr1          2664.875
