uniorb/output/strategy_4/Drop/Drop_KinoSat_111808.txt

KinoSat_111808
-------------------------
    Access    *     Start Time (UTCG)     *     Stop Time (UTCG)  *   Duration (s)        *       Station  *  Data (Mbytes)
         1   01 Jun 2027 04:15:56.668   01 Jun 2027 04:16:22.093            25.425                Irkutsk           794.531
         2   01 Jun 2027 04:16:28.153   01 Jun 2027 04:16:31.538             3.385                Norilsk           105.781
         3   01 Jun 2027 04:16:43.470   01 Jun 2027 04:17:09.703            26.233                Novosib           819.781
         4   01 Jun 2027 04:17:24.485   01 Jun 2027 04:19:40.921           136.436              Murmansk2          4263.625
         5   01 Jun 2027 04:19:46.389   01 Jun 2027 04:20:27.990            41.601                Norilsk          1300.031
         6   01 Jun 2027 04:20:41.539   01 Jun 2027 04:20:44.897             3.358              Murmansk2           104.937
         7   01 Jun 2027 04:21:00.543   01 Jun 2027 04:21:07.622             7.079              Murmansk2           221.219
         8   01 Jun 2027 04:21:20.732   01 Jun 2027 04:21:32.252            11.520                Novosib           360.000
         9   01 Jun 2027 04:23:23.635   01 Jun 2027 04:25:58.224           154.589                  Delhi          4830.906
        10   01 Jun 2027 05:53:58.534   01 Jun 2027 05:56:10.226           131.692              Murmansk2          4115.375
        11   01 Jun 2027 05:56:16.060   01 Jun 2027 05:57:46.758            90.698              Murmansk2          2834.312
        12   01 Jun 2027 05:57:46.758   01 Jun 2027 05:58:11.129            24.371              Murmansk1           761.594
        13   01 Jun 2027 07:17:41.779   01 Jun 2027 07:18:02.507            20.728               Magadan2           647.750
        14   01 Jun 2027 07:18:02.507   01 Jun 2027 07:20:09.308           126.801               Magadan1          3962.531
        15   01 Jun 2027 07:20:28.016   01 Jun 2027 07:22:24.464           116.448               Magadan1          3639.000
        16   01 Jun 2027 07:22:28.809   01 Jun 2027 07:22:49.512            20.703                Anadyr1           646.969
        17   01 Jun 2027 08:53:54.050   01 Jun 2027 08:54:34.924            40.874               Magadan1          1277.312
        18   01 Jun 2027 08:54:49.795   01 Jun 2027 08:57:53.774           183.979                Anadyr2          5749.344
        19   01 Jun 2027 10:27:56.304   01 Jun 2027 10:28:05.681             9.377               Magadan2           293.031
        20   01 Jun 2027 10:29:10.714   01 Jun 2027 10:29:17.389             6.675                Novosib           208.594
        21   01 Jun 2027 10:29:33.139   01 Jun 2027 10:32:33.754           180.615                Anadyr2          5644.219
        22   01 Jun 2027 10:32:37.929   01 Jun 2027 10:34:07.430            89.501                Novosib          2796.906
        23   01 Jun 2027 10:34:41.210   01 Jun 2027 10:35:17.954            36.744              Murmansk1          1148.250
        24   01 Jun 2027 11:08:58.768   01 Jun 2027 11:10:58.652           119.884            RioGallegos          3746.375
        25   01 Jun 2027 11:45:14.655   01 Jun 2027 11:45:29.295            14.640                Sumatra           457.500
        26   01 Jun 2027 12:51:09.483   01 Jun 2027 12:52:29.936            80.453            RioGallegos          2514.156
        27   01 Jun 2027 13:25:13.291   01 Jun 2027 13:26:44.097            90.806                Sumatra          2837.688
        28   01 Jun 2027 13:28:30.074   01 Jun 2027 13:29:49.676            79.602                Sumatra          2487.563
        29   01 Jun 2027 13:31:06.010   01 Jun 2027 13:31:43.135            37.125                Sumatra          1160.156
        30   01 Jun 2027 13:38:13.004   01 Jun 2027 13:39:04.987            51.983                Irkutsk          1624.469
        31   01 Jun 2027 13:39:59.097   01 Jun 2027 13:40:29.216            30.119                Irkutsk           941.219
        32   01 Jun 2027 13:41:54.926   01 Jun 2027 13:45:04.238           189.312                Irkutsk          5916.000
        33   01 Jun 2027 15:10:06.128   01 Jun 2027 15:10:14.755             8.627                  Delhi           269.594
        34   01 Jun 2027 15:12:35.148   01 Jun 2027 15:14:46.664           131.516                  Delhi          4109.875
        35   01 Jun 2027 15:17:55.462   01 Jun 2027 15:18:45.523            50.061                Novosib          1564.406
        36   01 Jun 2027 15:22:12.022   01 Jun 2027 15:22:16.199             4.177                Norilsk           130.531
        37   01 Jun 2027 15:25:46.039   01 Jun 2027 15:26:16.637            30.598                Norilsk           956.187
        38   01 Jun 2027 16:49:33.803   01 Jun 2027 16:51:33.042           119.239                 Moscow          3726.219
        39   01 Jun 2027 16:56:49.527   01 Jun 2027 16:57:29.023            39.496              Murmansk1          1234.250
        40   01 Jun 2027 16:57:53.605   01 Jun 2027 17:01:40.400           226.795                Norilsk          7087.344
        41   01 Jun 2027 17:02:09.550   01 Jun 2027 17:02:16.946             7.396                Norilsk           231.125
        42   01 Jun 2027 18:11:32.019   01 Jun 2027 18:12:28.719            56.700               CapeTown          1771.875
        43   01 Jun 2027 18:27:07.532   01 Jun 2027 18:31:50.266           282.734                 Moscow          8835.438
        44   01 Jun 2027 18:32:44.269   01 Jun 2027 18:33:11.285            27.016                 Moscow           844.250
        45   01 Jun 2027 18:38:45.345   01 Jun 2027 18:39:26.227            40.882              Murmansk2          1277.563
        46   01 Jun 2027 19:38:10.489   01 Jun 2027 19:39:30.515            80.026               CapeTown          2500.812
        47   01 Jun 2027 19:44:02.117   01 Jun 2027 19:46:18.160           136.043               CapeTown          4251.344
        48   01 Jun 2027 20:10:00.100   01 Jun 2027 20:16:00.233           360.133              Murmansk1         11254.156
        49   01 Jun 2027 21:54:14.586   01 Jun 2027 21:58:26.156           251.570                Anadyr1          7861.563
        50   01 Jun 2027 21:58:51.902   01 Jun 2027 21:59:22.676            30.774                Anadyr1           961.688
        51   01 Jun 2027 21:59:42.327   01 Jun 2027 22:00:05.365            23.038               Magadan1           719.937
        52   01 Jun 2027 22:00:38.014   01 Jun 2027 22:00:49.159            11.145               Magadan1           348.281
        53   01 Jun 2027 22:01:13.506   01 Jun 2027 22:01:19.675             6.169               Magadan2           192.781
        54   01 Jun 2027 22:01:37.107   01 Jun 2027 22:02:17.075            39.968               Magadan1          1249.000
        55   01 Jun 2027 22:03:38.012   01 Jun 2027 22:03:53.071            15.059               Magadan1           470.594
        56   01 Jun 2027 22:49:26.210   01 Jun 2027 22:51:27.304           121.094            RioGallegos          3784.188
        57   01 Jun 2027 22:54:11.115   01 Jun 2027 22:54:35.043            23.928            RioGallegos           747.750
        58   01 Jun 2027 22:55:52.134   01 Jun 2027 22:56:13.002            20.868            RioGallegos           652.125
        59   01 Jun 2027 23:30:00.434   01 Jun 2027 23:33:16.463           196.029                Anadyr1          6125.906
        60   01 Jun 2027 23:33:31.743   01 Jun 2027 23:34:05.640            33.897               Magadan1          1059.281
        61   01 Jun 2027 23:35:09.040   01 Jun 2027 23:35:23.467            14.427                Norilsk           450.844
        62   01 Jun 2027 23:35:29.375   01 Jun 2027 23:35:31.316             1.941                Norilsk            60.656
        63   01 Jun 2027 23:36:00.000   01 Jun 2027 23:36:12.315            12.316               Magadan2           384.875
        64   01 Jun 2027 23:36:39.586   01 Jun 2027 23:38:46.655           127.069                Irkutsk          3970.906
        65   01 Jun 2027 23:44:57.811   01 Jun 2027 23:45:11.003            13.192                Irkutsk           412.250
        66   01 Jun 2027 23:46:24.769   01 Jun 2027 23:47:00.390            35.621                Irkutsk          1113.156
        67   01 Jun 2027 23:50:57.354   01 Jun 2027 23:52:02.364            65.010                Sumatra          2031.562
        68   01 Jun 2027 23:56:01.723   01 Jun 2027 23:56:27.508            25.785                Sumatra           805.781
        69   01 Jun 2027 23:57:18.624   01 Jun 2027 23:57:35.601            16.977                Sumatra           530.531
        70   02 Jun 2027 00:01:16.278   02 Jun 2027 00:01:43.229            26.951                Sumatra           842.219
        71   02 Jun 2027 00:26:10.978   02 Jun 2027 00:26:48.051            37.073            RioGallegos          1158.531
        72   02 Jun 2027 00:31:32.508   02 Jun 2027 00:31:38.252             5.744            RioGallegos           179.500
        73   02 Jun 2027 00:32:37.928   02 Jun 2027 00:33:25.407            47.479            RioGallegos          1483.719
        74   02 Jun 2027 01:05:06.365   02 Jun 2027 01:05:16.864            10.499                Anadyr1           328.094
        75   02 Jun 2027 01:05:46.363   02 Jun 2027 01:07:08.795            82.432                Anadyr1          2576.000
        76   02 Jun 2027 01:07:39.654   02 Jun 2027 01:07:49.168             9.514                Anadyr2           297.312
        77   02 Jun 2027 01:07:58.321   02 Jun 2027 01:09:33.700            95.379                Norilsk          2980.594
        78   02 Jun 2027 01:10:20.650   02 Jun 2027 01:10:36.338            15.688               Magadan1           490.250
        79   02 Jun 2027 01:10:59.740   02 Jun 2027 01:11:04.014             4.274               Magadan1           133.563
        80   02 Jun 2027 01:11:39.101   02 Jun 2027 01:11:48.195             9.094                Norilsk           284.187
        81   02 Jun 2027 01:11:51.354   02 Jun 2027 01:14:42.651           171.297                Irkutsk          5353.031
        82   02 Jun 2027 01:20:46.010   02 Jun 2027 01:21:03.989            17.979                Irkutsk           561.844
        83   02 Jun 2027 01:21:31.721   02 Jun 2027 01:23:30.736           119.015                  Delhi          3719.219
        84   02 Jun 2027 01:26:08.833   02 Jun 2027 01:27:21.138            72.305                Sumatra          2259.531
        85   02 Jun 2027 02:02:18.777   02 Jun 2027 02:02:42.454            23.677            RioGallegos           739.906
        86   02 Jun 2027 02:05:20.147   02 Jun 2027 02:05:42.832            22.685            RioGallegos           708.906
        87   02 Jun 2027 02:40:41.149   02 Jun 2027 02:41:04.691            23.542                Anadyr2           735.687
        88   02 Jun 2027 02:41:50.330   02 Jun 2027 02:41:58.453             8.123                Anadyr2           253.844
        89   02 Jun 2027 02:43:59.379   02 Jun 2027 02:45:41.764           102.385                Norilsk          3199.531
        90   02 Jun 2027 02:46:33.951   02 Jun 2027 02:47:36.255            62.304              Murmansk1          1947.000
        91   02 Jun 2027 02:47:45.799   02 Jun 2027 02:48:17.454            31.655                Novosib           989.219
        92   02 Jun 2027 02:48:39.843   02 Jun 2027 02:49:39.332            59.489                Novosib          1859.031
        93   02 Jun 2027 02:49:40.108   02 Jun 2027 02:51:07.276            87.168                Irkutsk          2724.000
        94   02 Jun 2027 02:57:14.674   02 Jun 2027 02:57:52.926            38.252                  Delhi          1195.375
        95   02 Jun 2027 02:58:15.752   02 Jun 2027 02:58:38.739            22.987                  Delhi           718.344
        96   02 Jun 2027 03:01:34.538   02 Jun 2027 03:04:01.913           147.375                  Delhi          4605.469
        97   02 Jun 2027 03:40:53.529   02 Jun 2027 03:42:35.342           101.813            RioGallegos          3181.656
        98   02 Jun 2027 04:28:28.805   02 Jun 2027 04:32:01.170           212.365                Novosib          6636.406
        99   02 Jun 2027 04:32:29.389   02 Jun 2027 04:33:30.093            60.704              Murmansk1          1897.000
       100   02 Jun 2027 04:33:38.379   02 Jun 2027 04:34:36.911            58.532                Novosib          1829.125
       101   02 Jun 2027 04:35:02.377   02 Jun 2027 04:37:11.494           129.117                  Delhi          4034.906
       102   02 Jun 2027 06:08:45.309   02 Jun 2027 06:10:20.005            94.696                 Moscow          2959.250
       103   02 Jun 2027 06:25:18.441   02 Jun 2027 06:27:15.848           117.407               CapeTown          3668.969
       104   02 Jun 2027 07:29:02.732   02 Jun 2027 07:30:28.144            85.412                Anadyr2          2669.125
       105   02 Jun 2027 07:30:28.144   02 Jun 2027 07:31:45.806            77.662                Anadyr1          2426.937
       106   02 Jun 2027 09:06:49.429   02 Jun 2027 09:07:58.124            68.695                Anadyr2          2146.719
       107   02 Jun 2027 09:07:58.124   02 Jun 2027 09:10:07.384           129.260                Anadyr1          4039.375
       108   02 Jun 2027 10:42:20.835   02 Jun 2027 10:43:27.100            66.265               Magadan2          2070.781
       109   02 Jun 2027 10:43:30.038   02 Jun 2027 10:44:23.419            53.381               Magadan1          1668.156
       110   02 Jun 2027 10:44:40.094   02 Jun 2027 10:45:27.049            46.955                Irkutsk          1467.344
       111   02 Jun 2027 10:45:34.511   02 Jun 2027 10:45:57.225            22.714               Magadan2           709.812
       112   02 Jun 2027 10:46:02.553   02 Jun 2027 10:46:06.666             4.113                Norilsk           128.531
       113   02 Jun 2027 11:20:54.080   02 Jun 2027 11:22:03.779            69.699            RioGallegos          2178.094
       114   02 Jun 2027 11:32:12.107   02 Jun 2027 11:32:54.205            42.098            RioGallegos          1315.563
       115   02 Jun 2027 11:56:42.681   02 Jun 2027 11:56:53.428            10.747                Sumatra           335.844
       116   02 Jun 2027 12:02:34.319   02 Jun 2027 12:03:19.805            45.486                Sumatra          1421.438
       117   02 Jun 2027 12:09:17.983   02 Jun 2027 12:10:22.739            64.756                Irkutsk          2023.625
       118   02 Jun 2027 12:14:10.836   02 Jun 2027 12:14:59.692            48.856                Norilsk          1526.750
       119   02 Jun 2027 12:24:52.704   02 Jun 2027 12:25:08.156            15.452                Norilsk           482.875
       120   02 Jun 2027 12:58:06.221   02 Jun 2027 12:58:50.924            44.703            RioGallegos          1396.969
       121   02 Jun 2027 12:59:38.883   02 Jun 2027 13:01:50.868           131.985            RioGallegos          4124.531
       122   02 Jun 2027 13:32:20.554   02 Jun 2027 13:33:31.248            70.694                Sumatra          2209.187
       123   02 Jun 2027 13:34:08.677   02 Jun 2027 13:36:31.322           142.645                Sumatra          4457.656
       124   02 Jun 2027 13:52:26.334   02 Jun 2027 13:53:32.467            66.133                Irkutsk          2066.656
       125   02 Jun 2027 15:17:20.464   02 Jun 2027 15:22:14.938           294.474                  Delhi          9202.312
       126   02 Jun 2027 15:25:46.577   02 Jun 2027 15:27:35.691           109.114                Novosib          3409.812
       127   02 Jun 2027 15:28:59.023   02 Jun 2027 15:31:58.297           179.274                Novosib          5602.312
       128   02 Jun 2027 17:02:08.056   02 Jun 2027 17:03:33.008            84.952                 Moscow          2654.750
       129   02 Jun 2027 17:10:55.787   02 Jun 2027 17:11:55.937            60.150              Murmansk2          1879.688
       130   02 Jun 2027 17:11:58.540   02 Jun 2027 17:13:52.119           113.579                Norilsk          3549.344
       131   02 Jun 2027 18:13:56.491   02 Jun 2027 18:14:33.013            36.522               CapeTown          1141.313
       132   02 Jun 2027 18:19:58.194   02 Jun 2027 18:20:13.046            14.852               CapeTown           464.125
       133   02 Jun 2027 18:22:01.543   02 Jun 2027 18:22:40.303            38.760               CapeTown          1211.250
       134   02 Jun 2027 18:39:56.383   02 Jun 2027 18:43:44.560           228.177                 Moscow          7130.531
       135   02 Jun 2027 18:50:26.013   02 Jun 2027 18:51:23.907            57.894              Murmansk2          1809.187
       136   02 Jun 2027 18:52:02.512   02 Jun 2027 18:52:15.869            13.357              Murmansk2           417.406
       137   02 Jun 2027 19:50:28.421   02 Jun 2027 19:51:34.203            65.782               CapeTown          2055.688
       138   02 Jun 2027 19:53:45.409   02 Jun 2027 19:54:41.369            55.960               CapeTown          1748.750
       139   02 Jun 2027 19:58:02.260   02 Jun 2027 19:59:09.087            66.827               CapeTown          2088.344
       140   02 Jun 2027 20:22:55.726   02 Jun 2027 20:27:46.808           291.082              Murmansk1          9096.313
       141   02 Jun 2027 20:41:22.570   02 Jun 2027 20:42:27.634            65.064               Magadan2          2033.250
       142   02 Jun 2027 22:06:16.029   02 Jun 2027 22:10:02.583           226.554                Anadyr1          7079.812
       143   02 Jun 2027 22:10:07.262   02 Jun 2027 22:11:27.143            79.881                Anadyr2          2496.281
       144   02 Jun 2027 22:11:48.200   02 Jun 2027 22:12:57.364            69.164               Magadan2          2161.375
       145   02 Jun 2027 22:12:58.403   02 Jun 2027 22:13:06.889             8.486               Magadan2           265.187
       146   02 Jun 2027 22:13:38.418   02 Jun 2027 22:14:05.487            27.069               Magadan1           845.906
       147   02 Jun 2027 23:01:05.266   02 Jun 2027 23:03:23.316           138.050            RioGallegos          4314.062
       148   02 Jun 2027 23:05:37.983   02 Jun 2027 23:06:04.282            26.299            RioGallegos           821.844
       149   02 Jun 2027 23:07:30.778   02 Jun 2027 23:07:31.974             1.196            RioGallegos            37.375
       150   02 Jun 2027 23:09:42.262   02 Jun 2027 23:10:17.002            34.740            RioGallegos          1085.625
       151   02 Jun 2027 23:41:58.827   02 Jun 2027 23:43:15.558            76.731                Anadyr1          2397.844
       152   02 Jun 2027 23:43:34.472   02 Jun 2027 23:43:58.041            23.569                Anadyr2           736.531
       153   02 Jun 2027 23:44:05.450   02 Jun 2027 23:45:44.270            98.820                Norilsk          3088.125
       154   02 Jun 2027 23:46:29.690   02 Jun 2027 23:47:28.122            58.432               Magadan2          1826.000
       155   02 Jun 2027 23:48:08.574   02 Jun 2027 23:49:08.575            60.001               Magadan2          1875.031
       156   02 Jun 2027 23:49:33.037   02 Jun 2027 23:49:40.858             7.821                Irkutsk           244.406
       157   02 Jun 2027 23:56:40.803   02 Jun 2027 23:58:21.612           100.809                Irkutsk          3150.281
       158   03 Jun 2027 00:02:30.277   03 Jun 2027 00:03:46.368            76.091                Sumatra          2377.844
       159   03 Jun 2027 00:04:14.658   03 Jun 2027 00:05:40.322            85.664                Sumatra          2677.000
       160   03 Jun 2027 01:16:56.792   03 Jun 2027 01:18:40.417           103.625                Anadyr2          3238.281
       161   03 Jun 2027 01:18:40.417   03 Jun 2027 01:18:44.509             4.092                Anadyr1           127.875
       162   03 Jun 2027 01:19:09.101   03 Jun 2027 01:19:15.150             6.049                Anadyr2           189.031
       163   03 Jun 2027 01:19:20.692   03 Jun 2027 01:19:37.502            16.810                Anadyr2           525.312
       164   03 Jun 2027 01:20:00.632   03 Jun 2027 01:21:48.092           107.460                Norilsk          3358.125
       165   03 Jun 2027 01:23:42.285   03 Jun 2027 01:23:50.562             8.277                Norilsk           258.656
       166   03 Jun 2027 01:23:53.032   03 Jun 2027 01:25:48.348           115.316                Irkutsk          3603.625
       167   03 Jun 2027 01:26:29.049   03 Jun 2027 01:26:32.494             3.445                Novosib           107.656
       168   03 Jun 2027 01:27:41.916   03 Jun 2027 01:27:44.425             2.509                Irkutsk            78.406
       169   03 Jun 2027 01:30:45.777   03 Jun 2027 01:31:37.731            51.954                Irkutsk          1623.563
       170   03 Jun 2027 01:35:23.826   03 Jun 2027 01:35:40.332            16.506                  Delhi           515.812
       171   03 Jun 2027 01:36:50.000   03 Jun 2027 01:37:37.666            47.666                  Delhi          1489.562
       172   03 Jun 2027 01:38:34.543   03 Jun 2027 01:39:30.939            56.396                Sumatra          1762.375
       173   03 Jun 2027 01:42:04.055   03 Jun 2027 01:43:43.224            99.169                Sumatra          3099.031
       174   03 Jun 2027 02:20:16.249   03 Jun 2027 02:20:32.287            16.038            RioGallegos           501.188
       175   03 Jun 2027 02:51:23.219   03 Jun 2027 02:52:39.537            76.318                Anadyr1          2384.937
       176   03 Jun 2027 02:56:01.430   03 Jun 2027 02:56:26.565            25.135                Norilsk           785.469
       177   03 Jun 2027 02:57:14.684   03 Jun 2027 02:57:42.318            27.634                Norilsk           863.563
       178   03 Jun 2027 02:58:28.682   03 Jun 2027 02:59:03.732            35.050              Murmansk1          1095.313
       179   03 Jun 2027 02:59:13.947   03 Jun 2027 02:59:48.093            34.146              Murmansk1          1067.063
       180   03 Jun 2027 02:59:49.563   03 Jun 2027 03:00:28.722            39.159                Novosib          1223.719
       181   03 Jun 2027 03:00:53.862   03 Jun 2027 03:03:34.703           160.841                Norilsk          5026.281
       182   03 Jun 2027 03:03:34.949   03 Jun 2027 03:03:49.916            14.967              Murmansk2           467.719
       183   03 Jun 2027 03:04:03.788   03 Jun 2027 03:04:14.008            10.220                Novosib           319.375
       184   03 Jun 2027 03:04:20.172   03 Jun 2027 03:05:12.404            52.232                Novosib          1632.250
       185   03 Jun 2027 03:05:26.980   03 Jun 2027 03:06:18.171            51.191              Murmansk2          1599.719
       186   03 Jun 2027 03:06:23.990   03 Jun 2027 03:06:36.990            13.000                Novosib           406.250
       187   03 Jun 2027 03:06:42.221   03 Jun 2027 03:08:19.872            97.651                Norilsk          3051.594
       188   03 Jun 2027 03:08:21.333   03 Jun 2027 03:10:09.053           107.720                  Delhi          3366.250
       189   03 Jun 2027 03:50:25.698   03 Jun 2027 03:50:29.847             4.149            RioGallegos           129.656
       190   03 Jun 2027 03:52:08.812   03 Jun 2027 03:53:17.334            68.522            RioGallegos          2141.313
       191   03 Jun 2027 04:40:07.143   03 Jun 2027 04:40:18.459            11.316                Novosib           353.625
       192   03 Jun 2027 04:40:46.627   03 Jun 2027 04:41:42.532            55.905                Novosib          1747.031
       193   03 Jun 2027 04:42:09.514   03 Jun 2027 04:42:52.889            43.375                 Moscow          1355.469
       194   03 Jun 2027 04:43:02.511   03 Jun 2027 04:45:41.746           159.235                Novosib          4976.094
       195   03 Jun 2027 06:19:45.399   03 Jun 2027 06:20:00.211            14.812                 Moscow           462.875
       196   03 Jun 2027 06:25:20.994   03 Jun 2027 06:26:01.750            40.756                 Moscow          1273.625
       197   03 Jun 2027 06:37:32.023   03 Jun 2027 06:39:07.301            95.278               CapeTown          2977.438
       198   03 Jun 2027 06:42:12.575   03 Jun 2027 06:42:15.810             3.235               CapeTown           101.094
       199   03 Jun 2027 07:40:13.076   03 Jun 2027 07:40:29.149            16.073               Magadan2           502.281
       200   03 Jun 2027 07:40:44.977   03 Jun 2027 07:41:09.423            24.446               Magadan1           763.937
       201   03 Jun 2027 07:41:14.419   03 Jun 2027 07:42:25.055            70.636               Magadan2          2207.375
       202   03 Jun 2027 07:42:33.970   03 Jun 2027 07:42:56.328            22.358                Anadyr2           698.687
       203   03 Jun 2027 07:42:56.328   03 Jun 2027 07:43:01.616             5.288                Anadyr1           165.250
       204   03 Jun 2027 07:43:56.821   03 Jun 2027 07:44:45.658            48.837                Anadyr2          1526.156
       205   03 Jun 2027 09:16:29.196   03 Jun 2027 09:17:36.719            67.523                Anadyr2          2110.094
       206   03 Jun 2027 09:17:46.222   03 Jun 2027 09:17:53.331             7.109               Magadan1           222.156
       207   03 Jun 2027 09:18:12.640   03 Jun 2027 09:18:38.953            26.313               Magadan1           822.281
       208   03 Jun 2027 09:18:48.400   03 Jun 2027 09:19:43.592            55.192                Anadyr2          1724.750
       209   03 Jun 2027 10:00:34.034   03 Jun 2027 10:00:52.728            18.694            RioGallegos           584.188
       210   03 Jun 2027 10:51:41.628   03 Jun 2027 10:53:23.784           102.156               Magadan2          3192.375
       211   03 Jun 2027 10:54:00.194   03 Jun 2027 10:54:06.000             5.806                Irkutsk           181.437
       212   03 Jun 2027 10:54:17.603   03 Jun 2027 10:57:49.852           212.249               Magadan2          6632.781
       213   03 Jun 2027 10:58:15.149   03 Jun 2027 10:58:39.625            24.476                Norilsk           764.875
       214   03 Jun 2027 11:32:52.667   03 Jun 2027 11:34:02.015            69.348            RioGallegos          2167.125
       215   03 Jun 2027 12:08:19.902   03 Jun 2027 12:08:53.322            33.420                Sumatra          1044.375
       216   03 Jun 2027 12:10:26.709   03 Jun 2027 12:10:38.647            11.938                Sumatra           373.062
       217   03 Jun 2027 12:21:23.693   03 Jun 2027 12:23:18.030           114.337                Irkutsk          3573.031
       218   03 Jun 2027 12:24:35.791   03 Jun 2027 12:25:36.083            60.292                Irkutsk          1884.125
       219   03 Jun 2027 12:35:06.341   03 Jun 2027 12:35:18.131            11.790                Norilsk           368.438
       220   03 Jun 2027 13:10:37.664   03 Jun 2027 13:12:11.720            94.056            RioGallegos          2939.250
       221   03 Jun 2027 13:13:49.657   03 Jun 2027 13:14:37.110            47.453            RioGallegos          1482.906
       222   03 Jun 2027 13:44:51.176   03 Jun 2027 13:47:30.581           159.405                Sumatra          4981.406
       223   03 Jun 2027 13:48:40.684   03 Jun 2027 13:49:52.317            71.633                Sumatra          2238.531
       224   03 Jun 2027 14:02:04.325   03 Jun 2027 14:05:39.068           214.743                Irkutsk          6710.719
       225   03 Jun 2027 15:30:07.270   03 Jun 2027 15:31:11.103            63.833                  Delhi          1994.781
       226   03 Jun 2027 15:32:48.178   03 Jun 2027 15:34:43.102           114.924                  Delhi          3591.375
       227   03 Jun 2027 15:38:37.584   03 Jun 2027 15:42:29.329           231.745                Novosib          7242.031
       228   03 Jun 2027 17:12:43.328   03 Jun 2027 17:12:45.985             2.657                 Moscow            83.031
       229   03 Jun 2027 17:14:07.604   03 Jun 2027 17:15:32.102            84.498                 Moscow          2640.562
       230   03 Jun 2027 17:18:39.707   03 Jun 2027 17:19:19.337            39.630              Murmansk2          1238.437
       231   03 Jun 2027 17:24:33.698   03 Jun 2027 17:24:52.277            18.579              Murmansk1           580.594
       232   03 Jun 2027 17:26:43.718   03 Jun 2027 17:27:13.421            29.703              Murmansk2           928.219
       233   03 Jun 2027 17:31:26.679   03 Jun 2027 17:32:04.050            37.371                Anadyr2          1167.844
       234   03 Jun 2027 17:32:16.735   03 Jun 2027 17:32:22.084             5.349                Anadyr1           167.156
       235   03 Jun 2027 17:32:37.167   03 Jun 2027 17:32:45.181             8.014                Anadyr1           250.437
       236   03 Jun 2027 17:33:31.674   03 Jun 2027 17:33:55.154            23.480                Anadyr1           733.750
       237   03 Jun 2027 17:37:10.674   03 Jun 2027 17:37:51.771            41.097                Anadyr1          1284.281
       238   03 Jun 2027 18:25:52.352   03 Jun 2027 18:26:44.061            51.709               CapeTown          1615.906
       239   03 Jun 2027 18:31:48.180   03 Jun 2027 18:32:07.129            18.949               CapeTown           592.156
       240   03 Jun 2027 18:32:40.967   03 Jun 2027 18:32:48.231             7.264               CapeTown           227.000
       241   03 Jun 2027 18:33:27.690   03 Jun 2027 18:33:37.956            10.266               CapeTown           320.813
       242   03 Jun 2027 18:37:52.007   03 Jun 2027 18:37:54.851             2.844               CapeTown            88.875
       243   03 Jun 2027 18:52:57.392   03 Jun 2027 18:56:22.908           205.516                 Moscow          6422.375
       244   03 Jun 2027 18:58:39.226   03 Jun 2027 18:59:18.688            39.462              Murmansk1          1233.187
       245   03 Jun 2027 19:03:57.070   03 Jun 2027 19:04:38.476            41.406              Murmansk1          1293.938
       246   03 Jun 2027 20:02:51.931   03 Jun 2027 20:03:40.733            48.802               CapeTown          1525.063
       247   03 Jun 2027 20:04:45.514   03 Jun 2027 20:06:33.716           108.202               CapeTown          3381.312
       248   03 Jun 2027 20:11:16.265   03 Jun 2027 20:11:38.161            21.896               CapeTown           684.250
       249   03 Jun 2027 20:36:04.055   03 Jun 2027 20:39:22.756           198.701              Murmansk2          6209.406
       250   03 Jun 2027 20:44:54.940   03 Jun 2027 20:46:01.929            66.989               Magadan1          2093.406
       251   03 Jun 2027 20:48:10.920   03 Jun 2027 20:48:49.576            38.656               Magadan1          1208.000
       252   03 Jun 2027 20:52:01.373   03 Jun 2027 20:52:52.004            50.631               Magadan1          1582.219
       253   03 Jun 2027 22:18:17.273   03 Jun 2027 22:21:48.653           211.380                Anadyr1          6605.625
       254   03 Jun 2027 22:22:06.855   03 Jun 2027 22:24:29.429           142.574                Norilsk          4455.438
       255   03 Jun 2027 22:24:56.148   03 Jun 2027 22:25:48.192            52.044               Magadan1          1626.375
       256   03 Jun 2027 22:26:15.270   03 Jun 2027 22:26:22.034             6.764               Magadan2           211.375
       257   03 Jun 2027 22:29:54.381   03 Jun 2027 22:30:17.575            23.194               Magadan1           724.813
       258   03 Jun 2027 22:30:41.189   03 Jun 2027 22:31:01.798            20.609               Magadan1           644.031
       259   03 Jun 2027 23:12:50.031   03 Jun 2027 23:15:35.608           165.577            RioGallegos          5174.281
       260   03 Jun 2027 23:53:56.526   03 Jun 2027 23:55:58.220           121.694                Anadyr1          3802.937
       261   03 Jun 2027 23:56:05.872   03 Jun 2027 23:57:45.635            99.763                Norilsk          3117.594
       262   03 Jun 2027 23:58:03.843   03 Jun 2027 23:58:33.377            29.534               Magadan1           922.937
       263   03 Jun 2027 23:59:17.157   03 Jun 2027 23:59:35.346            18.189                Norilsk           568.406
       264   04 Jun 2027 00:00:21.297   04 Jun 2027 00:01:41.784            80.487                Irkutsk          2515.219
       265   04 Jun 2027 00:02:44.214   04 Jun 2027 00:03:26.720            42.506                Novosib          1328.312
       266   04 Jun 2027 00:04:55.275   04 Jun 2027 00:06:38.906           103.631                Novosib          3238.469
       267   04 Jun 2027 00:15:19.090   04 Jun 2027 00:16:06.332            47.242                Sumatra          1476.313
       268   04 Jun 2027 00:26:01.199   04 Jun 2027 00:26:23.150            21.951                Sumatra           685.969
       269   04 Jun 2027 00:51:43.090   04 Jun 2027 00:51:49.244             6.154            RioGallegos           192.313
       270   04 Jun 2027 00:52:03.111   04 Jun 2027 00:52:08.123             5.012            RioGallegos           156.625
       271   04 Jun 2027 00:52:28.609   04 Jun 2027 00:52:41.368            12.759            RioGallegos           398.719
       272   04 Jun 2027 00:54:53.875   04 Jun 2027 00:54:58.463             4.588            RioGallegos           143.375
       273   04 Jun 2027 00:55:41.596   04 Jun 2027 00:56:36.984            55.388            RioGallegos          1730.875
       274   04 Jun 2027 01:28:45.881   04 Jun 2027 01:29:13.695            27.814                Anadyr2           869.187
       275   04 Jun 2027 01:29:48.896   04 Jun 2027 01:30:46.657            57.761                Anadyr1          1805.031
       276   04 Jun 2027 01:30:55.480   04 Jun 2027 01:31:01.555             6.075                Anadyr1           189.844
       277   04 Jun 2027 01:31:09.688   04 Jun 2027 01:31:21.088            11.400                Anadyr1           356.250
       278   04 Jun 2027 01:32:03.009   04 Jun 2027 01:33:47.680           104.671                Norilsk          3270.969
       279   04 Jun 2027 01:35:37.171   04 Jun 2027 01:35:52.920            15.749                Norilsk           492.156
       280   04 Jun 2027 01:35:55.545   04 Jun 2027 01:37:39.456           103.911                Irkutsk          3247.219
       281   04 Jun 2027 01:38:18.525   04 Jun 2027 01:38:23.346             4.821                Novosib           150.656
       282   04 Jun 2027 01:40:49.388   04 Jun 2027 01:41:18.989            29.601                Irkutsk           925.031
       283   04 Jun 2027 01:44:01.798   04 Jun 2027 01:44:46.196            44.398                  Delhi          1387.437
       284   04 Jun 2027 01:47:13.819   04 Jun 2027 01:48:04.013            50.194                  Delhi          1568.562
       285   04 Jun 2027 01:51:11.023   04 Jun 2027 01:51:25.426            14.403                Sumatra           450.094
       286   04 Jun 2027 01:52:47.418   04 Jun 2027 01:54:39.355           111.937                Sumatra          3498.031
       287   04 Jun 2027 01:57:59.579   04 Jun 2027 01:58:47.651            48.072                Sumatra          1502.250
       288   04 Jun 2027 02:32:04.320   04 Jun 2027 02:32:51.155            46.835            RioGallegos          1463.594
       289   04 Jun 2027 03:12:11.291   04 Jun 2027 03:12:12.355             1.064               Magadan2            33.250
       290   04 Jun 2027 03:13:34.692   04 Jun 2027 03:17:44.433           249.741                Irkutsk          7804.406
       291   04 Jun 2027 03:18:13.005   04 Jun 2027 03:19:17.694            64.689                Irkutsk          2021.531
       292   04 Jun 2027 04:54:22.234   04 Jun 2027 04:54:50.929            28.695                 Moscow           896.719
       293   04 Jun 2027 04:54:56.045   04 Jun 2027 04:55:21.827            25.782                 Moscow           805.688
       294   04 Jun 2027 04:55:25.496   04 Jun 2027 04:55:56.260            30.764                 Moscow           961.375
       295   04 Jun 2027 04:56:21.826   04 Jun 2027 04:56:59.121            37.295                 Moscow          1165.469
       296   04 Jun 2027 04:57:22.362   04 Jun 2027 04:57:52.646            30.284                Novosib           946.375
       297   04 Jun 2027 04:58:47.082   04 Jun 2027 04:59:06.970            19.888                 Moscow           621.500
       298   04 Jun 2027 05:14:03.611   04 Jun 2027 05:15:12.344            68.733               CapeTown          2147.906
       299   04 Jun 2027 05:16:07.218   04 Jun 2027 05:17:14.739            67.521               CapeTown          2110.031
       300   04 Jun 2027 06:10:09.425   04 Jun 2027 06:10:48.167            38.742                Anadyr1          1210.688
       301   04 Jun 2027 06:17:39.790   04 Jun 2027 06:17:52.610            12.820                Anadyr1           400.625
       302   04 Jun 2027 06:18:29.598   04 Jun 2027 06:18:30.659             1.061               Magadan2            33.156
       303   04 Jun 2027 06:18:49.013   04 Jun 2027 06:19:41.468            52.455                Anadyr2          1639.219
       304   04 Jun 2027 06:28:26.459   04 Jun 2027 06:28:27.878             1.419                 Moscow            44.344
       305   04 Jun 2027 06:28:28.294   04 Jun 2027 06:29:16.886            48.592                 Moscow          1518.500
       306   04 Jun 2027 06:33:26.231   04 Jun 2027 06:33:32.064             5.833              Murmansk2           182.281
       307   04 Jun 2027 06:49:51.798   04 Jun 2027 06:51:03.832            72.034               CapeTown          2251.062
       308   04 Jun 2027 06:58:05.398   04 Jun 2027 06:59:46.736           101.338               CapeTown          3166.813
       309   04 Jun 2027 07:52:41.334   04 Jun 2027 07:52:47.483             6.149               Magadan2           192.156
       310   04 Jun 2027 07:53:03.949   04 Jun 2027 07:54:19.382            75.433                Anadyr1          2357.281
       311   04 Jun 2027 07:54:25.252   04 Jun 2027 07:54:38.888            13.636               Magadan2           426.125
       312   04 Jun 2027 07:55:03.233   04 Jun 2027 07:55:20.154            16.921                Anadyr2           528.781
       313   04 Jun 2027 07:56:44.805   04 Jun 2027 07:57:25.196            40.391                Anadyr2          1262.219
       314   04 Jun 2027 09:28:16.217   04 Jun 2027 09:30:05.465           109.248                Anadyr1          3414.000
       315   04 Jun 2027 09:30:35.134   04 Jun 2027 09:30:40.467             5.333               Magadan2           166.656
       316   04 Jun 2027 09:30:46.548   04 Jun 2027 09:31:21.125            34.577                Anadyr1          1080.531
       317   04 Jun 2027 09:31:31.642   04 Jun 2027 09:32:15.236            43.594               Magadan2          1362.312
       318   04 Jun 2027 10:10:26.656   04 Jun 2027 10:10:43.076            16.420            RioGallegos           513.125
       319   04 Jun 2027 10:12:41.876   04 Jun 2027 10:12:54.840            12.964            RioGallegos           405.125
       320   04 Jun 2027 10:17:42.756   04 Jun 2027 10:18:07.757            25.001            RioGallegos           781.281
       321   04 Jun 2027 11:02:54.097   04 Jun 2027 11:05:22.129           148.032               Magadan2          4626.000
       322   04 Jun 2027 11:05:33.029   04 Jun 2027 11:06:13.009            39.980               Magadan1          1249.375
       323   04 Jun 2027 11:06:20.981   04 Jun 2027 11:09:39.851           198.870               Magadan1          6214.687
       324   04 Jun 2027 11:09:54.199   04 Jun 2027 11:10:09.613            15.414                Norilsk           481.687
       325   04 Jun 2027 11:10:29.557   04 Jun 2027 11:11:07.808            38.251                Norilsk          1195.344
       326   04 Jun 2027 11:44:54.595   04 Jun 2027 11:45:58.870            64.275            RioGallegos          2008.594
       327   04 Jun 2027 12:20:04.519   04 Jun 2027 12:20:47.511            42.992                Sumatra          1343.500
       328   04 Jun 2027 12:22:05.915   04 Jun 2027 12:22:19.439            13.524                Sumatra           422.625
       329   04 Jun 2027 12:32:06.506   04 Jun 2027 12:32:15.187             8.681                  Delhi           271.281
       330   04 Jun 2027 12:33:32.902   04 Jun 2027 12:35:13.258           100.356                Irkutsk          3136.125
       331   04 Jun 2027 12:36:35.355   04 Jun 2027 12:37:28.210            52.855                Irkutsk          1651.719
       332   04 Jun 2027 12:39:36.579   04 Jun 2027 12:40:08.468            31.889                Norilsk           996.531
       333   04 Jun 2027 13:23:15.880   04 Jun 2027 13:25:47.114           151.234            RioGallegos          4726.062
       334   04 Jun 2027 13:26:10.815   04 Jun 2027 13:28:02.794           111.979            RioGallegos          3499.344
       335   04 Jun 2027 13:57:34.940   04 Jun 2027 13:57:38.614             3.674                Sumatra           114.813
       336   04 Jun 2027 14:00:36.580   04 Jun 2027 14:02:16.529            99.949                Sumatra          3123.406
       337   04 Jun 2027 14:13:20.926   04 Jun 2027 14:17:39.128           258.202                Irkutsk          8068.812
       338   04 Jun 2027 15:43:14.014   04 Jun 2027 15:47:21.165           247.151                  Delhi          7723.469
       339   04 Jun 2027 15:54:26.364   04 Jun 2027 15:55:08.875            42.511                Norilsk          1328.469
       340   04 Jun 2027 15:55:32.162   04 Jun 2027 15:55:48.924            16.762                Novosib           523.812
       341   04 Jun 2027 17:04:24.544   04 Jun 2027 17:04:37.214            12.670               CapeTown           395.938
       342   04 Jun 2027 17:09:49.366   04 Jun 2027 17:10:18.455            29.089               CapeTown           909.031
       343   04 Jun 2027 17:26:06.418   04 Jun 2027 17:28:07.107           120.689                 Moscow          3771.531
       344   04 Jun 2027 17:29:28.127   04 Jun 2027 17:29:38.957            10.830                 Moscow           338.437
       345   04 Jun 2027 17:29:40.381   04 Jun 2027 17:30:37.767            57.386              Murmansk2          1793.312
       346   04 Jun 2027 17:36:54.510   04 Jun 2027 17:37:24.505            29.995              Murmansk1           937.344
       347   04 Jun 2027 17:43:14.001   04 Jun 2027 17:43:58.415            44.414                Anadyr1          1387.937
       348   04 Jun 2027 17:45:23.634   04 Jun 2027 17:45:35.919            12.285                Anadyr2           383.906
       349   04 Jun 2027 17:49:07.898   04 Jun 2027 17:49:25.181            17.283                Anadyr1           540.094
       350   04 Jun 2027 18:37:51.220   04 Jun 2027 18:40:14.615           143.395               CapeTown          4481.094
       351   04 Jun 2027 19:06:21.887   04 Jun 2027 19:10:01.440           219.553                 Moscow          6861.031
       352   04 Jun 2027 19:10:45.252   04 Jun 2027 19:11:21.667            36.415              Murmansk1          1137.969
       353   04 Jun 2027 19:11:51.534   04 Jun 2027 19:12:08.757            17.223              Murmansk1           538.219
       354   04 Jun 2027 19:12:50.947   04 Jun 2027 19:14:16.547            85.600              Murmansk2          2675.000
       355   04 Jun 2027 20:15:23.592   04 Jun 2027 20:15:50.273            26.681               CapeTown           833.781
       356   04 Jun 2027 20:18:20.861   04 Jun 2027 20:20:22.640           121.779               CapeTown          3805.594
       357   04 Jun 2027 20:55:25.401   04 Jun 2027 20:56:06.011            40.610                Anadyr2          1269.063
       358   04 Jun 2027 20:56:12.125   04 Jun 2027 20:57:32.601            80.476                Anadyr1          2514.875
       359   04 Jun 2027 20:57:34.288   04 Jun 2027 20:58:21.736            47.448               Magadan1          1482.750
       360   04 Jun 2027 20:58:44.400   04 Jun 2027 20:59:08.002            23.602               Magadan2           737.562
       361   04 Jun 2027 20:59:26.996   04 Jun 2027 20:59:52.871            25.875               Magadan2           808.594
       362   04 Jun 2027 21:01:08.649   04 Jun 2027 21:01:40.414            31.765               Magadan2           992.656
       363   04 Jun 2027 21:03:44.080   04 Jun 2027 21:03:46.781             2.701               Magadan2            84.406
       364   04 Jun 2027 21:08:17.893   04 Jun 2027 21:08:28.764            10.871               Magadan2           339.719
       365   04 Jun 2027 22:30:18.276   04 Jun 2027 22:35:20.302           302.026                Anadyr2          9438.313
       366   04 Jun 2027 22:35:24.920   04 Jun 2027 22:36:30.581            65.661                Norilsk          2051.906
       367   04 Jun 2027 22:36:43.282   04 Jun 2027 22:37:42.248            58.966               Magadan2          1842.687
       368   04 Jun 2027 22:38:12.107   04 Jun 2027 22:38:24.925            12.818               Magadan2           400.563
       369   04 Jun 2027 22:39:28.120   04 Jun 2027 22:39:46.509            18.389               Magadan2           574.656
       370   04 Jun 2027 22:40:08.549   04 Jun 2027 22:40:12.841             4.292               Magadan2           134.125
       371   04 Jun 2027 22:40:30.341   04 Jun 2027 22:40:38.462             8.121                Irkutsk           253.781
       372   04 Jun 2027 22:41:07.966   04 Jun 2027 22:41:22.191            14.225                Irkutsk           444.531
       373   04 Jun 2027 22:43:53.514   04 Jun 2027 22:44:00.933             7.419               Magadan1           231.844
       374   04 Jun 2027 23:24:38.740   04 Jun 2027 23:26:46.980           128.240            RioGallegos          4007.500
       375   04 Jun 2027 23:27:41.080   04 Jun 2027 23:28:01.031            19.951            RioGallegos           623.469
       376   04 Jun 2027 23:30:16.188   04 Jun 2027 23:30:28.306            12.118            RioGallegos           378.688
       377   04 Jun 2027 23:33:23.343   04 Jun 2027 23:34:06.177            42.834            RioGallegos          1338.562
       378   05 Jun 2027 00:05:53.450   05 Jun 2027 00:07:23.827            90.377                Anadyr2          2824.281
       379   05 Jun 2027 00:08:06.803   05 Jun 2027 00:09:51.617           104.814                Norilsk          3275.438
       380   05 Jun 2027 00:10:27.276   05 Jun 2027 00:11:07.611            40.335               Magadan1          1260.469
       381   05 Jun 2027 00:11:23.063   05 Jun 2027 00:12:07.168            44.105               Magadan1          1378.281
       382   05 Jun 2027 00:12:15.673   05 Jun 2027 00:13:13.471            57.798                Irkutsk          1806.187
       383   05 Jun 2027 00:13:54.595   05 Jun 2027 00:14:44.829            50.234                Novosib          1569.813
       384   05 Jun 2027 00:22:51.861   05 Jun 2027 00:23:19.909            28.048                Irkutsk           876.500
       385   05 Jun 2027 00:25:59.265   05 Jun 2027 00:26:42.385            43.120                Sumatra          1347.500
       386   05 Jun 2027 00:33:48.284   05 Jun 2027 00:34:09.817            21.533                Sumatra           672.906
       387   05 Jun 2027 00:34:26.121   05 Jun 2027 00:35:28.272            62.151                Sumatra          1942.219
       388   05 Jun 2027 01:03:43.736   05 Jun 2027 01:03:53.117             9.381            RioGallegos           293.156
       389   05 Jun 2027 01:05:45.837   05 Jun 2027 01:06:07.233            21.396            RioGallegos           668.625
       390   05 Jun 2027 01:09:37.521   05 Jun 2027 01:09:55.698            18.177            RioGallegos           568.031
       391   05 Jun 2027 01:11:45.772   05 Jun 2027 01:12:51.115            65.343            RioGallegos          2041.969
       392   05 Jun 2027 01:40:56.118   05 Jun 2027 01:41:11.877            15.759                Anadyr1           492.469
       393   05 Jun 2027 01:41:50.246   05 Jun 2027 01:42:43.226            52.980                Anadyr2          1655.625
       394   05 Jun 2027 01:44:05.419   05 Jun 2027 01:45:51.423           106.004                Norilsk          3312.625
       395   05 Jun 2027 01:47:58.853   05 Jun 2027 01:49:46.526           107.673                Irkutsk          3364.781
       396   05 Jun 2027 01:50:37.840   05 Jun 2027 01:51:14.745            36.905                Novosib          1153.281
       397   05 Jun 2027 01:54:53.243   05 Jun 2027 01:55:50.384            57.141                Novosib          1785.656
       398   05 Jun 2027 02:01:51.264   05 Jun 2027 02:02:03.941            12.677                  Delhi           396.156
       399   05 Jun 2027 02:02:49.770   05 Jun 2027 02:02:53.944             4.174                  Delhi           130.437
       400   05 Jun 2027 02:04:04.408   05 Jun 2027 02:06:32.318           147.910                Sumatra          4622.188
       401   05 Jun 2027 02:37:07.822   05 Jun 2027 02:37:13.699             5.877            RioGallegos           183.656
       402   05 Jun 2027 02:37:54.292   05 Jun 2027 02:39:22.102            87.810            RioGallegos          2744.063
       403   05 Jun 2027 03:27:18.430   05 Jun 2027 03:27:21.350             2.920                Irkutsk            91.250
       404   05 Jun 2027 03:27:35.926   05 Jun 2027 03:28:25.221            49.295                Norilsk          1540.469
       405   05 Jun 2027 03:28:30.327   05 Jun 2027 03:28:56.945            26.618                Novosib           831.813
       406   05 Jun 2027 03:28:59.816   05 Jun 2027 03:32:51.668           231.852                Irkutsk          7245.375
       407   05 Jun 2027 03:37:38.598   05 Jun 2027 03:39:52.823           134.225                  Delhi          4194.531
       408   05 Jun 2027 05:05:43.886   05 Jun 2027 05:06:21.502            37.616                 Moscow          1175.500
       409   05 Jun 2027 05:06:24.426   05 Jun 2027 05:09:27.067           182.641                Novosib          5707.531
       410   05 Jun 2027 05:09:38.647   05 Jun 2027 05:09:43.895             5.248                 Moscow           164.000
       411   05 Jun 2027 05:10:51.806   05 Jun 2027 05:11:05.859            14.053                 Moscow           439.156
       412   05 Jun 2027 05:25:46.103   05 Jun 2027 05:27:27.813           101.710               CapeTown          3178.438
       413   05 Jun 2027 05:28:20.784   05 Jun 2027 05:28:50.738            29.954               CapeTown           936.062
       414   05 Jun 2027 06:29:12.743   05 Jun 2027 06:29:30.810            18.067                Anadyr2           564.594
       415   05 Jun 2027 06:29:46.372   05 Jun 2027 06:30:49.540            63.168                Anadyr2          1974.000
       416   05 Jun 2027 06:32:19.085   05 Jun 2027 06:32:33.895            14.810               Magadan1           462.813
       417   05 Jun 2027 06:41:21.584   05 Jun 2027 06:42:15.984            54.400                 Moscow          1700.000
       418   05 Jun 2027 07:02:18.751   05 Jun 2027 07:03:05.422            46.671               CapeTown          1458.469
       419   05 Jun 2027 07:06:18.134   05 Jun 2027 07:07:24.864            66.730               CapeTown          2085.313
       420   05 Jun 2027 08:03:06.648   05 Jun 2027 08:03:22.349            15.701                Anadyr2           490.656
       421   05 Jun 2027 08:03:39.411   05 Jun 2027 08:03:48.936             9.525               Magadan1           297.656
       422   05 Jun 2027 08:03:50.394   05 Jun 2027 08:04:02.744            12.350               Magadan1           385.938
       423   05 Jun 2027 08:04:04.239   05 Jun 2027 08:05:03.923            59.684                Anadyr1          1865.125
       424   05 Jun 2027 08:05:17.167   05 Jun 2027 08:06:24.875            67.708               Magadan1          2115.875
       425   05 Jun 2027 08:06:42.002   05 Jun 2027 08:07:29.147            47.145               Magadan1          1473.281
       426   05 Jun 2027 08:07:35.174   05 Jun 2027 08:08:04.197            29.023               Magadan2           906.969
       427   05 Jun 2027 08:09:22.731   05 Jun 2027 08:09:31.337             8.606                Anadyr1           268.938
       428   05 Jun 2027 08:51:07.955   05 Jun 2027 08:51:24.157            16.202            RioGallegos           506.312
       429   05 Jun 2027 09:38:46.980   05 Jun 2027 09:39:14.606            27.626               Magadan1           863.312
       430   05 Jun 2027 09:40:36.890   05 Jun 2027 09:41:22.835            45.945               Magadan1          1435.781
       431   05 Jun 2027 09:42:38.579   05 Jun 2027 09:43:38.531            59.952                Anadyr2          1873.500
       432   05 Jun 2027 09:43:45.213   05 Jun 2027 09:44:02.650            17.437               Magadan2           544.906
       433   05 Jun 2027 09:44:11.189   05 Jun 2027 09:45:03.212            52.023               Magadan2          1625.719
       434   05 Jun 2027 10:23:46.825   05 Jun 2027 10:24:00.059            13.234            RioGallegos           413.563
       435   05 Jun 2027 11:14:28.729   05 Jun 2027 11:17:52.515           203.786               Magadan1          6368.312
       436   05 Jun 2027 11:18:06.678   05 Jun 2027 11:19:35.356            88.678               Magadan2          2771.187
       437   05 Jun 2027 11:20:01.616   05 Jun 2027 11:20:18.315            16.699                Irkutsk           521.844
       438   05 Jun 2027 11:20:20.824   05 Jun 2027 11:20:37.189            16.365                Norilsk           511.406
       439   05 Jun 2027 11:20:55.619   05 Jun 2027 11:20:58.473             2.854                Irkutsk            89.188
       440   05 Jun 2027 11:21:09.233   05 Jun 2027 11:21:29.884            20.651                Norilsk           645.344
       441   05 Jun 2027 11:21:31.234   05 Jun 2027 11:22:15.537            44.303                Irkutsk          1384.469
       442   05 Jun 2027 11:56:59.968   05 Jun 2027 11:57:31.282            31.314            RioGallegos           978.562
       443   05 Jun 2027 11:57:54.098   05 Jun 2027 11:58:56.512            62.414            RioGallegos          1950.438
       444   05 Jun 2027 12:32:35.678   05 Jun 2027 12:34:53.620           137.942                Sumatra          4310.687
       445   05 Jun 2027 12:45:45.801   05 Jun 2027 12:46:22.913            37.112                Irkutsk          1159.750
       446   05 Jun 2027 12:50:19.733   05 Jun 2027 12:51:18.746            59.013                Norilsk          1844.156
       447   05 Jun 2027 13:36:02.770   05 Jun 2027 13:37:30.398            87.628            RioGallegos          2738.375
       448   05 Jun 2027 14:10:42.364   05 Jun 2027 14:14:50.909           248.545                Sumatra          7767.031
       449   05 Jun 2027 14:25:59.099   05 Jun 2027 14:26:32.074            32.975                Novosib          1030.469
       450   05 Jun 2027 14:26:37.798   05 Jun 2027 14:30:27.939           230.141                Irkutsk          7191.906
       451   05 Jun 2027 15:57:15.715   05 Jun 2027 15:59:17.431           121.716                  Delhi          3803.625
       452   05 Jun 2027 16:03:52.321   05 Jun 2027 16:04:52.624            60.303              Murmansk2          1884.469
       453   05 Jun 2027 16:05:16.126   05 Jun 2027 16:08:37.353           201.227                Novosib          6288.344
       454   05 Jun 2027 16:12:23.721   05 Jun 2027 16:12:32.580             8.859                Norilsk           276.844
       455   05 Jun 2027 17:37:19.694   05 Jun 2027 17:38:15.597            55.903                 Moscow          1746.969
       456   05 Jun 2027 17:40:38.605   05 Jun 2027 17:41:46.981            68.376              Murmansk2          2136.750
       457   05 Jun 2027 17:42:34.600   05 Jun 2027 17:43:13.012            38.412              Murmansk1          1200.375
       458   05 Jun 2027 17:44:53.113   05 Jun 2027 17:45:00.117             7.004              Murmansk1           218.875
       459   05 Jun 2027 17:46:10.602   05 Jun 2027 17:47:12.827            62.225                 Moscow          1944.531
       460   05 Jun 2027 17:55:05.146   05 Jun 2027 17:55:33.155            28.009                Anadyr1           875.281
       461   05 Jun 2027 18:03:42.352   05 Jun 2027 18:03:44.927             2.575                Anadyr1            80.469
       462   05 Jun 2027 18:49:52.922   05 Jun 2027 18:52:02.266           129.344               CapeTown          4042.000
       463   05 Jun 2027 18:52:39.449   05 Jun 2027 18:52:50.435            10.986               CapeTown           343.313
       464   05 Jun 2027 19:01:38.916   05 Jun 2027 19:02:34.482            55.566               CapeTown          1736.438
       465   05 Jun 2027 19:19:33.085   05 Jun 2027 19:23:18.433           225.348              Murmansk2          7042.125
       466   05 Jun 2027 19:24:48.412   05 Jun 2027 19:24:49.987             1.575              Murmansk1            49.219
       467   05 Jun 2027 19:24:51.527   05 Jun 2027 19:26:27.591            96.064              Murmansk2          3002.000
       468   05 Jun 2027 19:34:22.451   05 Jun 2027 19:34:43.978            21.527               Magadan1           672.719
       469   05 Jun 2027 20:28:09.691   05 Jun 2027 20:29:46.568            96.877               CapeTown          3027.406
       470   05 Jun 2027 20:31:55.380   05 Jun 2027 20:32:48.519            53.139               CapeTown          1660.594
       471   05 Jun 2027 21:06:25.200   05 Jun 2027 21:07:12.351            47.151                Anadyr2          1473.469
       472   05 Jun 2027 21:08:13.712   05 Jun 2027 21:09:36.346            82.634                Anadyr2          2582.313
       473   05 Jun 2027 21:09:51.492   05 Jun 2027 21:11:51.780           120.288               Magadan1          3759.000
       474   05 Jun 2027 21:11:51.780   05 Jun 2027 21:13:09.668            77.888               Magadan2          2434.000
       475   05 Jun 2027 22:42:18.983   05 Jun 2027 22:47:01.476           282.493                Anadyr2          8827.906
       476   05 Jun 2027 22:47:07.041   05 Jun 2027 22:48:28.346            81.305               Magadan2          2540.781
       477   05 Jun 2027 22:49:36.536   05 Jun 2027 22:49:54.492            17.956               Magadan2           561.125
       478   05 Jun 2027 22:49:58.071   05 Jun 2027 22:50:10.555            12.484               Magadan1           390.125
       479   05 Jun 2027 22:50:37.844   05 Jun 2027 22:51:30.577            52.733                Irkutsk          1647.906
       480   05 Jun 2027 22:52:27.735   05 Jun 2027 22:53:29.439            61.704                Irkutsk          1928.250
       481   05 Jun 2027 23:36:30.397   05 Jun 2027 23:37:49.624            79.227            RioGallegos          2475.844
       482   05 Jun 2027 23:38:31.365   05 Jun 2027 23:38:37.585             6.220            RioGallegos           194.375
