uniorb/output/strategy_4/Drop/Drop_KinoSat_110708.txt

KinoSat_110708
-------------------------
    Access    *     Start Time (UTCG)     *     Stop Time (UTCG)  *   Duration (s)        *       Station  *  Data (Mbytes)
         1   01 Jun 2027 03:10:29.692   01 Jun 2027 03:11:34.269            64.577                Anadyr1          2018.031
         2   01 Jun 2027 03:11:34.269   01 Jun 2027 03:12:13.872            39.603                Anadyr2          1237.594
         3   01 Jun 2027 03:12:20.037   01 Jun 2027 03:12:47.740            27.703               Magadan1           865.719
         4   01 Jun 2027 03:13:02.893   01 Jun 2027 03:13:27.124            24.231                Anadyr1           757.219
         5   01 Jun 2027 03:13:34.003   01 Jun 2027 03:14:13.261            39.258               Magadan2          1226.813
         6   01 Jun 2027 03:14:19.730   01 Jun 2027 03:15:40.641            80.911                Anadyr1          2528.469
         7   01 Jun 2027 03:15:40.641   01 Jun 2027 03:16:42.579            61.938                Anadyr2          1935.562
         8   01 Jun 2027 03:17:25.819   01 Jun 2027 03:17:29.651             3.832                Anadyr1           119.750
         9   01 Jun 2027 04:46:52.521   01 Jun 2027 04:47:00.269             7.748                Irkutsk           242.125
        10   01 Jun 2027 04:47:15.917   01 Jun 2027 04:48:41.811            85.894                Irkutsk          2684.188
        11   01 Jun 2027 04:48:42.422   01 Jun 2027 04:49:54.573            72.151               Magadan1          2254.719
        12   01 Jun 2027 04:50:07.172   01 Jun 2027 04:50:29.232            22.060               Magadan1           689.375
        13   01 Jun 2027 04:50:35.350   01 Jun 2027 04:50:44.825             9.475               Magadan1           296.094
        14   01 Jun 2027 04:50:51.728   01 Jun 2027 04:51:20.420            28.692                Anadyr2           896.625
        15   01 Jun 2027 04:51:20.420   01 Jun 2027 04:52:45.246            84.826                Anadyr1          2650.813
        16   01 Jun 2027 05:29:25.333   01 Jun 2027 05:31:31.065           125.732            RioGallegos          3929.125
        17   01 Jun 2027 06:22:54.263   01 Jun 2027 06:23:31.559            37.296                Irkutsk          1165.500
        18   01 Jun 2027 06:23:45.434   01 Jun 2027 06:23:57.053            11.619               Magadan1           363.094
        19   01 Jun 2027 06:23:57.362   01 Jun 2027 06:24:14.210            16.848               Magadan1           526.500
        20   01 Jun 2027 06:24:33.069   01 Jun 2027 06:24:43.372            10.303               Magadan1           321.969
        21   01 Jun 2027 06:24:57.590   01 Jun 2027 06:28:58.284           240.694                Irkutsk          7521.688
        22   01 Jun 2027 06:29:12.255   01 Jun 2027 06:30:19.697            67.442              Murmansk2          2107.562
        23   01 Jun 2027 07:03:41.607   01 Jun 2027 07:04:17.090            35.483            RioGallegos          1108.844
        24   01 Jun 2027 07:05:15.137   01 Jun 2027 07:05:19.003             3.866            RioGallegos           120.813
        25   01 Jun 2027 07:38:40.345   01 Jun 2027 07:42:20.615           220.270                Sumatra          6883.438
        26   01 Jun 2027 07:49:57.097   01 Jun 2027 07:50:31.158            34.061                  Delhi          1064.406
        27   01 Jun 2027 07:50:57.625   01 Jun 2027 07:52:08.079            70.454                  Delhi          2201.688
        28   01 Jun 2027 08:00:46.512   01 Jun 2027 08:02:12.513            86.001                Irkutsk          2687.531
        29   01 Jun 2027 08:02:37.367   01 Jun 2027 08:05:18.938           161.571                Novosib          5049.094
        30   01 Jun 2027 08:05:28.973   01 Jun 2027 08:05:47.904            18.931              Murmansk1           591.594
        31   01 Jun 2027 08:06:58.709   01 Jun 2027 08:07:17.314            18.605              Murmansk2           581.406
        32   01 Jun 2027 08:07:43.021   01 Jun 2027 08:08:23.542            40.521              Murmansk2          1266.281
        33   01 Jun 2027 08:42:35.904   01 Jun 2027 08:43:43.887            67.983            RioGallegos          2124.469
        34   01 Jun 2027 09:17:05.128   01 Jun 2027 09:17:57.314            52.186                Sumatra          1630.812
        35   01 Jun 2027 09:19:10.375   01 Jun 2027 09:20:16.122            65.747                Sumatra          2054.594
        36   01 Jun 2027 09:22:44.950   01 Jun 2027 09:23:35.800            50.850                  Delhi          1589.063
        37   01 Jun 2027 09:26:39.354   01 Jun 2027 09:27:32.397            53.043                  Delhi          1657.594
        38   01 Jun 2027 09:39:36.680   01 Jun 2027 09:40:02.547            25.867                 Moscow           808.344
        39   01 Jun 2027 09:40:14.634   01 Jun 2027 09:41:25.584            70.950                 Moscow          2217.187
        40   01 Jun 2027 09:41:39.027   01 Jun 2027 09:42:20.427            41.400              Murmansk1          1293.750
        41   01 Jun 2027 09:43:12.648   01 Jun 2027 09:43:53.286            40.638                Norilsk          1269.938
        42   01 Jun 2027 09:44:59.739   01 Jun 2027 09:45:32.645            32.906                Norilsk          1028.312
        43   01 Jun 2027 11:03:21.181   01 Jun 2027 11:05:40.630           139.449                  Delhi          4357.781
        44   01 Jun 2027 11:12:03.800   01 Jun 2027 11:14:11.379           127.579                 Moscow          3986.844
        45   01 Jun 2027 11:14:20.199   01 Jun 2027 11:14:47.833            27.634                Novosib           863.563
        46   01 Jun 2027 11:14:58.614   01 Jun 2027 11:19:19.824           261.210              Murmansk1          8162.813
        47   01 Jun 2027 11:19:27.711   01 Jun 2027 11:20:02.926            35.215                 Moscow          1100.469
        48   01 Jun 2027 11:20:43.384   01 Jun 2027 11:20:56.820            13.436              Murmansk1           419.875
        49   01 Jun 2027 11:21:03.889   01 Jun 2027 11:21:06.500             2.611              Murmansk1            81.594
        50   01 Jun 2027 11:21:53.394   01 Jun 2027 11:22:14.525            21.131              Murmansk1           660.344
        51   01 Jun 2027 12:22:34.269   01 Jun 2027 12:25:30.394           176.125               CapeTown          5503.906
        52   01 Jun 2027 12:27:16.897   01 Jun 2027 12:29:24.341           127.444               CapeTown          3982.625
        53   01 Jun 2027 12:47:18.812   01 Jun 2027 12:48:59.266           100.454              Murmansk1          3139.188
        54   01 Jun 2027 12:48:59.266   01 Jun 2027 12:51:02.461           123.195              Murmansk2          3849.844
        55   01 Jun 2027 13:01:53.548   01 Jun 2027 13:08:02.556           369.008                Anadyr1         11531.500
        56   01 Jun 2027 14:27:29.033   01 Jun 2027 14:28:32.085            63.052              Murmansk2          1970.375
        57   01 Jun 2027 14:37:14.698   01 Jun 2027 14:38:47.533            92.835                Anadyr2          2901.094
        58   01 Jun 2027 14:38:51.707   01 Jun 2027 14:39:12.101            20.394                Anadyr1           637.313
        59   01 Jun 2027 14:39:37.621   01 Jun 2027 14:40:35.631            58.010                Anadyr1          1812.813
        60   01 Jun 2027 14:41:18.490   01 Jun 2027 14:44:31.304           192.814               Magadan1          6025.438
        61   01 Jun 2027 14:45:44.112   01 Jun 2027 14:46:57.985            73.873               Magadan2          2308.531
        62   01 Jun 2027 16:13:07.561   01 Jun 2027 16:14:27.629            80.068                Anadyr1          2502.125
        63   01 Jun 2027 16:14:55.711   01 Jun 2027 16:16:07.843            72.132                Anadyr2          2254.125
        64   01 Jun 2027 16:16:36.123   01 Jun 2027 16:18:57.627           141.504               Magadan1          4422.000
        65   01 Jun 2027 16:18:57.627   01 Jun 2027 16:19:43.777            46.150               Magadan2          1442.188
        66   01 Jun 2027 16:24:00.961   01 Jun 2027 16:24:05.765             4.804               Magadan1           150.125
        67   01 Jun 2027 17:49:00.478   01 Jun 2027 17:50:22.968            82.490                Anadyr1          2577.812
        68   01 Jun 2027 17:50:43.614   01 Jun 2027 17:52:04.663            81.049                Anadyr2          2532.781
        69   01 Jun 2027 17:52:09.891   01 Jun 2027 17:57:02.662           292.771                Norilsk          9149.094
        70   01 Jun 2027 17:57:42.357   01 Jun 2027 18:02:04.748           262.391                Irkutsk          8199.719
        71   01 Jun 2027 19:26:52.854   01 Jun 2027 19:28:21.446            88.592                Norilsk          2768.500
        72   01 Jun 2027 19:30:56.521   01 Jun 2027 19:32:13.855            77.334                Irkutsk          2416.688
        73   01 Jun 2027 19:32:18.466   01 Jun 2027 19:39:38.113           439.647                Novosib         13738.969
        74   01 Jun 2027 19:54:09.558   01 Jun 2027 19:54:49.544            39.986                Sumatra          1249.563
        75   01 Jun 2027 21:06:45.624   01 Jun 2027 21:08:56.379           130.755                Novosib          4086.094
        76   01 Jun 2027 21:10:38.815   01 Jun 2027 21:12:19.864           101.049                Novosib          3157.781
        77   01 Jun 2027 21:14:19.122   01 Jun 2027 21:15:51.318            92.196                  Delhi          2881.125
        78   01 Jun 2027 21:16:44.347   01 Jun 2027 21:18:13.274            88.927                  Delhi          2778.969
        79   01 Jun 2027 22:38:36.500   01 Jun 2027 22:38:58.166            21.666               Magadan2           677.063
        80   01 Jun 2027 22:39:45.113   01 Jun 2027 22:40:00.804            15.691               Magadan1           490.344
        81   01 Jun 2027 22:40:29.847   01 Jun 2027 22:40:36.570             6.723               Magadan2           210.094
        82   01 Jun 2027 22:41:08.217   01 Jun 2027 22:45:20.575           252.358              Murmansk2          7886.187
        83   01 Jun 2027 22:45:20.575   01 Jun 2027 22:46:41.040            80.465              Murmansk1          2514.531
        84   01 Jun 2027 22:47:46.016   01 Jun 2027 22:51:04.880           198.864                 Moscow          6214.500
        85   01 Jun 2027 23:14:25.531   01 Jun 2027 23:17:20.899           175.368               CapeTown          5480.250
        86   02 Jun 2027 00:19:18.502   02 Jun 2027 00:20:20.237            61.735              Murmansk2          1929.219
        87   02 Jun 2027 00:20:49.575   02 Jun 2027 00:22:02.184            72.609                 Moscow          2269.031
        88   02 Jun 2027 00:26:22.855   02 Jun 2027 00:27:21.004            58.149                 Moscow          1817.156
        89   02 Jun 2027 00:44:19.076   02 Jun 2027 00:46:07.911           108.835               CapeTown          3401.094
        90   02 Jun 2027 00:53:28.442   02 Jun 2027 00:53:46.513            18.071               CapeTown           564.719
        91   02 Jun 2027 01:42:53.741   02 Jun 2027 01:43:24.582            30.841               Magadan2           963.781
        92   02 Jun 2027 01:43:24.582   02 Jun 2027 01:43:39.633            15.051               Magadan1           470.344
        93   02 Jun 2027 01:44:23.789   02 Jun 2027 01:44:53.705            29.916               Magadan2           934.875
        94   02 Jun 2027 01:47:28.191   02 Jun 2027 01:48:01.008            32.817               Magadan2          1025.531
        95   02 Jun 2027 01:51:37.703   02 Jun 2027 01:51:53.358            15.655                Norilsk           489.219
        96   02 Jun 2027 01:52:55.473   02 Jun 2027 01:53:20.951            25.478              Murmansk1           796.188
        97   02 Jun 2027 01:55:00.382   02 Jun 2027 01:55:46.064            45.682              Murmansk2          1427.562
        98   02 Jun 2027 01:56:12.088   02 Jun 2027 01:57:26.466            74.378                 Moscow          2324.312
        99   02 Jun 2027 02:00:35.030   02 Jun 2027 02:00:39.248             4.218                 Moscow           131.812
       100   02 Jun 2027 02:01:32.773   02 Jun 2027 02:01:42.506             9.733                 Moscow           304.156
       101   02 Jun 2027 02:01:52.069   02 Jun 2027 02:02:11.663            19.594                 Moscow           612.313
       102   02 Jun 2027 02:04:41.365   02 Jun 2027 02:05:10.163            28.798                 Moscow           899.937
       103   02 Jun 2027 02:21:28.335   02 Jun 2027 02:22:19.892            51.557               CapeTown          1611.156
       104   02 Jun 2027 02:27:23.778   02 Jun 2027 02:27:56.447            32.669               CapeTown          1020.906
       105   02 Jun 2027 03:17:38.639   02 Jun 2027 03:18:07.177            28.538                Anadyr1           891.813
       106   02 Jun 2027 03:22:12.481   02 Jun 2027 03:29:21.143           428.662               Magadan1         13395.687
       107   02 Jun 2027 03:29:23.227   02 Jun 2027 03:29:35.751            12.524                Anadyr1           391.375
       108   02 Jun 2027 04:58:40.536   02 Jun 2027 04:59:00.355            19.819                Anadyr1           619.344
       109   02 Jun 2027 04:59:07.728   02 Jun 2027 04:59:19.741            12.013                Anadyr2           375.406
       110   02 Jun 2027 04:59:19.741   02 Jun 2027 05:01:40.600           140.859                Anadyr1          4401.844
       111   02 Jun 2027 05:01:53.516   02 Jun 2027 05:02:19.455            25.939               Magadan2           810.594
       112   02 Jun 2027 05:02:19.455   02 Jun 2027 05:04:31.976           132.521               Magadan1          4141.281
       113   02 Jun 2027 05:04:46.432   02 Jun 2027 05:04:47.783             1.351                Anadyr2            42.219
       114   02 Jun 2027 05:05:07.881   02 Jun 2027 05:05:10.115             2.234               Magadan2            69.813
       115   02 Jun 2027 06:35:46.313   02 Jun 2027 06:36:41.785            55.472                Irkutsk          1733.500
       116   02 Jun 2027 06:37:52.521   02 Jun 2027 06:37:56.957             4.436                Irkutsk           138.625
       117   02 Jun 2027 06:37:57.348   02 Jun 2027 06:38:10.320            12.972                Novosib           405.375
       118   02 Jun 2027 06:38:17.616   02 Jun 2027 06:39:13.392            55.776                Irkutsk          1743.000
       119   02 Jun 2027 06:39:35.269   02 Jun 2027 06:39:50.262            14.993               Magadan2           468.531
       120   02 Jun 2027 06:40:06.282   02 Jun 2027 06:41:01.875            55.593                Irkutsk          1737.281
       121   02 Jun 2027 06:41:10.672   02 Jun 2027 06:41:39.471            28.799                Norilsk           899.969
       122   02 Jun 2027 06:41:40.733   02 Jun 2027 06:42:16.611            35.878                Novosib          1121.188
       123   02 Jun 2027 08:14:00.058   02 Jun 2027 08:15:37.514            97.456                Irkutsk          3045.500
       124   02 Jun 2027 08:17:31.735   02 Jun 2027 08:18:32.542            60.807                Novosib          1900.219
       125   02 Jun 2027 08:55:31.780   02 Jun 2027 08:57:19.672           107.892            RioGallegos          3371.625
       126   02 Jun 2027 08:57:32.783   02 Jun 2027 08:57:54.415            21.632            RioGallegos           676.000
       127   02 Jun 2027 08:58:28.429   02 Jun 2027 08:58:52.526            24.097            RioGallegos           753.031
       128   02 Jun 2027 09:02:23.065   02 Jun 2027 09:02:34.681            11.616            RioGallegos           363.000
       129   02 Jun 2027 09:31:02.190   02 Jun 2027 09:33:25.872           143.682                Sumatra          4490.063
       130   02 Jun 2027 09:49:37.690   02 Jun 2027 09:50:11.781            34.091                Novosib          1065.344
       131   02 Jun 2027 09:51:23.238   02 Jun 2027 09:51:35.992            12.754                Novosib           398.563
       132   02 Jun 2027 09:51:43.836   02 Jun 2027 09:51:44.319             0.483                Norilsk            15.094
       133   02 Jun 2027 09:51:48.783   02 Jun 2027 09:51:49.069             0.286                Novosib             8.937
       134   02 Jun 2027 09:52:25.123   02 Jun 2027 09:52:34.373             9.250                Novosib           289.063
       135   02 Jun 2027 09:52:50.684   02 Jun 2027 09:53:32.904            42.220                Novosib          1319.375
       136   02 Jun 2027 11:33:03.416   02 Jun 2027 11:33:10.296             6.880                Norilsk           215.000
       137   02 Jun 2027 12:34:00.457   02 Jun 2027 12:35:21.060            80.603               CapeTown          2518.844
       138   02 Jun 2027 12:36:05.379   02 Jun 2027 12:37:18.172            72.793               CapeTown          2274.781
       139   02 Jun 2027 12:56:21.235   02 Jun 2027 12:56:30.583             9.348                 Moscow           292.125
       140   02 Jun 2027 12:59:17.242   02 Jun 2027 12:59:28.729            11.487                 Moscow           358.969
       141   02 Jun 2027 12:59:34.294   02 Jun 2027 13:00:21.286            46.992              Murmansk1          1468.500
       142   02 Jun 2027 13:00:21.286   02 Jun 2027 13:01:49.633            88.347              Murmansk2          2760.844
       143   02 Jun 2027 13:02:49.803   02 Jun 2027 13:04:09.369            79.566              Murmansk2          2486.437
       144   02 Jun 2027 13:13:45.928   02 Jun 2027 13:18:47.066           301.138                Anadyr2          9410.562
       145   02 Jun 2027 13:22:03.361   02 Jun 2027 13:22:54.395            51.034                Anadyr2          1594.813
       146   02 Jun 2027 14:40:24.079   02 Jun 2027 14:40:53.157            29.078              Murmansk2           908.687
       147   02 Jun 2027 14:47:00.166   02 Jun 2027 14:47:14.466            14.300              Murmansk1           446.875
       148   02 Jun 2027 14:49:14.917   02 Jun 2027 14:51:40.488           145.571                Anadyr1          4549.094
       149   02 Jun 2027 14:52:50.949   02 Jun 2027 14:59:48.145           417.196               Magadan2         13037.375
       150   02 Jun 2027 16:27:32.067   02 Jun 2027 16:29:51.276           139.209               Magadan1          4350.281
       151   02 Jun 2027 16:31:43.781   02 Jun 2027 16:32:20.390            36.609               Magadan1          1144.031
       152   02 Jun 2027 18:01:00.429   02 Jun 2027 18:02:24.147            83.718                Anadyr2          2616.188
       153   02 Jun 2027 18:02:29.394   02 Jun 2027 18:03:00.226            30.832                Anadyr1           963.500
       154   02 Jun 2027 18:03:19.248   02 Jun 2027 18:09:29.922           370.674                Norilsk         11583.562
       155   02 Jun 2027 18:10:21.842   02 Jun 2027 18:11:55.326            93.484                Irkutsk          2921.375
       156   02 Jun 2027 18:15:07.135   02 Jun 2027 18:15:27.301            20.166                Irkutsk           630.188
       157   02 Jun 2027 18:25:14.575   02 Jun 2027 18:29:18.288           243.713                Sumatra          7616.031
       158   02 Jun 2027 19:38:53.849   02 Jun 2027 19:38:58.894             5.045                Norilsk           157.656
       159   02 Jun 2027 19:43:55.909   02 Jun 2027 19:47:31.156           215.247                Novosib          6726.469
       160   02 Jun 2027 19:48:36.157   02 Jun 2027 19:49:35.708            59.551                Novosib          1860.969
       161   02 Jun 2027 19:56:35.051   02 Jun 2027 19:57:25.602            50.551                Sumatra          1579.719
       162   02 Jun 2027 21:18:36.522   02 Jun 2027 21:21:19.725           163.203              Murmansk1          5100.094
       163   02 Jun 2027 21:26:10.199   02 Jun 2027 21:29:19.157           188.958                  Delhi          5904.937
       164   02 Jun 2027 22:51:54.750   02 Jun 2027 22:52:11.139            16.389               Magadan2           512.156
       165   02 Jun 2027 22:52:11.139   02 Jun 2027 22:52:13.004             1.865               Magadan1            58.281
       166   02 Jun 2027 22:52:28.557   02 Jun 2027 22:52:37.175             8.618               Magadan1           269.312
       167   02 Jun 2027 22:53:07.162   02 Jun 2027 22:58:37.797           330.635              Murmansk1         10332.344
       168   02 Jun 2027 22:59:42.841   02 Jun 2027 23:03:11.420           208.579                 Moscow          6518.094
       169   02 Jun 2027 23:24:37.904   02 Jun 2027 23:27:01.700           143.796               CapeTown          4493.625
       170   02 Jun 2027 23:28:53.531   02 Jun 2027 23:30:42.712           109.181               CapeTown          3411.906
       171   03 Jun 2027 00:40:55.485   03 Jun 2027 00:41:22.808            27.323                 Moscow           853.844
       172   03 Jun 2027 00:42:12.847   03 Jun 2027 00:43:25.029            72.182                 Moscow          2255.687
       173   03 Jun 2027 00:56:10.699   03 Jun 2027 00:57:30.931            80.232               CapeTown          2507.250
       174   03 Jun 2027 01:54:09.639   03 Jun 2027 01:54:18.656             9.017                Anadyr1           281.781
       175   03 Jun 2027 01:54:24.807   03 Jun 2027 01:55:42.332            77.525               Magadan1          2422.656
       176   03 Jun 2027 01:56:11.372   03 Jun 2027 01:56:38.195            26.823               Magadan1           838.219
       177   03 Jun 2027 01:59:29.873   03 Jun 2027 02:00:04.268            34.395               Magadan1          1074.844
       178   03 Jun 2027 02:04:56.753   03 Jun 2027 02:06:10.880            74.127              Murmansk2          2316.469
       179   03 Jun 2027 02:07:40.970   03 Jun 2027 02:08:17.214            36.244              Murmansk2          1132.625
       180   03 Jun 2027 02:08:17.214   03 Jun 2027 02:08:30.146            12.932              Murmansk1           404.125
       181   03 Jun 2027 02:08:41.016   03 Jun 2027 02:09:35.175            54.159                 Moscow          1692.469
       182   03 Jun 2027 02:16:51.615   03 Jun 2027 02:17:27.297            35.682                 Moscow          1115.063
       183   03 Jun 2027 02:34:12.320   03 Jun 2027 02:34:48.226            35.906               CapeTown          1122.062
       184   03 Jun 2027 02:40:07.306   03 Jun 2027 02:41:41.355            94.049               CapeTown          2939.031
       185   03 Jun 2027 03:33:01.738   03 Jun 2027 03:33:11.812            10.074               Magadan2           314.812
       186   03 Jun 2027 03:33:20.548   03 Jun 2027 03:39:43.547           382.999                Anadyr1         11968.719
       187   03 Jun 2027 03:40:08.112   03 Jun 2027 03:40:19.691            11.579               Magadan2           361.844
       188   03 Jun 2027 04:26:03.840   03 Jun 2027 04:26:54.516            50.676            RioGallegos          1583.625
       189   03 Jun 2027 04:27:24.178   03 Jun 2027 04:27:34.925            10.747            RioGallegos           335.844
       190   03 Jun 2027 05:11:12.555   03 Jun 2027 05:11:20.547             7.992               Magadan2           249.750
       191   03 Jun 2027 05:11:32.170   03 Jun 2027 05:11:48.086            15.916                Irkutsk           497.375
       192   03 Jun 2027 05:12:17.285   03 Jun 2027 05:16:33.712           256.427                Irkutsk          8013.344
       193   03 Jun 2027 05:16:34.488   03 Jun 2027 05:17:08.020            33.532               Magadan1          1047.875
       194   03 Jun 2027 05:17:21.924   03 Jun 2027 05:17:23.474             1.550                Novosib            48.437
       195   03 Jun 2027 06:46:36.583   03 Jun 2027 06:46:54.642            18.059               Magadan2           564.344
       196   03 Jun 2027 06:47:30.857   03 Jun 2027 06:47:39.077             8.220               Magadan1           256.875
       197   03 Jun 2027 06:48:15.297   03 Jun 2027 06:48:21.985             6.688               Magadan1           209.000
       198   03 Jun 2027 06:48:38.306   03 Jun 2027 06:49:14.197            35.891               Magadan2          1121.594
       199   03 Jun 2027 06:49:15.560   03 Jun 2027 06:50:23.190            67.630               Magadan2          2113.437
       200   03 Jun 2027 06:50:31.740   03 Jun 2027 06:50:33.032             1.292               Magadan2            40.375
       201   03 Jun 2027 06:50:39.939   03 Jun 2027 06:51:41.856            61.917              Murmansk2          1934.906
       202   03 Jun 2027 06:54:14.339   03 Jun 2027 06:54:15.880             1.541              Murmansk1            48.156
       203   03 Jun 2027 06:59:40.545   03 Jun 2027 06:59:44.010             3.465              Murmansk2           108.281
       204   03 Jun 2027 06:59:53.778   03 Jun 2027 07:00:05.406            11.628              Murmansk2           363.375
       205   03 Jun 2027 07:39:19.980   03 Jun 2027 07:39:45.946            25.966            RioGallegos           811.438
       206   03 Jun 2027 08:14:13.056   03 Jun 2027 08:14:28.903            15.847                Sumatra           495.219
       207   03 Jun 2027 08:25:00.545   03 Jun 2027 08:25:27.964            27.419                Irkutsk           856.844
       208   03 Jun 2027 08:25:42.238   03 Jun 2027 08:25:53.002            10.764                Norilsk           336.375
       209   03 Jun 2027 08:25:56.386   03 Jun 2027 08:26:21.168            24.782                Irkutsk           774.438
       210   03 Jun 2027 08:26:56.587   03 Jun 2027 08:27:05.672             9.085                Irkutsk           283.906
       211   03 Jun 2027 08:27:40.169   03 Jun 2027 08:28:01.581            21.412                Norilsk           669.125
       212   03 Jun 2027 08:28:17.507   03 Jun 2027 08:28:24.601             7.094                Norilsk           221.688
       213   03 Jun 2027 08:29:47.893   03 Jun 2027 08:29:55.661             7.768              Murmansk1           242.750
       214   03 Jun 2027 09:08:47.453   03 Jun 2027 09:09:43.478            56.025            RioGallegos          1750.781
       215   03 Jun 2027 09:10:53.959   03 Jun 2027 09:11:08.456            14.497            RioGallegos           453.031
       216   03 Jun 2027 09:48:29.020   03 Jun 2027 09:49:48.134            79.114                  Delhi          2472.313
       217   03 Jun 2027 10:00:31.375   03 Jun 2027 10:00:36.946             5.571                Novosib           174.094
       218   03 Jun 2027 10:00:38.148   03 Jun 2027 10:00:57.479            19.331                Novosib           604.094
       219   03 Jun 2027 10:03:07.820   03 Jun 2027 10:03:08.352             0.532                Novosib            16.625
       220   03 Jun 2027 10:03:30.911   03 Jun 2027 10:03:50.264            19.353                Novosib           604.781
       221   03 Jun 2027 10:04:39.607   03 Jun 2027 10:05:17.606            37.999                Norilsk          1187.469
       222   03 Jun 2027 11:44:16.771   03 Jun 2027 11:45:05.436            48.665                Norilsk          1520.781
       223   03 Jun 2027 13:09:24.559   03 Jun 2027 13:09:58.502            33.943                 Moscow          1060.719
       224   03 Jun 2027 13:11:51.819   03 Jun 2027 13:13:47.044           115.225              Murmansk2          3600.781
       225   03 Jun 2027 13:13:57.252   03 Jun 2027 13:14:37.052            39.800              Murmansk2          1243.750
       226   03 Jun 2027 13:14:59.588   03 Jun 2027 13:15:43.431            43.843              Murmansk1          1370.094
       227   03 Jun 2027 13:20:51.509   03 Jun 2027 13:21:01.431             9.922              Murmansk2           310.062
       228   03 Jun 2027 13:21:04.833   03 Jun 2027 13:21:41.861            37.028              Murmansk2          1157.125
       229   03 Jun 2027 13:25:40.363   03 Jun 2027 13:28:07.285           146.922                Anadyr2          4591.313
       230   03 Jun 2027 13:28:44.967   03 Jun 2027 13:31:12.995           148.028                Anadyr1          4625.875
       231   03 Jun 2027 14:51:24.215   03 Jun 2027 14:52:54.822            90.607              Murmansk1          2831.469
       232   03 Jun 2027 14:57:11.890   03 Jun 2027 14:58:39.567            87.677              Murmansk1          2739.906
       233   03 Jun 2027 15:01:15.452   03 Jun 2027 15:01:28.377            12.925                Anadyr2           403.906
       234   03 Jun 2027 15:02:34.000   03 Jun 2027 15:02:42.810             8.810                Anadyr2           275.312
       235   03 Jun 2027 15:03:30.177   03 Jun 2027 15:04:35.473            65.296                Anadyr1          2040.500
       236   03 Jun 2027 15:04:49.298   03 Jun 2027 15:08:57.695           248.397               Magadan2          7762.406
       237   03 Jun 2027 15:08:57.695   03 Jun 2027 15:10:51.615           113.920               Magadan1          3560.000
       238   03 Jun 2027 16:39:30.802   03 Jun 2027 16:41:12.880           102.078               Magadan1          3189.938
       239   03 Jun 2027 16:41:51.548   03 Jun 2027 16:43:59.502           127.954               Magadan2          3998.563
       240   03 Jun 2027 17:34:06.432   03 Jun 2027 17:36:21.736           135.304            RioGallegos          4228.250
       241   03 Jun 2027 18:13:00.000   03 Jun 2027 18:14:20.412            80.412                Anadyr1          2512.875
       242   03 Jun 2027 18:15:13.856   03 Jun 2027 18:19:20.698           246.842                Norilsk          7713.812
       243   03 Jun 2027 18:20:20.431   03 Jun 2027 18:24:41.481           261.050                Irkutsk          8157.813
       244   03 Jun 2027 18:24:58.450   03 Jun 2027 18:25:43.576            45.126                Irkutsk          1410.187
       245   03 Jun 2027 18:27:09.437   03 Jun 2027 18:27:22.253            12.816                Irkutsk           400.500
       246   03 Jun 2027 18:35:40.500   03 Jun 2027 18:37:44.755           124.255                Sumatra          3882.969
       247   03 Jun 2027 18:39:15.035   03 Jun 2027 18:39:25.341            10.306                Sumatra           322.062
       248   03 Jun 2027 18:41:24.177   03 Jun 2027 18:43:10.726           106.549                Sumatra          3329.656
       249   03 Jun 2027 19:58:19.774   03 Jun 2027 20:00:49.156           149.382                Novosib          4668.188
       250   03 Jun 2027 20:06:49.236   03 Jun 2027 20:07:41.704            52.468                  Delhi          1639.625
       251   03 Jun 2027 20:08:57.170   03 Jun 2027 20:09:37.056            39.886                  Delhi          1246.437
       252   03 Jun 2027 21:30:05.724   03 Jun 2027 21:34:33.933           268.209              Murmansk1          8381.531
       253   03 Jun 2027 23:01:56.518   03 Jun 2027 23:02:25.568            29.050               Magadan1           907.813
       254   03 Jun 2027 23:02:36.275   03 Jun 2027 23:03:46.093            69.818               Magadan2          2181.812
       255   03 Jun 2027 23:05:06.769   03 Jun 2027 23:06:52.890           106.121              Murmansk1          3316.281
       256   03 Jun 2027 23:08:09.990   03 Jun 2027 23:11:09.434           179.444              Murmansk1          5607.625
       257   03 Jun 2027 23:11:53.895   03 Jun 2027 23:13:17.024            83.129                 Moscow          2597.781
       258   03 Jun 2027 23:14:08.214   03 Jun 2027 23:14:53.962            45.748                 Moscow          1429.625
       259   03 Jun 2027 23:35:31.332   03 Jun 2027 23:37:40.769           129.437               CapeTown          4044.906
       260   03 Jun 2027 23:39:02.038   03 Jun 2027 23:41:03.558           121.520               CapeTown          3797.500
       261   03 Jun 2027 23:43:11.613   03 Jun 2027 23:43:26.581            14.968               CapeTown           467.750
       262   04 Jun 2027 00:41:24.844   04 Jun 2027 00:42:39.640            74.796              Murmansk1          2337.375
       263   04 Jun 2027 00:46:13.652   04 Jun 2027 00:47:02.919            49.267                 Moscow          1539.594
       264   04 Jun 2027 01:08:07.276   04 Jun 2027 01:09:06.479            59.203               CapeTown          1850.094
       265   04 Jun 2027 01:10:42.041   04 Jun 2027 01:11:20.514            38.473               CapeTown          1202.281
       266   04 Jun 2027 01:15:26.102   04 Jun 2027 01:16:19.055            52.953               CapeTown          1654.781
       267   04 Jun 2027 02:05:24.558   04 Jun 2027 02:05:59.681            35.123                Anadyr1          1097.594
       268   04 Jun 2027 02:06:05.555   04 Jun 2027 02:06:46.877            41.322               Magadan1          1291.313
       269   04 Jun 2027 02:06:51.764   04 Jun 2027 02:06:58.283             6.519               Magadan2           203.719
       270   04 Jun 2027 02:07:45.035   04 Jun 2027 02:08:06.394            21.359               Magadan1           667.469
       271   04 Jun 2027 02:10:33.309   04 Jun 2027 02:10:58.615            25.306               Magadan2           790.813
       272   04 Jun 2027 02:16:57.868   04 Jun 2027 02:18:10.885            73.017              Murmansk2          2281.781
       273   04 Jun 2027 02:18:11.858   04 Jun 2027 02:18:17.175             5.317              Murmansk1           166.156
       274   04 Jun 2027 02:19:35.158   04 Jun 2027 02:20:21.792            46.634              Murmansk1          1457.313
       275   04 Jun 2027 02:20:38.124   04 Jun 2027 02:21:28.467            50.343                 Moscow          1573.219
       276   04 Jun 2027 02:24:43.995   04 Jun 2027 02:24:50.636             6.641                 Moscow           207.531
       277   04 Jun 2027 02:27:12.346   04 Jun 2027 02:28:18.763            66.417                 Moscow          2075.531
       278   04 Jun 2027 02:47:12.929   04 Jun 2027 02:47:13.310             0.381               CapeTown            11.906
       279   04 Jun 2027 02:48:25.009   04 Jun 2027 02:48:33.327             8.318               CapeTown           259.938
       280   04 Jun 2027 02:50:14.054   04 Jun 2027 02:50:35.325            21.271               CapeTown           664.719
       281   04 Jun 2027 02:54:11.297   04 Jun 2027 02:54:18.810             7.513               CapeTown           234.781
       282   04 Jun 2027 03:40:30.361   04 Jun 2027 03:41:00.087            29.726               Magadan1           928.938
       283   04 Jun 2027 03:46:59.410   04 Jun 2027 03:47:46.650            47.240                Anadyr1          1476.250
       284   04 Jun 2027 03:47:51.146   04 Jun 2027 03:51:03.071           191.925                Anadyr1          5997.656
       285   04 Jun 2027 03:51:56.698   04 Jun 2027 03:52:01.032             4.334                Anadyr2           135.438
       286   04 Jun 2027 03:52:06.006   04 Jun 2027 03:52:11.613             5.607                Anadyr2           175.219
       287   04 Jun 2027 03:52:24.693   04 Jun 2027 03:52:49.325            24.632               Magadan1           769.750
       288   04 Jun 2027 04:39:24.753   04 Jun 2027 04:39:40.372            15.619            RioGallegos           488.094
       289   04 Jun 2027 05:23:38.721   04 Jun 2027 05:27:46.780           248.059                Irkutsk          7751.844
       290   04 Jun 2027 05:28:14.617   04 Jun 2027 05:28:42.868            28.251                Irkutsk           882.844
       291   04 Jun 2027 05:29:28.379   04 Jun 2027 05:29:39.068            10.689                Novosib           334.031
       292   04 Jun 2027 07:00:39.513   04 Jun 2027 07:00:53.276            13.763               Magadan2           430.094
       293   04 Jun 2027 07:01:25.957   04 Jun 2027 07:01:54.002            28.045                Norilsk           876.406
       294   04 Jun 2027 07:02:03.226   04 Jun 2027 07:02:18.989            15.763               Magadan1           492.594
       295   04 Jun 2027 07:02:28.343   04 Jun 2027 07:03:32.729            64.386              Murmansk1          2012.063
       296   04 Jun 2027 07:06:16.313   04 Jun 2027 07:07:22.634            66.321              Murmansk2          2072.531
       297   04 Jun 2027 08:38:23.077   04 Jun 2027 08:38:27.637             4.560                Irkutsk           142.500
       298   04 Jun 2027 08:39:13.179   04 Jun 2027 08:39:23.147             9.968                Irkutsk           311.500
       299   04 Jun 2027 08:40:06.064   04 Jun 2027 08:40:30.447            24.383                Irkutsk           761.969
       300   04 Jun 2027 08:42:20.342   04 Jun 2027 08:42:37.700            17.358              Murmansk1           542.438
       301   04 Jun 2027 09:59:16.391   04 Jun 2027 10:01:41.961           145.570                  Delhi          4549.062
       302   04 Jun 2027 10:08:36.610   04 Jun 2027 10:09:09.067            32.457                  Delhi          1014.281
       303   04 Jun 2027 10:15:27.922   04 Jun 2027 10:15:43.829            15.907                Norilsk           497.094
       304   04 Jun 2027 10:15:59.868   04 Jun 2027 10:16:14.972            15.104                Norilsk           472.000
       305   04 Jun 2027 10:16:54.619   04 Jun 2027 10:17:16.413            21.794                Novosib           681.063
       306   04 Jun 2027 11:57:07.378   04 Jun 2027 11:57:24.468            17.090                Norilsk           534.062
       307   04 Jun 2027 12:57:18.536   04 Jun 2027 12:58:59.938           101.402               CapeTown          3168.812
       308   04 Jun 2027 13:01:04.888   04 Jun 2027 13:02:24.423            79.535               CapeTown          2485.469
       309   04 Jun 2027 13:08:30.873   04 Jun 2027 13:08:54.937            24.064               CapeTown           752.000
       310   04 Jun 2027 13:24:11.469   04 Jun 2027 13:26:24.329           132.860              Murmansk1          4151.875
       311   04 Jun 2027 13:27:17.595   04 Jun 2027 13:27:59.606            42.011              Murmansk1          1312.844
       312   04 Jun 2027 13:32:38.696   04 Jun 2027 13:32:53.251            14.555              Murmansk1           454.844
       313   04 Jun 2027 13:33:04.815   04 Jun 2027 13:33:38.326            33.511              Murmansk2          1047.219
       314   04 Jun 2027 13:37:36.314   04 Jun 2027 13:39:44.621           128.307                Anadyr2          4009.594
       315   04 Jun 2027 13:40:46.257   04 Jun 2027 13:42:10.178            83.921                Anadyr1          2622.531
       316   04 Jun 2027 13:45:36.232   04 Jun 2027 13:46:03.675            27.443                Anadyr1           857.594
       317   04 Jun 2027 13:46:08.293   04 Jun 2027 13:46:20.783            12.490                Anadyr1           390.312
       318   04 Jun 2027 15:04:06.899   04 Jun 2027 15:05:12.488            65.589              Murmansk1          2049.656
       319   04 Jun 2027 15:07:10.058   04 Jun 2027 15:07:46.185            36.127              Murmansk1          1128.969
       320   04 Jun 2027 15:09:11.035   04 Jun 2027 15:10:41.337            90.302              Murmansk1          2821.937
       321   04 Jun 2027 15:13:16.245   04 Jun 2027 15:14:22.972            66.727                Anadyr1          2085.219
       322   04 Jun 2027 15:16:18.990   04 Jun 2027 15:21:27.278           308.288               Magadan2          9634.000
       323   04 Jun 2027 15:21:27.278   04 Jun 2027 15:22:21.940            54.662               Magadan1          1708.187
       324   04 Jun 2027 16:51:30.201   04 Jun 2027 16:53:12.211           102.010               Magadan2          3187.812
       325   04 Jun 2027 16:55:05.767   04 Jun 2027 16:56:53.249           107.482               Magadan1          3358.813
       326   04 Jun 2027 17:45:07.556   04 Jun 2027 17:48:05.371           177.815            RioGallegos          5556.719
       327   04 Jun 2027 18:26:02.822   04 Jun 2027 18:26:13.326            10.504                Anadyr2           328.250
       328   04 Jun 2027 18:27:10.385   04 Jun 2027 18:30:30.995           200.610                Norilsk          6269.062
       329   04 Jun 2027 18:31:58.992   04 Jun 2027 18:36:43.078           284.086                Irkutsk          8877.687
       330   04 Jun 2027 18:46:43.289   04 Jun 2027 18:51:00.670           257.381                Sumatra          8043.156
       331   04 Jun 2027 18:53:24.339   04 Jun 2027 18:55:06.756           102.417                Sumatra          3200.531
       332   04 Jun 2027 20:08:36.747   04 Jun 2027 20:08:54.539            17.792                Novosib           556.000
       333   04 Jun 2027 20:10:24.052   04 Jun 2027 20:11:19.568            55.516                Novosib          1734.875
       334   04 Jun 2027 20:17:02.036   04 Jun 2027 20:19:16.779           134.743                  Delhi          4210.719
       335   04 Jun 2027 20:22:56.217   04 Jun 2027 20:23:38.224            42.007                  Delhi          1312.719
       336   04 Jun 2027 21:41:49.479   04 Jun 2027 21:45:41.089           231.610              Murmansk1          7237.813
       337   04 Jun 2027 21:46:13.684   04 Jun 2027 21:47:31.539            77.855              Murmansk2          2432.969
       338   04 Jun 2027 23:13:04.802   04 Jun 2027 23:13:16.341            11.539                Anadyr1           360.594
       339   04 Jun 2027 23:13:30.811   04 Jun 2027 23:14:00.339            29.528               Magadan1           922.750
       340   04 Jun 2027 23:15:22.688   04 Jun 2027 23:15:30.413             7.725               Magadan2           241.406
       341   04 Jun 2027 23:16:05.884   04 Jun 2027 23:16:26.747            20.863               Magadan2           651.969
       342   04 Jun 2027 23:17:06.894   04 Jun 2027 23:18:39.064            92.170              Murmansk2          2880.312
       343   04 Jun 2027 23:18:46.991   04 Jun 2027 23:20:33.714           106.723              Murmansk1          3335.094
       344   04 Jun 2027 23:20:50.914   04 Jun 2027 23:23:57.463           186.549                 Moscow          5829.656
       345   04 Jun 2027 23:46:41.262   04 Jun 2027 23:47:57.049            75.787               CapeTown          2368.344
       346   04 Jun 2027 23:48:28.499   04 Jun 2027 23:49:16.843            48.344               CapeTown          1510.750
       347   04 Jun 2027 23:50:59.560   04 Jun 2027 23:52:57.224           117.664               CapeTown          3677.000
       348   04 Jun 2027 23:53:46.094   04 Jun 2027 23:54:18.953            32.859               CapeTown          1026.844
       349   05 Jun 2027 00:53:02.341   05 Jun 2027 00:53:12.611            10.270              Murmansk2           320.937
       350   05 Jun 2027 00:56:15.010   05 Jun 2027 00:57:40.484            85.474                 Moscow          2671.063
       351   05 Jun 2027 01:06:39.844   05 Jun 2027 01:07:17.976            38.132                 Moscow          1191.625
       352   05 Jun 2027 01:21:07.816   05 Jun 2027 01:22:17.386            69.570               CapeTown          2174.062
       353   05 Jun 2027 01:31:23.336   05 Jun 2027 01:31:36.477            13.141               CapeTown           410.656
       354   05 Jun 2027 02:16:55.736   05 Jun 2027 02:17:40.767            45.031                Anadyr2          1407.219
       355   05 Jun 2027 02:17:48.209   05 Jun 2027 02:18:17.206            28.997               Magadan2           906.156
       356   05 Jun 2027 02:18:32.509   05 Jun 2027 02:19:47.724            75.215               Magadan2          2350.469
       357   05 Jun 2027 02:23:06.297   05 Jun 2027 02:23:32.369            26.072               Magadan2           814.750
       358   05 Jun 2027 02:25:20.034   05 Jun 2027 02:26:14.718            54.684               Magadan2          1708.875
       359   05 Jun 2027 02:28:58.796   05 Jun 2027 02:30:11.391            72.595              Murmansk1          2268.594
       360   05 Jun 2027 02:30:29.603   05 Jun 2027 02:30:36.742             7.139              Murmansk2           223.094
       361   05 Jun 2027 02:31:28.621   05 Jun 2027 02:31:59.091            30.470              Murmansk2           952.187
       362   05 Jun 2027 02:32:50.182   05 Jun 2027 02:33:32.206            42.024                 Moscow          1313.250
       363   05 Jun 2027 02:36:39.197   05 Jun 2027 02:37:03.042            23.845                 Moscow           745.156
       364   05 Jun 2027 03:00:49.531   05 Jun 2027 03:02:06.974            77.443               CapeTown          2420.094
       365   05 Jun 2027 03:59:16.964   05 Jun 2027 04:03:04.271           227.307                Anadyr2          7103.344
       366   05 Jun 2027 04:47:39.192   05 Jun 2027 04:48:16.010            36.818            RioGallegos          1150.563
       367   05 Jun 2027 04:49:48.554   05 Jun 2027 04:50:30.023            41.469            RioGallegos          1295.906
       368   05 Jun 2027 04:51:27.927   05 Jun 2027 04:51:45.535            17.608            RioGallegos           550.250
       369   05 Jun 2027 05:35:44.381   05 Jun 2027 05:40:50.781           306.400                Irkutsk          9575.000
       370   05 Jun 2027 07:12:55.647   05 Jun 2027 07:13:14.587            18.940                Norilsk           591.875
       371   05 Jun 2027 07:13:22.053   05 Jun 2027 07:13:26.684             4.631                Norilsk           144.719
       372   05 Jun 2027 07:13:50.789   05 Jun 2027 07:13:53.569             2.780                Norilsk            86.875
       373   05 Jun 2027 07:18:18.160   05 Jun 2027 07:19:10.952            52.792              Murmansk1          1649.750
       374   05 Jun 2027 08:26:54.752   05 Jun 2027 08:28:17.163            82.411                Sumatra          2575.344
       375   05 Jun 2027 08:51:58.096   05 Jun 2027 08:51:59.900             1.804                Norilsk            56.375
       376   05 Jun 2027 08:52:07.084   05 Jun 2027 08:52:10.090             3.006                Norilsk            93.937
       377   05 Jun 2027 10:11:39.900   05 Jun 2027 10:15:10.127           210.227                  Delhi          6569.594
       378   05 Jun 2027 10:25:54.993   05 Jun 2027 10:26:07.215            12.222              Murmansk1           381.937
       379   05 Jun 2027 10:32:49.323   05 Jun 2027 10:33:08.937            19.614                Norilsk           612.937
       380   05 Jun 2027 12:04:42.506   05 Jun 2027 12:05:03.973            21.467              Murmansk2           670.844
       381   05 Jun 2027 12:05:20.868   05 Jun 2027 12:06:06.189            45.321                Norilsk          1416.281
       382   05 Jun 2027 12:07:16.957   05 Jun 2027 12:08:22.970            66.013                Norilsk          2062.906
       383   05 Jun 2027 12:15:39.334   05 Jun 2027 12:18:30.867           171.533                Anadyr1          5360.406
       384   05 Jun 2027 13:18:33.074   05 Jun 2027 13:19:28.334            55.260               CapeTown          1726.875
       385   05 Jun 2027 13:20:20.503   05 Jun 2027 13:21:14.279            53.776               CapeTown          1680.500
       386   05 Jun 2027 13:36:33.351   05 Jun 2027 13:36:54.408            21.057              Murmansk2           658.031
       387   05 Jun 2027 13:37:08.855   05 Jun 2027 13:37:43.522            34.667              Murmansk1          1083.344
       388   05 Jun 2027 13:39:12.708   05 Jun 2027 13:39:55.781            43.073              Murmansk2          1346.031
       389   05 Jun 2027 13:42:57.142   05 Jun 2027 13:43:24.514            27.372              Murmansk2           855.375
       390   05 Jun 2027 13:45:34.027   05 Jun 2027 13:45:46.156            12.129              Murmansk1           379.031
       391   05 Jun 2027 13:47:16.963   05 Jun 2027 13:47:34.286            17.323              Murmansk2           541.344
       392   05 Jun 2027 13:49:33.436   05 Jun 2027 13:51:29.795           116.359                Anadyr1          3636.219
       393   05 Jun 2027 13:52:19.352   05 Jun 2027 13:53:43.130            83.778                Anadyr2          2618.062
       394   05 Jun 2027 13:58:59.106   05 Jun 2027 13:59:55.790            56.684                Anadyr2          1771.375
       395   05 Jun 2027 15:16:54.639   05 Jun 2027 15:17:40.816            46.177              Murmansk2          1443.031
       396   05 Jun 2027 15:19:16.603   05 Jun 2027 15:19:50.612            34.009              Murmansk1          1062.781
       397   05 Jun 2027 15:22:43.015   05 Jun 2027 15:22:55.266            12.251              Murmansk1           382.844
       398   05 Jun 2027 15:25:17.231   05 Jun 2027 15:26:41.048            83.817                Anadyr2          2619.281
       399   05 Jun 2027 15:27:37.756   05 Jun 2027 15:28:29.492            51.736                Anadyr2          1616.750
       400   05 Jun 2027 15:29:25.889   05 Jun 2027 15:31:31.729           125.840               Magadan2          3932.500
       401   05 Jun 2027 15:31:54.894   05 Jun 2027 15:32:04.983            10.089               Magadan1           315.281
       402   05 Jun 2027 15:33:50.463   05 Jun 2027 15:34:27.719            37.256               Magadan1          1164.250
       403   05 Jun 2027 15:35:00.608   05 Jun 2027 15:35:50.148            49.540               Magadan1          1548.125
       404   05 Jun 2027 15:36:19.035   05 Jun 2027 15:37:41.792            82.757               Magadan1          2586.156
       405   05 Jun 2027 17:01:47.598   05 Jun 2027 17:01:51.647             4.049                Anadyr2           126.531
       406   05 Jun 2027 17:02:05.254   05 Jun 2027 17:02:32.544            27.290                Anadyr1           852.813
       407   05 Jun 2027 17:03:30.166   05 Jun 2027 17:04:26.705            56.539               Magadan2          1766.844
       408   05 Jun 2027 17:05:45.021   05 Jun 2027 17:06:39.505            54.484               Magadan1          1702.625
       409   05 Jun 2027 17:11:05.958   05 Jun 2027 17:11:34.660            28.702               Magadan1           896.937
       410   05 Jun 2027 17:12:03.018   05 Jun 2027 17:12:12.378             9.360               Magadan1           292.500
       411   05 Jun 2027 17:13:13.995   05 Jun 2027 17:13:39.381            25.386               Magadan1           793.313
       412   05 Jun 2027 17:56:33.637   05 Jun 2027 17:59:53.111           199.474            RioGallegos          6233.562
       413   05 Jun 2027 18:03:17.139   05 Jun 2027 18:03:49.401            32.262            RioGallegos          1008.187
       414   05 Jun 2027 18:39:08.267   05 Jun 2027 18:39:31.926            23.659                Norilsk           739.344
       415   05 Jun 2027 18:39:57.909   05 Jun 2027 18:40:57.296            59.387               Magadan2          1855.844
       416   05 Jun 2027 18:41:10.419   05 Jun 2027 18:43:20.617           130.198                Norilsk          4068.688
       417   05 Jun 2027 18:43:43.280   05 Jun 2027 18:44:37.927            54.647                Irkutsk          1707.719
       418   05 Jun 2027 18:45:03.090   05 Jun 2027 18:46:32.358            89.268                Irkutsk          2789.625
       419   05 Jun 2027 18:47:22.773   05 Jun 2027 18:48:24.606            61.833                Irkutsk          1932.281
       420   05 Jun 2027 18:58:57.997   05 Jun 2027 19:01:09.329           131.332                Sumatra          4104.125
       421   05 Jun 2027 19:02:39.314   05 Jun 2027 19:04:01.996            82.682                Sumatra          2583.812
       422   05 Jun 2027 20:19:18.459   05 Jun 2027 20:21:05.007           106.548                Novosib          3329.625
       423   05 Jun 2027 20:22:27.027   05 Jun 2027 20:23:16.027            49.000                Novosib          1531.250
       424   05 Jun 2027 20:28:07.868   05 Jun 2027 20:32:26.312           258.444                  Delhi          8076.375
       425   05 Jun 2027 20:36:13.676   05 Jun 2027 20:36:44.358            30.682                  Delhi           958.813
       426   05 Jun 2027 21:53:39.262   05 Jun 2027 21:57:38.178           238.916              Murmansk2          7466.125
       427   05 Jun 2027 21:58:35.626   05 Jun 2027 21:59:36.437            60.811              Murmansk1          1900.344
       428   05 Jun 2027 23:25:45.213   05 Jun 2027 23:26:58.392            73.179               Magadan2          2286.844
       429   05 Jun 2027 23:27:01.017   05 Jun 2027 23:27:38.259            37.242               Magadan2          1163.813
       430   05 Jun 2027 23:29:07.433   05 Jun 2027 23:32:34.525           207.092              Murmansk2          6471.625
       431   05 Jun 2027 23:32:43.622   05 Jun 2027 23:33:51.789            68.167                 Moscow          2130.219
       432   05 Jun 2027 23:37:31.322   05 Jun 2027 23:38:28.809            57.487                 Moscow          1796.469
       433   05 Jun 2027 23:42:24.361   05 Jun 2027 23:42:39.286            14.925                 Moscow           466.406
       434   05 Jun 2027 23:58:01.826   05 Jun 2027 23:59:18.068            76.242               CapeTown          2382.562
       435   06 Jun 2027 00:00:09.421   06 Jun 2027 00:00:58.723            49.302               CapeTown          1540.688
       436   06 Jun 2027 00:03:31.944   06 Jun 2027 00:04:55.831            83.887               CapeTown          2621.469
       437   06 Jun 2027 01:05:04.021   06 Jun 2027 01:06:41.538            97.517              Murmansk2          3047.406
       438   06 Jun 2027 01:08:16.312   06 Jun 2027 01:08:40.660            24.348                 Moscow           760.875
       439   06 Jun 2027 01:12:26.820   06 Jun 2027 01:12:37.388            10.568                 Moscow           330.250
       440   06 Jun 2027 01:15:51.675   06 Jun 2027 01:17:03.693            72.018              Murmansk2          2250.562
       441   06 Jun 2027 01:32:15.453   06 Jun 2027 01:32:50.506            35.053               CapeTown          1095.406
       442   06 Jun 2027 01:36:28.702   06 Jun 2027 01:36:41.150            12.448               CapeTown           389.000
       443   06 Jun 2027 01:43:22.046   06 Jun 2027 01:44:34.493            72.447               CapeTown          2263.969
       444   06 Jun 2027 02:29:02.077   06 Jun 2027 02:29:22.121            20.044                Anadyr2           626.375
       445   06 Jun 2027 02:29:32.826   06 Jun 2027 02:30:50.247            77.421               Magadan1          2419.406
       446   06 Jun 2027 02:31:01.433   06 Jun 2027 02:31:50.357            48.924               Magadan1          1528.875
       447   06 Jun 2027 02:39:12.981   06 Jun 2027 02:40:05.336            52.355               Magadan1          1636.094
       448   06 Jun 2027 02:40:59.504   06 Jun 2027 02:41:33.644            34.140              Murmansk1          1066.875
       449   06 Jun 2027 02:43:21.326   06 Jun 2027 02:43:39.904            18.578              Murmansk2           580.562
       450   06 Jun 2027 02:44:30.440   06 Jun 2027 02:45:35.163            64.723                 Moscow          2022.594
       451   06 Jun 2027 02:51:54.531   06 Jun 2027 02:51:57.227             2.696                 Moscow            84.250
       452   06 Jun 2027 02:52:28.033   06 Jun 2027 02:53:58.467            90.434                 Moscow          2826.063
       453   06 Jun 2027 04:11:56.775   06 Jun 2027 04:15:05.313           188.538                Anadyr2          5891.812
       454   06 Jun 2027 04:15:05.313   06 Jun 2027 04:16:56.734           111.421                Anadyr1          3481.906
       455   06 Jun 2027 04:54:22.070   06 Jun 2027 04:56:26.173           124.103            RioGallegos          3878.219
       456   06 Jun 2027 05:48:26.877   06 Jun 2027 05:49:23.791            56.914                Irkutsk          1778.562
       457   06 Jun 2027 05:49:47.136   06 Jun 2027 05:50:09.446            22.310               Magadan1           697.188
       458   06 Jun 2027 05:50:38.080   06 Jun 2027 05:52:55.000           136.920               Magadan1          4278.750
       459   06 Jun 2027 05:53:11.207   06 Jun 2027 05:53:27.322            16.115                Novosib           503.594
       460   06 Jun 2027 07:26:03.843   06 Jun 2027 07:26:24.277            20.434              Murmansk2           638.563
       461   06 Jun 2027 07:33:15.167   06 Jun 2027 07:33:35.455            20.288                Norilsk           634.000
       462   06 Jun 2027 08:05:00.467   06 Jun 2027 08:05:07.533             7.066            RioGallegos           220.813
       463   06 Jun 2027 08:06:37.518   06 Jun 2027 08:07:02.036            24.518            RioGallegos           766.188
       464   06 Jun 2027 08:08:39.358   06 Jun 2027 08:09:12.373            33.015            RioGallegos          1031.719
       465   06 Jun 2027 08:41:11.082   06 Jun 2027 08:42:50.001            98.919                Sumatra          3091.219
       466   06 Jun 2027 09:00:31.176   06 Jun 2027 09:01:09.054            37.878                Irkutsk          1183.688
       467   06 Jun 2027 09:01:20.704   06 Jun 2027 09:02:26.097            65.393              Murmansk2          2043.531
       468   06 Jun 2027 09:03:39.087   06 Jun 2027 09:04:05.598            26.511                Irkutsk           828.469
       469   06 Jun 2027 09:04:22.815   06 Jun 2027 09:04:26.053             3.238                Novosib           101.188
       470   06 Jun 2027 09:08:34.169   06 Jun 2027 09:08:52.333            18.164                Norilsk           567.625
       471   06 Jun 2027 10:24:11.985   06 Jun 2027 10:26:43.843           151.858                  Delhi          4745.562
       472   06 Jun 2027 10:39:50.705   06 Jun 2027 10:40:23.254            32.549                Novosib          1017.156
       473   06 Jun 2027 10:40:50.374   06 Jun 2027 10:41:22.486            32.112                Norilsk          1003.500
       474   06 Jun 2027 12:15:31.127   06 Jun 2027 12:15:49.036            17.909              Murmansk2           559.656
       475   06 Jun 2027 12:16:32.835   06 Jun 2027 12:16:54.963            22.128              Murmansk2           691.500
       476   06 Jun 2027 12:17:54.269   06 Jun 2027 12:18:22.879            28.610              Murmansk1           894.062
       477   06 Jun 2027 12:19:17.055   06 Jun 2027 12:20:44.237            87.182                Norilsk          2724.437
       478   06 Jun 2027 12:26:56.494   06 Jun 2027 12:30:20.753           204.259                Anadyr1          6383.094
       479   06 Jun 2027 12:31:02.009   06 Jun 2027 12:31:54.992            52.983                Anadyr2          1655.719
       480   06 Jun 2027 13:22:43.261   06 Jun 2027 13:23:42.884            59.623               CapeTown          1863.219
       481   06 Jun 2027 13:48:57.561   06 Jun 2027 13:49:59.843            62.282              Murmansk1          1946.312
       482   06 Jun 2027 13:50:32.784   06 Jun 2027 13:51:03.975            31.191              Murmansk1           974.719
