uniorb/output/strategy_4/Drop/Drop_KinoSat_111302.txt

KinoSat_111302
-------------------------
    Access    *     Start Time (UTCG)     *     Stop Time (UTCG)  *   Duration (s)        *       Station  *  Data (Mbytes)
         1   01 Jun 2027 03:59:23.223   01 Jun 2027 03:59:33.022             9.799              Murmansk1           306.219
         2   01 Jun 2027 03:59:33.022   01 Jun 2027 04:00:10.216            37.194              Murmansk2          1162.313
         3   01 Jun 2027 04:00:30.832   01 Jun 2027 04:03:13.436           162.604              Murmansk1          5081.375
         4   01 Jun 2027 04:03:22.862   01 Jun 2027 04:03:28.501             5.639                 Moscow           176.219
         5   01 Jun 2027 04:04:49.821   01 Jun 2027 04:05:30.076            40.255                 Moscow          1257.969
         6   01 Jun 2027 05:21:00.502   01 Jun 2027 05:21:10.792            10.290               Magadan2           321.562
         7   01 Jun 2027 05:21:31.025   01 Jun 2027 05:25:40.504           249.479                Anadyr1          7796.219
         8   01 Jun 2027 05:27:07.007   01 Jun 2027 05:27:19.929            12.922                Anadyr1           403.812
         9   01 Jun 2027 06:58:44.951   01 Jun 2027 06:59:24.085            39.134                Anadyr2          1222.937
        10   01 Jun 2027 06:59:24.085   01 Jun 2027 07:02:14.053           169.968                Anadyr1          5311.500
        11   01 Jun 2027 08:33:28.263   01 Jun 2027 08:36:50.229           201.966               Magadan2          6311.437
        12   01 Jun 2027 08:37:12.476   01 Jun 2027 08:37:43.015            30.539               Magadan2           954.344
        13   01 Jun 2027 08:38:13.587   01 Jun 2027 08:39:29.122            75.535                Novosib          2360.469
        14   01 Jun 2027 08:39:39.073   01 Jun 2027 08:40:32.277            53.204              Murmansk2          1662.625
        15   01 Jun 2027 08:40:32.277   01 Jun 2027 08:40:39.481             7.204              Murmansk1           225.125
        16   01 Jun 2027 08:41:24.094   01 Jun 2027 08:42:27.127            63.033              Murmansk2          1969.781
        17   01 Jun 2027 09:13:25.083   01 Jun 2027 09:15:44.443           139.360            RioGallegos          4355.000
        18   01 Jun 2027 09:49:23.397   01 Jun 2027 09:50:18.041            54.644                Sumatra          1707.625
        19   01 Jun 2027 10:10:31.773   01 Jun 2027 10:10:37.923             6.150                Norilsk           192.187
        20   01 Jun 2027 10:10:53.180   01 Jun 2027 10:14:28.889           215.709                Irkutsk          6740.906
        21   01 Jun 2027 10:50:26.191   01 Jun 2027 10:51:09.107            42.916            RioGallegos          1341.125
        22   01 Jun 2027 10:52:48.819   01 Jun 2027 10:53:18.748            29.929            RioGallegos           935.281
        23   01 Jun 2027 10:53:30.347   01 Jun 2027 10:54:13.150            42.803            RioGallegos          1337.594
        24   01 Jun 2027 10:55:29.221   01 Jun 2027 10:55:30.820             1.599            RioGallegos            49.969
        25   01 Jun 2027 11:24:41.098   01 Jun 2027 11:26:30.464           109.366                Sumatra          3417.688
        26   01 Jun 2027 11:29:17.576   01 Jun 2027 11:29:48.421            30.845                Sumatra           963.906
        27   01 Jun 2027 11:46:24.518   01 Jun 2027 11:47:01.677            37.159                Irkutsk          1161.219
        28   01 Jun 2027 11:47:41.800   01 Jun 2027 11:49:40.557           118.757                Irkutsk          3711.156
        29   01 Jun 2027 13:13:13.394   01 Jun 2027 13:14:44.713            91.319                  Delhi          2853.719
        30   01 Jun 2027 13:18:00.746   01 Jun 2027 13:18:11.300            10.554                Novosib           329.813
        31   01 Jun 2027 13:18:51.161   01 Jun 2027 13:20:20.774            89.613                Novosib          2800.406
        32   01 Jun 2027 13:21:22.553   01 Jun 2027 13:22:38.102            75.549                Novosib          2360.906
        33   01 Jun 2027 14:52:56.604   01 Jun 2027 14:54:53.713           117.109                 Moscow          3659.656
        34   01 Jun 2027 14:56:27.885   01 Jun 2027 15:00:29.035           241.150              Murmansk2          7535.938
        35   01 Jun 2027 15:01:32.948   01 Jun 2027 15:01:39.350             6.402              Murmansk2           200.062
        36   01 Jun 2027 15:01:54.139   01 Jun 2027 15:03:19.268            85.129              Murmansk1          2660.281
        37   01 Jun 2027 15:03:21.410   01 Jun 2027 15:04:01.946            40.536                Norilsk          1266.750
        38   01 Jun 2027 15:05:47.486   01 Jun 2027 15:06:27.219            39.733                Norilsk          1241.656
        39   01 Jun 2027 15:12:29.390   01 Jun 2027 15:14:13.351           103.961                Anadyr1          3248.781
        40   01 Jun 2027 15:14:40.812   01 Jun 2027 15:15:29.681            48.869                Anadyr2          1527.156
        41   01 Jun 2027 15:16:59.474   01 Jun 2027 15:17:16.254            16.780                Anadyr1           524.375
        42   01 Jun 2027 16:13:25.060   01 Jun 2027 16:13:31.332             6.272               CapeTown           196.000
        43   01 Jun 2027 16:13:59.762   01 Jun 2027 16:14:30.320            30.558               CapeTown           954.937
        44   01 Jun 2027 16:15:02.407   01 Jun 2027 16:15:58.603            56.196               CapeTown          1756.125
        45   01 Jun 2027 16:32:07.981   01 Jun 2027 16:33:04.279            56.298                 Moscow          1759.312
        46   01 Jun 2027 16:35:31.610   01 Jun 2027 16:35:52.533            20.923              Murmansk1           653.844
        47   01 Jun 2027 16:37:11.737   01 Jun 2027 16:38:06.754            55.017                 Moscow          1719.281
        48   01 Jun 2027 16:40:29.276   01 Jun 2027 16:40:44.181            14.905              Murmansk2           465.781
        49   01 Jun 2027 16:41:22.649   01 Jun 2027 16:41:36.177            13.528              Murmansk1           422.750
        50   01 Jun 2027 16:42:12.813   01 Jun 2027 16:42:58.310            45.497              Murmansk2          1421.781
        51   01 Jun 2027 16:45:02.155   01 Jun 2027 16:45:06.461             4.306              Murmansk1           134.562
        52   01 Jun 2027 16:47:01.837   01 Jun 2027 16:47:18.822            16.985                Anadyr1           530.781
        53   01 Jun 2027 16:47:39.859   01 Jun 2027 16:48:01.865            22.006                Anadyr2           687.687
        54   01 Jun 2027 16:48:23.567   01 Jun 2027 16:48:29.619             6.052                Anadyr2           189.125
        55   01 Jun 2027 16:48:49.423   01 Jun 2027 16:48:50.408             0.985                Anadyr1            30.781
        56   01 Jun 2027 16:48:54.398   01 Jun 2027 16:49:25.846            31.448                Anadyr2           982.750
        57   01 Jun 2027 16:50:15.629   01 Jun 2027 16:50:32.584            16.955                Anadyr1           529.844
        58   01 Jun 2027 16:50:32.584   01 Jun 2027 16:50:37.972             5.388                Anadyr2           168.375
        59   01 Jun 2027 16:51:29.804   01 Jun 2027 16:51:59.506            29.702                Anadyr1           928.187
        60   01 Jun 2027 16:52:26.833   01 Jun 2027 16:52:35.139             8.306                Anadyr2           259.563
        61   01 Jun 2027 16:53:44.755   01 Jun 2027 16:54:07.171            22.416                Anadyr1           700.500
        62   01 Jun 2027 16:55:46.236   01 Jun 2027 16:56:07.522            21.286                Anadyr1           665.188
        63   01 Jun 2027 16:56:54.428   01 Jun 2027 16:57:23.755            29.327                Anadyr1           916.469
        64   01 Jun 2027 16:58:14.370   01 Jun 2027 16:58:17.244             2.874                Anadyr1            89.812
        65   01 Jun 2027 17:49:16.470   01 Jun 2027 17:49:39.538            23.068               CapeTown           720.875
        66   01 Jun 2027 17:50:42.077   01 Jun 2027 17:52:38.398           116.321               CapeTown          3635.031
        67   01 Jun 2027 18:15:06.966   01 Jun 2027 18:18:32.694           205.728              Murmansk1          6429.000
        68   01 Jun 2027 18:18:32.694   01 Jun 2027 18:19:21.267            48.573              Murmansk2          1517.906
        69   01 Jun 2027 18:28:26.553   01 Jun 2027 18:28:34.768             8.215                Anadyr1           256.719
        70   01 Jun 2027 18:28:47.441   01 Jun 2027 18:28:57.667            10.226               Magadan2           319.563
        71   01 Jun 2027 18:29:43.952   01 Jun 2027 18:30:08.937            24.985               Magadan1           780.781
        72   01 Jun 2027 18:31:37.556   01 Jun 2027 18:32:30.413            52.857               Magadan2          1651.781
        73   01 Jun 2027 18:34:20.719   01 Jun 2027 18:35:02.466            41.747               Magadan1          1304.594
        74   01 Jun 2027 19:58:44.724   01 Jun 2027 20:02:30.685           225.961                Anadyr1          7061.281
        75   01 Jun 2027 20:03:04.099   01 Jun 2027 20:04:59.807           115.708               Magadan2          3615.875
        76   01 Jun 2027 20:05:36.534   01 Jun 2027 20:05:42.808             6.274               Magadan2           196.062
        77   01 Jun 2027 20:05:50.007   01 Jun 2027 20:06:06.433            16.426               Magadan2           513.312
        78   01 Jun 2027 20:08:56.554   01 Jun 2027 20:09:12.346            15.792               Magadan2           493.500
        79   01 Jun 2027 20:10:10.677   01 Jun 2027 20:10:17.133             6.456               Magadan2           201.750
        80   01 Jun 2027 20:11:05.451   01 Jun 2027 20:11:36.403            30.952               Magadan1           967.250
        81   01 Jun 2027 20:53:43.573   01 Jun 2027 20:56:10.059           146.486            RioGallegos          4577.688
        82   01 Jun 2027 20:58:46.687   01 Jun 2027 20:59:51.385            64.698            RioGallegos          2021.813
        83   01 Jun 2027 21:34:28.052   01 Jun 2027 21:35:03.477            35.425                Anadyr1          1107.031
        84   01 Jun 2027 21:36:36.797   01 Jun 2027 21:37:02.242            25.445                Norilsk           795.156
        85   01 Jun 2027 21:37:35.433   01 Jun 2027 21:39:06.914            91.481               Magadan1          2858.781
        86   01 Jun 2027 21:39:08.482   01 Jun 2027 21:39:14.165             5.683               Magadan2           177.594
        87   01 Jun 2027 21:39:32.570   01 Jun 2027 21:39:54.231            21.661               Magadan2           676.906
        88   01 Jun 2027 21:40:17.654   01 Jun 2027 21:40:35.275            17.621               Magadan2           550.656
        89   01 Jun 2027 21:41:03.385   01 Jun 2027 21:43:38.013           154.628                Irkutsk          4832.125
        90   01 Jun 2027 21:55:09.278   01 Jun 2027 21:56:28.661            79.383                Sumatra          2480.719
        91   01 Jun 2027 22:01:04.861   01 Jun 2027 22:01:06.611             1.750                Sumatra            54.687
        92   01 Jun 2027 22:05:00.910   01 Jun 2027 22:05:13.687            12.777                Sumatra           399.281
        93   01 Jun 2027 22:36:08.558   01 Jun 2027 22:36:53.387            44.829            RioGallegos          1400.906
        94   01 Jun 2027 23:09:28.523   01 Jun 2027 23:11:51.299           142.776                Anadyr2          4461.750
        95   01 Jun 2027 23:12:30.070   01 Jun 2027 23:14:05.130            95.060                Norilsk          2970.625
        96   01 Jun 2027 23:14:27.815   01 Jun 2027 23:15:03.403            35.588               Magadan1          1112.125
        97   01 Jun 2027 23:16:21.948   01 Jun 2027 23:17:42.690            80.742                Irkutsk          2523.188
        98   01 Jun 2027 23:18:14.264   01 Jun 2027 23:19:41.587            87.323                Novosib          2728.844
        99   01 Jun 2027 23:25:07.315   01 Jun 2027 23:25:37.759            30.444                  Delhi           951.375
       100   01 Jun 2027 23:26:08.328   01 Jun 2027 23:27:58.407           110.079                  Delhi          3439.969
       101   02 Jun 2027 00:09:27.268   02 Jun 2027 00:09:37.033             9.765            RioGallegos           305.156
       102   02 Jun 2027 00:11:47.030   02 Jun 2027 00:11:55.566             8.536            RioGallegos           266.750
       103   02 Jun 2027 00:12:55.195   02 Jun 2027 00:13:32.556            37.361            RioGallegos          1167.531
       104   02 Jun 2027 00:43:15.783   02 Jun 2027 00:43:44.130            28.347                Anadyr2           885.844
       105   02 Jun 2027 00:44:07.188   02 Jun 2027 00:44:55.404            48.216                Anadyr1          1506.750
       106   02 Jun 2027 00:45:09.955   02 Jun 2027 00:45:38.673            28.718                Anadyr2           897.438
       107   02 Jun 2027 00:48:30.385   02 Jun 2027 00:50:33.853           123.468                Norilsk          3858.375
       108   02 Jun 2027 00:51:02.415   02 Jun 2027 00:52:40.585            98.170              Murmansk1          3067.812
       109   02 Jun 2027 00:52:42.348   02 Jun 2027 00:53:19.320            36.972                Novosib          1155.375
       110   02 Jun 2027 00:53:21.781   02 Jun 2027 00:53:58.393            36.612              Murmansk2          1144.125
       111   02 Jun 2027 00:54:28.676   02 Jun 2027 00:55:28.237            59.561              Murmansk2          1861.281
       112   02 Jun 2027 00:59:40.197   02 Jun 2027 01:00:08.820            28.623                  Delhi           894.469
       113   02 Jun 2027 01:04:41.548   02 Jun 2027 01:04:58.247            16.699                  Delhi           521.844
       114   02 Jun 2027 01:08:33.962   02 Jun 2027 01:08:39.464             5.502                  Delhi           171.937
       115   02 Jun 2027 01:10:05.438   02 Jun 2027 01:11:22.065            76.627                  Delhi          2394.594
       116   02 Jun 2027 01:42:29.802   02 Jun 2027 01:43:14.114            44.312            RioGallegos          1384.750
       117   02 Jun 2027 01:43:56.675   02 Jun 2027 01:44:46.840            50.165            RioGallegos          1567.656
       118   02 Jun 2027 02:16:34.089   02 Jun 2027 02:16:57.330            23.241                Anadyr1           726.281
       119   02 Jun 2027 02:16:58.016   02 Jun 2027 02:17:09.133            11.117                Anadyr2           347.406
       120   02 Jun 2027 02:18:01.915   02 Jun 2027 02:19:21.291            79.376                Anadyr2          2480.500
       121   02 Jun 2027 02:22:11.514   02 Jun 2027 02:22:32.913            21.399               Magadan1           668.719
       122   02 Jun 2027 02:22:32.913   02 Jun 2027 02:23:12.551            39.638               Magadan2          1238.688
       123   02 Jun 2027 02:25:33.273   02 Jun 2027 02:25:46.937            13.664                Norilsk           427.000
       124   02 Jun 2027 02:26:38.346   02 Jun 2027 02:27:06.727            28.381              Murmansk2           886.906
       125   02 Jun 2027 02:27:17.878   02 Jun 2027 02:28:21.206            63.328              Murmansk1          1979.000
       126   02 Jun 2027 02:28:31.660   02 Jun 2027 02:28:53.883            22.223                Novosib           694.469
       127   02 Jun 2027 02:32:48.509   02 Jun 2027 02:33:03.592            15.083                 Moscow           471.344
       128   02 Jun 2027 02:35:42.558   02 Jun 2027 02:36:10.835            28.277                Novosib           883.656
       129   02 Jun 2027 02:37:56.629   02 Jun 2027 02:38:10.313            13.684                Novosib           427.625
       130   02 Jun 2027 02:55:06.766   02 Jun 2027 02:55:38.739            31.973               CapeTown           999.156
       131   02 Jun 2027 02:56:15.581   02 Jun 2027 02:56:26.034            10.453               CapeTown           326.656
       132   02 Jun 2027 03:01:24.989   02 Jun 2027 03:01:53.767            28.778               CapeTown           899.313
       133   02 Jun 2027 04:11:04.550   02 Jun 2027 04:11:38.418            33.868                 Moscow          1058.375
       134   02 Jun 2027 04:12:01.837   02 Jun 2027 04:13:36.611            94.774                 Moscow          2961.687
       135   02 Jun 2027 04:13:38.885   02 Jun 2027 04:15:30.729           111.844              Murmansk2          3495.125
       136   02 Jun 2027 04:16:40.659   02 Jun 2027 04:18:35.224           114.565                 Moscow          3580.156
       137   02 Jun 2027 04:40:40.138   02 Jun 2027 04:42:14.351            94.213               CapeTown          2944.156
       138   02 Jun 2027 05:33:31.648   02 Jun 2027 05:35:18.776           107.128                Anadyr2          3347.750
       139   02 Jun 2027 05:35:18.776   02 Jun 2027 05:35:24.469             5.693                Anadyr1           177.906
       140   02 Jun 2027 05:35:36.215   02 Jun 2027 05:36:22.258            46.043                Anadyr1          1438.844
       141   02 Jun 2027 05:36:51.552   02 Jun 2027 05:37:18.341            26.789                Anadyr1           837.156
       142   02 Jun 2027 05:37:39.659   02 Jun 2027 05:38:11.614            31.955               Magadan1           998.594
       143   02 Jun 2027 07:12:15.115   02 Jun 2027 07:12:38.483            23.368                Irkutsk           730.250
       144   02 Jun 2027 07:13:17.908   02 Jun 2027 07:13:47.129            29.221               Magadan2           913.156
       145   02 Jun 2027 08:46:52.802   02 Jun 2027 08:50:05.210           192.408               Magadan1          6012.750
       146   02 Jun 2027 08:50:05.210   02 Jun 2027 08:50:21.094            15.884               Magadan2           496.375
       147   02 Jun 2027 10:22:25.266   02 Jun 2027 10:22:35.410            10.144                Irkutsk           317.000
       148   02 Jun 2027 10:22:56.133   02 Jun 2027 10:23:31.014            34.881                Irkutsk          1090.031
       149   02 Jun 2027 10:23:50.027   02 Jun 2027 10:24:22.104            32.077                Irkutsk          1002.406
       150   02 Jun 2027 10:24:56.086   02 Jun 2027 10:25:26.883            30.797                Irkutsk           962.406
       151   02 Jun 2027 10:25:33.709   02 Jun 2027 10:26:38.046            64.337                Irkutsk          2010.531
       152   02 Jun 2027 11:06:22.472   02 Jun 2027 11:06:34.874            12.402            RioGallegos           387.562
       153   02 Jun 2027 11:37:07.563   02 Jun 2027 11:38:17.623            70.060                Sumatra          2189.375
       154   02 Jun 2027 11:46:23.618   02 Jun 2027 11:47:28.655            65.037                  Delhi          2032.406
       155   02 Jun 2027 11:58:15.703   02 Jun 2027 11:58:55.199            39.496                Irkutsk          1234.250
       156   02 Jun 2027 11:59:05.842   02 Jun 2027 11:59:41.583            35.741                Irkutsk          1116.906
       157   02 Jun 2027 11:59:50.703   02 Jun 2027 12:00:00.101             9.398                Norilsk           293.688
       158   02 Jun 2027 12:00:41.188   02 Jun 2027 12:00:53.772            12.584                Norilsk           393.250
       159   02 Jun 2027 12:01:11.656   02 Jun 2027 12:01:45.975            34.319                Novosib          1072.469
       160   02 Jun 2027 12:02:29.218   02 Jun 2027 12:02:56.885            27.667                Novosib           864.594
       161   02 Jun 2027 12:05:42.124   02 Jun 2027 12:05:56.075            13.951                Norilsk           435.969
       162   02 Jun 2027 12:06:36.007   02 Jun 2027 12:07:19.371            43.364                Norilsk          1355.125
       163   02 Jun 2027 13:22:17.633   02 Jun 2027 13:23:29.799            72.166                  Delhi          2255.188
       164   02 Jun 2027 13:24:12.883   02 Jun 2027 13:24:43.352            30.469                  Delhi           952.156
       165   02 Jun 2027 13:25:33.477   02 Jun 2027 13:27:10.555            97.078                  Delhi          3033.688
       166   02 Jun 2027 13:30:47.999   02 Jun 2027 13:31:35.972            47.973                Novosib          1499.156
       167   02 Jun 2027 13:32:16.230   02 Jun 2027 13:32:37.767            21.537                Novosib           673.031
       168   02 Jun 2027 13:32:40.784   02 Jun 2027 13:33:42.070            61.286              Murmansk2          1915.187
       169   02 Jun 2027 13:34:10.526   02 Jun 2027 13:34:42.803            32.277                Norilsk          1008.656
       170   02 Jun 2027 13:35:38.898   02 Jun 2027 13:35:53.666            14.768                Novosib           461.500
       171   02 Jun 2027 13:38:31.859   02 Jun 2027 13:38:55.973            24.114              Murmansk1           753.562
       172   02 Jun 2027 13:40:03.129   02 Jun 2027 13:40:53.966            50.837                Norilsk          1588.656
       173   02 Jun 2027 14:47:16.803   02 Jun 2027 14:48:18.893            62.090               CapeTown          1940.313
       174   02 Jun 2027 15:05:07.860   02 Jun 2027 15:06:53.157           105.297                 Moscow          3290.531
       175   02 Jun 2027 15:08:37.537   02 Jun 2027 15:09:56.038            78.501              Murmansk1          2453.156
       176   02 Jun 2027 15:11:37.087   02 Jun 2027 15:11:52.697            15.610              Murmansk1           487.813
       177   02 Jun 2027 15:11:58.738   02 Jun 2027 15:12:52.252            53.514              Murmansk2          1672.313
       178   02 Jun 2027 15:15:44.763   02 Jun 2027 15:16:10.139            25.376              Murmansk1           793.000
       179   02 Jun 2027 15:24:05.411   02 Jun 2027 15:26:12.155           126.744                Anadyr1          3960.750
       180   02 Jun 2027 15:26:17.958   02 Jun 2027 15:26:24.266             6.308                Anadyr2           197.125
       181   02 Jun 2027 15:29:55.171   02 Jun 2027 15:30:19.559            24.388                Anadyr2           762.125
       182   02 Jun 2027 16:22:26.852   02 Jun 2027 16:24:25.896           119.044               CapeTown          3720.125
       183   02 Jun 2027 16:45:03.813   02 Jun 2027 16:45:16.303            12.490                 Moscow           390.312
       184   02 Jun 2027 16:46:49.636   02 Jun 2027 16:47:31.614            41.978              Murmansk1          1311.813
       185   02 Jun 2027 16:51:43.916   02 Jun 2027 16:51:56.192            12.276              Murmansk2           383.625
       186   02 Jun 2027 16:52:58.725   02 Jun 2027 16:53:23.782            25.057              Murmansk1           783.031
       187   02 Jun 2027 16:55:30.666   02 Jun 2027 16:55:56.411            25.745              Murmansk1           804.531
       188   02 Jun 2027 16:59:00.752   02 Jun 2027 17:00:37.322            96.570                Anadyr1          3017.813
       189   02 Jun 2027 17:02:35.951   02 Jun 2027 17:03:30.909            54.958                Anadyr1          1717.438
       190   02 Jun 2027 17:10:08.973   02 Jun 2027 17:10:35.506            26.533                Anadyr1           829.156
       191   02 Jun 2027 17:59:19.330   02 Jun 2027 18:00:20.597            61.267               CapeTown          1914.594
       192   02 Jun 2027 18:28:10.384   02 Jun 2027 18:31:56.525           226.141              Murmansk2          7066.906
       193   02 Jun 2027 18:34:50.405   02 Jun 2027 18:35:23.606            33.201                Anadyr1          1037.531
       194   02 Jun 2027 18:35:36.824   02 Jun 2027 18:36:05.236            28.412                Anadyr1           887.875
       195   02 Jun 2027 18:37:27.050   02 Jun 2027 18:37:59.426            32.376               Magadan2          1011.750
       196   02 Jun 2027 18:38:31.114   02 Jun 2027 18:38:37.173             6.059               Magadan1           189.344
       197   02 Jun 2027 18:40:11.208   02 Jun 2027 18:40:12.816             1.608               Magadan1            50.250
       198   02 Jun 2027 18:40:40.237   02 Jun 2027 18:41:00.334            20.097               Magadan1           628.031
       199   02 Jun 2027 18:42:17.179   02 Jun 2027 18:42:32.063            14.884               Magadan2           465.125
       200   02 Jun 2027 18:45:19.104   02 Jun 2027 18:45:35.985            16.881               Magadan2           527.531
       201   02 Jun 2027 18:46:07.934   02 Jun 2027 18:46:22.013            14.079               Magadan1           439.969
       202   02 Jun 2027 20:10:45.778   02 Jun 2027 20:12:52.242           126.464                Anadyr1          3952.000
       203   02 Jun 2027 20:13:00.066   02 Jun 2027 20:14:31.065            90.999                Anadyr2          2843.719
       204   02 Jun 2027 20:14:40.884   02 Jun 2027 20:16:36.836           115.952                Norilsk          3623.500
       205   02 Jun 2027 20:17:00.096   02 Jun 2027 20:17:52.504            52.408               Magadan2          1637.750
       206   02 Jun 2027 20:17:58.705   02 Jun 2027 20:18:13.572            14.867               Magadan2           464.594
       207   02 Jun 2027 20:21:45.098   02 Jun 2027 20:21:58.709            13.611               Magadan1           425.344
       208   02 Jun 2027 20:23:04.805   02 Jun 2027 20:23:14.411             9.606               Magadan2           300.187
       209   02 Jun 2027 20:23:26.473   02 Jun 2027 20:23:30.278             3.805               Magadan1           118.906
       210   02 Jun 2027 20:23:40.650   02 Jun 2027 20:24:01.097            20.447               Magadan2           638.969
       211   02 Jun 2027 21:05:26.054   02 Jun 2027 21:08:04.463           158.409            RioGallegos          4950.281
       212   02 Jun 2027 21:13:36.720   02 Jun 2027 21:13:45.870             9.150            RioGallegos           285.938
       213   02 Jun 2027 21:14:37.876   02 Jun 2027 21:14:49.810            11.934            RioGallegos           372.938
       214   02 Jun 2027 21:46:25.765   02 Jun 2027 21:47:10.416            44.651                Anadyr2          1395.344
       215   02 Jun 2027 21:48:36.617   02 Jun 2027 21:48:55.240            18.623                Norilsk           581.969
       216   02 Jun 2027 21:49:04.014   02 Jun 2027 21:51:09.485           125.471               Magadan2          3920.969
       217   02 Jun 2027 21:52:08.314   02 Jun 2027 21:52:28.678            20.364               Magadan2           636.375
       218   02 Jun 2027 21:52:54.336   02 Jun 2027 21:54:10.875            76.539                Irkutsk          2391.844
       219   02 Jun 2027 21:55:39.580   02 Jun 2027 21:56:01.609            22.029                Irkutsk           688.406
       220   02 Jun 2027 21:56:08.059   02 Jun 2027 21:56:20.088            12.029                Novosib           375.906
       221   02 Jun 2027 21:58:10.546   02 Jun 2027 21:58:19.269             8.723                Novosib           272.594
       222   02 Jun 2027 22:06:47.349   02 Jun 2027 22:08:48.075           120.726                Sumatra          3772.688
       223   02 Jun 2027 22:10:06.204   02 Jun 2027 22:10:44.928            38.724                Sumatra          1210.125
       224   02 Jun 2027 22:18:47.256   02 Jun 2027 22:18:47.516             0.260                Sumatra             8.125
       225   02 Jun 2027 23:21:17.954   02 Jun 2027 23:22:50.658            92.704                Anadyr2          2897.000
       226   02 Jun 2027 23:24:32.145   02 Jun 2027 23:25:48.528            76.383                Norilsk          2386.969
       227   02 Jun 2027 23:26:26.418   02 Jun 2027 23:26:41.406            14.988               Magadan1           468.375
       228   02 Jun 2027 23:27:58.668   02 Jun 2027 23:29:10.179            71.511               Magadan1          2234.719
       229   02 Jun 2027 23:29:17.883   02 Jun 2027 23:29:38.827            20.944                Irkutsk           654.500
       230   02 Jun 2027 23:30:39.188   02 Jun 2027 23:31:20.619            41.431                Novosib          1294.719
       231   02 Jun 2027 23:34:48.369   02 Jun 2027 23:35:06.140            17.771                Novosib           555.344
       232   02 Jun 2027 23:35:50.972   02 Jun 2027 23:37:23.772            92.800                Novosib          2900.000
       233   02 Jun 2027 23:37:36.346   02 Jun 2027 23:37:41.209             4.863                  Delhi           151.969
       234   02 Jun 2027 23:38:57.570   02 Jun 2027 23:39:46.386            48.816                  Delhi          1525.500
       235   02 Jun 2027 23:42:19.214   02 Jun 2027 23:42:41.080            21.866                  Delhi           683.313
       236   03 Jun 2027 00:24:21.878   03 Jun 2027 00:24:40.001            18.123            RioGallegos           566.344
       237   03 Jun 2027 00:54:57.207   03 Jun 2027 00:55:11.557            14.350                Anadyr1           448.438
       238   03 Jun 2027 00:55:36.287   03 Jun 2027 00:56:05.672            29.385                Anadyr2           918.281
       239   03 Jun 2027 00:56:49.831   03 Jun 2027 00:57:55.476            65.645                Anadyr1          2051.406
       240   03 Jun 2027 01:00:32.089   03 Jun 2027 01:00:48.508            16.419                Norilsk           513.094
       241   03 Jun 2027 01:00:50.580   03 Jun 2027 01:01:28.660            38.080               Magadan2          1190.000
       242   03 Jun 2027 01:01:28.660   03 Jun 2027 01:02:24.315            55.655               Magadan1          1739.219
       243   03 Jun 2027 01:02:57.920   03 Jun 2027 01:04:41.399           103.479              Murmansk2          3233.719
       244   03 Jun 2027 01:05:25.778   03 Jun 2027 01:05:46.987            21.209              Murmansk1           662.781
       245   03 Jun 2027 01:05:59.749   03 Jun 2027 01:06:19.187            19.438                Novosib           607.437
       246   03 Jun 2027 01:07:57.450   03 Jun 2027 01:08:20.402            22.952                Novosib           717.250
       247   03 Jun 2027 01:08:54.829   03 Jun 2027 01:09:18.918            24.089                 Moscow           752.781
       248   03 Jun 2027 01:09:36.117   03 Jun 2027 01:09:51.505            15.388                 Moscow           480.875
       249   03 Jun 2027 01:13:46.997   03 Jun 2027 01:14:31.607            44.610                  Delhi          1394.062
       250   03 Jun 2027 01:20:37.612   03 Jun 2027 01:21:13.596            35.984                  Delhi          1124.500
       251   03 Jun 2027 02:28:18.147   03 Jun 2027 02:31:18.870           180.723                Anadyr1          5647.594
       252   03 Jun 2027 02:33:39.879   03 Jun 2027 02:34:38.487            58.608               Magadan2          1831.500
       253   03 Jun 2027 02:35:21.646   03 Jun 2027 02:35:42.472            20.826               Magadan2           650.812
       254   03 Jun 2027 02:36:21.830   03 Jun 2027 02:36:30.852             9.022                Norilsk           281.938
       255   03 Jun 2027 02:38:04.196   03 Jun 2027 02:38:35.502            31.306                Norilsk           978.313
       256   03 Jun 2027 02:38:39.684   03 Jun 2027 02:39:07.994            28.310              Murmansk1           884.687
       257   03 Jun 2027 02:40:21.805   03 Jun 2027 02:40:41.607            19.802              Murmansk1           618.812
       258   03 Jun 2027 02:41:23.826   03 Jun 2027 02:42:28.394            64.568                Novosib          2017.750
       259   03 Jun 2027 02:43:35.428   03 Jun 2027 02:43:54.964            19.536                Novosib           610.500
       260   03 Jun 2027 02:47:38.043   03 Jun 2027 02:47:51.510            13.467                Novosib           420.844
       261   03 Jun 2027 02:49:19.973   03 Jun 2027 02:50:17.813            57.840                Novosib          1807.500
       262   03 Jun 2027 03:11:18.297   03 Jun 2027 03:12:42.988            84.691               CapeTown          2646.594
       263   03 Jun 2027 04:22:58.609   03 Jun 2027 04:23:19.153            20.544              Murmansk1           642.000
       264   03 Jun 2027 04:23:40.848   03 Jun 2027 04:24:13.851            33.003              Murmansk1          1031.344
       265   03 Jun 2027 04:24:21.790   03 Jun 2027 04:24:45.059            23.269                 Moscow           727.156
       266   03 Jun 2027 04:25:12.779   03 Jun 2027 04:27:34.696           141.917              Murmansk2          4434.906
       267   03 Jun 2027 04:28:50.787   03 Jun 2027 04:30:28.798            98.011                 Moscow          3062.844
       268   03 Jun 2027 05:45:31.932   03 Jun 2027 05:45:57.754            25.822                Anadyr1           806.938
       269   03 Jun 2027 05:45:57.754   03 Jun 2027 05:47:47.319           109.565                Anadyr2          3423.906
       270   03 Jun 2027 05:48:08.172   03 Jun 2027 05:48:27.691            19.519               Magadan2           609.969
       271   03 Jun 2027 05:49:27.862   03 Jun 2027 05:49:48.021            20.159               Magadan1           629.969
       272   03 Jun 2027 05:50:40.328   03 Jun 2027 05:51:21.865            41.537                Anadyr1          1298.031
       273   03 Jun 2027 07:22:54.592   03 Jun 2027 07:23:50.344            55.752                Anadyr1          1742.250
       274   03 Jun 2027 07:23:56.855   03 Jun 2027 07:24:48.447            51.592               Magadan1          1612.250
       275   03 Jun 2027 07:25:37.207   03 Jun 2027 07:26:10.321            33.114                Anadyr1          1034.812
       276   03 Jun 2027 08:55:58.517   03 Jun 2027 08:57:30.282            91.765               Magadan2          2867.656
       277   03 Jun 2027 08:57:50.023   03 Jun 2027 08:58:21.734            31.711               Magadan2           990.969
       278   03 Jun 2027 08:58:28.113   03 Jun 2027 08:58:34.262             6.149               Magadan2           192.156
       279   03 Jun 2027 08:58:48.255   03 Jun 2027 08:59:27.396            39.141               Magadan1          1223.156
       280   03 Jun 2027 08:59:57.858   03 Jun 2027 09:00:05.185             7.327                Irkutsk           228.969
       281   03 Jun 2027 09:00:16.128   03 Jun 2027 09:00:48.849            32.721                Irkutsk          1022.531
       282   03 Jun 2027 09:01:02.020   03 Jun 2027 09:01:11.689             9.669                Irkutsk           302.156
       283   03 Jun 2027 09:01:31.370   03 Jun 2027 09:02:38.638            67.268                Irkutsk          2102.125
       284   03 Jun 2027 09:37:22.844   03 Jun 2027 09:38:16.191            53.347            RioGallegos          1667.094
       285   03 Jun 2027 09:38:32.499   03 Jun 2027 09:38:46.233            13.734            RioGallegos           429.188
       286   03 Jun 2027 09:43:06.481   03 Jun 2027 09:43:15.915             9.434            RioGallegos           294.813
       287   03 Jun 2027 10:12:39.143   03 Jun 2027 10:13:22.701            43.558                Sumatra          1361.188
       288   03 Jun 2027 10:25:35.592   03 Jun 2027 10:26:13.033            37.441                  Delhi          1170.031
       289   03 Jun 2027 10:34:34.773   03 Jun 2027 10:34:35.323             0.550                Norilsk            17.188
       290   03 Jun 2027 10:34:35.428   03 Jun 2027 10:34:38.754             3.326                Norilsk           103.937
       291   03 Jun 2027 10:34:45.617   03 Jun 2027 10:35:00.125            14.508                Novosib           453.375
       292   03 Jun 2027 10:35:03.567   03 Jun 2027 10:35:41.550            37.983                Irkutsk          1186.969
       293   03 Jun 2027 10:36:04.719   03 Jun 2027 10:36:10.319             5.600                Norilsk           175.000
       294   03 Jun 2027 10:36:14.396   03 Jun 2027 10:37:00.460            46.064                Irkutsk          1439.500
       295   03 Jun 2027 10:37:04.821   03 Jun 2027 10:37:07.215             2.394                Irkutsk            74.812
       296   03 Jun 2027 10:37:10.725   03 Jun 2027 10:37:12.268             1.543                Novosib            48.219
       297   03 Jun 2027 10:37:22.497   03 Jun 2027 10:38:10.194            47.697                Novosib          1490.531
       298   03 Jun 2027 10:38:17.920   03 Jun 2027 10:39:10.560            52.640                Novosib          1645.000
       299   03 Jun 2027 11:15:30.540   03 Jun 2027 11:15:56.797            26.257            RioGallegos           820.531
       300   03 Jun 2027 11:18:48.875   03 Jun 2027 11:18:49.992             1.117            RioGallegos            34.906
       301   03 Jun 2027 11:19:43.490   03 Jun 2027 11:19:47.889             4.399            RioGallegos           137.469
       302   03 Jun 2027 11:49:45.175   03 Jun 2027 11:50:23.911            38.736                Sumatra          1210.500
       303   03 Jun 2027 11:51:03.945   03 Jun 2027 11:52:42.543            98.598                Sumatra          3081.188
       304   03 Jun 2027 12:09:11.043   03 Jun 2027 12:10:03.896            52.853                Irkutsk          1651.656
       305   03 Jun 2027 13:35:15.111   03 Jun 2027 13:37:25.240           130.129                  Delhi          4066.531
       306   03 Jun 2027 13:42:06.889   03 Jun 2027 13:43:06.903            60.014                 Moscow          1875.438
       307   03 Jun 2027 13:43:46.672   03 Jun 2027 13:46:37.019           170.347                Novosib          5323.344
       308   03 Jun 2027 13:50:12.082   03 Jun 2027 13:51:45.543            93.461                Norilsk          2920.656
       309   03 Jun 2027 14:57:19.340   03 Jun 2027 14:59:23.205           123.865               CapeTown          3870.781
       310   03 Jun 2027 15:03:32.536   03 Jun 2027 15:03:34.181             1.645               CapeTown            51.406
       311   03 Jun 2027 15:17:54.400   03 Jun 2027 15:18:28.256            33.856                 Moscow          1058.000
       312   03 Jun 2027 15:20:49.016   03 Jun 2027 15:20:57.811             8.795              Murmansk1           274.844
       313   03 Jun 2027 15:20:57.811   03 Jun 2027 15:21:41.587            43.776              Murmansk2          1368.000
       314   03 Jun 2027 15:25:43.109   03 Jun 2027 15:25:53.193            10.084              Murmansk1           315.125
       315   03 Jun 2027 15:27:26.929   03 Jun 2027 15:27:47.343            20.414              Murmansk1           637.937
       316   03 Jun 2027 15:29:28.325   03 Jun 2027 15:29:45.207            16.882              Murmansk2           527.563
       317   03 Jun 2027 15:31:16.908   03 Jun 2027 15:31:33.544            16.636              Murmansk2           519.875
       318   03 Jun 2027 15:35:50.030   03 Jun 2027 15:37:04.376            74.346                Anadyr2          2323.313
       319   03 Jun 2027 15:37:08.655   03 Jun 2027 15:37:39.256            30.601                Anadyr1           956.281
       320   03 Jun 2027 15:37:51.108   03 Jun 2027 15:38:05.381            14.273                Anadyr1           446.031
       321   03 Jun 2027 15:38:24.396   03 Jun 2027 15:39:13.517            49.121                Anadyr1          1535.031
       322   03 Jun 2027 16:35:57.448   03 Jun 2027 16:36:18.429            20.981               CapeTown           655.656
       323   03 Jun 2027 16:39:23.443   03 Jun 2027 16:39:37.141            13.698               CapeTown           428.063
       324   03 Jun 2027 16:43:06.001   03 Jun 2027 16:43:08.953             2.952               CapeTown            92.250
       325   03 Jun 2027 16:58:17.393   03 Jun 2027 16:58:52.528            35.135                 Moscow          1097.969
       326   03 Jun 2027 16:59:18.613   03 Jun 2027 16:59:45.656            27.043              Murmansk1           845.094
       327   03 Jun 2027 17:00:06.115   03 Jun 2027 17:00:44.079            37.964                 Moscow          1186.375
       328   03 Jun 2027 17:00:46.624   03 Jun 2027 17:00:57.436            10.812              Murmansk2           337.875
       329   03 Jun 2027 17:02:22.792   03 Jun 2027 17:03:12.948            50.156              Murmansk2          1567.375
       330   03 Jun 2027 17:11:00.273   03 Jun 2027 17:12:23.955            83.682                Anadyr2          2615.062
       331   03 Jun 2027 17:12:31.936   03 Jun 2027 17:12:53.750            21.814                Anadyr1           681.688
       332   03 Jun 2027 17:15:31.854   03 Jun 2027 17:16:04.731            32.877                Anadyr2          1027.406
       333   03 Jun 2027 17:16:30.272   03 Jun 2027 17:17:49.508            79.236               Magadan1          2476.125
       334   03 Jun 2027 18:41:46.145   03 Jun 2027 18:43:07.225            81.080              Murmansk1          2533.750
       335   03 Jun 2027 18:46:51.954   03 Jun 2027 18:49:33.899           161.945                Anadyr1          5060.781
       336   03 Jun 2027 18:49:45.965   03 Jun 2027 18:50:12.806            26.841                Anadyr1           838.781
       337   03 Jun 2027 18:50:18.106   03 Jun 2027 18:51:57.885            99.779               Magadan1          3118.094
       338   03 Jun 2027 18:57:15.448   03 Jun 2027 18:57:38.051            22.603               Magadan1           706.344
       339   03 Jun 2027 18:59:37.747   03 Jun 2027 18:59:54.674            16.927               Magadan1           528.969
       340   03 Jun 2027 20:22:46.610   03 Jun 2027 20:26:58.555           251.945                Anadyr1          7873.281
       341   03 Jun 2027 20:27:30.341   03 Jun 2027 20:29:54.842           144.501               Magadan2          4515.656
       342   03 Jun 2027 20:35:31.583   03 Jun 2027 20:35:37.776             6.193               Magadan2           193.531
       343   03 Jun 2027 20:35:44.104   03 Jun 2027 20:36:21.710            37.606               Magadan2          1175.188
       344   03 Jun 2027 21:17:13.051   03 Jun 2027 21:19:28.100           135.049            RioGallegos          4220.281
       345   03 Jun 2027 21:19:55.692   03 Jun 2027 21:20:25.662            29.970            RioGallegos           936.563
       346   03 Jun 2027 21:58:51.886   03 Jun 2027 21:59:06.694            14.808                Anadyr1           462.750
       347   03 Jun 2027 22:00:37.022   03 Jun 2027 22:00:50.176            13.154                Norilsk           411.062
       348   03 Jun 2027 22:01:06.023   03 Jun 2027 22:02:49.969           103.946                Norilsk          3248.313
       349   03 Jun 2027 22:03:08.517   03 Jun 2027 22:03:20.438            11.921                Norilsk           372.531
       350   03 Jun 2027 22:03:43.106   03 Jun 2027 22:04:13.985            30.879                Anadyr2           964.969
       351   03 Jun 2027 22:04:45.170   03 Jun 2027 22:05:36.767            51.597                Norilsk          1612.406
       352   03 Jun 2027 22:05:44.570   03 Jun 2027 22:06:42.540            57.970                Irkutsk          1811.562
       353   03 Jun 2027 22:07:25.448   03 Jun 2027 22:07:40.286            14.838                Irkutsk           463.688
       354   03 Jun 2027 22:07:59.275   03 Jun 2027 22:08:28.731            29.456                Novosib           920.500
       355   03 Jun 2027 22:08:34.343   03 Jun 2027 22:09:23.934            49.591                Novosib          1549.719
       356   03 Jun 2027 22:18:32.588   03 Jun 2027 22:21:16.019           163.431                Sumatra          5107.219
       357   03 Jun 2027 23:33:49.291   03 Jun 2027 23:34:49.440            60.149                Anadyr2          1879.656
       358   03 Jun 2027 23:36:34.268   03 Jun 2027 23:36:56.999            22.731                Norilsk           710.344
       359   03 Jun 2027 23:37:12.985   03 Jun 2027 23:38:44.085            91.100               Magadan1          2846.875
       360   03 Jun 2027 23:38:44.085   03 Jun 2027 23:39:28.022            43.937               Magadan2          1373.031
       361   03 Jun 2027 23:40:26.546   03 Jun 2027 23:40:45.452            18.906                Irkutsk           590.813
       362   03 Jun 2027 23:40:47.712   03 Jun 2027 23:41:42.891            55.179                Novosib          1724.344
       363   03 Jun 2027 23:43:16.306   03 Jun 2027 23:43:25.585             9.279                Novosib           289.969
       364   03 Jun 2027 23:45:06.153   03 Jun 2027 23:45:36.474            30.321                Novosib           947.531
       365   03 Jun 2027 23:46:26.581   03 Jun 2027 23:47:17.943            51.362                Novosib          1605.063
       366   03 Jun 2027 23:49:45.171   03 Jun 2027 23:51:38.656           113.485                  Delhi          3546.406
       367   04 Jun 2027 01:06:57.518   04 Jun 2027 01:07:30.035            32.517                Anadyr1          1016.156
       368   04 Jun 2027 01:08:04.703   04 Jun 2027 01:08:42.180            37.477                Anadyr2          1171.156
       369   04 Jun 2027 01:09:09.477   04 Jun 2027 01:09:36.669            27.192                Anadyr2           849.750
       370   04 Jun 2027 01:11:59.882   04 Jun 2027 01:12:15.125            15.243                Anadyr1           476.344
       371   04 Jun 2027 01:12:33.641   04 Jun 2027 01:12:50.765            17.124                Norilsk           535.125
       372   04 Jun 2027 01:13:02.646   04 Jun 2027 01:15:13.647           131.001               Magadan2          4093.781
       373   04 Jun 2027 01:16:21.424   04 Jun 2027 01:17:30.484            69.060                Novosib          2158.125
       374   04 Jun 2027 01:17:41.251   04 Jun 2027 01:18:19.123            37.872                Novosib          1183.500
       375   04 Jun 2027 01:19:43.657   04 Jun 2027 01:20:09.726            26.069                 Moscow           814.656
       376   04 Jun 2027 01:20:19.946   04 Jun 2027 01:21:42.147            82.201                 Moscow          2568.781
       377   04 Jun 2027 01:34:40.869   04 Jun 2027 01:34:45.679             4.810                  Delhi           150.313
       378   04 Jun 2027 01:35:07.420   04 Jun 2027 01:35:21.144            13.724                  Delhi           428.875
       379   04 Jun 2027 02:40:03.229   04 Jun 2027 02:43:10.470           187.241                Anadyr2          5851.281
       380   04 Jun 2027 02:45:07.692   04 Jun 2027 02:46:01.646            53.954               Magadan2          1686.063
       381   04 Jun 2027 02:48:21.133   04 Jun 2027 02:48:51.739            30.606                Norilsk           956.437
       382   04 Jun 2027 02:50:41.218   04 Jun 2027 02:51:09.088            27.870              Murmansk1           870.938
       383   04 Jun 2027 02:51:49.623   04 Jun 2027 02:52:11.429            21.806              Murmansk1           681.437
       384   04 Jun 2027 02:52:11.429   04 Jun 2027 02:52:44.154            32.725              Murmansk2          1022.656
       385   04 Jun 2027 02:52:57.582   04 Jun 2027 02:54:31.409            93.827                Novosib          2932.094
       386   04 Jun 2027 03:00:14.175   04 Jun 2027 03:00:30.916            16.741                Norilsk           523.156
       387   04 Jun 2027 03:00:44.340   04 Jun 2027 03:01:30.914            46.574              Murmansk2          1455.437
       388   04 Jun 2027 03:01:30.914   04 Jun 2027 03:02:16.174            45.260              Murmansk1          1414.375
       389   04 Jun 2027 03:02:38.315   04 Jun 2027 03:02:47.265             8.950              Murmansk1           279.687
       390   04 Jun 2027 03:03:33.140   04 Jun 2027 03:05:29.961           116.821                 Moscow          3650.656
       391   04 Jun 2027 03:05:53.932   04 Jun 2027 03:06:29.838            35.906                 Moscow          1122.062
       392   04 Jun 2027 03:18:21.263   04 Jun 2027 03:24:46.966           385.703               CapeTown         12053.219
       393   04 Jun 2027 04:14:36.716   04 Jun 2027 04:16:37.435           120.719                Anadyr2          3772.469
       394   04 Jun 2027 04:16:59.312   04 Jun 2027 04:18:27.158            87.846               Magadan1          2745.187
       395   04 Jun 2027 04:21:58.100   04 Jun 2027 04:23:43.036           104.936                Anadyr1          3279.250
       396   04 Jun 2027 04:34:18.668   04 Jun 2027 04:34:49.070            30.402                Norilsk           950.063
       397   04 Jun 2027 04:35:10.701   04 Jun 2027 04:36:15.531            64.830              Murmansk1          2025.938
       398   04 Jun 2027 04:36:15.531   04 Jun 2027 04:37:17.550            62.019              Murmansk2          1938.094
       399   04 Jun 2027 04:37:33.868   04 Jun 2027 04:37:46.831            12.963                 Moscow           405.094
       400   04 Jun 2027 04:54:36.853   04 Jun 2027 04:55:50.711            73.858               CapeTown          2308.062
       401   04 Jun 2027 05:56:36.558   04 Jun 2027 05:57:08.435            31.877                Anadyr1           996.156
       402   04 Jun 2027 05:57:27.414   04 Jun 2027 05:59:16.593           109.179               Magadan2          3411.844
       403   04 Jun 2027 05:59:17.731   04 Jun 2027 05:59:20.912             3.181               Magadan2            99.406
       404   04 Jun 2027 05:59:38.814   04 Jun 2027 05:59:55.654            16.840                Anadyr2           526.250
       405   04 Jun 2027 06:00:00.485   04 Jun 2027 06:00:54.981            54.496               Magadan1          1703.000
       406   04 Jun 2027 07:32:34.497   04 Jun 2027 07:33:54.528            80.031                Anadyr1          2500.969
       407   04 Jun 2027 07:34:06.840   04 Jun 2027 07:34:12.417             5.577               Magadan2           174.281
       408   04 Jun 2027 07:35:15.958   04 Jun 2027 07:35:25.305             9.347               Magadan2           292.094
       409   04 Jun 2027 07:35:28.976   04 Jun 2027 07:36:09.113            40.137               Magadan1          1254.281
       410   04 Jun 2027 07:36:21.041   04 Jun 2027 07:36:40.934            19.893               Magadan2           621.656
       411   04 Jun 2027 07:36:41.605   04 Jun 2027 07:37:37.242            55.637                Anadyr2          1738.656
       412   04 Jun 2027 08:21:10.609   04 Jun 2027 08:21:12.029             1.420            RioGallegos            44.375
       413   04 Jun 2027 08:22:38.511   04 Jun 2027 08:23:25.085            46.574            RioGallegos          1455.437
       414   04 Jun 2027 09:07:32.643   04 Jun 2027 09:07:36.614             3.971               Magadan1           124.094
       415   04 Jun 2027 09:07:36.614   04 Jun 2027 09:08:09.642            33.028               Magadan2          1032.125
       416   04 Jun 2027 09:09:30.576   04 Jun 2027 09:10:22.828            52.252               Magadan1          1632.875
       417   04 Jun 2027 09:10:42.074   04 Jun 2027 09:10:52.034             9.960               Magadan2           311.250
       418   04 Jun 2027 09:10:52.034   04 Jun 2027 09:11:29.444            37.410               Magadan1          1169.063
       419   04 Jun 2027 09:11:34.760   04 Jun 2027 09:12:07.580            32.820               Magadan1          1025.625
       420   04 Jun 2027 09:12:29.356   04 Jun 2027 09:12:50.921            21.565                Irkutsk           673.906
       421   04 Jun 2027 09:13:10.606   04 Jun 2027 09:13:54.518            43.912               Magadan1          1372.250
       422   04 Jun 2027 09:14:39.316   04 Jun 2027 09:14:43.390             4.074                Irkutsk           127.313
       423   04 Jun 2027 09:49:26.739   04 Jun 2027 09:50:27.896            61.157            RioGallegos          1911.156
       424   04 Jun 2027 09:53:10.308   04 Jun 2027 09:53:21.653            11.345            RioGallegos           354.531
       425   04 Jun 2027 10:24:27.587   04 Jun 2027 10:27:01.533           153.946                Sumatra          4810.812
       426   04 Jun 2027 10:46:15.591   04 Jun 2027 10:46:15.979             0.388                Novosib            12.125
       427   04 Jun 2027 10:46:20.893   04 Jun 2027 10:46:29.073             8.180                Novosib           255.625
       428   04 Jun 2027 10:46:46.605   04 Jun 2027 10:46:57.566            10.961                Irkutsk           342.531
       429   04 Jun 2027 10:47:05.355   04 Jun 2027 10:47:36.717            31.362                Novosib           980.062
       430   04 Jun 2027 10:47:40.110   04 Jun 2027 10:48:21.593            41.483                Novosib          1296.344
       431   04 Jun 2027 10:48:26.216   04 Jun 2027 10:48:55.992            29.776                Novosib           930.500
       432   04 Jun 2027 10:48:59.468   04 Jun 2027 10:49:05.901             6.433                Novosib           201.031
       433   04 Jun 2027 10:49:21.760   04 Jun 2027 10:49:49.361            27.601                Norilsk           862.531
       434   04 Jun 2027 10:49:54.995   04 Jun 2027 10:50:19.164            24.169                Norilsk           755.281
       435   04 Jun 2027 10:50:24.471   04 Jun 2027 10:50:44.168            19.697                Norilsk           615.531
       436   04 Jun 2027 11:28:13.667   04 Jun 2027 11:28:16.463             2.796            RioGallegos            87.375
       437   04 Jun 2027 11:29:00.493   04 Jun 2027 11:29:34.235            33.742            RioGallegos          1054.437
       438   04 Jun 2027 11:30:27.684   04 Jun 2027 11:30:37.522             9.838            RioGallegos           307.437
       439   04 Jun 2027 11:36:27.175   04 Jun 2027 11:36:54.749            27.574            RioGallegos           861.687
       440   04 Jun 2027 12:02:40.719   04 Jun 2027 12:04:32.345           111.626                Sumatra          3488.313
       441   04 Jun 2027 12:15:55.436   04 Jun 2027 12:16:58.176            62.740                Novosib          1960.625
       442   04 Jun 2027 12:26:13.314   04 Jun 2027 12:26:16.044             2.730                Norilsk            85.312
       443   04 Jun 2027 12:27:56.346   04 Jun 2027 12:28:08.722            12.376                Norilsk           386.750
       444   04 Jun 2027 13:48:45.430   04 Jun 2027 13:51:15.646           150.216                  Delhi          4694.250
       445   04 Jun 2027 13:51:59.997   04 Jun 2027 13:52:33.263            33.266                  Delhi          1039.563
       446   04 Jun 2027 13:54:14.671   04 Jun 2027 13:55:20.392            65.721                 Moscow          2053.781
       447   04 Jun 2027 13:56:12.221   04 Jun 2027 13:56:42.057            29.836                 Moscow           932.375
       448   04 Jun 2027 13:57:06.212   04 Jun 2027 13:57:22.898            16.686                Novosib           521.438
       449   04 Jun 2027 13:57:45.564   04 Jun 2027 13:58:54.930            69.366              Murmansk1          2167.687
       450   04 Jun 2027 13:59:09.401   04 Jun 2027 14:00:40.338            90.937                Novosib          2841.781
       451   04 Jun 2027 14:04:07.989   04 Jun 2027 14:04:17.257             9.268                Norilsk           289.625
       452   04 Jun 2027 15:08:25.550   04 Jun 2027 15:11:01.008           155.458               CapeTown          4858.062
       453   04 Jun 2027 15:14:16.347   04 Jun 2027 15:15:28.198            71.851               CapeTown          2245.344
       454   04 Jun 2027 15:33:42.641   04 Jun 2027 15:34:57.622            74.981              Murmansk1          2343.156
       455   04 Jun 2027 15:41:46.127   04 Jun 2027 15:42:07.926            21.799              Murmansk1           681.219
       456   04 Jun 2027 15:47:39.373   04 Jun 2027 15:49:03.556            84.183                Anadyr2          2630.719
       457   04 Jun 2027 15:49:38.484   04 Jun 2027 15:50:13.087            34.603                Anadyr1          1081.344
       458   04 Jun 2027 15:50:17.746   04 Jun 2027 15:50:34.346            16.600                Anadyr1           518.750
       459   04 Jun 2027 16:42:21.063   04 Jun 2027 16:42:49.019            27.956               CapeTown           873.625
       460   04 Jun 2027 16:46:46.139   04 Jun 2027 16:47:05.962            19.823               CapeTown           619.469
       461   04 Jun 2027 16:51:53.249   04 Jun 2027 16:51:57.679             4.430               CapeTown           138.438
       462   04 Jun 2027 16:54:50.032   04 Jun 2027 16:55:07.516            17.484               CapeTown           546.375
       463   04 Jun 2027 17:11:50.371   04 Jun 2027 17:12:32.956            42.585              Murmansk2          1330.781
       464   04 Jun 2027 17:12:53.996   04 Jun 2027 17:13:13.315            19.319                 Moscow           603.719
       465   04 Jun 2027 17:13:42.726   04 Jun 2027 17:15:09.965            87.239              Murmansk1          2726.219
       466   04 Jun 2027 17:23:00.285   04 Jun 2027 17:24:54.243           113.958                Anadyr1          3561.187
       467   04 Jun 2027 17:27:07.262   04 Jun 2027 17:28:42.088            94.826               Magadan2          2963.312
       468   04 Jun 2027 17:28:48.099   04 Jun 2027 17:28:58.241            10.142               Magadan2           316.938
       469   04 Jun 2027 17:29:27.840   04 Jun 2027 17:29:57.719            29.879               Magadan1           933.719
       470   04 Jun 2027 18:58:53.538   04 Jun 2027 19:00:48.826           115.288                Anadyr1          3602.750
       471   04 Jun 2027 19:00:53.188   04 Jun 2027 19:02:41.051           107.863                Anadyr2          3370.719
       472   04 Jun 2027 19:03:26.764   04 Jun 2027 19:05:00.642            93.878               Magadan1          2933.688
       473   04 Jun 2027 19:05:05.205   04 Jun 2027 19:05:51.408            46.203               Magadan2          1443.844
       474   04 Jun 2027 19:11:17.425   04 Jun 2027 19:12:02.327            44.902               Magadan1          1403.188
       475   04 Jun 2027 20:34:47.163   04 Jun 2027 20:38:24.064           216.901                Anadyr2          6778.156
       476   04 Jun 2027 20:38:45.489   04 Jun 2027 20:39:03.187            17.698                Norilsk           553.063
       477   04 Jun 2027 20:39:07.985   04 Jun 2027 20:40:23.333            75.348               Magadan2          2354.625
       478   04 Jun 2027 20:40:23.333   04 Jun 2027 20:40:46.342            23.009               Magadan1           719.031
       479   04 Jun 2027 20:41:56.938   04 Jun 2027 20:42:21.517            24.579               Magadan1           768.094
       480   04 Jun 2027 20:43:36.503   04 Jun 2027 20:44:41.889            65.386                Irkutsk          2043.312
       481   04 Jun 2027 20:45:11.555   04 Jun 2027 20:45:43.486            31.931                Irkutsk           997.844
       482   04 Jun 2027 20:46:18.075   04 Jun 2027 20:46:36.983            18.908                Irkutsk           590.875
