uniorb/output/strategy_4/Drop/Drop_KinoSat_111007.txt

KinoSat_111007
-------------------------
    Access    *     Start Time (UTCG)     *     Stop Time (UTCG)  *   Duration (s)        *       Station  *  Data (Mbytes)
         1   01 Jun 2027 03:09:22.741   01 Jun 2027 03:10:21.471            58.730                Anadyr1          1835.312
         2   01 Jun 2027 03:21:46.557   01 Jun 2027 03:22:12.552            25.995              Murmansk1           812.344
         3   01 Jun 2027 03:23:45.783   01 Jun 2027 03:23:49.250             3.467              Murmansk2           108.344
         4   01 Jun 2027 03:24:38.181   01 Jun 2027 03:25:08.315            30.134              Murmansk1           941.688
         5   01 Jun 2027 03:25:47.702   01 Jun 2027 03:25:57.846            10.144              Murmansk1           317.000
         6   01 Jun 2027 04:43:09.770   01 Jun 2027 04:43:24.691            14.921                Anadyr1           466.281
         7   01 Jun 2027 04:43:29.503   01 Jun 2027 04:46:59.583           210.080                Anadyr2          6565.000
         8   01 Jun 2027 04:47:06.286   01 Jun 2027 04:48:26.589            80.303                Anadyr1          2509.469
         9   01 Jun 2027 04:48:29.389   01 Jun 2027 04:48:42.422            13.033               Magadan1           407.281
        10   01 Jun 2027 04:49:04.545   01 Jun 2027 04:49:54.573            50.028               Magadan2          1563.375
        11   01 Jun 2027 04:49:54.573   01 Jun 2027 04:50:07.172            12.599               Magadan1           393.719
        12   01 Jun 2027 06:18:33.198   01 Jun 2027 06:19:20.342            47.144                Irkutsk          1473.250
        13   01 Jun 2027 06:20:44.539   01 Jun 2027 06:21:18.826            34.287               Magadan1          1071.469
        14   01 Jun 2027 06:21:18.826   01 Jun 2027 06:22:36.700            77.874               Magadan2          2433.562
        15   01 Jun 2027 06:22:37.101   01 Jun 2027 06:23:58.587            81.486                Anadyr1          2546.438
        16   01 Jun 2027 06:24:17.249   01 Jun 2027 06:24:48.857            31.608                Anadyr2           987.750
        17   01 Jun 2027 07:02:30.543   01 Jun 2027 07:02:44.507            13.964            RioGallegos           436.375
        18   01 Jun 2027 07:56:53.852   01 Jun 2027 07:57:50.428            56.576                Novosib          1768.000
        19   01 Jun 2027 07:57:51.624   01 Jun 2027 07:58:00.238             8.614               Magadan1           269.188
        20   01 Jun 2027 07:58:00.238   01 Jun 2027 07:58:04.778             4.540               Magadan2           141.875
        21   01 Jun 2027 07:58:22.954   01 Jun 2027 08:01:58.432           215.478                Norilsk          6733.688
        22   01 Jun 2027 08:02:09.963   01 Jun 2027 08:04:45.035           155.072              Murmansk2          4846.000
        23   01 Jun 2027 08:05:47.904   01 Jun 2027 08:06:38.852            50.948              Murmansk1          1592.125
        24   01 Jun 2027 08:36:59.245   01 Jun 2027 08:38:05.246            66.001            RioGallegos          2062.531
        25   01 Jun 2027 08:39:45.593   01 Jun 2027 08:39:59.296            13.703            RioGallegos           428.219
        26   01 Jun 2027 08:40:10.771   01 Jun 2027 08:40:55.243            44.472            RioGallegos          1389.750
        27   01 Jun 2027 09:11:53.843   01 Jun 2027 09:12:48.783            54.940                Sumatra          1716.875
        28   01 Jun 2027 09:14:11.258   01 Jun 2027 09:14:55.647            44.389                Sumatra          1387.156
        29   01 Jun 2027 09:23:54.602   01 Jun 2027 09:24:42.777            48.175                  Delhi          1505.469
        30   01 Jun 2027 09:34:11.450   01 Jun 2027 09:34:18.042             6.592                Irkutsk           206.000
        31   01 Jun 2027 09:35:07.209   01 Jun 2027 09:36:10.707            63.498                Novosib          1984.312
        32   01 Jun 2027 09:36:16.333   01 Jun 2027 09:36:47.259            30.926                Irkutsk           966.438
        33   01 Jun 2027 09:37:07.766   01 Jun 2027 09:40:06.754           178.988              Murmansk1          5593.375
        34   01 Jun 2027 09:41:15.286   01 Jun 2027 09:43:12.648           117.362                Norilsk          3667.562
        35   01 Jun 2027 09:44:44.157   01 Jun 2027 09:44:52.488             8.331              Murmansk1           260.344
        36   01 Jun 2027 10:16:06.960   01 Jun 2027 10:18:59.425           172.465            RioGallegos          5389.531
        37   01 Jun 2027 10:19:41.189   01 Jun 2027 10:20:00.258            19.069            RioGallegos           595.906
        38   01 Jun 2027 10:20:32.290   01 Jun 2027 10:20:54.024            21.734            RioGallegos           679.187
        39   01 Jun 2027 10:23:38.906   01 Jun 2027 10:23:51.024            12.118            RioGallegos           378.688
        40   01 Jun 2027 10:50:46.368   01 Jun 2027 10:52:25.150            98.782                Sumatra          3086.937
        41   01 Jun 2027 10:53:56.561   01 Jun 2027 10:54:42.842            46.281                Sumatra          1446.281
        42   01 Jun 2027 11:12:19.149   01 Jun 2027 11:13:56.441            97.292              Murmansk2          3040.375
        43   01 Jun 2027 11:13:56.441   01 Jun 2027 11:14:26.988            30.547              Murmansk1           954.594
        44   01 Jun 2027 11:14:44.970   01 Jun 2027 11:16:18.777            93.807                 Moscow          2931.469
        45   01 Jun 2027 12:37:36.714   01 Jun 2027 12:39:41.153           124.439                  Delhi          3888.719
        46   01 Jun 2027 12:43:10.831   01 Jun 2027 12:44:25.213            74.382                 Moscow          2324.438
        47   01 Jun 2027 12:44:25.846   01 Jun 2027 12:47:18.812           172.966              Murmansk1          5405.188
        48   01 Jun 2027 12:47:23.485   01 Jun 2027 12:49:09.112           105.627                Norilsk          3300.844
        49   01 Jun 2027 12:52:15.366   01 Jun 2027 12:52:53.678            38.312              Murmansk2          1197.250
        50   01 Jun 2027 13:55:37.794   01 Jun 2027 13:58:29.883           172.089               CapeTown          5377.781
        51   01 Jun 2027 14:01:08.110   01 Jun 2027 14:02:05.090            56.980               CapeTown          1780.625
        52   01 Jun 2027 14:20:38.900   01 Jun 2027 14:21:47.946            69.046              Murmansk1          2157.688
        53   01 Jun 2027 14:22:16.572   01 Jun 2027 14:23:10.771            54.199              Murmansk2          1693.719
        54   01 Jun 2027 14:24:59.964   01 Jun 2027 14:25:22.766            22.802              Murmansk1           712.562
        55   01 Jun 2027 14:29:27.297   01 Jun 2027 14:29:47.648            20.351              Murmansk1           635.969
        56   01 Jun 2027 14:35:06.006   01 Jun 2027 14:37:14.698           128.692                Anadyr2          4021.625
        57   01 Jun 2027 14:37:20.336   01 Jun 2027 14:38:29.794            69.458                Anadyr1          2170.562
        58   01 Jun 2027 15:33:03.637   01 Jun 2027 15:33:51.825            48.188               CapeTown          1505.875
        59   01 Jun 2027 15:59:36.158   01 Jun 2027 16:00:24.263            48.105              Murmansk2          1503.281
        60   01 Jun 2027 16:00:57.084   01 Jun 2027 16:01:28.483            31.399              Murmansk1           981.219
        61   01 Jun 2027 16:01:53.321   01 Jun 2027 16:02:46.705            53.384              Murmansk2          1668.250
        62   01 Jun 2027 16:10:30.208   01 Jun 2027 16:12:29.756           119.548                Anadyr2          3735.875
        63   01 Jun 2027 16:12:55.289   01 Jun 2027 16:13:07.561            12.272                Anadyr1           383.500
        64   01 Jun 2027 16:14:23.363   01 Jun 2027 16:16:36.123           132.760               Magadan1          4148.750
        65   01 Jun 2027 16:16:36.123   01 Jun 2027 16:18:57.627           141.504               Magadan2          4422.000
        66   01 Jun 2027 17:46:23.685   01 Jun 2027 17:49:51.696           208.011                Anadyr2          6500.344
        67   01 Jun 2027 17:50:11.938   01 Jun 2027 17:52:50.920           158.982               Magadan2          4968.188
        68   01 Jun 2027 19:22:16.401   01 Jun 2027 19:26:10.759           234.358                Anadyr1          7323.688
        69   01 Jun 2027 19:26:11.969   01 Jun 2027 19:28:28.468           136.499               Magadan1          4265.594
        70   01 Jun 2027 19:28:57.249   01 Jun 2027 19:30:23.692            86.443                Norilsk          2701.344
        71   01 Jun 2027 19:30:37.533   01 Jun 2027 19:30:56.521            18.988                Irkutsk           593.375
        72   01 Jun 2027 19:32:13.855   01 Jun 2027 19:33:10.185            56.330                Irkutsk          1760.312
        73   01 Jun 2027 19:33:24.895   01 Jun 2027 19:34:23.491            58.596                Irkutsk          1831.125
        74   01 Jun 2027 20:16:29.634   01 Jun 2027 20:17:08.966            39.332            RioGallegos          1229.125
        75   01 Jun 2027 20:17:48.080   01 Jun 2027 20:17:56.593             8.513            RioGallegos           266.031
        76   01 Jun 2027 20:57:45.565   01 Jun 2027 20:58:23.574            38.009                Anadyr2          1187.781
        77   01 Jun 2027 20:59:03.251   01 Jun 2027 20:59:55.514            52.263                Anadyr1          1633.219
        78   01 Jun 2027 21:00:08.446   01 Jun 2027 21:03:26.384           197.938                Norilsk          6185.562
        79   01 Jun 2027 21:04:07.892   01 Jun 2027 21:04:34.145            26.253                Norilsk           820.406
        80   01 Jun 2027 21:05:25.634   01 Jun 2027 21:06:45.624            79.990                Novosib          2499.688
        81   01 Jun 2027 21:08:56.379   01 Jun 2027 21:10:38.815           102.436                Novosib          3201.125
        82   01 Jun 2027 21:17:51.586   01 Jun 2027 21:19:21.518            89.932                Sumatra          2810.375
        83   01 Jun 2027 21:26:24.735   01 Jun 2027 21:27:05.641            40.906                Sumatra          1278.312
        84   01 Jun 2027 22:34:46.455   01 Jun 2027 22:35:01.904            15.449                Anadyr2           482.781
        85   01 Jun 2027 22:35:43.295   01 Jun 2027 22:35:57.048            13.753                Anadyr2           429.781
        86   01 Jun 2027 22:36:07.040   01 Jun 2027 22:36:40.629            33.589                Norilsk          1049.656
        87   01 Jun 2027 22:36:43.789   01 Jun 2027 22:38:01.109            77.320               Magadan2          2416.250
        88   01 Jun 2027 22:38:23.624   01 Jun 2027 22:38:36.500            12.876               Magadan2           402.375
        89   01 Jun 2027 22:39:45.113   01 Jun 2027 22:40:00.804            15.691               Magadan2           490.344
        90   01 Jun 2027 22:40:01.109   01 Jun 2027 22:40:32.505            31.396                Irkutsk           981.125
        91   01 Jun 2027 22:41:02.263   01 Jun 2027 22:41:15.475            13.212                Irkutsk           412.875
        92   01 Jun 2027 22:41:41.640   01 Jun 2027 22:42:14.656            33.016                Novosib          1031.750
        93   01 Jun 2027 22:42:58.228   01 Jun 2027 22:43:17.632            19.404                Novosib           606.375
        94   01 Jun 2027 22:45:39.129   01 Jun 2027 22:45:45.585             6.456                Novosib           201.750
        95   01 Jun 2027 22:47:31.487   01 Jun 2027 22:50:05.858           154.371                  Delhi          4824.094
        96   01 Jun 2027 22:53:39.360   01 Jun 2027 22:54:11.138            31.778                  Delhi           993.062
        97   01 Jun 2027 22:55:06.054   01 Jun 2027 22:56:29.436            83.382                  Delhi          2605.688
        98   02 Jun 2027 00:07:19.520   02 Jun 2027 00:08:07.626            48.106                Anadyr1          1503.312
        99   02 Jun 2027 00:11:13.840   02 Jun 2027 00:11:27.268            13.428                Anadyr2           419.625
       100   02 Jun 2027 00:11:39.710   02 Jun 2027 00:11:42.252             2.542                Anadyr2            79.438
       101   02 Jun 2027 00:11:48.688   02 Jun 2027 00:13:38.606           109.918               Magadan1          3434.937
       102   02 Jun 2027 00:14:21.144   02 Jun 2027 00:14:49.079            27.935               Magadan1           872.969
       103   02 Jun 2027 00:15:28.304   02 Jun 2027 00:18:44.716           196.412              Murmansk1          6137.875
       104   02 Jun 2027 00:20:02.090   02 Jun 2027 00:20:31.604            29.514                 Moscow           922.312
       105   02 Jun 2027 00:22:29.246   02 Jun 2027 00:22:54.674            25.428                 Moscow           794.625
       106   02 Jun 2027 00:23:31.036   02 Jun 2027 00:23:57.240            26.204                 Moscow           818.875
       107   02 Jun 2027 00:24:15.993   02 Jun 2027 00:24:28.725            12.732                 Moscow           397.875
       108   02 Jun 2027 00:46:59.687   02 Jun 2027 00:47:52.895            53.208               CapeTown          1662.750
       109   02 Jun 2027 00:49:35.200   02 Jun 2027 00:50:22.471            47.271               CapeTown          1477.219
       110   02 Jun 2027 01:39:12.712   02 Jun 2027 01:39:29.909            17.197                Anadyr1           537.406
       111   02 Jun 2027 01:41:31.146   02 Jun 2027 01:41:40.058             8.912                Anadyr2           278.500
       112   02 Jun 2027 01:41:51.001   02 Jun 2027 01:42:13.357            22.356                Anadyr2           698.625
       113   02 Jun 2027 01:43:49.024   02 Jun 2027 01:45:22.161            93.137               Magadan1          2910.531
       114   02 Jun 2027 01:46:38.428   02 Jun 2027 01:47:12.254            33.826               Magadan1          1057.062
       115   02 Jun 2027 01:50:04.722   02 Jun 2027 01:50:12.758             8.036                Norilsk           251.125
       116   02 Jun 2027 01:50:13.441   02 Jun 2027 01:52:51.983           158.542              Murmansk2          4954.437
       117   02 Jun 2027 01:58:48.479   02 Jun 2027 01:58:55.378             6.899                 Moscow           215.594
       118   02 Jun 2027 02:01:18.489   02 Jun 2027 02:01:33.952            15.463              Murmansk1           483.219
       119   02 Jun 2027 02:02:11.663   02 Jun 2027 02:02:20.301             8.638                 Moscow           269.938
       120   02 Jun 2027 02:03:04.448   02 Jun 2027 02:04:41.365            96.917                 Moscow          3028.656
       121   02 Jun 2027 02:27:56.447   02 Jun 2027 02:28:19.220            22.773               CapeTown           711.656
       122   02 Jun 2027 03:17:34.771   02 Jun 2027 03:17:38.639             3.868                Anadyr1           120.875
       123   02 Jun 2027 03:20:41.743   02 Jun 2027 03:23:16.193           154.450               Magadan2          4826.563
       124   02 Jun 2027 03:23:19.058   02 Jun 2027 03:26:32.537           193.479               Magadan2          6046.219
       125   02 Jun 2027 04:55:34.431   02 Jun 2027 04:57:34.882           120.451                Anadyr2          3764.094
       126   02 Jun 2027 04:57:50.572   02 Jun 2027 04:58:40.802            50.230               Magadan2          1569.688
       127   02 Jun 2027 04:58:45.827   02 Jun 2027 04:58:51.237             5.410               Magadan1           169.063
       128   02 Jun 2027 04:59:00.355   02 Jun 2027 04:59:19.741            19.386                Anadyr1           605.812
       129   02 Jun 2027 04:59:22.677   02 Jun 2027 05:01:32.953           130.276               Magadan1          4071.125
       130   02 Jun 2027 05:01:32.953   02 Jun 2027 05:01:53.516            20.563               Magadan2           642.594
       131   02 Jun 2027 06:32:41.319   02 Jun 2027 06:34:36.912           115.593               Magadan1          3612.281
       132   02 Jun 2027 06:34:36.912   02 Jun 2027 06:34:51.662            14.750               Magadan2           460.937
       133   02 Jun 2027 06:35:03.665   02 Jun 2027 06:35:48.886            45.221                Novosib          1413.156
       134   02 Jun 2027 06:35:51.616   02 Jun 2027 06:38:25.471           153.855               Magadan2          4807.969
       135   02 Jun 2027 08:10:25.905   02 Jun 2027 08:12:59.401           153.496               Magadan1          4796.750
       136   02 Jun 2027 08:13:10.532   02 Jun 2027 08:14:00.058            49.526                Irkutsk          1547.687
       137   02 Jun 2027 09:44:29.510   02 Jun 2027 09:44:44.038            14.528                Irkutsk           454.000
       138   02 Jun 2027 09:45:02.711   02 Jun 2027 09:46:16.863            74.152                Irkutsk          2317.250
       139   02 Jun 2027 09:46:39.435   02 Jun 2027 09:47:14.615            35.180                Irkutsk          1099.375
       140   02 Jun 2027 09:47:21.486   02 Jun 2027 09:47:50.451            28.965                Novosib           905.156
       141   02 Jun 2027 09:47:53.664   02 Jun 2027 09:48:18.950            25.286                Irkutsk           790.188
       142   02 Jun 2027 09:48:22.001   02 Jun 2027 09:48:26.073             4.072                Norilsk           127.250
       143   02 Jun 2027 09:48:29.399   02 Jun 2027 09:48:30.938             1.539                Novosib            48.094
       144   02 Jun 2027 09:48:43.028   02 Jun 2027 09:48:47.533             4.505                Irkutsk           140.781
       145   02 Jun 2027 09:48:51.567   02 Jun 2027 09:49:10.320            18.753                Irkutsk           586.031
       146   02 Jun 2027 09:49:12.147   02 Jun 2027 09:49:37.690            25.543                Novosib           798.219
       147   02 Jun 2027 09:49:58.165   02 Jun 2027 09:50:18.554            20.389                Norilsk           637.156
       148   02 Jun 2027 09:50:56.592   02 Jun 2027 09:51:23.238            26.646                Novosib           832.687
       149   02 Jun 2027 10:29:35.018   02 Jun 2027 10:30:17.169            42.151            RioGallegos          1317.219
       150   02 Jun 2027 11:08:32.765   02 Jun 2027 11:08:34.619             1.854                  Delhi            57.938
       151   02 Jun 2027 11:09:13.916   02 Jun 2027 11:10:14.240            60.324                  Delhi          1885.125
       152   02 Jun 2027 11:14:40.242   02 Jun 2027 11:16:56.216           135.974                  Delhi          4249.187
       153   02 Jun 2027 11:22:24.647   02 Jun 2027 11:22:29.247             4.600                Novosib           143.750
       154   02 Jun 2027 11:23:47.220   02 Jun 2027 11:24:07.049            19.829                Norilsk           619.656
       155   02 Jun 2027 11:24:50.935   02 Jun 2027 11:25:01.330            10.395                Novosib           324.844
       156   02 Jun 2027 11:25:06.937   02 Jun 2027 11:25:27.665            20.728                Norilsk           647.750
       157   02 Jun 2027 11:25:37.239   02 Jun 2027 11:25:47.192             9.953                Norilsk           311.031
       158   02 Jun 2027 11:25:48.673   02 Jun 2027 11:26:28.886            40.213                Novosib          1256.656
       159   02 Jun 2027 12:52:27.197   02 Jun 2027 12:55:19.475           172.278                 Moscow          5383.688
       160   02 Jun 2027 12:55:32.403   02 Jun 2027 12:56:21.235            48.832                 Moscow          1526.000
       161   02 Jun 2027 12:56:37.715   02 Jun 2027 12:58:14.038            96.323              Murmansk1          3010.094
       162   02 Jun 2027 12:59:14.050   02 Jun 2027 12:59:30.873            16.823              Murmansk1           525.719
       163   02 Jun 2027 12:59:55.336   02 Jun 2027 13:00:00.353             5.017              Murmansk2           156.781
       164   02 Jun 2027 13:03:10.274   02 Jun 2027 13:03:32.676            22.402                Norilsk           700.063
       165   02 Jun 2027 14:07:07.514   02 Jun 2027 14:10:17.205           189.691               CapeTown          5927.844
       166   02 Jun 2027 14:11:45.141   02 Jun 2027 14:12:36.325            51.184               CapeTown          1599.500
       167   02 Jun 2027 14:13:20.762   02 Jun 2027 14:13:53.404            32.642               CapeTown          1020.063
       168   02 Jun 2027 14:32:55.069   02 Jun 2027 14:33:56.171            61.102              Murmansk2          1909.437
       169   02 Jun 2027 14:34:23.249   02 Jun 2027 14:35:00.736            37.487              Murmansk1          1171.469
       170   02 Jun 2027 14:35:12.301   02 Jun 2027 14:35:18.422             6.121              Murmansk1           191.281
       171   02 Jun 2027 14:35:40.451   02 Jun 2027 14:35:47.380             6.929              Murmansk1           216.531
       172   02 Jun 2027 14:46:59.224   02 Jun 2027 14:49:14.917           135.693                Anadyr1          4240.406
       173   02 Jun 2027 14:51:58.041   02 Jun 2027 14:52:35.733            37.692                Anadyr1          1177.875
       174   02 Jun 2027 15:44:58.821   02 Jun 2027 15:45:03.906             5.085               CapeTown           158.906
       175   02 Jun 2027 15:46:17.092   02 Jun 2027 15:46:40.746            23.654               CapeTown           739.188
       176   02 Jun 2027 16:12:12.382   02 Jun 2027 16:14:01.932           109.550              Murmansk1          3423.438
       177   02 Jun 2027 16:15:15.289   02 Jun 2027 16:16:44.426            89.137              Murmansk1          2785.531
       178   02 Jun 2027 16:22:30.626   02 Jun 2027 16:22:53.452            22.826                Anadyr2           713.313
       179   02 Jun 2027 16:22:53.452   02 Jun 2027 16:23:28.146            34.694                Anadyr1          1084.187
       180   02 Jun 2027 16:23:36.393   02 Jun 2027 16:24:14.008            37.615                Anadyr2          1175.469
       181   02 Jun 2027 16:25:55.178   02 Jun 2027 16:26:45.045            49.867                Anadyr2          1558.344
       182   02 Jun 2027 16:27:32.067   02 Jun 2027 16:29:51.276           139.209               Magadan2          4350.281
       183   02 Jun 2027 16:29:51.276   02 Jun 2027 16:30:02.061            10.785               Magadan1           337.031
       184   02 Jun 2027 16:31:00.357   02 Jun 2027 16:31:43.781            43.424               Magadan1          1357.000
       185   02 Jun 2027 17:58:25.112   02 Jun 2027 18:00:15.578           110.466                Anadyr2          3452.063
       186   02 Jun 2027 18:00:25.154   02 Jun 2027 18:01:00.429            35.275                Anadyr2          1102.344
       187   02 Jun 2027 18:01:37.916   02 Jun 2027 18:01:40.458             2.542                Anadyr1            79.438
       188   02 Jun 2027 18:01:45.686   02 Jun 2027 18:02:57.826            72.140               Magadan2          2254.375
       189   02 Jun 2027 18:03:23.024   02 Jun 2027 18:03:45.675            22.651               Magadan1           707.844
       190   02 Jun 2027 18:04:35.535   02 Jun 2027 18:06:29.617           114.082               Magadan2          3565.062
       191   02 Jun 2027 19:34:16.331   02 Jun 2027 19:36:11.173           114.842                Anadyr2          3588.812
       192   02 Jun 2027 19:36:11.271   02 Jun 2027 19:38:09.429           118.158                Anadyr1          3692.437
       193   02 Jun 2027 19:38:37.771   02 Jun 2027 19:39:26.075            48.304               Magadan2          1509.500
       194   02 Jun 2027 19:40:03.537   02 Jun 2027 19:40:19.411            15.874                Norilsk           496.062
       195   02 Jun 2027 19:40:45.992   02 Jun 2027 19:41:00.864            14.872                Norilsk           464.750
       196   02 Jun 2027 19:41:55.335   02 Jun 2027 19:45:05.243           189.908                Irkutsk          5934.625
       197   02 Jun 2027 19:45:41.098   02 Jun 2027 19:46:34.393            53.295                Irkutsk          1665.469
       198   02 Jun 2027 19:47:03.923   02 Jun 2027 19:47:12.689             8.766                Irkutsk           273.937
       199   02 Jun 2027 19:57:53.949   02 Jun 2027 19:59:14.563            80.614                Sumatra          2519.188
       200   02 Jun 2027 19:59:44.694   02 Jun 2027 20:02:14.201           149.507                Sumatra          4672.094
       201   02 Jun 2027 21:16:08.041   02 Jun 2027 21:17:46.209            98.168                Irkutsk          3067.750
       202   02 Jun 2027 21:18:34.507   02 Jun 2027 21:19:37.229            62.722                Novosib          1960.062
       203   02 Jun 2027 21:22:47.021   02 Jun 2027 21:23:30.278            43.257                Novosib          1351.781
       204   02 Jun 2027 21:29:51.272   02 Jun 2027 21:30:07.751            16.479                Sumatra           514.969
       205   02 Jun 2027 21:36:32.155   02 Jun 2027 21:38:10.294            98.139                Sumatra          3066.844
       206   02 Jun 2027 22:48:09.017   02 Jun 2027 22:48:23.430            14.413                Norilsk           450.406
       207   02 Jun 2027 22:48:44.631   02 Jun 2027 22:49:19.235            34.604               Magadan2          1081.375
       208   02 Jun 2027 22:50:10.130   02 Jun 2027 22:50:18.603             8.473               Magadan2           264.781
       209   02 Jun 2027 22:51:37.929   02 Jun 2027 22:54:50.245           192.316              Murmansk2          6009.875
       210   02 Jun 2027 22:59:23.897   02 Jun 2027 23:00:41.852            77.955                  Delhi          2436.094
       211   02 Jun 2027 23:02:19.804   02 Jun 2027 23:03:16.715            56.911                  Delhi          1778.469
       212   02 Jun 2027 23:04:59.757   02 Jun 2027 23:05:23.729            23.972                  Delhi           749.125
       213   03 Jun 2027 00:17:20.705   03 Jun 2027 00:17:30.246             9.541                Anadyr1           298.156
       214   03 Jun 2027 00:18:44.741   03 Jun 2027 00:19:51.792            67.051                Anadyr2          2095.344
       215   03 Jun 2027 00:20:09.281   03 Jun 2027 00:20:13.497             4.216                Anadyr2           131.750
       216   03 Jun 2027 00:20:27.921   03 Jun 2027 00:20:45.871            17.950                Anadyr2           560.938
       217   03 Jun 2027 00:23:29.457   03 Jun 2027 00:25:26.630           117.173               Magadan2          3661.656
       218   03 Jun 2027 00:25:49.791   03 Jun 2027 00:26:14.582            24.791               Magadan2           774.719
       219   03 Jun 2027 00:26:22.296   03 Jun 2027 00:28:59.020           156.724              Murmansk1          4897.625
       220   03 Jun 2027 00:30:24.312   03 Jun 2027 00:31:15.824            51.512                 Moscow          1609.750
       221   03 Jun 2027 00:31:21.557   03 Jun 2027 00:32:08.587            47.030                 Moscow          1469.688
       222   03 Jun 2027 00:57:30.931   03 Jun 2027 00:59:13.416           102.485               CapeTown          3202.656
       223   03 Jun 2027 01:01:00.899   03 Jun 2027 01:02:02.684            61.785               CapeTown          1930.781
       224   03 Jun 2027 01:55:17.560   03 Jun 2027 01:56:55.726            98.166               Magadan2          3067.687
       225   03 Jun 2027 01:59:05.796   03 Jun 2027 01:59:11.095             5.299               Magadan1           165.594
       226   03 Jun 2027 01:59:46.567   03 Jun 2027 01:59:58.419            11.852                Norilsk           370.375
       227   03 Jun 2027 02:02:10.265   03 Jun 2027 02:02:15.013             4.748                Norilsk           148.375
       228   03 Jun 2027 02:02:15.127   03 Jun 2027 02:02:32.289            17.162              Murmansk2           536.313
       229   03 Jun 2027 02:02:51.475   03 Jun 2027 02:04:06.347            74.872              Murmansk1          2339.750
       230   03 Jun 2027 02:04:34.221   03 Jun 2027 02:05:20.941            46.720                Novosib          1460.000
       231   03 Jun 2027 02:07:05.647   03 Jun 2027 02:07:23.714            18.067                 Moscow           564.594
       232   03 Jun 2027 02:09:36.220   03 Jun 2027 02:10:10.362            34.142                 Moscow          1066.938
       233   03 Jun 2027 02:16:34.335   03 Jun 2027 02:16:51.615            17.280                 Moscow           540.000
       234   03 Jun 2027 02:29:24.874   03 Jun 2027 02:30:11.858            46.984               CapeTown          1468.250
       235   03 Jun 2027 02:38:06.513   03 Jun 2027 02:38:18.018            11.505               CapeTown           359.531
       236   03 Jun 2027 03:26:37.563   03 Jun 2027 03:27:29.626            52.063                Anadyr1          1626.969
       237   03 Jun 2027 03:32:16.866   03 Jun 2027 03:33:01.738            44.872               Magadan2          1402.250
       238   03 Jun 2027 03:33:11.812   03 Jun 2027 03:36:04.940           173.128               Magadan1          5410.250
       239   03 Jun 2027 03:36:04.940   03 Jun 2027 03:38:05.188           120.248               Magadan2          3757.750
       240   03 Jun 2027 05:08:46.733   03 Jun 2027 05:08:54.756             8.023               Magadan2           250.719
       241   03 Jun 2027 05:09:02.787   03 Jun 2027 05:10:06.087            63.300               Magadan2          1978.125
       242   03 Jun 2027 05:10:21.600   03 Jun 2027 05:10:29.334             7.734               Magadan2           241.687
       243   03 Jun 2027 05:10:36.584   03 Jun 2027 05:10:43.170             6.586               Magadan2           205.812
       244   03 Jun 2027 05:10:46.961   03 Jun 2027 05:11:12.555            25.594               Magadan2           799.812
       245   03 Jun 2027 05:11:21.298   03 Jun 2027 05:14:50.897           209.599                Anadyr1          6549.969
       246   03 Jun 2027 06:42:11.004   03 Jun 2027 06:42:49.498            38.494               Magadan1          1202.938
       247   03 Jun 2027 06:43:05.238   03 Jun 2027 06:43:30.864            25.626               Magadan2           800.813
       248   03 Jun 2027 06:43:36.338   03 Jun 2027 06:44:14.103            37.765                Anadyr1          1180.156
       249   03 Jun 2027 06:44:19.807   03 Jun 2027 06:44:36.871            17.064               Magadan1           533.250
       250   03 Jun 2027 06:44:38.377   03 Jun 2027 06:44:54.446            16.069               Magadan1           502.156
       251   03 Jun 2027 06:45:07.154   03 Jun 2027 06:45:58.345            51.191                Anadyr1          1599.719
       252   03 Jun 2027 06:46:25.736   03 Jun 2027 06:47:35.026            69.290                Anadyr2          2165.312
       253   03 Jun 2027 06:47:39.077   03 Jun 2027 06:48:15.297            36.220               Magadan1          1131.875
       254   03 Jun 2027 06:48:21.985   03 Jun 2027 06:48:38.306            16.321               Magadan2           510.031
       255   03 Jun 2027 06:48:38.306   03 Jun 2027 06:48:49.977            11.671               Magadan1           364.719
       256   03 Jun 2027 06:49:14.197   03 Jun 2027 06:50:23.190            68.993               Magadan1          2156.031
       257   03 Jun 2027 08:22:54.504   03 Jun 2027 08:23:18.818            24.314               Magadan2           759.813
       258   03 Jun 2027 08:24:00.236   03 Jun 2027 08:24:44.307            44.071                Irkutsk          1377.219
       259   03 Jun 2027 08:24:47.199   03 Jun 2027 08:25:42.238            55.039                Norilsk          1719.969
       260   03 Jun 2027 08:25:53.002   03 Jun 2027 08:25:59.752             6.750                Norilsk           210.937
       261   03 Jun 2027 08:26:28.431   03 Jun 2027 08:27:19.184            50.753                Norilsk          1586.031
       262   03 Jun 2027 09:01:20.948   03 Jun 2027 09:01:45.689            24.741            RioGallegos           773.156
       263   03 Jun 2027 09:04:19.283   03 Jun 2027 09:04:52.765            33.482            RioGallegos          1046.313
       264   03 Jun 2027 09:38:39.243   03 Jun 2027 09:38:59.130            19.887                Sumatra           621.469
       265   03 Jun 2027 09:44:40.759   03 Jun 2027 09:44:46.287             5.528                Sumatra           172.750
       266   03 Jun 2027 09:59:32.287   03 Jun 2027 09:59:59.349            27.062                Irkutsk           845.687
       267   03 Jun 2027 10:00:09.516   03 Jun 2027 10:00:18.589             9.073                Irkutsk           283.531
       268   03 Jun 2027 10:00:20.762   03 Jun 2027 10:00:31.303            10.541                Irkutsk           329.406
       269   03 Jun 2027 10:00:36.946   03 Jun 2027 10:00:38.148             1.202                Novosib            37.563
       270   03 Jun 2027 10:00:57.479   03 Jun 2027 10:01:42.713            45.234                Novosib          1413.563
       271   03 Jun 2027 10:02:09.540   03 Jun 2027 10:02:45.384            35.844                Novosib          1120.125
       272   03 Jun 2027 10:43:57.972   03 Jun 2027 10:44:00.059             2.087            RioGallegos            65.219
       273   03 Jun 2027 10:44:35.180   03 Jun 2027 10:45:26.052            50.872            RioGallegos          1589.750
       274   03 Jun 2027 11:20:20.126   03 Jun 2027 11:21:36.254            76.128                  Delhi          2379.000
       275   03 Jun 2027 11:34:46.756   03 Jun 2027 11:35:29.403            42.647                Norilsk          1332.719
       276   03 Jun 2027 11:36:37.752   03 Jun 2027 11:36:44.315             6.563                Novosib           205.094
       277   03 Jun 2027 11:37:25.550   03 Jun 2027 11:37:26.630             1.080                Norilsk            33.750
       278   03 Jun 2027 11:37:29.764   03 Jun 2027 11:37:37.830             8.066                Norilsk           252.062
       279   03 Jun 2027 11:37:47.455   03 Jun 2027 11:38:22.957            35.502                Norilsk          1109.438
       280   03 Jun 2027 13:04:27.619   03 Jun 2027 13:04:53.482            25.863                 Moscow           808.219
       281   03 Jun 2027 13:06:05.802   03 Jun 2027 13:06:41.695            35.893                 Moscow          1121.656
       282   03 Jun 2027 13:07:27.154   03 Jun 2027 13:08:39.063            71.909                 Moscow          2247.156
       283   03 Jun 2027 13:08:51.471   03 Jun 2027 13:09:19.897            28.426              Murmansk1           888.313
       284   03 Jun 2027 13:09:19.897   03 Jun 2027 13:09:45.818            25.921              Murmansk2           810.031
       285   03 Jun 2027 13:11:15.677   03 Jun 2027 13:11:51.819            36.142              Murmansk2          1129.437
       286   03 Jun 2027 13:12:33.974   03 Jun 2027 13:13:02.610            28.636                Norilsk           894.875
       287   03 Jun 2027 13:13:29.874   03 Jun 2027 13:14:24.257            54.383                Norilsk          1699.469
       288   03 Jun 2027 13:15:34.955   03 Jun 2027 13:15:59.043            24.088                Norilsk           752.750
       289   03 Jun 2027 14:18:45.635   03 Jun 2027 14:21:32.772           167.137               CapeTown          5223.031
       290   03 Jun 2027 14:22:08.528   03 Jun 2027 14:23:36.853            88.325               CapeTown          2760.156
       291   03 Jun 2027 14:45:13.309   03 Jun 2027 14:46:48.150            94.841              Murmansk1          2963.781
       292   03 Jun 2027 14:47:19.971   03 Jun 2027 14:47:38.699            18.728              Murmansk1           585.250
       293   03 Jun 2027 14:58:54.305   03 Jun 2027 15:02:34.000           219.695                Anadyr1          6865.469
       294   03 Jun 2027 16:24:52.220   03 Jun 2027 16:27:17.033           144.813              Murmansk2          4525.406
       295   03 Jun 2027 16:28:43.198   03 Jun 2027 16:29:09.077            25.879              Murmansk1           808.719
       296   03 Jun 2027 16:34:31.338   03 Jun 2027 16:35:17.311            45.973                Anadyr2          1436.656
       297   03 Jun 2027 16:35:33.867   03 Jun 2027 16:37:10.224            96.357                Anadyr1          3011.156
       298   03 Jun 2027 16:37:42.962   03 Jun 2027 16:39:30.802           107.840               Magadan1          3370.000
       299   03 Jun 2027 16:40:04.796   03 Jun 2027 16:41:51.548           106.752               Magadan2          3336.000
       300   03 Jun 2027 18:10:26.493   03 Jun 2027 18:13:00.000           153.507                Anadyr1          4797.094
       301   03 Jun 2027 18:13:17.999   03 Jun 2027 18:15:37.564           139.565               Magadan1          4361.406
       302   03 Jun 2027 18:18:46.637   03 Jun 2027 18:19:03.547            16.910               Magadan1           528.438
       303   03 Jun 2027 18:22:29.489   03 Jun 2027 18:23:39.961            70.472               Magadan1          2202.250
       304   03 Jun 2027 19:06:57.865   03 Jun 2027 19:09:21.625           143.760            RioGallegos          4492.500
       305   03 Jun 2027 19:46:15.854   03 Jun 2027 19:46:31.225            15.371                Anadyr1           480.344
       306   03 Jun 2027 19:48:07.046   03 Jun 2027 19:48:12.130             5.084                Anadyr2           158.875
       307   03 Jun 2027 19:48:27.662   03 Jun 2027 19:51:34.575           186.913                Norilsk          5841.031
       308   03 Jun 2027 19:53:28.206   03 Jun 2027 19:54:51.148            82.942                Irkutsk          2591.937
       309   03 Jun 2027 19:55:01.090   03 Jun 2027 19:56:59.068           117.978                Irkutsk          3686.813
       310   03 Jun 2027 19:57:35.661   03 Jun 2027 19:58:40.083            64.422                Irkutsk          2013.188
       311   03 Jun 2027 19:59:29.270   03 Jun 2027 20:00:08.991            39.721                Irkutsk          1241.281
       312   03 Jun 2027 20:08:35.883   03 Jun 2027 20:10:45.507           129.624                Sumatra          4050.750
       313   03 Jun 2027 20:15:10.230   03 Jun 2027 20:16:44.741            94.511                Sumatra          2953.469
       314   03 Jun 2027 21:29:09.921   03 Jun 2027 21:29:46.337            36.416                Novosib          1138.000
       315   03 Jun 2027 21:30:32.723   03 Jun 2027 21:30:52.861            20.138                Novosib           629.312
       316   03 Jun 2027 21:38:16.962   03 Jun 2027 21:38:39.468            22.506                Novosib           703.313
       317   03 Jun 2027 21:39:17.755   03 Jun 2027 21:40:42.971            85.216                  Delhi          2663.000
       318   03 Jun 2027 21:42:24.568   03 Jun 2027 21:43:44.338            79.770                  Delhi          2492.813
       319   03 Jun 2027 23:00:10.946   03 Jun 2027 23:00:15.111             4.165                Norilsk           130.156
       320   03 Jun 2027 23:00:44.667   03 Jun 2027 23:00:49.351             4.684               Magadan1           146.375
       321   03 Jun 2027 23:00:55.077   03 Jun 2027 23:01:03.020             7.943                Norilsk           248.219
       322   03 Jun 2027 23:01:20.055   03 Jun 2027 23:01:47.702            27.647                Norilsk           863.969
       323   03 Jun 2027 23:02:06.388   03 Jun 2027 23:02:25.568            19.180               Magadan2           599.375
       324   03 Jun 2027 23:03:14.256   03 Jun 2027 23:05:06.769           112.513              Murmansk1          3516.031
       325   03 Jun 2027 23:05:33.537   03 Jun 2027 23:06:03.243            29.706                Novosib           928.313
       326   03 Jun 2027 23:06:39.896   03 Jun 2027 23:06:43.558             3.662              Murmansk2           114.437
       327   03 Jun 2027 23:06:52.890   03 Jun 2027 23:08:09.990            77.100              Murmansk1          2409.375
       328   03 Jun 2027 23:11:20.016   03 Jun 2027 23:12:18.873            58.857                  Delhi          1839.281
       329   03 Jun 2027 23:12:57.564   03 Jun 2027 23:14:01.746            64.182                  Delhi          2005.687
       330   04 Jun 2027 00:29:02.261   04 Jun 2027 00:29:37.361            35.100                Anadyr1          1096.875
       331   04 Jun 2027 00:30:42.077   04 Jun 2027 00:31:22.124            40.047                Anadyr2          1251.469
       332   04 Jun 2027 00:31:50.333   04 Jun 2027 00:32:06.575            16.242                Anadyr2           507.563
       333   04 Jun 2027 00:34:48.902   04 Jun 2027 00:35:05.292            16.390                Anadyr2           512.187
       334   04 Jun 2027 00:35:06.100   04 Jun 2027 00:36:53.462           107.362               Magadan2          3355.063
       335   04 Jun 2027 00:38:22.188   04 Jun 2027 00:41:24.844           182.656              Murmansk1          5708.000
       336   04 Jun 2027 00:42:12.695   04 Jun 2027 00:43:22.322            69.627                 Moscow          2175.844
       337   04 Jun 2027 00:44:44.582   04 Jun 2027 00:46:13.652            89.070                 Moscow          2783.438
       338   04 Jun 2027 01:09:36.453   04 Jun 2027 01:10:42.041            65.588               CapeTown          2049.625
       339   04 Jun 2027 02:02:50.128   04 Jun 2027 02:03:07.616            17.488                Anadyr2           546.500
       340   04 Jun 2027 02:03:45.794   04 Jun 2027 02:04:00.171            14.377                Anadyr2           449.281
       341   04 Jun 2027 02:04:00.171   04 Jun 2027 02:04:42.574            42.403                Anadyr1          1325.094
       342   04 Jun 2027 02:06:46.877   04 Jun 2027 02:07:45.035            58.158               Magadan1          1817.437
       343   04 Jun 2027 02:07:45.035   04 Jun 2027 02:08:06.394            21.359               Magadan2           667.469
       344   04 Jun 2027 02:10:33.309   04 Jun 2027 02:10:37.808             4.499               Magadan1           140.594
       345   04 Jun 2027 02:11:44.150   04 Jun 2027 02:13:06.582            82.432                Norilsk          2576.000
       346   04 Jun 2027 02:14:16.876   04 Jun 2027 02:14:30.604            13.728              Murmansk1           429.000
       347   04 Jun 2027 02:14:47.247   04 Jun 2027 02:15:13.190            25.943              Murmansk2           810.719
       348   04 Jun 2027 02:15:29.289   04 Jun 2027 02:15:59.024            29.735              Murmansk2           929.219
       349   04 Jun 2027 02:16:44.815   04 Jun 2027 02:17:24.132            39.317                Novosib          1228.656
       350   04 Jun 2027 02:22:17.001   04 Jun 2027 02:22:27.106            10.105                 Moscow           315.781
       351   04 Jun 2027 02:28:18.763   04 Jun 2027 02:28:24.618             5.855                 Moscow           182.969
       352   04 Jun 2027 02:29:36.066   04 Jun 2027 02:29:58.607            22.541                 Moscow           704.406
       353   04 Jun 2027 02:41:23.042   04 Jun 2027 02:41:28.738             5.696               CapeTown           178.000
       354   04 Jun 2027 02:42:29.847   04 Jun 2027 02:44:02.449            92.602               CapeTown          2893.812
       355   04 Jun 2027 03:44:17.713   04 Jun 2027 03:48:05.626           227.913               Magadan2          7122.281
       356   04 Jun 2027 03:49:48.667   04 Jun 2027 03:50:04.655            15.988               Magadan1           499.625
       357   04 Jun 2027 05:25:02.097   04 Jun 2027 05:26:49.613           107.516                Anadyr2          3359.875
       358   04 Jun 2027 06:56:02.235   04 Jun 2027 06:56:09.039             6.804               Magadan1           212.625
       359   04 Jun 2027 06:56:14.948   04 Jun 2027 06:56:30.876            15.928               Magadan2           497.750
       360   04 Jun 2027 06:56:40.643   04 Jun 2027 06:57:06.725            26.082                Anadyr1           815.062
       361   04 Jun 2027 06:57:22.228   04 Jun 2027 06:58:35.611            73.383               Magadan2          2293.219
       362   04 Jun 2027 06:58:57.499   04 Jun 2027 06:59:11.997            14.498               Magadan2           453.063
       363   04 Jun 2027 06:59:16.078   04 Jun 2027 06:59:33.436            17.358               Magadan2           542.437
       364   04 Jun 2027 06:59:57.839   04 Jun 2027 07:00:03.288             5.449                Anadyr2           170.281
       365   04 Jun 2027 07:00:39.513   04 Jun 2027 07:00:53.276            13.763               Magadan1           430.094
       366   04 Jun 2027 07:00:53.276   04 Jun 2027 07:01:25.532            32.256               Magadan2          1008.000
       367   04 Jun 2027 07:02:03.226   04 Jun 2027 07:02:18.989            15.763               Magadan2           492.594
       368   04 Jun 2027 07:02:20.032   04 Jun 2027 07:02:28.341             8.309              Murmansk1           259.656
       369   04 Jun 2027 08:14:08.162   04 Jun 2027 08:14:42.395            34.233                Sumatra          1069.781
       370   04 Jun 2027 08:22:08.908   04 Jun 2027 08:23:07.458            58.550                Sumatra          1829.688
       371   04 Jun 2027 08:36:11.227   04 Jun 2027 08:36:41.453            30.226                Irkutsk           944.562
       372   04 Jun 2027 08:36:55.019   04 Jun 2027 08:37:28.540            33.521                Irkutsk          1047.531
       373   04 Jun 2027 08:37:42.034   04 Jun 2027 08:38:20.417            38.383                Irkutsk          1199.469
       374   04 Jun 2027 09:13:37.720   04 Jun 2027 09:14:03.254            25.534            RioGallegos           797.938
       375   04 Jun 2027 09:48:01.455   04 Jun 2027 09:49:00.770            59.315                Sumatra          1853.594
       376   04 Jun 2027 09:50:52.406   04 Jun 2027 09:52:26.172            93.766                Sumatra          2930.187
       377   04 Jun 2027 10:08:28.447   04 Jun 2027 10:08:36.610             8.163                  Delhi           255.094
       378   04 Jun 2027 10:11:17.942   04 Jun 2027 10:11:39.278            21.336                Novosib           666.750
       379   04 Jun 2027 10:11:55.783   04 Jun 2027 10:11:56.808             1.025                Novosib            32.031
       380   04 Jun 2027 10:12:03.947   04 Jun 2027 10:12:09.877             5.930                Norilsk           185.313
       381   04 Jun 2027 10:12:21.730   04 Jun 2027 10:12:48.853            27.123                Irkutsk           847.594
       382   04 Jun 2027 10:12:59.365   04 Jun 2027 10:13:47.228            47.863                Novosib          1495.719
       383   04 Jun 2027 10:13:57.465   04 Jun 2027 10:14:11.990            14.525                Norilsk           453.906
       384   04 Jun 2027 11:32:38.749   04 Jun 2027 11:34:43.003           124.254                  Delhi          3882.938
       385   04 Jun 2027 11:46:41.083   04 Jun 2027 11:47:20.562            39.479                Novosib          1233.719
       386   04 Jun 2027 11:47:35.222   04 Jun 2027 11:48:08.074            32.852                Novosib          1026.625
       387   04 Jun 2027 11:48:40.449   04 Jun 2027 11:49:48.691            68.242                Novosib          2132.562
       388   04 Jun 2027 13:16:30.953   04 Jun 2027 13:18:33.164           122.211                 Moscow          3819.094
       389   04 Jun 2027 13:19:34.046   04 Jun 2027 13:20:36.642            62.596                 Moscow          1956.125
       390   04 Jun 2027 13:20:38.930   04 Jun 2027 13:21:47.412            68.482              Murmansk1          2140.063
       391   04 Jun 2027 13:22:25.306   04 Jun 2027 13:23:06.070            40.764              Murmansk1          1273.875
       392   04 Jun 2027 13:25:24.524   04 Jun 2027 13:27:05.643           101.119                Norilsk          3159.969
       393   04 Jun 2027 14:30:29.724   04 Jun 2027 14:31:41.314            71.590               CapeTown          2237.188
       394   04 Jun 2027 14:32:24.431   04 Jun 2027 14:32:53.268            28.837               CapeTown           901.156
       395   04 Jun 2027 14:34:03.248   04 Jun 2027 14:34:31.962            28.714               CapeTown           897.313
       396   04 Jun 2027 14:37:59.398   04 Jun 2027 14:38:18.110            18.712               CapeTown           584.750
       397   04 Jun 2027 14:39:32.326   04 Jun 2027 14:39:54.871            22.545               CapeTown           704.531
       398   04 Jun 2027 14:41:13.428   04 Jun 2027 14:42:17.576            64.148               CapeTown          2004.625
       399   04 Jun 2027 14:57:33.711   04 Jun 2027 14:58:04.417            30.706              Murmansk1           959.562
       400   04 Jun 2027 14:59:14.829   04 Jun 2027 14:59:21.670             6.841              Murmansk1           213.781
       401   04 Jun 2027 14:59:37.465   04 Jun 2027 15:00:48.389            70.924              Murmansk2          2216.375
       402   04 Jun 2027 15:10:50.765   04 Jun 2027 15:13:14.092           143.327                Anadyr2          4478.969
       403   04 Jun 2027 15:16:10.188   04 Jun 2027 15:16:21.255            11.067                Anadyr2           345.844
       404   04 Jun 2027 15:16:31.448   04 Jun 2027 15:16:41.349             9.901                Anadyr1           309.406
       405   04 Jun 2027 15:20:53.591   04 Jun 2027 15:21:13.091            19.500                Anadyr2           609.375
       406   04 Jun 2027 16:12:07.882   04 Jun 2027 16:12:59.103            51.221               CapeTown          1600.656
       407   04 Jun 2027 16:37:36.342   04 Jun 2027 16:39:18.929           102.587              Murmansk2          3205.844
       408   04 Jun 2027 16:39:54.734   04 Jun 2027 16:40:41.008            46.274              Murmansk2          1446.062
       409   04 Jun 2027 16:46:32.288   04 Jun 2027 16:48:14.458           102.170                Anadyr2          3192.813
       410   04 Jun 2027 16:49:11.461   04 Jun 2027 16:49:39.982            28.521                Anadyr2           891.281
       411   04 Jun 2027 16:50:15.367   04 Jun 2027 16:53:10.867           175.500               Magadan1          5484.375
       412   04 Jun 2027 18:22:27.788   04 Jun 2027 18:24:18.518           110.730                Anadyr1          3460.313
       413   04 Jun 2027 18:24:45.880   04 Jun 2027 18:28:34.840           228.960               Magadan2          7155.000
       414   04 Jun 2027 19:18:10.435   04 Jun 2027 19:21:04.766           174.331            RioGallegos          5447.844
       415   04 Jun 2027 19:23:11.224   04 Jun 2027 19:24:37.899            86.675            RioGallegos          2708.594
       416   04 Jun 2027 20:00:24.821   04 Jun 2027 20:02:56.596           151.775                Norilsk          4742.969
       417   04 Jun 2027 20:04:07.375   04 Jun 2027 20:04:18.053            10.678                Norilsk           333.687
       418   04 Jun 2027 20:05:08.970   04 Jun 2027 20:08:20.777           191.807                Irkutsk          5993.969
       419   04 Jun 2027 20:20:47.778   04 Jun 2027 20:22:24.840            97.062                Sumatra          3033.187
       420   04 Jun 2027 20:22:27.461   04 Jun 2027 20:23:34.593            67.132                Sumatra          2097.875
       421   04 Jun 2027 20:24:43.123   04 Jun 2027 20:26:02.421            79.298                Sumatra          2478.063
       422   04 Jun 2027 21:40:05.943   04 Jun 2027 21:41:27.363            81.420                Irkutsk          2544.375
       423   04 Jun 2027 21:41:52.982   04 Jun 2027 21:43:21.204            88.222                Novosib          2756.937
       424   04 Jun 2027 21:49:57.652   04 Jun 2027 21:52:17.142           139.490                  Delhi          4359.062
       425   04 Jun 2027 21:54:33.414   04 Jun 2027 21:55:38.777            65.363                  Delhi          2042.594
       426   04 Jun 2027 23:11:47.324   04 Jun 2027 23:12:44.234            56.910                Anadyr1          1778.437
       427   04 Jun 2027 23:12:49.920   04 Jun 2027 23:12:52.483             2.563                Norilsk            80.094
       428   04 Jun 2027 23:12:59.784   04 Jun 2027 23:13:24.499            24.715               Magadan1           772.344
       429   04 Jun 2027 23:14:00.881   04 Jun 2027 23:14:01.040             0.159                Norilsk             4.969
       430   04 Jun 2027 23:14:06.327   04 Jun 2027 23:14:14.524             8.197               Magadan2           256.156
       431   04 Jun 2027 23:15:00.671   04 Jun 2027 23:17:06.894           126.223              Murmansk2          3944.469
       432   04 Jun 2027 23:18:06.913   04 Jun 2027 23:18:46.991            40.078              Murmansk1          1252.438
       433   04 Jun 2027 23:20:33.714   04 Jun 2027 23:21:04.480            30.766              Murmansk2           961.438
       434   04 Jun 2027 23:23:55.552   04 Jun 2027 23:25:43.445           107.893                  Delhi          3371.656
       435   05 Jun 2027 00:40:44.338   05 Jun 2027 00:41:27.718            43.380                Anadyr1          1355.625
       436   05 Jun 2027 00:41:49.631   05 Jun 2027 00:42:38.287            48.656                Anadyr1          1520.500
       437   05 Jun 2027 00:43:23.463   05 Jun 2027 00:43:31.567             8.104                Anadyr2           253.250
       438   05 Jun 2027 00:43:55.422   05 Jun 2027 00:44:00.228             4.806                Anadyr2           150.187
       439   05 Jun 2027 00:46:32.916   05 Jun 2027 00:46:47.100            14.184                Anadyr1           443.250
       440   05 Jun 2027 00:47:24.869   05 Jun 2027 00:49:12.637           107.768               Magadan1          3367.750
       441   05 Jun 2027 00:50:22.560   05 Jun 2027 00:53:02.341           159.781              Murmansk1          4993.156
       442   05 Jun 2027 00:53:12.611   05 Jun 2027 00:54:20.845            68.234              Murmansk2          2132.312
       443   05 Jun 2027 01:01:28.132   05 Jun 2027 01:01:41.805            13.673                 Moscow           427.281
       444   05 Jun 2027 01:04:49.334   05 Jun 2027 01:05:06.167            16.833                 Moscow           526.031
       445   05 Jun 2027 01:19:43.950   05 Jun 2027 01:21:07.816            83.866               CapeTown          2620.812
       446   05 Jun 2027 01:24:16.381   05 Jun 2027 01:25:01.675            45.294               CapeTown          1415.437
       447   05 Jun 2027 02:14:40.974   05 Jun 2027 02:14:44.020             3.046                Anadyr2            95.188
       448   05 Jun 2027 02:14:53.912   05 Jun 2027 02:15:44.493            50.581                Anadyr1          1580.656
       449   05 Jun 2027 02:18:17.206   05 Jun 2027 02:18:32.509            15.303               Magadan2           478.219
       450   05 Jun 2027 02:18:32.509   05 Jun 2027 02:19:34.022            61.513               Magadan1          1922.281
       451   05 Jun 2027 02:20:13.987   05 Jun 2027 02:20:59.361            45.374               Magadan2          1417.938
       452   05 Jun 2027 02:26:18.640   05 Jun 2027 02:28:07.913           109.273              Murmansk1          3414.781
       453   05 Jun 2027 02:28:57.566   05 Jun 2027 02:29:32.319            34.753                Novosib          1086.031
       454   05 Jun 2027 02:32:41.832   05 Jun 2027 02:32:50.182             8.350                 Moscow           260.937
       455   05 Jun 2027 02:33:54.740   05 Jun 2027 02:34:04.332             9.592                 Moscow           299.750
       456   05 Jun 2027 02:34:09.025   05 Jun 2027 02:34:13.531             4.506                 Moscow           140.812
       457   05 Jun 2027 02:34:52.048   05 Jun 2027 02:35:42.027            49.979                 Moscow          1561.844
       458   05 Jun 2027 02:55:43.951   05 Jun 2027 02:56:32.259            48.308               CapeTown          1509.625
       459   05 Jun 2027 03:00:16.341   05 Jun 2027 03:00:49.531            33.190               CapeTown          1037.187
       460   05 Jun 2027 03:56:43.783   05 Jun 2027 04:02:40.856           357.073               Magadan2         11158.531
       461   05 Jun 2027 05:35:00.628   05 Jun 2027 05:38:47.563           226.935                Anadyr1          7091.719
       462   05 Jun 2027 07:08:19.324   05 Jun 2027 07:08:38.693            19.369               Magadan2           605.281
       463   05 Jun 2027 07:09:01.140   05 Jun 2027 07:09:28.434            27.294               Magadan2           852.937
       464   05 Jun 2027 07:09:49.601   05 Jun 2027 07:09:55.363             5.762                Irkutsk           180.063
       465   05 Jun 2027 07:10:14.496   05 Jun 2027 07:11:54.771           100.275                Anadyr1          3133.594
       466   05 Jun 2027 07:12:40.329   05 Jun 2027 07:12:56.537            16.208               Magadan1           506.500
       467   05 Jun 2027 07:12:56.537   05 Jun 2027 07:13:12.978            16.441               Magadan2           513.781
       468   05 Jun 2027 07:13:14.587   05 Jun 2027 07:13:22.053             7.466                Norilsk           233.313
       469   05 Jun 2027 07:13:26.684   05 Jun 2027 07:13:50.789            24.105                Norilsk           753.281
       470   05 Jun 2027 07:13:53.569   05 Jun 2027 07:14:32.516            38.947                Norilsk          1217.094
       471   05 Jun 2027 07:55:12.105   05 Jun 2027 07:55:23.744            11.639            RioGallegos           363.719
       472   05 Jun 2027 08:25:25.421   05 Jun 2027 08:25:36.707            11.286                Sumatra           352.688
       473   05 Jun 2027 08:28:17.163   05 Jun 2027 08:29:28.406            71.243                Sumatra          2226.344
       474   05 Jun 2027 08:45:38.103   05 Jun 2027 08:45:41.441             3.338                Irkutsk           104.312
       475   05 Jun 2027 08:47:06.900   05 Jun 2027 08:47:28.486            21.586                Irkutsk           674.562
       476   05 Jun 2027 08:47:57.789   05 Jun 2027 08:48:22.152            24.363                Novosib           761.344
       477   05 Jun 2027 08:48:37.166   05 Jun 2027 08:49:17.263            40.097                Irkutsk          1253.031
       478   05 Jun 2027 08:49:48.360   05 Jun 2027 08:49:53.807             5.447                Irkutsk           170.219
       479   05 Jun 2027 08:51:27.583   05 Jun 2027 08:51:58.096            30.513                Norilsk           953.531
       480   05 Jun 2027 09:25:58.920   05 Jun 2027 09:26:52.482            53.562            RioGallegos          1673.813
       481   05 Jun 2027 10:00:15.968   05 Jun 2027 10:01:52.124            96.156                Sumatra          3004.875
       482   05 Jun 2027 10:23:37.072   05 Jun 2027 10:23:47.325            10.253                Novosib           320.406
