uniorb/output/strategy_4/Drop/Drop_KinoSat_110408.txt

KinoSat_110408
-------------------------
    Access    *     Start Time (UTCG)     *     Stop Time (UTCG)  *   Duration (s)        *       Station  *  Data (Mbytes)
         1   01 Jun 2027 03:22:01.289   01 Jun 2027 03:22:22.246            20.957               Magadan1          2619.625
         2   01 Jun 2027 03:22:41.546   01 Jun 2027 03:22:51.670            10.124               Magadan1          1265.500
         3   01 Jun 2027 03:22:51.670   01 Jun 2027 03:23:07.097            15.427               Magadan2          1928.375
         4   01 Jun 2027 03:23:12.009   01 Jun 2027 03:23:21.523             9.514                Anadyr1          1189.250
         5   01 Jun 2027 03:23:24.962   01 Jun 2027 03:24:34.543            69.581                Anadyr1          8697.625
         6   01 Jun 2027 03:24:47.173   01 Jun 2027 03:25:19.721            32.548                Anadyr2          4068.500
         7   01 Jun 2027 03:25:45.065   01 Jun 2027 03:26:55.288            70.223               Magadan2          8777.875
         8   01 Jun 2027 03:26:58.066   01 Jun 2027 03:27:01.975             3.909                Anadyr2           488.625
         9   01 Jun 2027 03:27:10.338   01 Jun 2027 03:28:29.002            78.664                Anadyr1          9833.000
        10   01 Jun 2027 03:29:11.646   01 Jun 2027 03:29:44.832            33.186               Magadan1          4148.250
        11   01 Jun 2027 03:29:48.046   01 Jun 2027 03:29:51.274             3.228                Anadyr2           403.500
        12   01 Jun 2027 03:30:05.910   01 Jun 2027 03:30:23.975            18.065               Magadan2          2258.125
        13   01 Jun 2027 04:43:49.323   01 Jun 2027 04:44:56.291            66.968                Sumatra          8371.000
        14   01 Jun 2027 04:46:56.786   01 Jun 2027 04:47:19.223            22.437                Sumatra          2804.625
        15   01 Jun 2027 05:00:51.928   01 Jun 2027 05:01:29.944            38.016               Magadan1          4752.000
        16   01 Jun 2027 05:01:39.642   01 Jun 2027 05:02:27.677            48.035                Irkutsk          6004.375
        17   01 Jun 2027 05:02:36.806   01 Jun 2027 05:02:59.051            22.245                Norilsk          2780.625
        18   01 Jun 2027 05:03:07.768   01 Jun 2027 05:05:14.206           126.438                Irkutsk         15804.750
        19   01 Jun 2027 05:05:45.840   01 Jun 2027 05:06:08.098            22.258                Novosib          2782.250
        20   01 Jun 2027 05:06:18.207   01 Jun 2027 05:06:40.084            21.877                Novosib          2734.625
        21   01 Jun 2027 05:06:53.263   01 Jun 2027 05:06:56.192             2.929              Murmansk1           366.125
        22   01 Jun 2027 05:41:14.629   01 Jun 2027 05:41:47.555            32.926            RioGallegos          4115.750
        23   01 Jun 2027 06:15:51.264   01 Jun 2027 06:17:58.630           127.366                Sumatra         15920.750
        24   01 Jun 2027 06:25:48.503   01 Jun 2027 06:26:17.439            28.936                  Delhi          3617.000
        25   01 Jun 2027 06:27:06.892   01 Jun 2027 06:29:00.984           114.092                  Delhi         14261.500
        26   01 Jun 2027 06:38:35.736   01 Jun 2027 06:39:06.559            30.823                Irkutsk          3852.875
        27   01 Jun 2027 06:39:14.647   01 Jun 2027 06:39:49.941            35.294                Novosib          4411.750
        28   01 Jun 2027 06:39:50.941   01 Jun 2027 06:40:50.456            59.515              Murmansk1          7439.375
        29   01 Jun 2027 06:41:09.728   01 Jun 2027 06:41:35.902            26.174              Murmansk1          3271.750
        30   01 Jun 2027 06:41:51.929   01 Jun 2027 06:42:42.281            50.352                Norilsk          6294.000
        31   01 Jun 2027 06:42:59.617   01 Jun 2027 06:43:23.875            24.258                 Moscow          3032.250
        32   01 Jun 2027 06:43:26.026   01 Jun 2027 06:43:46.745            20.719                 Moscow          2589.875
        33   01 Jun 2027 08:00:13.707   01 Jun 2027 08:01:24.227            70.520                  Delhi          8815.000
        34   01 Jun 2027 08:16:16.779   01 Jun 2027 08:16:41.528            24.749              Murmansk1          3093.625
        35   01 Jun 2027 08:16:49.018   01 Jun 2027 08:17:15.771            26.753              Murmansk1          3344.125
        36   01 Jun 2027 08:17:16.778   01 Jun 2027 08:19:18.845           122.067                Novosib         15258.375
        37   01 Jun 2027 08:19:21.954   01 Jun 2027 08:20:44.353            82.399                 Moscow         10299.875
        38   01 Jun 2027 09:52:47.768   01 Jun 2027 09:57:21.199           273.431                 Moscow         34178.875
        39   01 Jun 2027 09:57:24.849   01 Jun 2027 09:58:49.516            84.667                Norilsk         10583.375
        40   01 Jun 2027 09:59:11.580   01 Jun 2027 10:00:50.539            98.959              Murmansk2         12369.875
        41   01 Jun 2027 11:01:53.475   01 Jun 2027 11:07:23.755           330.280               CapeTown         41285.000
        42   01 Jun 2027 11:38:56.747   01 Jun 2027 11:41:33.607           156.860                Anadyr1         19607.500
        43   01 Jun 2027 11:41:51.283   01 Jun 2027 11:43:20.165            88.882                Anadyr2         11110.250
        44   01 Jun 2027 11:44:09.729   01 Jun 2027 11:44:24.799            15.070                Anadyr1          1883.750
        45   01 Jun 2027 11:47:59.206   01 Jun 2027 11:48:39.535            40.329                Anadyr2          5041.125
        46   01 Jun 2027 13:17:50.381   01 Jun 2027 13:21:48.139           237.758               Magadan2         29719.750
        47   01 Jun 2027 13:22:44.089   01 Jun 2027 13:24:17.032            92.943               Magadan1         11617.875
        48   01 Jun 2027 15:47:35.991   01 Jun 2027 15:49:51.324           135.333            RioGallegos         16916.625
        49   01 Jun 2027 16:33:39.873   01 Jun 2027 16:36:46.346           186.473                Irkutsk         23309.125
        50   01 Jun 2027 16:37:16.452   01 Jun 2027 16:38:28.061            71.609                Irkutsk          8951.125
        51   01 Jun 2027 16:49:06.520   01 Jun 2027 16:51:12.951           126.431                Sumatra         15803.875
        52   01 Jun 2027 16:53:09.528   01 Jun 2027 16:55:19.588           130.060                Sumatra         16257.500
        53   01 Jun 2027 18:12:40.737   01 Jun 2027 18:12:58.389            17.652                Novosib          2206.500
        54   01 Jun 2027 18:14:48.509   01 Jun 2027 18:15:06.955            18.446                Novosib          2305.750
        55   01 Jun 2027 18:20:43.377   01 Jun 2027 18:22:12.024            88.647                  Delhi         11080.875
        56   01 Jun 2027 21:18:34.344   01 Jun 2027 21:20:08.773            94.429              Murmansk1         11803.625
        57   01 Jun 2027 21:24:27.840   01 Jun 2027 21:25:06.929            39.089                 Moscow          1278.126
        58   02 Jun 2027 03:40:29.782   02 Jun 2027 03:41:30.744            60.962                Anadyr2          7620.250
        59   02 Jun 2027 03:41:42.291   02 Jun 2027 03:42:21.047            38.756               Magadan2          4844.500
        60   02 Jun 2027 03:42:23.638   02 Jun 2027 03:42:56.521            32.883              Murmansk1          4110.375
        61   02 Jun 2027 04:54:33.167   02 Jun 2027 04:57:03.389           150.222                Sumatra         18777.750
        62   02 Jun 2027 05:13:44.425   02 Jun 2027 05:14:06.221            21.796                Irkutsk          2724.500
        63   02 Jun 2027 05:15:04.999   02 Jun 2027 05:15:50.560            45.561                Irkutsk          5695.125
        64   02 Jun 2027 05:16:53.218   02 Jun 2027 05:17:51.840            58.622                Irkutsk          7327.750
        65   02 Jun 2027 05:20:56.223   02 Jun 2027 05:23:11.367           135.144              Murmansk2         16893.000
        66   02 Jun 2027 05:23:11.367   02 Jun 2027 05:26:17.336           185.969              Murmansk1         23246.125
        67   02 Jun 2027 06:01:18.188   02 Jun 2027 06:05:36.251           258.063            RioGallegos         32257.875
        68   02 Jun 2027 06:34:21.075   02 Jun 2027 06:40:22.986           361.911                Sumatra         45238.875
        69   02 Jun 2027 06:42:37.290   02 Jun 2027 06:43:01.674            24.384                Irkutsk          3048.000
        70   02 Jun 2027 06:52:47.644   02 Jun 2027 06:53:01.708            14.064                Irkutsk          1758.000
        71   02 Jun 2027 06:54:13.934   02 Jun 2027 06:55:50.582            96.648                Novosib         12081.000
        72   02 Jun 2027 06:56:12.969   02 Jun 2027 06:57:05.650            52.681              Murmansk2          6585.125
        73   02 Jun 2027 06:57:05.650   02 Jun 2027 07:01:19.510           253.860              Murmansk1         31732.500
        74   02 Jun 2027 07:36:04.848   02 Jun 2027 07:37:33.615            88.767            RioGallegos         11095.875
        75   02 Jun 2027 08:19:10.030   02 Jun 2027 08:24:23.917           313.887                  Delhi         39235.875
        76   02 Jun 2027 08:24:43.459   02 Jun 2027 08:25:07.943            24.484                 Moscow          3060.500
        77   02 Jun 2027 08:29:55.941   02 Jun 2027 08:30:11.296            15.355                 Moscow          1919.375
        78   02 Jun 2027 08:30:22.762   02 Jun 2027 08:31:10.633            47.871                Novosib          5983.875
        79   02 Jun 2027 08:31:26.184   02 Jun 2027 08:35:15.355           229.171                Norilsk         28646.375
        80   02 Jun 2027 08:35:24.305   02 Jun 2027 08:36:57.189            92.884              Murmansk1         11610.500
        81   02 Jun 2027 09:59:12.146   02 Jun 2027 10:00:19.919            67.773                 Moscow          8471.625
        82   02 Jun 2027 10:00:44.063   02 Jun 2027 10:01:05.942            21.879                 Moscow          2734.875
        83   02 Jun 2027 10:04:55.264   02 Jun 2027 10:06:56.103           120.839              Murmansk1         15104.875
        84   02 Jun 2027 10:07:07.200   02 Jun 2027 10:09:21.728           134.528                 Moscow         16816.000
        85   02 Jun 2027 10:10:14.154   02 Jun 2027 10:12:52.162           158.008              Murmansk2         19751.000
        86   02 Jun 2027 11:35:06.928   02 Jun 2027 11:44:33.053           566.125                 Moscow         70765.625
        87   02 Jun 2027 11:44:40.860   02 Jun 2027 11:48:49.108           248.248              Murmansk2         31031.000
        88   02 Jun 2027 11:51:11.521   02 Jun 2027 12:01:10.457           598.936                Anadyr1         74867.000
        89   02 Jun 2027 12:49:52.004   02 Jun 2027 12:50:58.730            66.726               CapeTown          8340.750
        90   02 Jun 2027 13:29:36.356   02 Jun 2027 13:35:12.193           335.837               Magadan2         41979.625
        91   02 Jun 2027 15:58:29.593   02 Jun 2027 16:01:36.531           186.938            RioGallegos         23367.250
        92   02 Jun 2027 16:45:29.113   02 Jun 2027 16:49:08.669           219.556                Irkutsk         27444.500
        93   02 Jun 2027 17:00:05.909   02 Jun 2027 17:02:55.554           169.645                Sumatra         21205.625
        94   02 Jun 2027 17:05:28.877   02 Jun 2027 17:09:05.702           216.825                Sumatra         27103.125
        95   02 Jun 2027 18:30:28.065   02 Jun 2027 18:32:08.591           100.526                  Delhi         12565.750
        96   02 Jun 2027 21:31:55.380   02 Jun 2027 21:33:23.279            87.899              Murmansk1         10987.375
        97   02 Jun 2027 21:38:08.897   02 Jun 2027 21:38:14.869             5.972                 Moscow           746.500
        98   02 Jun 2027 21:38:22.191   02 Jun 2027 21:39:34.298            72.107                 Moscow          9013.375
        99   02 Jun 2027 22:00:03.342   02 Jun 2027 22:02:28.794           145.452               CapeTown         10361.001
       100   03 Jun 2027 03:53:18.027   03 Jun 2027 03:53:35.864            17.837               Magadan2          2229.625
       101   03 Jun 2027 03:54:21.532   03 Jun 2027 03:59:34.513           312.981              Murmansk1         39122.625
       102   03 Jun 2027 05:05:43.095   03 Jun 2027 05:08:49.328           186.233                Sumatra         23279.125
       103   03 Jun 2027 05:30:23.666   03 Jun 2027 05:35:20.444           296.778                Norilsk         37097.250
       104   03 Jun 2027 05:35:23.939   03 Jun 2027 05:38:09.421           165.482              Murmansk1         20685.250
       105   03 Jun 2027 06:13:17.137   03 Jun 2027 06:17:30.192           253.055            RioGallegos         31631.875
       106   03 Jun 2027 06:48:07.385   03 Jun 2027 06:52:07.986           240.601                Sumatra         30075.125
       107   03 Jun 2027 06:55:34.517   03 Jun 2027 06:56:01.929            27.412                Irkutsk          3426.500
       108   03 Jun 2027 06:57:21.946   03 Jun 2027 07:00:37.239           195.293                Irkutsk         24411.625
       109   03 Jun 2027 07:05:37.205   03 Jun 2027 07:07:50.972           133.767                Novosib         16720.875
       110   03 Jun 2027 07:08:09.103   03 Jun 2027 07:11:19.155           190.052                Norilsk         23756.500
       111   03 Jun 2027 07:11:28.562   03 Jun 2027 07:13:17.002           108.440              Murmansk1         13555.000
       112   03 Jun 2027 08:32:18.190   03 Jun 2027 08:36:07.174           228.984                  Delhi         28623.000
       113   03 Jun 2027 08:36:07.698   03 Jun 2027 08:37:22.140            74.442                 Moscow          9305.250
       114   03 Jun 2027 08:42:18.466   03 Jun 2027 08:42:59.772            41.306                Novosib          5163.250
       115   03 Jun 2027 08:43:22.327   03 Jun 2027 08:47:16.011           233.684                Norilsk         29210.500
       116   03 Jun 2027 08:47:26.428   03 Jun 2027 08:48:57.783            91.355              Murmansk1         11419.375
       117   03 Jun 2027 10:11:47.211   03 Jun 2027 10:13:12.447            85.236                 Moscow         10654.500
       118   03 Jun 2027 10:15:17.958   03 Jun 2027 10:15:56.834            38.876              Murmansk2          4859.500
       119   03 Jun 2027 10:16:23.861   03 Jun 2027 10:18:53.256           149.395              Murmansk2         18674.375
       120   03 Jun 2027 10:19:00.695   03 Jun 2027 10:21:21.545           140.850                 Moscow         17606.250
       121   03 Jun 2027 10:22:12.458   03 Jun 2027 10:24:53.825           161.367              Murmansk2         20170.875
       122   03 Jun 2027 10:29:45.578   03 Jun 2027 10:31:29.586           104.008                Anadyr2         13001.000
       123   03 Jun 2027 11:34:03.855   03 Jun 2027 11:34:27.484            23.629               CapeTown          2953.625
       124   03 Jun 2027 11:51:14.734   03 Jun 2027 11:52:47.243            92.509              Murmansk2         11563.625
       125   03 Jun 2027 11:53:40.636   03 Jun 2027 11:56:19.427           158.791                 Moscow         19848.875
       126   03 Jun 2027 11:56:28.398   03 Jun 2027 12:00:49.780           261.382              Murmansk2         32672.750
       127   03 Jun 2027 12:03:41.711   03 Jun 2027 12:08:07.783           266.072                Anadyr2         33259.000
       128   03 Jun 2027 13:41:25.974   03 Jun 2027 13:47:09.673           343.699               Magadan2         42962.375
       129   03 Jun 2027 16:09:53.407   03 Jun 2027 16:13:25.414           212.007            RioGallegos         26500.875
       130   03 Jun 2027 16:16:11.609   03 Jun 2027 16:17:38.561            86.952            RioGallegos         10869.000
       131   03 Jun 2027 16:59:31.606   03 Jun 2027 17:01:02.922            91.316                Irkutsk         11414.500
       132   03 Jun 2027 17:11:23.759   03 Jun 2027 17:16:10.064           286.305                Sumatra         35788.125
       133   03 Jun 2027 18:41:29.957   03 Jun 2027 18:46:36.956           306.999                  Delhi         38374.875
       134   03 Jun 2027 21:44:55.244   03 Jun 2027 21:47:00.731           125.487              Murmansk1         15685.875
       135   03 Jun 2027 22:11:22.578   03 Jun 2027 22:12:30.810            68.232               CapeTown          5675.749
       136   04 Jun 2027 04:06:36.164   04 Jun 2027 04:07:15.974            39.810                Novosib          4976.250
       137   04 Jun 2027 04:07:25.826   04 Jun 2027 04:08:44.335            78.509                Norilsk          9813.625
       138   04 Jun 2027 05:17:07.302   04 Jun 2027 05:18:04.370            57.068                Sumatra          7133.500
       139   04 Jun 2027 05:18:45.043   04 Jun 2027 05:20:20.267            95.224                Sumatra         11903.000
       140   04 Jun 2027 05:42:25.348   04 Jun 2027 05:47:21.720           296.372                Norilsk         37046.500
       141   04 Jun 2027 05:47:34.738   04 Jun 2027 05:50:02.260           147.522              Murmansk2         18440.250
       142   04 Jun 2027 06:25:14.888   04 Jun 2027 06:29:21.977           247.089            RioGallegos         30886.125
       143   04 Jun 2027 07:00:06.768   04 Jun 2027 07:03:45.879           219.111                Sumatra         27388.875
       144   04 Jun 2027 07:07:40.835   04 Jun 2027 07:08:20.300            39.465                Irkutsk          4933.125
       145   04 Jun 2027 07:09:21.239   04 Jun 2027 07:13:30.692           249.453                Irkutsk         31181.625
       146   04 Jun 2027 07:18:01.540   04 Jun 2027 07:19:50.632           109.092                Novosib         13636.500
       147   04 Jun 2027 07:19:57.611   04 Jun 2027 07:23:21.033           203.422                Norilsk         25427.750
       148   04 Jun 2027 07:23:48.272   04 Jun 2027 07:25:15.012            86.740              Murmansk2         10842.500
       149   04 Jun 2027 08:44:12.349   04 Jun 2027 08:47:43.981           211.632                  Delhi         26454.000
       150   04 Jun 2027 08:47:54.761   04 Jun 2027 08:50:27.018           152.257                Novosib         19032.125
       151   04 Jun 2027 08:53:45.000   04 Jun 2027 08:54:45.288            60.288                Novosib          7536.000
       152   04 Jun 2027 08:54:46.719   04 Jun 2027 08:59:16.225           269.506                Norilsk         33688.250
       153   04 Jun 2027 08:59:20.743   04 Jun 2027 09:00:58.602            97.859              Murmansk1         12232.375
       154   04 Jun 2027 10:23:46.880   04 Jun 2027 10:25:18.301            91.421                 Moscow         11427.625
       155   04 Jun 2027 10:27:08.628   04 Jun 2027 10:30:50.972           222.344              Murmansk2         27793.000
       156   04 Jun 2027 10:30:53.921   04 Jun 2027 10:33:20.566           146.645                 Moscow         18330.625
       157   04 Jun 2027 10:33:37.526   04 Jun 2027 10:34:04.893            27.367                Norilsk          3420.875
       158   04 Jun 2027 10:34:12.162   04 Jun 2027 10:36:55.493           163.331              Murmansk1         20416.375
       159   04 Jun 2027 10:40:16.648   04 Jun 2027 10:43:25.302           188.654                Anadyr1         23581.750
       160   04 Jun 2027 13:53:18.169   04 Jun 2027 13:57:37.105           258.936               Magadan1         32367.000
       161   04 Jun 2027 13:59:26.270   04 Jun 2027 13:59:56.729            30.459               Magadan2          3807.375
       162   04 Jun 2027 14:02:14.470   04 Jun 2027 14:02:47.886            33.416               Magadan2          4177.000
       163   04 Jun 2027 16:21:28.958   04 Jun 2027 16:27:03.677           334.719            RioGallegos         41839.875
       164   04 Jun 2027 16:28:12.082   04 Jun 2027 16:28:13.267             1.185            RioGallegos           148.125
       165   04 Jun 2027 17:11:14.562   04 Jun 2027 17:12:58.835           104.273                Irkutsk         13034.125
       166   04 Jun 2027 17:22:53.288   04 Jun 2027 17:24:20.104            86.816                Sumatra         10852.000
       167   04 Jun 2027 17:26:39.542   04 Jun 2027 17:29:49.546           190.004                Sumatra         23750.500
       168   04 Jun 2027 18:44:28.087   04 Jun 2027 18:45:59.322            91.235                Novosib         11404.375
       169   04 Jun 2027 18:52:51.758   04 Jun 2027 18:56:18.457           206.699                  Delhi         25837.375
       170   04 Jun 2027 20:26:03.432   04 Jun 2027 20:26:36.114            32.682                 Moscow          4085.250
       171   04 Jun 2027 21:54:23.781   04 Jun 2027 21:55:13.202            49.421              Murmansk1          6177.625
       172   04 Jun 2027 21:59:49.988   04 Jun 2027 22:00:44.185            54.197                 Moscow          5654.250
       173   05 Jun 2027 04:18:21.872   05 Jun 2027 04:19:27.546            65.674                Norilsk          8209.250
       174   05 Jun 2027 05:28:41.418   05 Jun 2027 05:30:31.495           110.077                Sumatra         13759.625
       175   05 Jun 2027 05:43:06.533   05 Jun 2027 05:44:07.995            61.462                  Delhi          7682.750
       176   05 Jun 2027 05:54:20.289   05 Jun 2027 05:55:54.580            94.291                Novosib         11786.375
       177   05 Jun 2027 05:56:01.889   05 Jun 2027 05:59:23.162           201.273                Norilsk         25159.125
       178   05 Jun 2027 05:59:36.747   05 Jun 2027 06:01:55.841           139.094              Murmansk2         17386.750
       179   05 Jun 2027 06:37:11.264   05 Jun 2027 06:41:11.046           239.782            RioGallegos         29972.750
       180   05 Jun 2027 07:12:00.533   05 Jun 2027 07:15:15.017           194.484                Sumatra         24310.500
       181   05 Jun 2027 07:19:13.018   05 Jun 2027 07:20:30.393            77.375                Novosib          9671.875
       182   05 Jun 2027 07:21:19.457   05 Jun 2027 07:25:38.634           259.177                Irkutsk         32397.125
       183   05 Jun 2027 07:30:16.269   05 Jun 2027 07:31:49.473            93.204                Novosib         11650.500
       184   05 Jun 2027 07:32:04.953   05 Jun 2027 07:35:22.866           197.913                Norilsk         24739.125
       185   05 Jun 2027 07:35:29.773   05 Jun 2027 07:37:13.499           103.726              Murmansk1         12965.750
       186   05 Jun 2027 08:56:02.580   05 Jun 2027 08:59:11.804           189.224                  Delhi         23653.000
       187   05 Jun 2027 08:59:22.944   05 Jun 2027 09:01:26.569           123.625                Novosib         15453.125
       188   05 Jun 2027 09:05:46.610   05 Jun 2027 09:06:03.590            16.980                Novosib          2122.500
       189   05 Jun 2027 09:06:47.842   05 Jun 2027 09:11:15.868           268.026                Norilsk         33503.250
       190   05 Jun 2027 09:12:08.350   05 Jun 2027 09:12:59.632            51.282              Murmansk2          6410.250
       191   05 Jun 2027 10:35:45.726   05 Jun 2027 10:36:53.770            68.044                 Moscow          8505.500
       192   05 Jun 2027 10:39:09.413   05 Jun 2027 10:42:49.198           219.785              Murmansk2         27473.125
       193   05 Jun 2027 10:42:49.863   05 Jun 2027 10:45:18.669           148.806                 Moscow         18600.750
       194   05 Jun 2027 10:45:52.320   05 Jun 2027 10:48:57.139           184.819              Murmansk1         23102.375
       195   05 Jun 2027 10:51:52.011   05 Jun 2027 10:58:03.644           371.633                Anadyr1         46454.125
       196   05 Jun 2027 11:53:45.907   05 Jun 2027 11:57:05.379           199.472               CapeTown         24934.000
       197   05 Jun 2027 14:05:12.301   05 Jun 2027 14:09:35.440           263.139               Magadan2         32892.375
       198   05 Jun 2027 14:14:15.034   05 Jun 2027 14:14:43.251            28.217               Magadan1          3527.125
       199   05 Jun 2027 16:33:11.247   05 Jun 2027 16:39:22.319           371.072            RioGallegos         46384.000
       200   05 Jun 2027 17:20:39.368   05 Jun 2027 17:23:18.396           159.028                Irkutsk         19878.500
       201   05 Jun 2027 17:23:42.902   05 Jun 2027 17:24:55.619            72.717                Novosib          9089.625
       202   05 Jun 2027 17:25:51.654   05 Jun 2027 17:26:02.777            11.123                Novosib          1390.375
       203   05 Jun 2027 17:34:31.475   05 Jun 2027 17:36:22.213           110.738                Sumatra         13842.250
       204   05 Jun 2027 17:46:25.097   05 Jun 2027 17:46:32.571             7.474                Sumatra           934.250
       205   05 Jun 2027 18:56:22.733   05 Jun 2027 18:58:23.252           120.519                Novosib         15064.875
       206   05 Jun 2027 19:04:24.612   05 Jun 2027 19:06:23.190           118.578                  Delhi         14822.250
       207   05 Jun 2027 19:11:10.592   05 Jun 2027 19:11:11.521             0.929                  Delhi           116.125
       208   05 Jun 2027 20:34:50.984   05 Jun 2027 20:35:08.608            17.624              Murmansk2          2203.000
       209   05 Jun 2027 20:36:09.537   05 Jun 2027 20:38:25.414           135.877                 Moscow         16984.625
       210   05 Jun 2027 20:39:10.929   05 Jun 2027 20:41:05.980           115.051                 Moscow          6218.125
       211   06 Jun 2027 04:25:39.249   06 Jun 2027 04:26:36.370            57.121                Irkutsk          7140.125
       212   06 Jun 2027 05:42:11.072   06 Jun 2027 05:42:53.437            42.365                Sumatra          5295.625
       213   06 Jun 2027 05:43:32.326   06 Jun 2027 05:44:42.418            70.092                Sumatra          8761.500
       214   06 Jun 2027 05:52:47.082   06 Jun 2027 05:53:03.347            16.265                  Delhi          2033.125
       215   06 Jun 2027 06:06:10.092   06 Jun 2027 06:06:22.059            11.967                Irkutsk          1495.875
       216   06 Jun 2027 06:06:28.968   06 Jun 2027 06:11:24.733           295.765                Norilsk         36970.625
       217   06 Jun 2027 06:11:38.661   06 Jun 2027 06:13:50.152           131.491              Murmansk1         16436.375
       218   06 Jun 2027 06:49:06.013   06 Jun 2027 06:52:56.511           230.498            RioGallegos         28812.250
       219   06 Jun 2027 07:23:48.359   06 Jun 2027 07:26:32.321           163.962                Sumatra         20495.250
       220   06 Jun 2027 07:31:24.923   06 Jun 2027 07:32:44.419            79.496                Novosib          9937.000
       221   06 Jun 2027 07:33:15.492   06 Jun 2027 07:38:24.451           308.959                Irkutsk         38619.875
       222   06 Jun 2027 07:41:44.830   06 Jun 2027 07:42:08.217            23.387                 Moscow          2923.375
       223   06 Jun 2027 07:42:14.883   06 Jun 2027 07:43:47.364            92.481                Novosib         11560.125
       224   06 Jun 2027 07:43:53.664   06 Jun 2027 07:47:24.622           210.958                Norilsk         26369.750
       225   06 Jun 2027 07:47:27.211   06 Jun 2027 07:49:12.436           105.225              Murmansk2         13153.125
       226   06 Jun 2027 09:07:48.194   06 Jun 2027 09:10:25.209           157.015                  Delhi         19626.875
       227   06 Jun 2027 09:11:34.552   06 Jun 2027 09:13:14.997           100.445                Novosib         12555.625
       228   06 Jun 2027 09:13:19.675   06 Jun 2027 09:13:26.042             6.367              Murmansk2           795.875
       229   06 Jun 2027 09:17:32.908   06 Jun 2027 09:17:56.933            24.025                Novosib          3003.125
       230   06 Jun 2027 09:18:48.653   06 Jun 2027 09:23:14.781           266.128                Norilsk         33266.000
       231   06 Jun 2027 09:23:59.582   06 Jun 2027 09:25:00.833            61.251              Murmansk1          7656.375
       232   06 Jun 2027 10:28:47.683   06 Jun 2027 10:31:20.008           152.325               CapeTown         19040.625
       233   06 Jun 2027 10:47:43.622   06 Jun 2027 10:48:20.529            36.907                 Moscow          4613.375
       234   06 Jun 2027 10:51:22.929   06 Jun 2027 10:54:47.897           204.968              Murmansk1         25621.000
       235   06 Jun 2027 10:54:48.588   06 Jun 2027 10:57:15.691           147.103                 Moscow         18387.875
       236   06 Jun 2027 10:57:18.508   06 Jun 2027 11:00:58.730           220.222              Murmansk2         27527.750
       237   06 Jun 2027 11:03:36.162   06 Jun 2027 11:09:50.295           374.133                Anadyr1         46766.625
       238   06 Jun 2027 12:43:48.662   06 Jun 2027 12:46:29.567           160.905               Magadan1         20113.125
       239   06 Jun 2027 14:17:07.938   06 Jun 2027 14:18:48.379           100.441               Magadan2         12555.125
       240   06 Jun 2027 16:44:58.027   06 Jun 2027 16:50:51.211           353.184            RioGallegos         44148.000
       241   06 Jun 2027 17:34:28.509   06 Jun 2027 17:39:52.478           323.969                Novosib         40496.125
       242   06 Jun 2027 17:46:49.515   06 Jun 2027 17:47:57.869            68.354                Sumatra          8544.250
       243   06 Jun 2027 17:49:00.793   06 Jun 2027 17:50:46.218           105.425                Sumatra         13178.125
       244   06 Jun 2027 19:16:04.945   06 Jun 2027 19:17:47.363           102.418                  Delhi         12802.250
       245   06 Jun 2027 19:20:57.262   06 Jun 2027 19:21:15.748            18.486                  Delhi          2310.750
       246   06 Jun 2027 20:43:29.192   06 Jun 2027 20:44:12.149            42.957              Murmansk2          5369.625
       247   06 Jun 2027 20:47:29.377   06 Jun 2027 20:50:24.962           175.585                 Moscow         19570.000
       248   07 Jun 2027 04:42:33.096   07 Jun 2027 04:42:56.076            22.980                Norilsk          2872.500
       249   07 Jun 2027 04:43:06.945   07 Jun 2027 04:50:59.969           473.024              Murmansk1         59128.000
       250   07 Jun 2027 05:17:11.139   07 Jun 2027 05:29:59.574           768.435            RioGallegos         96054.375
       251   07 Jun 2027 05:52:11.707   07 Jun 2027 05:55:06.527           174.820                Sumatra         21852.500
       252   07 Jun 2027 06:18:12.758   07 Jun 2027 06:18:19.384             6.626                Irkutsk           828.250
       253   07 Jun 2027 06:18:30.857   07 Jun 2027 06:18:45.805            14.948                Norilsk          1868.500
       254   07 Jun 2027 06:18:47.202   07 Jun 2027 06:20:00.412            73.210                Novosib          9151.250
       255   07 Jun 2027 06:20:33.908   07 Jun 2027 06:21:08.224            34.316              Murmansk1          4289.500
       256   07 Jun 2027 06:21:22.483   07 Jun 2027 06:23:26.425           123.942                Norilsk         15492.750
       257   07 Jun 2027 06:23:30.225   07 Jun 2027 06:25:45.167           134.942              Murmansk2         16867.750
       258   07 Jun 2027 07:00:58.810   07 Jun 2027 07:04:36.890           218.080            RioGallegos         27260.000
       259   07 Jun 2027 07:35:29.546   07 Jun 2027 07:37:30.732           121.186                Sumatra         15148.250
       260   07 Jun 2027 07:43:40.296   07 Jun 2027 07:43:42.905             2.609                Novosib           326.125
       261   07 Jun 2027 07:44:22.216   07 Jun 2027 07:49:01.585           279.369                  Delhi         34921.125
       262   07 Jun 2027 07:49:02.348   07 Jun 2027 07:50:41.136            98.788                Irkutsk         12348.500
       263   07 Jun 2027 07:54:04.877   07 Jun 2027 07:55:44.142            99.265                Novosib         12408.125
       264   07 Jun 2027 07:55:59.323   07 Jun 2027 07:59:26.265           206.942                Norilsk         25867.750
       265   07 Jun 2027 07:59:29.351   07 Jun 2027 08:01:11.773           102.422              Murmansk2         12802.750
       266   07 Jun 2027 09:19:28.081   07 Jun 2027 09:21:06.639            98.558                  Delhi         12319.750
       267   07 Jun 2027 09:29:27.143   07 Jun 2027 09:30:17.520            50.377                 Moscow          6297.125
       268   07 Jun 2027 09:31:19.298   07 Jun 2027 09:35:12.723           233.425                Norilsk         29178.125
       269   07 Jun 2027 09:35:49.938   07 Jun 2027 09:37:02.176            72.238              Murmansk2          9029.750
       270   07 Jun 2027 10:59:40.407   07 Jun 2027 11:00:33.038            52.631                 Moscow          6578.875
       271   07 Jun 2027 11:03:24.502   07 Jun 2027 11:03:52.168            27.666              Murmansk2          3458.250
       272   07 Jun 2027 11:04:03.785   07 Jun 2027 11:09:11.427           307.642                 Moscow         38455.250
       273   07 Jun 2027 11:09:19.712   07 Jun 2027 11:13:00.228           220.516              Murmansk1         27564.500
       274   07 Jun 2027 11:15:58.629   07 Jun 2027 11:23:40.506           461.877                Anadyr1         57734.625
       275   07 Jun 2027 12:15:02.688   07 Jun 2027 12:22:51.612           468.924               CapeTown         58615.500
       276   07 Jun 2027 12:39:36.391   07 Jun 2027 12:46:32.727           416.336              Murmansk2         52042.000
       277   07 Jun 2027 12:51:27.365   07 Jun 2027 12:53:10.955           103.590                Anadyr1         12948.750
       278   07 Jun 2027 12:54:53.613   07 Jun 2027 12:57:41.203           167.590               Magadan2         20948.750
       279   07 Jun 2027 14:29:04.777   07 Jun 2027 14:30:36.337            91.560               Magadan2         11445.000
       280   07 Jun 2027 16:11:22.804   07 Jun 2027 16:15:20.540           237.736                Irkutsk         29717.000
       281   07 Jun 2027 16:56:48.080   07 Jun 2027 16:58:13.446            85.366            RioGallegos         10670.750
       282   07 Jun 2027 16:59:25.652   07 Jun 2027 17:00:15.698            50.046            RioGallegos          6255.750
       283   07 Jun 2027 17:45:52.470   07 Jun 2027 17:49:26.992           214.522                Novosib         26815.250
       284   07 Jun 2027 17:50:05.781   07 Jun 2027 17:52:07.516           121.735                Novosib         15216.875
       285   07 Jun 2027 19:27:50.910   07 Jun 2027 19:32:07.969           257.059                  Delhi         32132.375
       286   07 Jun 2027 20:59:03.799   07 Jun 2027 21:02:25.259           201.460                 Moscow         22429.750
       287   08 Jun 2027 03:17:08.844   08 Jun 2027 03:17:47.436            38.592                Norilsk          4824.000
       288   08 Jun 2027 03:18:07.637   08 Jun 2027 03:18:19.507            11.870                Anadyr1          1483.750
       289   08 Jun 2027 03:18:28.036   08 Jun 2027 03:18:40.585            12.549               Magadan2          1568.625
       290   08 Jun 2027 03:18:48.061   08 Jun 2027 03:19:32.338            44.277                Norilsk          5534.625
       291   08 Jun 2027 03:19:36.659   08 Jun 2027 03:22:58.098           201.439              Murmansk1         25179.875
       292   08 Jun 2027 04:54:34.157   08 Jun 2027 04:54:52.125            17.968                Norilsk          2246.000
       293   08 Jun 2027 04:55:05.455   08 Jun 2027 04:55:31.319            25.864                Norilsk          3233.000
       294   08 Jun 2027 04:55:32.988   08 Jun 2027 04:55:46.156            13.168                Novosib          1646.000
       295   08 Jun 2027 04:57:24.671   08 Jun 2027 05:02:49.898           325.227              Murmansk2         40653.375
       296   08 Jun 2027 05:37:31.816   08 Jun 2027 05:41:58.001           266.185            RioGallegos         33273.125
       297   08 Jun 2027 06:11:48.797   08 Jun 2027 06:16:49.516           300.719                Sumatra         37589.875
       298   08 Jun 2027 06:20:34.211   08 Jun 2027 06:24:22.150           227.939                Irkutsk         28492.375
       299   08 Jun 2027 06:30:34.243   08 Jun 2027 06:32:02.578            88.335                Novosib         11041.875
       300   08 Jun 2027 06:32:24.558   08 Jun 2027 06:35:28.200           183.642                Norilsk         22955.250
       301   08 Jun 2027 06:35:42.081   08 Jun 2027 06:37:40.854           118.773              Murmansk1         14846.625
       302   08 Jun 2027 07:12:49.164   08 Jun 2027 07:16:09.341           200.177            RioGallegos         25022.125
       303   08 Jun 2027 07:47:02.837   08 Jun 2027 07:47:42.202            39.365                Sumatra          4920.625
       304   08 Jun 2027 07:53:57.949   08 Jun 2027 08:00:57.711           419.762                  Delhi         52470.250
       305   08 Jun 2027 08:01:09.123   08 Jun 2027 08:02:15.971            66.848                Novosib          8356.000
       306   08 Jun 2027 08:06:13.194   08 Jun 2027 08:09:21.471           188.277                 Moscow         23534.625
       307   08 Jun 2027 08:09:21.484   08 Jun 2027 08:11:27.744           126.260                Norilsk         15782.500
       308   08 Jun 2027 08:11:28.956   08 Jun 2027 08:13:11.472           102.516              Murmansk1         12814.500
       309   08 Jun 2027 09:42:48.980   08 Jun 2027 09:47:09.344           260.364                Norilsk         32545.500
       310   08 Jun 2027 09:47:25.190   08 Jun 2027 09:49:03.642            98.452              Murmansk2         12306.500
       311   08 Jun 2027 11:11:35.854   08 Jun 2027 11:11:59.116            23.262                 Moscow          2907.750
       312   08 Jun 2027 11:15:25.980   08 Jun 2027 11:15:40.099            14.119              Murmansk1          1764.875
       313   08 Jun 2027 11:16:15.089   08 Jun 2027 11:21:05.608           290.519                 Moscow         36314.875
       314   08 Jun 2027 11:21:21.059   08 Jun 2027 11:25:01.602           220.543              Murmansk1         27567.875
       315   08 Jun 2027 11:29:10.185   08 Jun 2027 11:36:19.809           429.624                Anadyr1         53703.000
       316   08 Jun 2027 12:25:16.133   08 Jun 2027 12:34:44.971           568.838               CapeTown         71104.750
       317   08 Jun 2027 12:52:11.118   08 Jun 2027 13:00:45.084           513.966              Murmansk2         64245.750
       318   08 Jun 2027 13:02:45.164   08 Jun 2027 13:15:02.764           737.600                Anadyr1         92200.000
       319   08 Jun 2027 14:41:24.137   08 Jun 2027 14:43:30.061           125.924               Magadan1         15740.500
       320   08 Jun 2027 14:44:33.662   08 Jun 2027 14:46:18.056           104.394               Magadan1         13049.250
       321   08 Jun 2027 16:22:26.800   08 Jun 2027 16:28:48.409           381.609                Irkutsk         47701.125
       322   08 Jun 2027 16:39:04.085   08 Jun 2027 16:41:41.184           157.099                Sumatra         19637.375
       323   08 Jun 2027 17:57:28.793   08 Jun 2027 18:00:54.654           205.861                Novosib         25732.625
       324   08 Jun 2027 21:06:37.587   08 Jun 2027 21:07:53.300            75.713              Murmansk1          9464.125
       325   08 Jun 2027 21:10:45.725   08 Jun 2027 21:16:29.267           343.542                 Moscow         42942.750
       326   08 Jun 2027 21:40:42.275   08 Jun 2027 21:43:15.577           153.302               CapeTown         15667.875
       327   09 Jun 2027 03:29:19.876   09 Jun 2027 03:29:49.346            29.470                Norilsk          3683.750
       328   09 Jun 2027 03:30:40.772   09 Jun 2027 03:35:51.871           311.099                Norilsk         38887.375
       329   09 Jun 2027 03:35:54.958   09 Jun 2027 03:40:25.893           270.935              Murmansk2         33866.875
       330   09 Jun 2027 04:44:02.719   09 Jun 2027 04:45:11.656            68.937                Sumatra          8617.125
       331   09 Jun 2027 05:06:35.412   09 Jun 2027 05:08:06.111            90.699                Norilsk         11337.375
       332   09 Jun 2027 05:09:17.381   09 Jun 2027 05:11:21.870           124.489              Murmansk1         15561.125
       333   09 Jun 2027 05:11:21.870   09 Jun 2027 05:14:40.521           198.651              Murmansk2         24831.375
       334   09 Jun 2027 05:49:32.797   09 Jun 2027 05:53:55.157           262.360            RioGallegos         32795.000
       335   09 Jun 2027 06:24:06.272   09 Jun 2027 06:28:46.360           280.088                Sumatra         35011.000
       336   09 Jun 2027 06:32:03.919   09 Jun 2027 06:32:16.116            12.197                Irkutsk          1524.625
       337   09 Jun 2027 06:32:39.771   09 Jun 2027 06:36:01.637           201.866                Irkutsk         25233.250
       338   09 Jun 2027 06:41:36.468   09 Jun 2027 06:42:17.435            40.967                Novosib          5120.875
       339   09 Jun 2027 06:42:39.578   09 Jun 2027 06:44:35.401           115.823                 Moscow         14477.875
       340   09 Jun 2027 06:44:46.693   09 Jun 2027 06:47:30.042           163.349                Norilsk         20418.625
       341   09 Jun 2027 06:47:41.767   09 Jun 2027 06:49:37.186           115.419              Murmansk1         14427.375
       342   09 Jun 2027 07:24:36.353   09 Jun 2027 07:27:26.806           170.453            RioGallegos         21306.625
       343   09 Jun 2027 08:06:34.944   09 Jun 2027 08:12:50.152           375.208                  Delhi         46901.000
       344   09 Jun 2027 08:13:05.313   09 Jun 2027 08:13:22.463            17.150                Novosib          2143.750
       345   09 Jun 2027 08:13:33.245   09 Jun 2027 08:13:53.482            20.237                Norilsk          2529.625
       346   09 Jun 2027 08:18:10.583   09 Jun 2027 08:21:26.693           196.110                 Moscow         24513.750
       347   09 Jun 2027 08:21:36.233   09 Jun 2027 08:25:11.509           215.276              Murmansk1         26909.500
       348   09 Jun 2027 09:54:17.463   09 Jun 2027 09:57:35.849           198.386                 Moscow         24798.250
       349   09 Jun 2027 09:57:42.251   09 Jun 2027 09:59:04.081            81.830                Norilsk         10228.750
       350   09 Jun 2027 09:59:28.445   09 Jun 2027 10:01:05.199            96.754              Murmansk1         12094.250
       351   09 Jun 2027 11:27:27.321   09 Jun 2027 11:29:07.654           100.333              Murmansk1         12541.625
       352   09 Jun 2027 11:29:17.156   09 Jun 2027 11:32:57.837           220.681                 Moscow         27585.125
       353   09 Jun 2027 11:33:19.887   09 Jun 2027 11:37:02.793           222.906              Murmansk2         27863.250
       354   09 Jun 2027 11:42:06.517   09 Jun 2027 11:48:54.588           408.071                Anadyr2         51008.875
       355   09 Jun 2027 12:39:06.032   09 Jun 2027 12:46:33.306           447.274               CapeTown         55909.250
       356   09 Jun 2027 13:04:49.249   09 Jun 2027 13:12:41.190           471.941              Murmansk1         58992.625
       357   09 Jun 2027 13:17:11.835   09 Jun 2027 13:22:18.370           306.535                Anadyr1         38316.875
       358   09 Jun 2027 13:22:59.233   09 Jun 2027 13:24:30.954            91.721               Magadan1         11465.125
       359   09 Jun 2027 13:24:53.130   09 Jun 2027 13:26:14.101            80.971               Magadan2         10121.375
       360   09 Jun 2027 14:54:05.417   09 Jun 2027 14:55:45.898           100.481               Magadan1         12560.125
       361   09 Jun 2027 15:47:49.314   09 Jun 2027 15:50:05.787           136.473            RioGallegos         17059.125
       362   09 Jun 2027 16:33:54.177   09 Jun 2027 16:37:31.025           216.848                Irkutsk         27106.000
       363   09 Jun 2027 16:40:19.311   09 Jun 2027 16:41:49.783            90.472                Irkutsk         11309.000
       364   09 Jun 2027 16:49:20.229   09 Jun 2027 16:51:27.361           127.132                Sumatra         15891.500
       365   09 Jun 2027 18:10:45.984   09 Jun 2027 18:12:55.750           129.766                Novosib         16220.750
       366   09 Jun 2027 18:20:53.356   09 Jun 2027 18:22:31.517            98.161                  Delhi         12270.125
       367   09 Jun 2027 21:18:50.520   09 Jun 2027 21:19:42.736            52.216              Murmansk2          6527.000
       368   09 Jun 2027 21:22:32.378   09 Jun 2027 21:24:42.835           130.457                 Moscow         16307.125
       369   09 Jun 2027 21:26:27.786   09 Jun 2027 21:28:52.083           144.297                 Moscow         18037.125
       370   09 Jun 2027 21:49:09.177   09 Jun 2027 21:50:29.972            80.795               CapeTown         10099.375
       371   09 Jun 2027 21:53:28.092   09 Jun 2027 21:55:08.450           100.358               CapeTown          4864.999
       372   10 Jun 2027 03:42:40.600   10 Jun 2027 03:51:35.791           535.191              Murmansk2         66898.875
       373   10 Jun 2027 04:54:47.062   10 Jun 2027 04:57:17.850           150.788                Sumatra         18848.500
       374   10 Jun 2027 05:21:10.839   10 Jun 2027 05:26:31.870           321.031              Murmansk2         40128.875
       375   10 Jun 2027 06:01:32.803   10 Jun 2027 06:05:50.827           258.024            RioGallegos         32253.000
       376   10 Jun 2027 06:36:17.108   10 Jun 2027 06:40:37.482           260.374                Sumatra         32546.750
       377   10 Jun 2027 06:44:01.112   10 Jun 2027 06:44:33.686            32.574                Irkutsk          4071.750
       378   10 Jun 2027 06:44:52.974   10 Jun 2027 06:48:32.461           219.487                Irkutsk         27435.875
       379   10 Jun 2027 06:53:00.615   10 Jun 2027 06:53:26.322            25.707                Novosib          3213.375
       380   10 Jun 2027 06:54:28.159   10 Jun 2027 06:56:05.231            97.072                Novosib         12134.000
       381   10 Jun 2027 06:56:27.655   10 Jun 2027 07:01:34.113           306.458              Murmansk2         38307.250
       382   10 Jun 2027 07:36:20.742   10 Jun 2027 07:37:44.907            84.165            RioGallegos         10520.625
       383   10 Jun 2027 08:20:35.101   10 Jun 2027 08:24:38.382           243.281                  Delhi         30410.125
       384   10 Jun 2027 08:24:58.147   10 Jun 2027 08:25:22.140            23.993                 Moscow          2999.125
       385   10 Jun 2027 08:30:10.794   10 Jun 2027 08:30:29.575            18.781                 Moscow          2347.625
       386   10 Jun 2027 08:30:37.500   10 Jun 2027 08:31:25.157            47.657                Novosib          5957.125
       387   10 Jun 2027 08:31:41.476   10 Jun 2027 08:35:30.007           228.531                Norilsk         28566.375
       388   10 Jun 2027 08:35:38.810   10 Jun 2027 08:37:11.834            93.024              Murmansk1         11628.000
       389   10 Jun 2027 09:59:26.874   10 Jun 2027 10:00:34.615            67.741                 Moscow          8467.625
       390   10 Jun 2027 10:00:58.422   10 Jun 2027 10:01:20.917            22.495                 Moscow          2811.875
       391   10 Jun 2027 10:01:50.065   10 Jun 2027 10:01:51.955             1.890                 Moscow           236.250
       392   10 Jun 2027 10:05:11.874   10 Jun 2027 10:07:11.238           119.364              Murmansk1         14920.500
       393   10 Jun 2027 10:07:23.578   10 Jun 2027 10:09:36.370           132.792                 Moscow         16599.000
       394   10 Jun 2027 10:09:39.073   10 Jun 2027 10:10:55.957            76.884                Norilsk          9610.500
       395   10 Jun 2027 10:11:00.356   10 Jun 2027 10:13:06.822           126.466              Murmansk2         15808.250
       396   10 Jun 2027 11:39:28.471   10 Jun 2027 11:41:05.134            96.663              Murmansk2         12082.875
       397   10 Jun 2027 11:41:54.784   10 Jun 2027 11:44:47.547           172.763                 Moscow         21595.375
       398   10 Jun 2027 11:45:20.597   10 Jun 2027 11:49:03.760           223.163              Murmansk1         27895.375
       399   10 Jun 2027 11:54:54.248   10 Jun 2027 12:01:25.463           391.215                Anadyr1         48901.875
       400   10 Jun 2027 12:54:25.874   10 Jun 2027 12:58:16.378           230.504               CapeTown         28813.000
       401   10 Jun 2027 13:17:31.346   10 Jun 2027 13:24:35.413           424.067              Murmansk2         53008.375
       402   10 Jun 2027 13:26:46.394   10 Jun 2027 13:33:01.515           375.121                Anadyr1         46890.125
       403   10 Jun 2027 13:33:41.713   10 Jun 2027 13:33:57.880            16.167               Magadan1          2020.875
       404   10 Jun 2027 13:35:27.279   10 Jun 2027 13:38:29.617           182.338               Magadan2         22792.250
       405   10 Jun 2027 15:58:43.661   10 Jun 2027 16:01:51.052           187.391            RioGallegos         23423.875
       406   10 Jun 2027 16:02:16.234   10 Jun 2027 16:04:22.885           126.651            RioGallegos         15831.375
       407   10 Jun 2027 16:45:46.421   10 Jun 2027 16:49:02.658           196.237                Irkutsk         24529.625
       408   10 Jun 2027 17:00:19.925   10 Jun 2027 17:03:10.063           170.138                Sumatra         21267.250
       409   10 Jun 2027 17:05:43.807   10 Jun 2027 17:09:19.865           216.058                Sumatra         27007.250
       410   10 Jun 2027 18:30:41.767   10 Jun 2027 18:32:23.740           101.973                  Delhi         12746.625
       411   10 Jun 2027 18:35:16.893   10 Jun 2027 18:36:57.308           100.415                  Delhi         12551.875
       412   10 Jun 2027 21:32:11.011   10 Jun 2027 21:33:50.171            99.160              Murmansk2         12395.000
       413   10 Jun 2027 21:38:29.905   10 Jun 2027 21:38:36.858             6.953                 Moscow           869.125
       414   10 Jun 2027 22:00:17.411   10 Jun 2027 22:02:44.130           146.719               CapeTown         13046.626
       415   11 Jun 2027 03:53:30.537   11 Jun 2027 03:53:50.232            19.695                Novosib          2461.875
       416   11 Jun 2027 03:54:36.014   11 Jun 2027 03:59:51.805           315.791              Murmansk1         39473.875
       417   11 Jun 2027 05:05:57.209   11 Jun 2027 05:09:03.882           186.673                Sumatra         23334.125
       418   11 Jun 2027 05:30:38.400   11 Jun 2027 05:30:43.264             4.864                Norilsk           608.000
       419   11 Jun 2027 05:31:05.201   11 Jun 2027 05:35:35.098           269.897                Norilsk         33737.125
       420   11 Jun 2027 05:35:38.862   11 Jun 2027 05:38:23.965           165.103              Murmansk2         20637.875
       421   11 Jun 2027 06:13:31.734   11 Jun 2027 06:17:44.744           253.010            RioGallegos         31626.250
       422   11 Jun 2027 06:48:22.028   11 Jun 2027 06:52:22.395           240.367                Sumatra         30045.875
       423   11 Jun 2027 06:55:49.165   11 Jun 2027 06:56:16.230            27.065                Irkutsk          3383.125
       424   11 Jun 2027 06:57:36.585   11 Jun 2027 07:00:53.704           197.119                Irkutsk         24639.875
       425   11 Jun 2027 07:05:41.335   11 Jun 2027 07:08:59.486           198.151                 Moscow         24768.875
       426   11 Jun 2027 07:09:15.600   11 Jun 2027 07:11:45.786           150.186              Murmansk1         18773.250
       427   11 Jun 2027 07:11:45.786   11 Jun 2027 07:13:31.612           105.826              Murmansk2         13228.250
       428   11 Jun 2027 08:32:32.757   11 Jun 2027 08:36:21.567           228.810                  Delhi         28601.250
       429   11 Jun 2027 08:36:22.113   11 Jun 2027 08:36:48.956            26.843                 Moscow          3355.375
       430   11 Jun 2027 08:37:06.135   11 Jun 2027 08:37:33.202            27.067                Novosib          3383.375
       431   11 Jun 2027 08:42:33.251   11 Jun 2027 08:43:14.256            41.005                Novosib          5125.625
       432   11 Jun 2027 08:43:37.655   11 Jun 2027 08:47:30.657           233.002                Norilsk         29125.250
       433   11 Jun 2027 08:47:41.316   11 Jun 2027 08:49:12.431            91.115              Murmansk1         11389.375
       434   11 Jun 2027 10:12:01.856   11 Jun 2027 10:13:27.408            85.552                 Moscow         10694.000
       435   11 Jun 2027 10:15:22.417   11 Jun 2027 10:16:11.491            49.074              Murmansk1          6134.250
       436   11 Jun 2027 10:16:59.258   11 Jun 2027 10:18:59.706           120.448              Murmansk2         15056.000
       437   11 Jun 2027 10:19:00.444   11 Jun 2027 10:22:42.927           222.483                Norilsk         27810.375
       438   11 Jun 2027 10:22:51.284   11 Jun 2027 10:25:08.485           137.201              Murmansk2         17150.125
       439   11 Jun 2027 10:30:01.001   11 Jun 2027 10:31:45.810           104.809                Anadyr2         13101.125
       440   11 Jun 2027 11:30:07.046   11 Jun 2027 11:34:42.336           275.290               CapeTown         34411.250
       441   11 Jun 2027 11:51:29.384   11 Jun 2027 11:53:03.162            93.778              Murmansk2         11722.250
       442   11 Jun 2027 11:53:55.354   11 Jun 2027 11:56:33.870           158.516                 Moscow         19814.500
       443   11 Jun 2027 11:56:33.890   11 Jun 2027 11:59:54.019           200.129              Murmansk2         25016.125
       444   11 Jun 2027 12:03:56.707   11 Jun 2027 12:04:37.788            41.081                Anadyr1          5135.125
       445   11 Jun 2027 13:41:40.499   11 Jun 2027 13:43:48.046           127.547               Magadan1         15943.375
       446   11 Jun 2027 13:43:48.046   11 Jun 2027 13:45:42.752           114.706               Magadan2         14338.250
       447   11 Jun 2027 16:10:07.681   11 Jun 2027 16:13:39.982           212.301            RioGallegos         26537.625
       448   11 Jun 2027 16:14:50.553   11 Jun 2027 16:16:26.636            96.083            RioGallegos         12010.375
       449   11 Jun 2027 16:59:47.219   11 Jun 2027 17:03:21.089           213.870                Irkutsk         26733.750
       450   11 Jun 2027 17:11:37.953   11 Jun 2027 17:14:59.219           201.266                Sumatra         25158.250
       451   11 Jun 2027 17:17:56.152   11 Jun 2027 17:19:25.217            89.065                Sumatra         11133.125
       452   11 Jun 2027 18:41:44.023   11 Jun 2027 18:44:33.572           169.549                  Delhi         21193.625
       453   11 Jun 2027 21:45:10.714   11 Jun 2027 21:47:44.801           154.087              Murmansk2         19260.875
       454   11 Jun 2027 21:50:34.657   11 Jun 2027 21:51:13.268            38.611                 Moscow          4826.375
       455   11 Jun 2027 22:11:36.763   11 Jun 2027 22:12:45.646            68.883               CapeTown          5919.125
       456   12 Jun 2027 04:06:34.577   12 Jun 2027 04:07:30.733            56.156                Novosib          7019.500
       457   12 Jun 2027 04:07:43.899   12 Jun 2027 04:08:48.456            64.557                Norilsk          8069.625
       458   12 Jun 2027 05:17:21.562   12 Jun 2027 05:18:19.437            57.875                Sumatra          7234.375
       459   12 Jun 2027 05:22:07.278   12 Jun 2027 05:22:50.903            43.625                Sumatra          5453.125
       460   12 Jun 2027 05:42:40.083   12 Jun 2027 05:47:36.376           296.293                Norilsk         37036.625
       461   12 Jun 2027 05:47:52.055   12 Jun 2027 05:50:16.814           144.759              Murmansk1         18094.875
       462   12 Jun 2027 06:25:29.467   12 Jun 2027 06:29:36.497           247.030            RioGallegos         30878.750
       463   12 Jun 2027 07:00:21.339   12 Jun 2027 07:04:00.190           218.851                Sumatra         27356.375
       464   12 Jun 2027 07:07:36.991   12 Jun 2027 07:08:13.697            36.706                Novosib          4588.250
       465   12 Jun 2027 07:08:14.585   12 Jun 2027 07:08:37.704            23.119                Irkutsk          2889.875
       466   12 Jun 2027 07:09:35.864   12 Jun 2027 07:13:45.236           249.372                Irkutsk         31171.500
       467   12 Jun 2027 07:18:17.581   12 Jun 2027 07:20:05.262           107.681                Novosib         13460.125
       468   12 Jun 2027 07:20:13.255   12 Jun 2027 07:23:35.696           202.441                Norilsk         25305.125
       469   12 Jun 2027 07:23:46.523   12 Jun 2027 07:25:29.629           103.106              Murmansk1         12888.250
       470   12 Jun 2027 08:44:26.871   12 Jun 2027 08:47:58.280           211.409                  Delhi         26426.125
       471   12 Jun 2027 08:48:09.202   12 Jun 2027 08:50:41.683           152.481                Novosib         19060.125
       472   12 Jun 2027 08:53:59.856   12 Jun 2027 08:54:59.716            59.860                Novosib          7482.500
       473   12 Jun 2027 08:55:01.347   12 Jun 2027 08:59:30.864           269.517                Norilsk         33689.625
       474   12 Jun 2027 08:59:35.650   12 Jun 2027 09:01:13.253            97.603              Murmansk2         12200.375
       475   12 Jun 2027 10:24:01.510   12 Jun 2027 10:25:33.248            91.738                 Moscow         11467.250
       476   12 Jun 2027 10:27:23.478   12 Jun 2027 10:31:06.133           222.655              Murmansk1         27831.875
       477   12 Jun 2027 10:31:08.494   12 Jun 2027 10:33:35.187           146.693                 Moscow         18336.625
       478   12 Jun 2027 10:33:52.719   12 Jun 2027 10:34:19.102            26.383                Norilsk          3297.875
       479   12 Jun 2027 10:34:26.810   12 Jun 2027 10:37:10.153           163.343              Murmansk2         20417.875
       480   12 Jun 2027 10:40:30.889   12 Jun 2027 10:45:15.819           284.930                Anadyr1         35616.250
       481   12 Jun 2027 13:53:32.724   12 Jun 2027 13:56:29.626           176.902               Magadan1         22112.750
       482   12 Jun 2027 13:57:25.350   12 Jun 2027 13:57:51.782            26.432               Magadan2          3304.000
