uniorb/output/strategy_4/Drop/Drop_KinoSat_110507.txt

KinoSat_110507
-------------------------
    Access    *     Start Time (UTCG)     *     Stop Time (UTCG)  *   Duration (s)        *       Station  *  Data (Mbytes)
         1   01 Jun 2027 03:30:15.487   01 Jun 2027 03:30:18.438             2.951                Anadyr2           368.875
         2   01 Jun 2027 03:30:23.975   01 Jun 2027 03:31:13.624            49.649               Magadan2          6206.125
         3   01 Jun 2027 03:31:20.347   01 Jun 2027 03:32:13.255            52.908                Anadyr2          6613.500
         4   01 Jun 2027 03:32:33.684   01 Jun 2027 03:34:44.165           130.481                Anadyr2         16310.125
         5   01 Jun 2027 05:06:30.088   01 Jun 2027 05:07:43.445            73.357               Magadan1          9169.625
         6   01 Jun 2027 05:08:03.676   01 Jun 2027 05:09:18.170            74.494                Irkutsk          9311.750
         7   01 Jun 2027 05:09:30.696   01 Jun 2027 05:09:47.412            16.716               Magadan2          2089.500
         8   01 Jun 2027 05:09:50.519   01 Jun 2027 05:10:00.899            10.380               Magadan2          1297.500
         9   01 Jun 2027 05:10:29.353   01 Jun 2027 05:10:43.198            13.845               Magadan2          1730.625
        10   01 Jun 2027 05:10:48.180   01 Jun 2027 05:11:44.526            56.346              Murmansk1          7043.250
        11   01 Jun 2027 05:12:20.329   01 Jun 2027 05:12:28.197             7.868                Novosib           983.500
        12   01 Jun 2027 05:13:16.677   01 Jun 2027 05:13:21.184             4.507                Norilsk           563.375
        13   01 Jun 2027 05:13:50.645   01 Jun 2027 05:14:26.574            35.929                Norilsk          4491.125
        14   01 Jun 2027 05:46:01.052   01 Jun 2027 05:47:02.818            61.766            RioGallegos          7720.750
        15   01 Jun 2027 06:21:11.440   01 Jun 2027 06:21:14.943             3.503                Sumatra           437.875
        16   01 Jun 2027 06:22:50.045   01 Jun 2027 06:23:51.487            61.442                Sumatra          7680.250
        17   01 Jun 2027 06:33:11.994   01 Jun 2027 06:33:35.721            23.727                  Delhi          2965.875
        18   01 Jun 2027 06:42:56.064   01 Jun 2027 06:44:23.696            87.632                Irkutsk         10954.000
        19   01 Jun 2027 06:44:45.557   01 Jun 2027 06:45:10.952            25.395              Murmansk2          3174.375
        20   01 Jun 2027 06:45:16.003   01 Jun 2027 06:45:45.287            29.284                Novosib          3660.500
        21   01 Jun 2027 06:45:55.331   01 Jun 2027 06:46:54.789            59.458              Murmansk2          7432.250
        22   01 Jun 2027 06:46:59.672   01 Jun 2027 06:47:26.271            26.599              Murmansk1          3324.875
        23   01 Jun 2027 07:58:39.596   01 Jun 2027 07:58:53.488            13.892                Sumatra          1736.500
        24   01 Jun 2027 08:05:08.164   01 Jun 2027 08:06:19.629            71.465                  Delhi          8933.125
        25   01 Jun 2027 08:21:45.354   01 Jun 2027 08:22:35.530            50.176              Murmansk1          6272.000
        26   01 Jun 2027 08:22:49.429   01 Jun 2027 08:26:30.292           220.863              Murmansk2         27607.875
        27   01 Jun 2027 09:55:31.496   01 Jun 2027 09:56:49.520            78.024                Novosib          9753.000
        28   01 Jun 2027 09:57:15.720   01 Jun 2027 09:58:17.185            61.465              Murmansk2          7683.125
        29   01 Jun 2027 09:58:22.354   01 Jun 2027 09:59:11.580            49.226              Murmansk1          6153.250
        30   01 Jun 2027 09:59:18.981   01 Jun 2027 09:59:29.741            10.760                Norilsk          1345.000
        31   01 Jun 2027 09:59:48.548   01 Jun 2027 10:04:06.980           258.432                Norilsk         32304.000
        32   01 Jun 2027 10:04:31.228   01 Jun 2027 10:05:54.094            82.866              Murmansk2         10358.250
        33   01 Jun 2027 11:07:23.755   01 Jun 2027 11:12:39.873           316.118               CapeTown         39514.750
        34   01 Jun 2027 11:26:06.282   01 Jun 2027 11:29:01.634           175.352                 Moscow         21919.000
        35   01 Jun 2027 11:44:24.799   01 Jun 2027 11:48:27.770           242.971                Anadyr1         30371.375
        36   01 Jun 2027 11:48:39.535   01 Jun 2027 11:50:45.458           125.923                Anadyr2         15740.375
        37   01 Jun 2027 13:24:17.032   01 Jun 2027 13:28:16.591           239.559               Magadan1         29944.875
        38   01 Jun 2027 18:15:06.955   01 Jun 2027 18:21:11.066           364.111                Novosib         45513.875
        39   01 Jun 2027 20:02:27.934   01 Jun 2027 20:03:03.340            35.406                  Delhi          4425.750
        40   01 Jun 2027 21:24:38.344   01 Jun 2027 21:25:24.401            46.057              Murmansk1          5757.125
        41   01 Jun 2027 21:26:05.229   01 Jun 2027 21:28:56.873           171.644              Murmansk2         21455.500
        42   01 Jun 2027 21:29:16.124   01 Jun 2027 21:30:39.449            83.325              Murmansk1         10415.625
        43   01 Jun 2027 21:30:58.488   01 Jun 2027 21:35:32.197           273.709                 Moscow         24379.001
        44   02 Jun 2027 05:19:06.742   02 Jun 2027 05:20:26.459            79.717                Irkutsk          9964.625
        45   02 Jun 2027 05:21:45.737   02 Jun 2027 05:22:28.651            42.914               Magadan2          5364.250
        46   02 Jun 2027 05:22:56.568   02 Jun 2027 05:23:22.226            25.658                Irkutsk          3207.250
        47   02 Jun 2027 05:23:56.105   02 Jun 2027 05:24:37.473            41.368                Norilsk          5171.000
        48   02 Jun 2027 05:25:18.048   02 Jun 2027 05:26:06.904            48.856              Murmansk2          6107.000
        49   02 Jun 2027 05:26:17.336   02 Jun 2027 05:28:05.575           108.239              Murmansk1         13529.875
        50   02 Jun 2027 05:29:54.379   02 Jun 2027 05:31:49.276           114.897              Murmansk2         14362.125
        51   02 Jun 2027 06:05:36.251   02 Jun 2027 06:10:51.978           315.727            RioGallegos         39465.875
        52   02 Jun 2027 06:40:22.986   02 Jun 2027 06:45:41.372           318.386                Sumatra         39798.250
        53   02 Jun 2027 06:46:51.974   02 Jun 2027 06:48:08.479            76.505                Irkutsk          9563.125
        54   02 Jun 2027 06:58:58.792   02 Jun 2027 07:04:19.835           321.043                Norilsk         40130.375
        55   02 Jun 2027 07:05:39.336   02 Jun 2027 07:06:36.447            57.111              Murmansk2          7138.875
        56   02 Jun 2027 07:37:33.615   02 Jun 2027 07:45:21.331           467.716            RioGallegos         58464.500
        57   02 Jun 2027 08:11:45.065   02 Jun 2027 08:17:54.947           369.882                Sumatra         46235.250
        58   02 Jun 2027 08:24:23.917   02 Jun 2027 08:27:19.811           175.894                  Delhi         21986.750
        59   02 Jun 2027 08:34:51.342   02 Jun 2027 08:36:35.543           104.201                Novosib         13025.125
        60   02 Jun 2027 08:36:39.450   02 Jun 2027 08:40:19.592           220.142                Norilsk         27517.750
        61   02 Jun 2027 08:41:34.109   02 Jun 2027 08:42:04.456            30.347              Murmansk2          3793.375
        62   02 Jun 2027 09:58:21.516   02 Jun 2027 10:01:09.282           167.766                  Delhi         20970.750
        63   02 Jun 2027 10:11:59.828   02 Jun 2027 10:16:04.511           244.683                Norilsk         30585.375
        64   02 Jun 2027 10:16:28.268   02 Jun 2027 10:17:55.482            87.214              Murmansk2         10901.750
        65   02 Jun 2027 11:24:13.173   02 Jun 2027 11:25:40.634            87.461               CapeTown         10932.625
        66   02 Jun 2027 11:41:45.047   02 Jun 2027 11:44:40.860           175.813              Murmansk2         21976.625
        67   02 Jun 2027 11:44:40.860   02 Jun 2027 11:53:53.518           552.658              Murmansk1         69082.250
        68   02 Jun 2027 11:56:14.940   02 Jun 2027 12:04:47.337           512.397                Anadyr2         64049.625
        69   02 Jun 2027 12:50:58.730   02 Jun 2027 13:01:44.194           645.464               CapeTown         80683.000
        70   02 Jun 2027 13:35:34.839   02 Jun 2027 13:41:04.914           330.075               Magadan1         41259.375
        71   02 Jun 2027 16:51:51.840   02 Jun 2027 16:56:48.439           296.599                Irkutsk         37074.875
        72   02 Jun 2027 18:26:36.213   02 Jun 2027 18:34:12.945           456.732                Novosib         57091.500
        73   02 Jun 2027 21:36:08.918   02 Jun 2027 21:37:04.106            55.188              Murmansk1          6898.500
        74   02 Jun 2027 21:38:49.645   02 Jun 2027 21:40:51.715           122.070              Murmansk2         15258.750
        75   02 Jun 2027 21:40:55.880   02 Jun 2027 21:42:58.668           122.788                 Moscow         15348.500
        76   02 Jun 2027 21:44:53.261   02 Jun 2027 21:46:15.427            82.166                 Moscow         10270.750
        77   02 Jun 2027 22:08:17.956   02 Jun 2027 22:09:04.579            46.623               CapeTown          4159.875
        78   03 Jun 2027 03:58:12.762   03 Jun 2027 03:59:00.069            47.307                Anadyr1          5913.375
        79   03 Jun 2027 03:59:11.612   03 Jun 2027 03:59:32.793            21.181               Magadan2          2647.625
        80   03 Jun 2027 03:59:33.934   03 Jun 2027 04:00:18.290            44.356                Norilsk          5544.500
        81   03 Jun 2027 04:00:38.568   03 Jun 2027 04:04:18.677           220.109              Murmansk2         27513.625
        82   03 Jun 2027 05:14:25.696   03 Jun 2027 05:14:48.145            22.449                Sumatra          2806.125
        83   03 Jun 2027 05:15:31.753   03 Jun 2027 05:16:21.541            49.788                Sumatra          6223.500
        84   03 Jun 2027 05:35:48.571   03 Jun 2027 05:36:41.687            53.116                Norilsk          6639.500
        85   03 Jun 2027 05:37:14.748   03 Jun 2027 05:38:00.071            45.323              Murmansk2          5665.375
        86   03 Jun 2027 05:38:09.421   03 Jun 2027 05:40:06.933           117.512              Murmansk1         14689.000
        87   03 Jun 2027 05:41:53.139   03 Jun 2027 05:43:39.435           106.296              Murmansk2         13287.000
        88   03 Jun 2027 06:17:30.192   03 Jun 2027 06:22:49.987           319.795            RioGallegos         39974.375
        89   03 Jun 2027 06:52:07.986   03 Jun 2027 06:57:41.873           333.887                Sumatra         41735.875
        90   03 Jun 2027 07:00:05.812   03 Jun 2027 07:01:38.708            92.896                Novosib         11612.000
        91   03 Jun 2027 07:02:40.943   03 Jun 2027 07:04:59.866           138.923                Irkutsk         17365.375
        92   03 Jun 2027 07:10:54.000   03 Jun 2027 07:12:56.010           122.010                Novosib         15251.250
        93   03 Jun 2027 07:12:56.490   03 Jun 2027 07:16:23.725           207.235              Murmansk2         25904.375
        94   03 Jun 2027 07:17:40.513   03 Jun 2027 07:18:32.355            51.842              Murmansk1          6480.250
        95   03 Jun 2027 07:50:08.834   03 Jun 2027 07:56:49.845           401.011            RioGallegos         50126.375
        96   03 Jun 2027 08:36:07.174   03 Jun 2027 08:41:48.361           341.187                  Delhi         42648.375
        97   03 Jun 2027 08:42:45.353   03 Jun 2027 08:43:22.327            36.974                Norilsk          4621.750
        98   03 Jun 2027 08:47:04.715   03 Jun 2027 08:47:27.191            22.476                 Moscow          2809.500
        99   03 Jun 2027 08:47:55.492   03 Jun 2027 08:52:21.000           265.508                Norilsk         33188.500
       100   03 Jun 2027 08:53:35.409   03 Jun 2027 08:54:04.273            28.864              Murmansk2          3608.000
       101   03 Jun 2027 10:22:28.495   03 Jun 2027 10:28:00.548           332.053                Norilsk         41506.625
       102   03 Jun 2027 10:28:25.870   03 Jun 2027 10:29:56.979            91.109              Murmansk1         11388.625
       103   03 Jun 2027 11:52:26.737   03 Jun 2027 11:53:40.636            73.899                 Moscow          9237.375
       104   03 Jun 2027 11:55:09.239   03 Jun 2027 12:05:54.832           645.593              Murmansk1         80699.125
       105   03 Jun 2027 12:08:07.783   03 Jun 2027 12:17:24.999           557.216                Anadyr2         69652.000
       106   03 Jun 2027 13:06:06.891   03 Jun 2027 13:15:34.361           567.470               CapeTown         70933.750
       107   03 Jun 2027 13:33:16.627   03 Jun 2027 13:40:13.647           417.020              Murmansk2         52127.500
       108   03 Jun 2027 13:47:09.673   03 Jun 2027 13:51:18.916           249.243               Magadan2         31155.375
       109   03 Jun 2027 13:53:16.677   03 Jun 2027 13:54:34.257            77.580               Magadan2          9697.500
       110   03 Jun 2027 17:03:06.876   03 Jun 2027 17:10:04.177           417.301                Irkutsk         52162.625
       111   03 Jun 2027 17:19:11.920   03 Jun 2027 17:20:33.193            81.273                Sumatra         10159.125
       112   03 Jun 2027 17:21:48.632   03 Jun 2027 17:22:16.184            27.552                Sumatra          3444.000
       113   03 Jun 2027 17:24:14.640   03 Jun 2027 17:24:30.780            16.140                Sumatra          2017.500
       114   03 Jun 2027 18:38:45.688   03 Jun 2027 18:43:28.348           282.660                Novosib         35332.500
       115   03 Jun 2027 21:47:42.796   03 Jun 2027 21:48:51.923            69.127              Murmansk2          8640.875
       116   03 Jun 2027 21:51:29.702   03 Jun 2027 21:52:48.271            78.569              Murmansk1          9821.125
       117   03 Jun 2027 21:53:43.869   03 Jun 2027 21:55:30.038           106.169                 Moscow         13271.125
       118   03 Jun 2027 21:57:19.745   03 Jun 2027 21:58:18.447            58.702                 Moscow          7337.750
       119   03 Jun 2027 21:59:53.435   03 Jun 2027 22:00:58.152            64.717                 Moscow          6835.375
       120   04 Jun 2027 04:10:13.876   04 Jun 2027 04:10:44.551            30.675                Anadyr1          3834.375
       121   04 Jun 2027 04:11:32.929   04 Jun 2027 04:16:43.995           311.066                Norilsk         38883.250
       122   04 Jun 2027 04:16:54.201   04 Jun 2027 04:21:14.319           260.118              Murmansk2         32514.750
       123   04 Jun 2027 04:46:39.624   04 Jun 2027 04:47:32.512            52.888            RioGallegos          6611.000
       124   04 Jun 2027 05:24:25.159   04 Jun 2027 05:25:42.861            77.702                Sumatra          9712.750
       125   04 Jun 2027 05:47:41.707   04 Jun 2027 05:48:47.421            65.714                Norilsk          8214.250
       126   04 Jun 2027 05:49:12.030   04 Jun 2027 05:50:02.260            50.230              Murmansk1          6278.750
       127   04 Jun 2027 05:50:02.260   04 Jun 2027 05:52:20.410           138.150              Murmansk2         17268.750
       128   04 Jun 2027 05:53:52.330   04 Jun 2027 05:55:30.304            97.974              Murmansk1         12246.750
       129   04 Jun 2027 06:29:21.977   04 Jun 2027 06:34:46.652           324.675            RioGallegos         40584.375
       130   04 Jun 2027 07:03:45.879   04 Jun 2027 07:09:36.788           350.909                Sumatra         43863.625
       131   04 Jun 2027 07:12:03.661   04 Jun 2027 07:13:13.631            69.970                Novosib          8746.250
       132   04 Jun 2027 07:13:30.692   04 Jun 2027 07:16:55.115           204.423                Irkutsk         25552.875
       133   04 Jun 2027 07:23:27.901   04 Jun 2027 07:24:45.526            77.625                 Moscow          9703.125
       134   04 Jun 2027 07:24:51.596   04 Jun 2027 07:28:14.205           202.609              Murmansk1         25326.125
       135   04 Jun 2027 07:29:41.843   04 Jun 2027 07:30:28.895            47.052              Murmansk2          5881.500
       136   04 Jun 2027 08:03:31.436   04 Jun 2027 08:07:57.898           266.462            RioGallegos         33307.750
       137   04 Jun 2027 08:47:43.981   04 Jun 2027 08:53:39.429           355.448                  Delhi         44431.000
       138   04 Jun 2027 08:59:00.252   04 Jun 2027 09:00:23.621            83.369                Novosib         10421.125
       139   04 Jun 2027 09:00:24.718   04 Jun 2027 09:04:22.177           237.459                Norilsk         29682.375
       140   04 Jun 2027 09:05:36.844   04 Jun 2027 09:06:04.408            27.564              Murmansk2          3445.500
       141   04 Jun 2027 10:28:11.658   04 Jun 2027 10:28:53.672            42.014                 Moscow          5251.750
       142   04 Jun 2027 10:34:04.893   04 Jun 2027 10:39:54.440           349.547                Norilsk         43693.375
       143   04 Jun 2027 10:40:23.996   04 Jun 2027 10:41:58.557            94.561              Murmansk2         11820.125
       144   04 Jun 2027 12:04:19.907   04 Jun 2027 12:13:47.418           567.511                 Moscow         70938.875
       145   04 Jun 2027 12:14:19.295   04 Jun 2027 12:17:55.949           216.654              Murmansk1         27081.750
       146   04 Jun 2027 12:20:02.551   04 Jun 2027 12:29:58.377           595.826                Anadyr2         74478.250
       147   04 Jun 2027 13:17:57.535   04 Jun 2027 13:27:20.927           563.392               CapeTown         70424.000
       148   04 Jun 2027 13:45:56.046   04 Jun 2027 13:52:51.970           415.924              Murmansk2         51990.500
       149   04 Jun 2027 13:58:52.369   04 Jun 2027 14:05:25.619           393.250               Magadan1         49156.250
       150   04 Jun 2027 16:28:13.267   04 Jun 2027 16:30:48.934           155.667            RioGallegos         19458.375
       151   04 Jun 2027 17:14:38.467   04 Jun 2027 17:19:34.657           296.190                Irkutsk         37023.750
       152   04 Jun 2027 17:20:52.405   04 Jun 2027 17:21:42.166            49.761                Irkutsk          6220.125
       153   04 Jun 2027 17:29:49.546   04 Jun 2027 17:32:09.793           140.247                Sumatra         17530.875
       154   04 Jun 2027 17:34:00.688   04 Jun 2027 17:34:14.681            13.993                Sumatra          1749.125
       155   04 Jun 2027 17:36:12.365   04 Jun 2027 17:37:46.573            94.208                Sumatra         11776.000
       156   04 Jun 2027 18:53:29.009   04 Jun 2027 18:53:58.219            29.210                Novosib          3651.250
       157   04 Jun 2027 18:55:53.868   04 Jun 2027 18:56:03.596             9.728                Novosib          1216.000
       158   04 Jun 2027 19:00:38.550   04 Jun 2027 19:02:40.388           121.838                  Delhi         15229.750
       159   04 Jun 2027 19:03:58.721   04 Jun 2027 19:04:37.067            38.346                  Delhi          4793.250
       160   04 Jun 2027 20:25:32.890   04 Jun 2027 20:27:51.792           138.902              Murmansk1         17362.750
       161   04 Jun 2027 22:01:11.876   04 Jun 2027 22:02:26.717            74.841              Murmansk1          4415.624
       162   05 Jun 2027 04:23:29.712   05 Jun 2027 04:24:05.106            35.394                Novosib          4424.250
       163   05 Jun 2027 04:24:29.998   05 Jun 2027 04:32:53.213           503.215              Murmansk2         62901.875
       164   05 Jun 2027 05:35:20.741   05 Jun 2027 05:38:00.916           160.175                Sumatra         20021.875
       165   05 Jun 2027 05:59:23.162   05 Jun 2027 06:00:54.747            91.585                Norilsk         11448.125
       166   05 Jun 2027 06:01:09.854   05 Jun 2027 06:04:20.497           190.643              Murmansk1         23830.375
       167   05 Jun 2027 06:05:51.902   05 Jun 2027 06:07:21.905            90.003              Murmansk2         11250.375
       168   05 Jun 2027 06:41:11.046   05 Jun 2027 06:46:41.752           330.706            RioGallegos         41338.250
       169   05 Jun 2027 07:15:15.017   05 Jun 2027 07:21:25.852           370.835                Sumatra         46354.375
       170   05 Jun 2027 07:24:04.337   05 Jun 2027 07:24:34.502            30.165                Novosib          3770.625
       171   05 Jun 2027 07:24:52.574   05 Jun 2027 07:29:22.076           269.502                Novosib         33687.750
       172   05 Jun 2027 07:33:52.971   05 Jun 2027 07:34:35.258            42.287                Irkutsk          5285.875
       173   05 Jun 2027 07:35:15.789   05 Jun 2027 07:36:58.245           102.456                Novosib         12807.000
       174   05 Jun 2027 07:37:05.449   05 Jun 2027 07:40:25.376           199.927                Norilsk         24990.875
       175   05 Jun 2027 07:41:43.311   05 Jun 2027 07:42:26.018            42.707              Murmansk2          5338.375
       176   05 Jun 2027 08:59:11.804   05 Jun 2027 09:05:26.043           374.239                  Delhi         46779.875
       177   05 Jun 2027 09:05:30.777   05 Jun 2027 09:05:46.610            15.833                Novosib          1979.125
       178   05 Jun 2027 09:06:03.590   05 Jun 2027 09:06:18.282            14.692                Novosib          1836.500
       179   05 Jun 2027 09:10:55.834   05 Jun 2027 09:11:15.775            19.941              Murmansk2          2492.625
       180   05 Jun 2027 09:11:15.868   05 Jun 2027 09:16:23.057           307.189                Norilsk         38398.625
       181   05 Jun 2027 09:16:38.189   05 Jun 2027 09:18:04.823            86.634              Murmansk1         10829.250
       182   05 Jun 2027 10:40:06.184   05 Jun 2027 10:42:49.863           163.679                 Moscow         20459.875
       183   05 Jun 2027 10:46:05.595   05 Jun 2027 10:50:29.194           263.599                 Moscow         32949.875
       184   05 Jun 2027 10:50:32.570   05 Jun 2027 10:51:44.942            72.372                Norilsk          9046.500
       185   05 Jun 2027 10:52:22.599   05 Jun 2027 10:54:00.192            97.593              Murmansk2         12199.125
       186   05 Jun 2027 12:03:12.323   05 Jun 2027 12:03:22.621            10.298               CapeTown          1287.250
       187   05 Jun 2027 12:16:10.846   05 Jun 2027 12:25:36.083           565.237                 Moscow         70654.625
       188   05 Jun 2027 12:26:13.783   05 Jun 2027 12:29:56.815           223.032              Murmansk2         27879.000
       189   05 Jun 2027 12:31:58.749   05 Jun 2027 12:39:21.029           442.280                Anadyr1         55285.000
       190   05 Jun 2027 12:39:42.214   05 Jun 2027 12:40:54.236            72.022                Anadyr1          9002.750
       191   05 Jun 2027 14:10:39.794   05 Jun 2027 14:16:17.914           338.120               Magadan2         42265.000
       192   05 Jun 2027 16:39:22.319   05 Jun 2027 16:42:34.929           192.610            RioGallegos         24076.250
       193   05 Jun 2027 17:28:00.047   05 Jun 2027 17:32:01.479           241.432                Irkutsk         30179.000
       194   05 Jun 2027 17:40:56.757   05 Jun 2027 17:43:53.715           176.958                Sumatra         22119.750
       195   05 Jun 2027 17:45:37.977   05 Jun 2027 17:46:25.097            47.120                Sumatra          5890.000
       196   05 Jun 2027 17:46:32.571   05 Jun 2027 17:48:19.040           106.469                Sumatra         13308.625
       197   05 Jun 2027 19:11:11.521   05 Jun 2027 19:13:42.938           151.417                  Delhi         18927.125
       198   05 Jun 2027 19:15:15.947   05 Jun 2027 19:15:51.579            35.632                  Delhi          4454.000
       199   05 Jun 2027 20:37:30.432   05 Jun 2027 20:39:22.628           112.196              Murmansk2         14024.500
       200   05 Jun 2027 22:15:12.314   05 Jun 2027 22:16:12.841            60.527                 Moscow          3623.250
       201   06 Jun 2027 04:35:24.518   06 Jun 2027 04:42:03.710           399.192              Murmansk2         49899.000
       202   06 Jun 2027 05:46:36.491   06 Jun 2027 05:49:48.084           191.593                Sumatra         23949.125
       203   06 Jun 2027 06:11:24.733   06 Jun 2027 06:13:02.881            98.148                Norilsk         12268.500
       204   06 Jun 2027 06:13:08.176   06 Jun 2027 06:16:08.226           180.050              Murmansk2         22506.250
       205   06 Jun 2027 06:16:09.084   06 Jun 2027 06:16:28.323            19.239                Norilsk          2404.875
       206   06 Jun 2027 06:17:51.825   06 Jun 2027 06:19:14.257            82.432              Murmansk1         10304.000
       207   06 Jun 2027 06:52:56.511   06 Jun 2027 06:58:34.976           338.465            RioGallegos         42308.125
       208   06 Jun 2027 07:26:32.321   06 Jun 2027 07:33:08.453           396.132                Sumatra         49516.500
       209   06 Jun 2027 07:36:07.928   06 Jun 2027 07:41:11.446           303.518                Novosib         37939.750
       210   06 Jun 2027 07:46:42.217   06 Jun 2027 07:48:58.382           136.165                Novosib         17020.625
       211   06 Jun 2027 07:49:02.405   06 Jun 2027 07:52:27.261           204.856                Norilsk         25607.000
       212   06 Jun 2027 07:53:44.886   06 Jun 2027 07:54:23.691            38.805              Murmansk1          4850.625
       213   06 Jun 2027 09:10:25.209   06 Jun 2027 09:17:07.203           401.994                  Delhi         50249.250
       214   06 Jun 2027 09:17:56.933   06 Jun 2027 09:18:22.556            25.623                Novosib          3202.875
       215   06 Jun 2027 09:23:37.585   06 Jun 2027 09:28:23.562           285.977                Norilsk         35747.125
       216   06 Jun 2027 09:28:28.403   06 Jun 2027 09:30:05.500            97.097              Murmansk2         12137.125
       217   06 Jun 2027 10:52:54.627   06 Jun 2027 10:54:48.588           113.961                 Moscow         14245.125
       218   06 Jun 2027 10:56:01.891   06 Jun 2027 10:56:53.378            51.487              Murmansk2          6435.875
       219   06 Jun 2027 10:57:18.508   06 Jun 2027 11:06:01.857           523.349              Murmansk1         65418.625
       220   06 Jun 2027 11:09:50.295   06 Jun 2027 11:13:15.218           204.923                Anadyr1         25615.375
       221   06 Jun 2027 12:05:52.213   06 Jun 2027 12:12:34.846           402.633               CapeTown         50329.125
       222   06 Jun 2027 12:44:59.027   06 Jun 2027 12:45:33.075            34.048                Anadyr1          4256.000
       223   06 Jun 2027 14:22:30.414   06 Jun 2027 14:26:11.529           221.115               Magadan2         27639.375
       224   06 Jun 2027 14:26:16.001   06 Jun 2027 14:26:39.865            23.864               Magadan1          2983.000
       225   06 Jun 2027 14:27:59.956   06 Jun 2027 14:28:41.255            41.299               Magadan1          5162.375
       226   06 Jun 2027 14:31:08.728   06 Jun 2027 14:31:59.156            50.428               Magadan1          6303.500
       227   06 Jun 2027 16:50:51.211   06 Jun 2027 16:54:24.394           213.183            RioGallegos         26647.875
       228   06 Jun 2027 16:55:42.064   06 Jun 2027 16:56:59.738            77.674            RioGallegos          9709.250
       229   06 Jun 2027 17:35:49.430   06 Jun 2027 17:36:03.063            13.633                Norilsk          1704.125
       230   06 Jun 2027 17:41:25.288   06 Jun 2027 17:42:02.792            37.504                Irkutsk          4688.000
       231   06 Jun 2027 17:44:23.401   06 Jun 2027 17:44:51.703            28.302                Irkutsk          3537.750
       232   06 Jun 2027 17:55:37.096   06 Jun 2027 17:59:37.924           240.828                Sumatra         30103.500
       233   06 Jun 2027 19:22:22.229   06 Jun 2027 19:25:27.878           185.649                  Delhi         23206.125
       234   06 Jun 2027 19:30:33.020   06 Jun 2027 19:31:16.712            43.692                  Delhi          5461.500
       235   06 Jun 2027 20:49:26.414   06 Jun 2027 20:51:53.933           147.519              Murmansk1         18439.875
       236   06 Jun 2027 22:56:41.763   06 Jun 2027 22:59:24.565           162.802               CapeTown         13392.876
       237   07 Jun 2027 04:50:59.969   07 Jun 2027 04:52:16.463            76.494              Murmansk1          9561.750
       238   07 Jun 2027 04:52:27.335   07 Jun 2027 04:52:40.121            12.786                Norilsk          1598.250
       239   07 Jun 2027 04:54:15.942   07 Jun 2027 04:56:37.019           141.077              Murmansk2         17634.625
       240   07 Jun 2027 05:29:59.574   07 Jun 2027 05:35:06.046           306.472            RioGallegos         38309.000
       241   07 Jun 2027 06:09:02.964   07 Jun 2027 06:09:18.909            15.945                Sumatra          1993.125
       242   07 Jun 2027 06:10:39.883   07 Jun 2027 06:12:08.652            88.769                Irkutsk         11096.125
       243   07 Jun 2027 06:13:00.824   07 Jun 2027 06:18:12.758           311.934                Irkutsk         38991.750
       244   07 Jun 2027 06:23:26.425   07 Jun 2027 06:24:51.859            85.434                Norilsk         10679.250
       245   07 Jun 2027 06:25:06.958   07 Jun 2027 06:28:08.272           181.314              Murmansk1         22664.250
       246   07 Jun 2027 06:28:10.301   07 Jun 2027 06:28:29.657            19.356                Norilsk          2419.500
       247   07 Jun 2027 06:29:52.066   07 Jun 2027 06:31:07.356            75.290              Murmansk2          9411.250
       248   07 Jun 2027 07:04:36.890   07 Jun 2027 07:10:25.870           348.980            RioGallegos         43622.500
       249   07 Jun 2027 07:37:30.732   07 Jun 2027 07:44:43.474           432.742                Sumatra         54092.750
       250   07 Jun 2027 07:50:41.136   07 Jun 2027 07:52:54.260           133.124                Irkutsk         16640.500
       251   07 Jun 2027 07:59:26.265   07 Jun 2027 08:04:29.121           302.856                Norilsk         37857.000
       252   07 Jun 2027 08:05:45.967   07 Jun 2027 08:06:21.877            35.910              Murmansk1          4488.750
       253   07 Jun 2027 09:21:06.639   07 Jun 2027 09:28:41.194           454.555                  Delhi         56819.375
       254   07 Jun 2027 09:28:56.590   07 Jun 2027 09:30:53.373           116.783                Novosib         14597.875
       255   07 Jun 2027 09:34:59.705   07 Jun 2027 09:38:33.310           213.605                 Moscow         26700.625
       256   07 Jun 2027 09:38:36.105   07 Jun 2027 09:40:23.584           107.479                Norilsk         13434.875
       257   07 Jun 2027 09:40:54.101   07 Jun 2027 09:42:06.390            72.289              Murmansk1          9036.125
       258   07 Jun 2027 11:03:49.116   07 Jun 2027 11:04:03.785            14.669                 Moscow          1833.625
       259   07 Jun 2027 11:08:02.922   07 Jun 2027 11:18:03.515           600.593              Murmansk2         75074.125
       260   07 Jun 2027 11:21:13.941   07 Jun 2027 11:23:40.506           146.565                Anadyr2         18320.625
       261   07 Jun 2027 14:34:23.354   07 Jun 2027 14:38:37.497           254.143               Magadan1         31767.875
       262   07 Jun 2027 17:03:52.831   07 Jun 2027 17:08:57.257           304.426            RioGallegos         38053.250
       263   07 Jun 2027 17:47:40.278   07 Jun 2027 17:48:34.311            54.033                Norilsk          6754.125
       264   07 Jun 2027 18:09:09.082   07 Jun 2027 18:10:34.016            84.934                Sumatra         10616.750
       265   07 Jun 2027 19:35:23.306   07 Jun 2027 19:39:20.627           237.321                  Delhi         29665.125
       266   07 Jun 2027 21:00:32.096   07 Jun 2027 21:04:12.300           220.204              Murmansk1         27525.500
       267   07 Jun 2027 21:04:29.792   07 Jun 2027 21:04:56.497            26.705              Murmansk2          3338.125
       268   07 Jun 2027 21:06:03.517   07 Jun 2027 21:07:15.306            71.789                 Moscow          8973.625
       269   07 Jun 2027 23:09:26.940   07 Jun 2027 23:10:30.881            63.941               CapeTown          7992.625
       270   08 Jun 2027 04:59:30.888   08 Jun 2027 05:00:35.362            64.474                Novosib          8059.250
       271   08 Jun 2027 05:02:49.898   08 Jun 2027 05:04:44.832           114.934              Murmansk2         14366.750
       272   08 Jun 2027 05:06:13.203   08 Jun 2027 05:08:25.377           132.174              Murmansk1         16521.750
       273   08 Jun 2027 05:41:58.001   08 Jun 2027 05:47:07.211           309.210            RioGallegos         38651.250
       274   08 Jun 2027 06:20:43.725   08 Jun 2027 06:21:37.860            54.135                Sumatra          6766.875
       275   08 Jun 2027 06:24:22.150   08 Jun 2027 06:29:53.784           331.634                Irkutsk         41454.250
       276   08 Jun 2027 06:35:27.962   08 Jun 2027 06:36:01.063            33.101                Novosib          4137.625
       277   08 Jun 2027 06:36:06.594   08 Jun 2027 06:40:31.140           264.546                Norilsk         33068.250
       278   08 Jun 2027 06:41:52.582   08 Jun 2027 06:43:01.193            68.611              Murmansk1          8576.375
       279   08 Jun 2027 07:16:09.341   08 Jun 2027 07:22:13.770           364.429            RioGallegos         45553.625
       280   08 Jun 2027 07:47:42.202   08 Jun 2027 07:56:08.881           506.679                Sumatra         63334.875
       281   08 Jun 2027 08:00:24.303   08 Jun 2027 08:01:09.123            44.820                Novosib          5602.500
       282   08 Jun 2027 08:01:18.114   08 Jun 2027 08:03:05.267           107.153                  Delhi         13394.125
       283   08 Jun 2027 08:11:08.653   08 Jun 2027 08:12:56.271           107.618                Novosib         13452.250
       284   08 Jun 2027 08:12:57.940   08 Jun 2027 08:16:30.930           212.990                Norilsk         26623.750
       285   08 Jun 2027 08:17:46.717   08 Jun 2027 08:18:20.526            33.809              Murmansk2          4226.125
       286   08 Jun 2027 09:31:29.535   08 Jun 2027 09:40:04.773           515.238                  Delhi         64404.750
       287   08 Jun 2027 09:40:19.324   08 Jun 2027 09:42:40.399           141.075                Novosib         17634.375
       288   08 Jun 2027 09:47:52.339   08 Jun 2027 09:52:22.984           270.645                Norilsk         33830.625
       289   08 Jun 2027 09:52:49.908   08 Jun 2027 09:54:07.478            77.570              Murmansk1          9696.250
       290   08 Jun 2027 11:15:36.207   08 Jun 2027 11:16:15.089            38.882                 Moscow          4860.250
       291   08 Jun 2027 11:20:29.307   08 Jun 2027 11:21:21.059            51.752              Murmansk2          6469.000
       292   08 Jun 2027 11:21:46.017   08 Jun 2027 11:26:25.172           279.155                 Moscow         34894.375
       293   08 Jun 2027 11:26:42.643   08 Jun 2027 11:30:05.141           202.498              Murmansk1         25312.250
       294   08 Jun 2027 11:36:19.809   08 Jun 2027 11:39:30.531           190.722                Anadyr1         23840.250
       295   08 Jun 2027 12:34:44.971   08 Jun 2027 12:36:46.977           122.006               CapeTown         15250.750
       296   08 Jun 2027 14:46:18.056   08 Jun 2027 14:48:24.035           125.979               Magadan1         15747.375
       297   08 Jun 2027 17:17:26.566   08 Jun 2027 17:20:18.875           172.309            RioGallegos         21538.625
       298   08 Jun 2027 18:04:14.276   08 Jun 2027 18:07:59.201           224.925                Novosib         28115.625
       299   08 Jun 2027 19:49:35.204   08 Jun 2027 19:51:57.598           142.394                  Delhi         17799.250
       300   08 Jun 2027 21:13:10.331   08 Jun 2027 21:14:25.688            75.357              Murmansk2          9419.625
       301   08 Jun 2027 21:15:56.828   08 Jun 2027 21:17:53.659           116.831              Murmansk1         14603.875
       302   08 Jun 2027 21:19:13.875   08 Jun 2027 21:22:15.258           181.383                 Moscow         22672.875
       303   09 Jun 2027 05:13:36.707   09 Jun 2027 05:14:28.128            51.421              Murmansk1          6427.625
       304   09 Jun 2027 05:14:40.521   09 Jun 2027 05:16:32.288           111.767              Murmansk2         13970.875
       305   09 Jun 2027 05:18:11.010   09 Jun 2027 05:20:14.268           123.258              Murmansk1         15407.250
       306   09 Jun 2027 05:53:55.157   09 Jun 2027 05:59:07.423           312.266            RioGallegos         39033.250
       307   09 Jun 2027 06:28:46.360   09 Jun 2027 06:33:49.958           303.598                Sumatra         37949.750
       308   09 Jun 2027 06:36:01.637   09 Jun 2027 06:41:38.409           336.772                Irkutsk         42096.500
       309   09 Jun 2027 06:47:30.042   09 Jun 2027 06:52:32.758           302.716                Norilsk         37839.500
       310   09 Jun 2027 06:53:53.355   09 Jun 2027 06:54:55.758            62.403              Murmansk2          7800.375
       311   09 Jun 2027 07:27:26.806   09 Jun 2027 07:33:57.637           390.831            RioGallegos         48853.875
       312   09 Jun 2027 07:58:54.829   09 Jun 2027 08:07:20.654           505.825                Sumatra         63228.125
       313   09 Jun 2027 08:12:37.409   09 Jun 2027 08:13:05.313            27.904                Novosib          3488.000
       314   09 Jun 2027 08:13:31.476   09 Jun 2027 08:18:09.706           278.230                  Delhi         34778.750
       315   09 Jun 2027 08:18:19.835   09 Jun 2027 08:19:22.027            62.192                Irkutsk          7774.000
       316   09 Jun 2027 08:23:03.724   09 Jun 2027 08:23:48.071            44.347                 Moscow          5543.375
       317   09 Jun 2027 08:24:06.450   09 Jun 2027 08:28:32.643           266.193                Norilsk         33274.125
       318   09 Jun 2027 08:29:47.683   09 Jun 2027 08:30:19.603            31.920              Murmansk2          3990.000
       319   09 Jun 2027 09:44:35.981   09 Jun 2027 09:51:10.289           394.308                  Delhi         49288.500
       320   09 Jun 2027 09:58:54.036   09 Jun 2027 09:59:21.638            27.602                 Moscow          3450.250
       321   09 Jun 2027 10:00:41.907   09 Jun 2027 10:04:21.570           219.663                Norilsk         27457.875
       322   09 Jun 2027 10:04:40.878   09 Jun 2027 10:06:08.728            87.850              Murmansk1         10981.250
       323   09 Jun 2027 11:28:50.045   09 Jun 2027 11:29:17.156            27.111                 Moscow          3388.875
       324   09 Jun 2027 11:32:30.922   09 Jun 2027 11:33:19.887            48.965              Murmansk2          6120.625
       325   09 Jun 2027 11:33:58.819   09 Jun 2027 11:38:21.756           262.937                 Moscow         32867.125
       326   09 Jun 2027 11:38:40.004   09 Jun 2027 11:42:06.696           206.692              Murmansk1         25836.500
       327   09 Jun 2027 11:51:00.519   09 Jun 2027 11:52:19.732            79.213                Anadyr1          9901.625
       328   09 Jun 2027 12:46:33.306   09 Jun 2027 12:52:00.707           327.401               CapeTown         40925.125
       329   09 Jun 2027 13:07:49.869   09 Jun 2027 13:11:36.979           227.110                 Moscow         28388.750
       330   09 Jun 2027 13:12:20.246   09 Jun 2027 13:17:56.111           335.865              Murmansk2         41983.125
       331   09 Jun 2027 13:19:52.565   09 Jun 2027 13:23:43.805           231.240                Anadyr2         28905.000
       332   09 Jun 2027 13:24:30.954   09 Jun 2027 13:26:30.688           119.734               Magadan1         14966.750
       333   09 Jun 2027 15:00:00.670   09 Jun 2027 15:00:02.622             1.952               Magadan2           244.000
       334   09 Jun 2027 18:11:02.341   09 Jun 2027 18:11:34.918            32.577                Norilsk          4072.125
       335   09 Jun 2027 18:13:37.894   09 Jun 2027 18:14:44.861            66.967                Irkutsk          8370.875
       336   09 Jun 2027 18:15:21.123   09 Jun 2027 18:21:26.527           365.404                Novosib         45675.500
       337   09 Jun 2027 20:02:43.284   09 Jun 2027 20:03:17.569            34.285                  Delhi          4285.625
       338   09 Jun 2027 21:24:54.221   09 Jun 2027 21:25:38.779            44.558              Murmansk2          5569.750
       339   09 Jun 2027 21:26:20.450   09 Jun 2027 21:29:11.455           171.005              Murmansk1         21375.625
       340   09 Jun 2027 21:29:31.806   09 Jun 2027 21:32:48.332           196.526              Murmansk2         24565.750
       341   09 Jun 2027 21:34:24.360   09 Jun 2027 21:35:47.495            83.135                 Moscow         10391.875
       342   10 Jun 2027 03:45:59.993   10 Jun 2027 03:47:48.874           108.881               Magadan1         13610.125
       343   10 Jun 2027 03:47:49.983   10 Jun 2027 03:52:07.625           257.642                Norilsk         32205.250
       344   10 Jun 2027 05:24:11.311   10 Jun 2027 05:24:52.232            40.921                Norilsk          5115.125
       345   10 Jun 2027 05:25:32.803   10 Jun 2027 05:26:22.368            49.565              Murmansk1          6195.625
       346   10 Jun 2027 05:26:31.870   10 Jun 2027 05:28:20.073           108.203              Murmansk2         13525.375
       347   10 Jun 2027 05:30:09.323   10 Jun 2027 05:32:03.774           114.451              Murmansk1         14306.375
       348   10 Jun 2027 06:05:50.827   10 Jun 2027 06:11:06.578           315.751            RioGallegos         39468.875
       349   10 Jun 2027 06:40:37.482   10 Jun 2027 06:45:56.029           318.547                Sumatra         39818.375
       350   10 Jun 2027 06:48:32.461   10 Jun 2027 06:53:21.060           288.599                Irkutsk         36074.875
       351   10 Jun 2027 06:59:14.155   10 Jun 2027 07:04:34.473           320.318                Norilsk         40039.750
       352   10 Jun 2027 07:05:54.341   10 Jun 2027 07:06:51.014            56.673              Murmansk1          7084.125
       353   10 Jun 2027 07:37:44.907   10 Jun 2027 07:45:35.633           470.726            RioGallegos         58840.750
       354   10 Jun 2027 08:12:00.704   10 Jun 2027 08:18:08.457           367.753                Sumatra         45969.125
       355   10 Jun 2027 08:24:38.382   10 Jun 2027 08:30:08.044           329.662                  Delhi         41207.750
       356   10 Jun 2027 08:30:09.411   10 Jun 2027 08:31:29.975            80.564                Irkutsk         10070.500
       357   10 Jun 2027 08:35:06.690   10 Jun 2027 08:36:50.106           103.416                Novosib         12927.000
       358   10 Jun 2027 08:36:55.409   10 Jun 2027 08:40:34.225           218.816                Norilsk         27352.000
       359   10 Jun 2027 08:41:48.835   10 Jun 2027 08:42:19.071            30.236              Murmansk2          3779.500
       360   10 Jun 2027 09:58:38.752   10 Jun 2027 10:01:21.457           162.705                  Delhi         20338.125
       361   10 Jun 2027 10:12:14.878   10 Jun 2027 10:16:19.084           244.206                Norilsk         30525.750
       362   10 Jun 2027 10:16:43.415   10 Jun 2027 10:18:10.118            86.703              Murmansk1         10837.875
       363   10 Jun 2027 11:40:46.373   10 Jun 2027 11:41:54.784            68.411                 Moscow          8551.375
       364   10 Jun 2027 11:44:32.459   10 Jun 2027 11:45:20.597            48.138              Murmansk2          6017.250
       365   10 Jun 2027 11:46:07.610   10 Jun 2027 11:50:16.974           249.364                 Moscow         31170.500
       366   10 Jun 2027 11:50:33.324   10 Jun 2027 11:54:08.150           214.826              Murmansk1         26853.250
       367   10 Jun 2027 11:56:29.467   10 Jun 2027 12:05:02.427           512.960                Anadyr2         64120.000
       368   10 Jun 2027 12:58:16.378   10 Jun 2027 13:03:57.255           340.877               CapeTown         42609.625
       369   10 Jun 2027 13:20:55.816   10 Jun 2027 13:29:54.243           538.427              Murmansk1         67303.375
       370   10 Jun 2027 13:31:52.468   10 Jun 2027 13:34:44.974           172.506                Anadyr2         21563.250
       371   10 Jun 2027 13:35:49.099   10 Jun 2027 13:41:19.967           330.868               Magadan1         41358.500
       372   10 Jun 2027 16:52:05.750   10 Jun 2027 16:56:55.001           289.251                Irkutsk         36156.375
       373   10 Jun 2027 18:26:50.539   10 Jun 2027 18:34:26.765           456.226                Novosib         57028.250
       374   10 Jun 2027 21:36:22.150   10 Jun 2027 21:37:18.646            56.496              Murmansk2          7062.000
       375   10 Jun 2027 21:39:04.807   10 Jun 2027 21:41:06.321           121.514              Murmansk1         15189.250
       376   10 Jun 2027 21:41:10.831   10 Jun 2027 21:45:08.262           237.431                 Moscow         29678.875
       377   10 Jun 2027 22:08:31.050   10 Jun 2027 22:09:18.744            47.694               CapeTown           976.624
       378   11 Jun 2027 03:58:27.990   11 Jun 2027 03:59:16.021            48.031                Anadyr2          6003.875
       379   11 Jun 2027 03:59:19.159   11 Jun 2027 03:59:22.543             3.384                Anadyr1           423.000
       380   11 Jun 2027 03:59:27.664   11 Jun 2027 03:59:47.389            19.725               Magadan1          2465.625
       381   11 Jun 2027 03:59:51.805   11 Jun 2027 04:04:00.536           248.731              Murmansk2         31091.375
       382   11 Jun 2027 05:14:37.774   11 Jun 2027 05:15:02.379            24.605                Sumatra          3075.625
       383   11 Jun 2027 05:15:46.853   11 Jun 2027 05:16:36.214            49.361                Sumatra          6170.125
       384   11 Jun 2027 05:36:03.797   11 Jun 2027 05:36:56.466            52.669                Norilsk          6583.625
       385   11 Jun 2027 05:37:29.515   11 Jun 2027 05:38:15.493            45.978              Murmansk1          5747.250
       386   11 Jun 2027 05:38:23.965   11 Jun 2027 05:40:25.877           121.912              Murmansk2         15239.000
       387   11 Jun 2027 05:42:08.096   11 Jun 2027 05:43:53.943           105.847              Murmansk1         13230.875
       388   11 Jun 2027 06:17:44.744   11 Jun 2027 06:23:04.571           319.827            RioGallegos         39978.375
       389   11 Jun 2027 06:52:22.395   11 Jun 2027 06:57:56.462           334.067                Sumatra         41758.375
       390   11 Jun 2027 07:00:20.387   11 Jun 2027 07:01:53.283            92.896                Novosib         11612.000
       391   11 Jun 2027 07:02:55.687   11 Jun 2027 07:05:15.694           140.007                Irkutsk         17500.875
       392   11 Jun 2027 07:11:08.432   11 Jun 2027 07:13:10.648           122.216                Novosib         15277.000
       393   11 Jun 2027 07:13:12.669   11 Jun 2027 07:16:38.406           205.737              Murmansk1         25717.125
       394   11 Jun 2027 07:17:55.521   11 Jun 2027 07:18:46.929            51.408              Murmansk2          6426.000
       395   11 Jun 2027 07:50:24.270   11 Jun 2027 07:57:03.988           399.718            RioGallegos         49964.750
       396   11 Jun 2027 08:36:21.567   11 Jun 2027 08:42:02.894           341.327                  Delhi         42665.875
       397   11 Jun 2027 08:42:59.984   11 Jun 2027 08:43:37.655            37.671                Norilsk          4708.875
       398   11 Jun 2027 08:47:17.891   11 Jun 2027 08:47:42.538            24.647                 Moscow          3080.875
       399   11 Jun 2027 08:48:10.153   11 Jun 2027 08:52:35.629           265.476                Norilsk         33184.500
       400   11 Jun 2027 08:53:50.138   11 Jun 2027 08:54:18.891            28.753              Murmansk1          3594.125
       401   11 Jun 2027 10:16:30.303   11 Jun 2027 10:17:06.882            36.579                 Moscow          4572.375
       402   11 Jun 2027 10:22:42.927   11 Jun 2027 10:28:15.097           332.170                Norilsk         41521.250
       403   11 Jun 2027 10:28:28.828   11 Jun 2027 10:30:11.614           102.786              Murmansk2         12848.250
       404   11 Jun 2027 11:52:41.280   11 Jun 2027 11:53:55.354            74.074                 Moscow          9259.250
       405   11 Jun 2027 11:55:06.823   11 Jun 2027 12:06:09.461           662.638              Murmansk1         82829.750
       406   11 Jun 2027 12:08:22.330   11 Jun 2027 12:17:40.036           557.706                Anadyr2         69713.250
       407   11 Jun 2027 13:06:21.425   11 Jun 2027 13:15:48.847           567.422               CapeTown         70927.750
       408   11 Jun 2027 13:33:31.701   11 Jun 2027 13:38:21.462           289.761              Murmansk2         36220.125
       409   11 Jun 2027 13:47:24.049   11 Jun 2027 13:51:08.654           224.605               Magadan2         28075.625
       410   11 Jun 2027 13:51:33.983   11 Jun 2027 13:53:31.679           117.696               Magadan1         14712.000
       411   11 Jun 2027 17:03:21.089   11 Jun 2027 17:10:19.550           418.461                Irkutsk         52307.625
       412   11 Jun 2027 17:19:25.217   11 Jun 2027 17:20:47.487            82.270                Sumatra         10283.750
       413   11 Jun 2027 17:22:30.797   11 Jun 2027 17:24:29.301           118.504                Sumatra         14813.000
       414   11 Jun 2027 18:39:02.261   11 Jun 2027 18:40:10.199            67.938                Novosib          8492.250
       415   11 Jun 2027 18:41:42.858   11 Jun 2027 18:42:18.465            35.607                Novosib          4450.875
       416   11 Jun 2027 18:43:43.336   11 Jun 2027 18:45:00.422            77.086                Novosib          9635.750
       417   11 Jun 2027 21:47:59.747   11 Jun 2027 21:49:42.712           102.965              Murmansk2         12870.625
       418   11 Jun 2027 21:51:44.814   11 Jun 2027 21:53:51.051           126.237              Murmansk2         15779.625
       419   11 Jun 2027 21:53:59.563   11 Jun 2027 21:55:44.612           105.049                 Moscow         13131.125
       420   11 Jun 2027 21:57:34.687   11 Jun 2027 21:58:33.299            58.612                 Moscow          4193.125
       421   12 Jun 2027 04:10:29.097   12 Jun 2027 04:11:00.581            31.484                Anadyr1          3935.500
       422   12 Jun 2027 04:11:51.478   12 Jun 2027 04:12:05.239            13.761                Novosib          1720.125
       423   12 Jun 2027 04:12:40.468   12 Jun 2027 04:21:28.785           528.317              Murmansk2         66039.625
       424   12 Jun 2027 04:46:54.087   12 Jun 2027 04:48:22.366            88.279            RioGallegos         11034.875
       425   12 Jun 2027 05:24:38.818   12 Jun 2027 05:25:57.979            79.161                Sumatra          9895.125
       426   12 Jun 2027 05:47:56.953   12 Jun 2027 05:49:02.223            65.270                Norilsk          8158.750
       427   12 Jun 2027 05:49:26.807   12 Jun 2027 05:52:39.180           192.373              Murmansk2         24046.625
       428   12 Jun 2027 05:54:07.294   12 Jun 2027 05:55:44.820            97.526              Murmansk1         12190.750
       429   12 Jun 2027 06:29:36.497   12 Jun 2027 06:35:01.217           324.720            RioGallegos         40590.000
       430   12 Jun 2027 07:04:00.190   12 Jun 2027 07:09:51.308           351.118                Sumatra         43889.750
       431   12 Jun 2027 07:12:18.268   12 Jun 2027 07:13:28.012            69.744                Novosib          8718.000
       432   12 Jun 2027 07:13:45.236   12 Jun 2027 07:17:09.864           204.628                Irkutsk         25578.500
       433   12 Jun 2027 07:23:42.246   12 Jun 2027 07:25:04.015            81.769                 Moscow         10221.125
       434   12 Jun 2027 07:25:06.430   12 Jun 2027 07:28:28.897           202.467              Murmansk2         25308.375
       435   12 Jun 2027 07:29:56.856   12 Jun 2027 07:30:43.477            46.621              Murmansk1          5827.625
       436   12 Jun 2027 08:03:47.326   12 Jun 2027 08:08:11.624           264.298            RioGallegos         33037.250
       437   12 Jun 2027 08:47:58.280   12 Jun 2027 08:53:53.911           355.631                  Delhi         44453.875
       438   12 Jun 2027 08:59:15.568   12 Jun 2027 09:00:38.139            82.571                Novosib         10321.375
       439   12 Jun 2027 09:00:40.706   12 Jun 2027 09:04:36.801           236.095                Norilsk         29511.875
       440   12 Jun 2027 09:05:51.579   12 Jun 2027 09:06:19.029            27.450              Murmansk1          3431.250
       441   12 Jun 2027 10:28:26.304   12 Jun 2027 10:29:08.302            41.998                 Moscow          5249.750
       442   12 Jun 2027 10:34:19.102   12 Jun 2027 10:40:08.953           349.851                Norilsk         43731.375
       443   12 Jun 2027 10:40:21.642   12 Jun 2027 10:42:13.192           111.550              Murmansk1         13943.750
       444   12 Jun 2027 12:04:34.425   12 Jun 2027 12:14:01.911           567.486                 Moscow         70935.750
       445   12 Jun 2027 12:14:35.248   12 Jun 2027 12:18:10.574           215.326              Murmansk1         26915.750
       446   12 Jun 2027 12:20:17.121   12 Jun 2027 12:30:13.365           596.244                Anadyr2         74530.500
       447   12 Jun 2027 13:18:12.009   12 Jun 2027 13:27:35.351           563.342               CapeTown         70417.750
       448   12 Jun 2027 13:46:11.168   12 Jun 2027 13:52:30.775           379.607              Murmansk1         47450.875
       449   12 Jun 2027 13:59:06.822   12 Jun 2027 14:05:40.575           393.753               Magadan2         49219.125
       450   12 Jun 2027 16:28:27.060   12 Jun 2027 16:31:03.371           156.311            RioGallegos         19538.875
       451   12 Jun 2027 17:14:52.811   12 Jun 2027 17:18:30.101           217.290                Irkutsk         27161.250
       452   12 Jun 2027 17:19:49.665   12 Jun 2027 17:21:07.279            77.614                Irkutsk          9701.750
       453   12 Jun 2027 17:30:03.404   12 Jun 2027 17:32:24.189           140.785                Sumatra         17598.125
       454   12 Jun 2027 17:34:15.190   12 Jun 2027 17:36:25.767           130.577                Sumatra         16322.125
       455   12 Jun 2027 18:52:45.530   12 Jun 2027 18:53:43.853            58.323                Novosib          7290.375
       456   12 Jun 2027 18:56:08.798   12 Jun 2027 18:56:17.880             9.082                Novosib          1135.250
       457   12 Jun 2027 19:00:51.588   12 Jun 2027 19:02:18.259            86.671                  Delhi         10833.875
       458   12 Jun 2027 20:25:50.575   12 Jun 2027 20:27:04.060            73.485              Murmansk2          9185.625
       459   12 Jun 2027 22:03:35.945   12 Jun 2027 22:05:27.669           111.724                 Moscow         13965.500
       460   12 Jun 2027 22:07:10.722   12 Jun 2027 22:09:56.681           165.959                 Moscow          7838.750
       461   13 Jun 2027 04:23:49.680   13 Jun 2027 04:24:19.891            30.211                Novosib          3776.375
       462   13 Jun 2027 04:24:45.058   13 Jun 2027 04:33:16.059           511.001              Murmansk1         63875.125
       463   13 Jun 2027 05:35:34.733   13 Jun 2027 05:38:15.355           160.622                Sumatra         20077.750
       464   13 Jun 2027 05:59:37.820   13 Jun 2027 06:01:09.571            91.751                Norilsk         11468.875
       465   13 Jun 2027 06:01:24.641   13 Jun 2027 06:04:35.032           190.391              Murmansk1         23798.875
       466   13 Jun 2027 06:06:06.875   13 Jun 2027 06:07:36.430            89.555              Murmansk2         11194.375
       467   13 Jun 2027 06:41:25.527   13 Jun 2027 06:46:56.294           330.767            RioGallegos         41345.875
       468   13 Jun 2027 07:15:29.203   13 Jun 2027 07:21:40.298           371.095                Sumatra         46386.875
       469   13 Jun 2027 07:25:08.063   13 Jun 2027 07:25:58.171            50.108                Novosib          6263.500
       470   13 Jun 2027 07:26:11.541   13 Jun 2027 07:30:51.195           279.654                Irkutsk         34956.750
       471   13 Jun 2027 07:34:07.981   13 Jun 2027 07:34:50.081            42.100                Irkutsk          5262.500
       472   13 Jun 2027 07:35:30.129   13 Jun 2027 07:37:12.866           102.737                Novosib         12842.125
       473   13 Jun 2027 07:37:13.477   13 Jun 2027 07:40:20.110           186.633              Murmansk1         23329.125
       474   13 Jun 2027 07:41:58.328   13 Jun 2027 07:42:40.607            42.279              Murmansk2          5284.875
       475   13 Jun 2027 08:59:25.965   13 Jun 2027 09:05:40.465           374.500                  Delhi         46812.500
       476   13 Jun 2027 09:05:45.833   13 Jun 2027 09:06:33.168            47.335                Novosib          5916.875
       477   13 Jun 2027 09:11:10.370   13 Jun 2027 09:11:30.691            20.321              Murmansk2          2540.125
       478   13 Jun 2027 09:11:31.244   13 Jun 2027 09:16:37.675           306.431                Norilsk         38303.875
       479   13 Jun 2027 09:16:52.752   13 Jun 2027 09:18:19.447            86.695              Murmansk2         10836.875
       480   13 Jun 2027 10:40:20.806   13 Jun 2027 10:43:04.471           163.665                 Moscow         20458.125
       481   13 Jun 2027 10:46:11.488   13 Jun 2027 10:50:43.809           272.321                 Moscow         34040.125
       482   13 Jun 2027 10:50:47.806   13 Jun 2027 10:51:59.395            71.589                Norilsk          8948.625
