uniorb/output/strategy_4/Drop/Drop_KinoSat_110904.txt

KinoSat_110904
-------------------------
    Access    *     Start Time (UTCG)     *     Stop Time (UTCG)  *   Duration (s)        *       Station  *  Data (Mbytes)
         1   01 Jun 2027 03:41:48.622   01 Jun 2027 03:42:28.074            39.452                Anadyr1          1232.875
         2   01 Jun 2027 03:42:48.276   01 Jun 2027 03:43:19.873            31.597               Magadan1           987.406
         3   01 Jun 2027 03:43:45.719   01 Jun 2027 03:47:39.106           233.387                Anadyr2          7293.344
         4   01 Jun 2027 03:47:39.106   01 Jun 2027 03:47:44.407             5.301                Anadyr1           165.656
         5   01 Jun 2027 05:18:56.787   01 Jun 2027 05:21:09.431           132.644                Anadyr2          4145.125
         6   01 Jun 2027 06:54:15.642   01 Jun 2027 06:54:37.938            22.296                Norilsk           696.750
         7   01 Jun 2027 06:54:49.992   01 Jun 2027 06:57:46.877           176.885                Norilsk          5527.656
         8   01 Jun 2027 06:58:05.536   01 Jun 2027 06:58:28.109            22.573                Novosib           705.406
         9   01 Jun 2027 06:58:28.189   01 Jun 2027 06:58:47.529            19.340               Magadan2           604.375
        10   01 Jun 2027 06:58:53.664   01 Jun 2027 06:59:13.249            19.585                Norilsk           612.031
        11   01 Jun 2027 06:59:55.964   01 Jun 2027 07:00:10.264            14.300              Murmansk1           446.875
        12   01 Jun 2027 07:00:10.264   01 Jun 2027 07:00:45.716            35.452              Murmansk2          1107.875
        13   01 Jun 2027 07:01:02.514   01 Jun 2027 07:01:25.816            23.302              Murmansk2           728.187
        14   01 Jun 2027 07:33:47.119   01 Jun 2027 07:36:18.398           151.279            RioGallegos          4727.469
        15   01 Jun 2027 08:09:31.668   01 Jun 2027 08:12:24.289           172.621                Sumatra          5394.406
        16   01 Jun 2027 08:31:05.391   01 Jun 2027 08:33:49.921           164.530                Novosib          5141.562
        17   01 Jun 2027 08:33:50.416   01 Jun 2027 08:34:57.344            66.928              Murmansk2          2091.500
        18   01 Jun 2027 09:45:18.911   01 Jun 2027 09:46:18.223            59.312                Sumatra          1853.500
        19   01 Jun 2027 09:55:20.504   01 Jun 2027 09:55:55.764            35.260                  Delhi          1101.875
        20   01 Jun 2027 09:56:14.398   01 Jun 2027 09:56:52.877            38.479                  Delhi          1202.469
        21   01 Jun 2027 10:08:18.936   01 Jun 2027 10:08:44.496            25.560                 Moscow           798.750
        22   01 Jun 2027 10:08:48.173   01 Jun 2027 10:09:54.090            65.917                Irkutsk          2059.906
        23   01 Jun 2027 10:10:08.009   01 Jun 2027 10:12:29.639           141.630                Novosib          4425.937
        24   01 Jun 2027 11:30:22.512   01 Jun 2027 11:30:55.839            33.327                  Delhi          1041.469
        25   01 Jun 2027 11:32:51.071   01 Jun 2027 11:35:00.993           129.922                  Delhi          4060.063
        26   01 Jun 2027 11:44:37.479   01 Jun 2027 11:45:04.383            26.904                Novosib           840.750
        27   01 Jun 2027 11:45:06.310   01 Jun 2027 11:46:33.759            87.449              Murmansk1          2732.781
        28   01 Jun 2027 11:46:46.351   01 Jun 2027 11:48:47.720           121.369                Norilsk          3792.781
        29   01 Jun 2027 11:48:58.914   01 Jun 2027 11:50:05.814            66.900                 Moscow          2090.625
        30   01 Jun 2027 13:13:26.778   01 Jun 2027 13:15:50.526           143.748                 Moscow          4492.125
        31   01 Jun 2027 13:16:08.440   01 Jun 2027 13:16:25.899            17.459                 Moscow           545.594
        32   01 Jun 2027 13:16:57.374   01 Jun 2027 13:21:33.089           275.715              Murmansk1          8616.094
        33   01 Jun 2027 13:21:40.440   01 Jun 2027 13:21:56.737            16.297              Murmansk2           509.281
        34   01 Jun 2027 13:22:07.790   01 Jun 2027 13:22:31.125            23.335              Murmansk2           729.219
        35   01 Jun 2027 13:24:30.905   01 Jun 2027 13:25:41.697            70.792                Norilsk          2212.250
        36   01 Jun 2027 13:32:40.525   01 Jun 2027 13:36:02.376           201.851                Anadyr1          6307.844
        37   01 Jun 2027 13:36:06.017   01 Jun 2027 13:36:40.845            34.828                Anadyr2          1088.375
        38   01 Jun 2027 14:55:02.627   01 Jun 2027 14:55:15.538            12.911              Murmansk1           403.469
        39   01 Jun 2027 14:55:48.766   01 Jun 2027 14:56:27.885            39.119              Murmansk2          1222.469
        40   01 Jun 2027 14:57:38.813   01 Jun 2027 14:59:35.172           116.359              Murmansk1          3636.219
        41   01 Jun 2027 15:04:59.032   01 Jun 2027 15:05:29.794            30.762              Murmansk1           961.312
        42   01 Jun 2027 15:07:25.763   01 Jun 2027 15:11:03.570           217.807                Anadyr1          6806.469
        43   01 Jun 2027 15:14:42.860   01 Jun 2027 15:15:29.681            46.821                Anadyr1          1463.156
        44   01 Jun 2027 15:17:58.244   01 Jun 2027 15:18:34.974            36.730                Anadyr2          1147.812
        45   01 Jun 2027 15:18:34.974   01 Jun 2027 15:18:41.139             6.165                Anadyr1           192.656
        46   01 Jun 2027 16:36:08.172   01 Jun 2027 16:39:39.280           211.108              Murmansk2          6597.125
        47   01 Jun 2027 16:39:41.782   01 Jun 2027 16:40:29.276            47.494              Murmansk2          1484.187
        48   01 Jun 2027 16:43:13.864   01 Jun 2027 16:44:25.121            71.257                Anadyr2          2226.781
        49   01 Jun 2027 16:45:23.209   01 Jun 2027 16:46:05.849            42.640                Anadyr2          1332.500
        50   01 Jun 2027 16:46:34.608   01 Jun 2027 16:48:34.093           119.485               Magadan2          3733.906
        51   01 Jun 2027 16:48:34.315   01 Jun 2027 16:50:41.744           127.429               Magadan1          3982.156
        52   01 Jun 2027 18:19:09.036   01 Jun 2027 18:23:11.491           242.455                Anadyr2          7576.719
        53   01 Jun 2027 18:23:13.441   01 Jun 2027 18:24:08.938            55.497                Norilsk          1734.281
        54   01 Jun 2027 18:24:28.674   01 Jun 2027 18:25:16.678            48.004               Magadan2          1500.125
        55   01 Jun 2027 18:30:08.937   01 Jun 2027 18:30:57.325            48.388               Magadan1          1512.125
        56   01 Jun 2027 18:32:37.577   01 Jun 2027 18:33:20.855            43.278               Magadan2          1352.437
        57   01 Jun 2027 19:13:57.871   01 Jun 2027 19:15:23.722            85.851            RioGallegos          2682.844
        58   01 Jun 2027 19:15:54.614   01 Jun 2027 19:17:54.382           119.768            RioGallegos          3742.750
        59   01 Jun 2027 19:19:09.972   01 Jun 2027 19:20:20.148            70.176            RioGallegos          2193.000
        60   01 Jun 2027 19:55:28.064   01 Jun 2027 19:55:42.845            14.781                Anadyr1           461.906
        61   01 Jun 2027 19:55:49.807   01 Jun 2027 19:56:33.608            43.801                Anadyr1          1368.781
        62   01 Jun 2027 19:57:01.650   01 Jun 2027 19:59:21.921           140.271                Norilsk          4383.469
        63   01 Jun 2027 19:59:30.476   01 Jun 2027 19:59:58.140            27.664                Norilsk           864.500
        64   01 Jun 2027 20:01:02.587   01 Jun 2027 20:01:03.909             1.322                Norilsk            41.313
        65   01 Jun 2027 20:01:22.547   01 Jun 2027 20:02:31.848            69.301                Irkutsk          2165.656
        66   01 Jun 2027 20:03:26.182   01 Jun 2027 20:03:49.210            23.028                Irkutsk           719.625
        67   01 Jun 2027 20:04:20.606   01 Jun 2027 20:04:35.551            14.945                Irkutsk           467.031
        68   01 Jun 2027 20:15:19.970   01 Jun 2027 20:18:47.131           207.161                Sumatra          6473.781
        69   01 Jun 2027 20:20:59.017   01 Jun 2027 20:21:07.451             8.434                Sumatra           263.562
        70   01 Jun 2027 21:34:05.684   01 Jun 2027 21:34:35.957            30.273                Norilsk           946.031
        71   01 Jun 2027 21:35:50.238   01 Jun 2027 21:36:13.850            23.612               Magadan1           737.875
        72   01 Jun 2027 21:36:46.883   01 Jun 2027 21:37:55.448            68.565                Irkutsk          2142.656
        73   01 Jun 2027 21:38:40.555   01 Jun 2027 21:39:44.106            63.551                Novosib          1985.969
        74   01 Jun 2027 21:43:36.745   01 Jun 2027 21:43:46.584             9.839                Novosib           307.469
        75   01 Jun 2027 21:45:15.288   01 Jun 2027 21:48:27.621           192.333                  Delhi          6010.406
        76   01 Jun 2027 21:50:59.669   01 Jun 2027 21:52:21.695            82.026                  Delhi          2563.312
        77   01 Jun 2027 23:08:45.547   01 Jun 2027 23:09:15.516            29.969                Anadyr1           936.531
        78   01 Jun 2027 23:09:23.705   01 Jun 2027 23:10:35.196            71.491                Norilsk          2234.094
        79   01 Jun 2027 23:11:02.190   01 Jun 2027 23:11:44.371            42.181               Magadan2          1318.156
        80   01 Jun 2027 23:11:48.869   01 Jun 2027 23:12:36.399            47.530               Magadan2          1485.312
        81   01 Jun 2027 23:12:41.662   01 Jun 2027 23:13:13.410            31.748                Novosib           992.125
        82   01 Jun 2027 23:13:15.840   01 Jun 2027 23:16:01.060           165.220              Murmansk2          5163.125
        83   01 Jun 2027 23:16:59.207   01 Jun 2027 23:18:05.130            65.923              Murmansk2          2060.094
        84   01 Jun 2027 23:18:45.320   01 Jun 2027 23:19:37.062            51.742                 Moscow          1616.938
        85   02 Jun 2027 00:36:48.385   02 Jun 2027 00:37:00.370            11.985                Anadyr1           374.531
        86   02 Jun 2027 00:38:07.428   02 Jun 2027 00:38:54.281            46.853                Anadyr2          1464.156
        87   02 Jun 2027 00:39:41.204   02 Jun 2027 00:39:55.020            13.816                Anadyr1           431.750
        88   02 Jun 2027 00:42:15.365   02 Jun 2027 00:43:23.259            67.894               Magadan2          2121.688
        89   02 Jun 2027 00:43:23.259   02 Jun 2027 00:44:46.258            82.999               Magadan1          2593.719
        90   02 Jun 2027 00:46:00.218   02 Jun 2027 00:46:23.440            23.222               Magadan1           725.687
        91   02 Jun 2027 00:47:03.599   02 Jun 2027 00:48:56.673           113.074              Murmansk2          3533.563
        92   02 Jun 2027 00:48:56.673   02 Jun 2027 00:50:03.685            67.012              Murmansk1          2094.125
        93   02 Jun 2027 00:52:05.392   02 Jun 2027 00:52:11.405             6.013                 Moscow           187.906
        94   02 Jun 2027 00:52:15.455   02 Jun 2027 00:52:41.488            26.033                 Moscow           813.531
        95   02 Jun 2027 00:58:33.328   02 Jun 2027 00:58:55.684            22.356                 Moscow           698.625
        96   02 Jun 2027 01:02:14.640   02 Jun 2027 01:02:31.036            16.396                 Moscow           512.375
        97   02 Jun 2027 01:15:15.090   02 Jun 2027 01:15:43.210            28.120               CapeTown           878.750
        98   02 Jun 2027 01:16:04.633   02 Jun 2027 01:16:23.935            19.302               CapeTown           603.188
        99   02 Jun 2027 01:16:50.530   02 Jun 2027 01:17:33.181            42.651               CapeTown          1332.844
       100   02 Jun 2027 01:22:57.765   02 Jun 2027 01:23:33.097            35.332               CapeTown          1104.125
       101   02 Jun 2027 02:11:05.954   02 Jun 2027 02:11:12.462             6.508                Anadyr1           203.375
       102   02 Jun 2027 02:11:40.867   02 Jun 2027 02:12:10.732            29.865                Anadyr1           933.281
       103   02 Jun 2027 02:12:55.375   02 Jun 2027 02:13:23.827            28.452                Anadyr2           889.125
       104   02 Jun 2027 02:13:58.500   02 Jun 2027 02:15:21.468            82.968               Magadan2          2592.750
       105   02 Jun 2027 02:18:05.661   02 Jun 2027 02:19:16.756            71.095               Magadan2          2221.719
       106   02 Jun 2027 02:23:01.328   02 Jun 2027 02:24:16.216            74.888              Murmansk2          2340.250
       107   02 Jun 2027 02:24:16.216   02 Jun 2027 02:24:41.382            25.166              Murmansk1           786.437
       108   02 Jun 2027 02:26:17.557   02 Jun 2027 02:26:34.903            17.346                Novosib           542.063
       109   02 Jun 2027 02:28:04.652   02 Jun 2027 02:28:31.660            27.008                Novosib           844.000
       110   02 Jun 2027 02:32:54.211   02 Jun 2027 02:33:03.592             9.381                 Moscow           293.156
       111   02 Jun 2027 02:33:37.527   02 Jun 2027 02:34:17.244            39.717              Murmansk1          1241.156
       112   02 Jun 2027 02:37:29.165   02 Jun 2027 02:38:55.966            86.801                 Moscow          2712.531
       113   02 Jun 2027 03:01:24.989   02 Jun 2027 03:01:53.767            28.778               CapeTown           899.313
       114   02 Jun 2027 03:53:49.974   02 Jun 2027 03:56:37.104           167.130                Anadyr2          5222.813
       115   02 Jun 2027 03:57:26.286   02 Jun 2027 03:57:57.507            31.221               Magadan2           975.656
       116   02 Jun 2027 03:58:08.497   02 Jun 2027 03:58:47.912            39.415               Magadan2          1231.719
       117   02 Jun 2027 05:32:00.601   02 Jun 2027 05:33:29.090            88.489                Anadyr1          2765.281
       118   02 Jun 2027 05:33:29.711   02 Jun 2027 05:33:52.982            23.271                Irkutsk           727.219
       119   02 Jun 2027 07:07:47.907   02 Jun 2027 07:08:34.988            47.081                Irkutsk          1471.281
       120   02 Jun 2027 07:09:07.640   02 Jun 2027 07:10:39.090            91.450               Magadan1          2857.812
       121   02 Jun 2027 07:11:12.714   02 Jun 2027 07:11:28.887            16.173                Novosib           505.406
       122   02 Jun 2027 07:13:55.804   02 Jun 2027 07:15:11.084            75.280                Norilsk          2352.500
       123   02 Jun 2027 07:15:20.407   02 Jun 2027 07:16:07.582            47.175              Murmansk1          1474.219
       124   02 Jun 2027 07:16:07.664   02 Jun 2027 07:16:31.275            23.611              Murmansk2           737.844
       125   02 Jun 2027 07:54:31.803   02 Jun 2027 07:58:02.888           211.085            RioGallegos          6596.406
       126   02 Jun 2027 08:25:41.168   02 Jun 2027 08:27:36.709           115.541                Sumatra          3610.656
       127   02 Jun 2027 08:27:55.285   02 Jun 2027 08:29:16.029            80.744                Sumatra          2523.250
       128   02 Jun 2027 08:44:00.591   02 Jun 2027 08:44:19.575            18.984                Irkutsk           593.250
       129   02 Jun 2027 08:44:29.610   02 Jun 2027 08:45:39.632            70.022                Novosib          2188.187
       130   02 Jun 2027 08:45:46.869   02 Jun 2027 08:46:01.313            14.444                Novosib           451.375
       131   02 Jun 2027 08:46:06.148   02 Jun 2027 08:48:35.743           149.595                Novosib          4674.844
       132   02 Jun 2027 09:23:38.823   02 Jun 2027 09:24:19.376            40.553            RioGallegos          1267.281
       133   02 Jun 2027 09:26:38.737   02 Jun 2027 09:27:05.039            26.302            RioGallegos           821.937
       134   02 Jun 2027 09:57:50.934   02 Jun 2027 09:59:46.643           115.709                Sumatra          3615.906
       135   02 Jun 2027 10:18:47.992   02 Jun 2027 10:18:54.325             6.333                Novosib           197.906
       136   02 Jun 2027 10:19:16.521   02 Jun 2027 10:19:17.583             1.062                Novosib            33.188
       137   02 Jun 2027 10:19:37.922   02 Jun 2027 10:20:37.100            59.178                Irkutsk          1849.313
       138   02 Jun 2027 10:21:06.403   02 Jun 2027 10:21:43.683            37.280                Novosib          1165.000
       139   02 Jun 2027 10:22:03.168   02 Jun 2027 10:22:11.348             8.180                Novosib           255.625
       140   02 Jun 2027 10:22:23.526   02 Jun 2027 10:22:24.413             0.887                Novosib            27.719
       141   02 Jun 2027 10:22:33.175   02 Jun 2027 10:22:57.872            24.697                Novosib           771.781
       142   02 Jun 2027 11:43:24.512   02 Jun 2027 11:45:34.226           129.714                  Delhi          4053.563
       143   02 Jun 2027 11:51:27.494   02 Jun 2027 11:51:28.809             1.315                  Delhi            41.094
       144   02 Jun 2027 11:55:02.737   02 Jun 2027 11:55:26.485            23.748                Norilsk           742.125
       145   02 Jun 2027 11:55:46.610   02 Jun 2027 11:55:51.106             4.496                Novosib           140.500
       146   02 Jun 2027 11:56:08.642   02 Jun 2027 11:56:39.906            31.264                Novosib           977.000
       147   02 Jun 2027 11:57:38.636   02 Jun 2027 11:58:03.794            25.158                 Moscow           786.188
       148   02 Jun 2027 11:58:17.429   02 Jun 2027 11:58:21.139             3.710                Norilsk           115.937
       149   02 Jun 2027 11:58:29.244   02 Jun 2027 11:58:37.218             7.974              Murmansk2           249.187
       150   02 Jun 2027 11:58:44.506   02 Jun 2027 11:59:03.961            19.455              Murmansk2           607.969
       151   02 Jun 2027 11:59:34.469   02 Jun 2027 11:59:50.703            16.234                Norilsk           507.313
       152   02 Jun 2027 12:00:58.543   02 Jun 2027 12:01:51.395            52.852                Norilsk          1651.625
       153   02 Jun 2027 13:25:39.856   02 Jun 2027 13:26:19.568            39.712                 Moscow          1241.000
       154   02 Jun 2027 13:28:24.320   02 Jun 2027 13:29:17.669            53.349                 Moscow          1667.156
       155   02 Jun 2027 13:29:39.657   02 Jun 2027 13:30:43.681            64.024              Murmansk1          2000.750
       156   02 Jun 2027 13:31:29.200   02 Jun 2027 13:31:55.342            26.142              Murmansk2           816.937
       157   02 Jun 2027 13:32:22.438   02 Jun 2027 13:32:40.784            18.346              Murmansk2           573.313
       158   02 Jun 2027 13:33:19.741   02 Jun 2027 13:33:58.663            38.922                 Moscow          1216.313
       159   02 Jun 2027 13:34:36.178   02 Jun 2027 13:34:57.020            20.842              Murmansk2           651.312
       160   02 Jun 2027 13:35:27.333   02 Jun 2027 13:36:30.124            62.791                 Moscow          1962.219
       161   02 Jun 2027 13:37:37.383   02 Jun 2027 13:37:47.919            10.536              Murmansk2           329.250
       162   02 Jun 2027 13:37:47.919   02 Jun 2027 13:38:19.771            31.852              Murmansk1           995.375
       163   02 Jun 2027 13:38:31.859   02 Jun 2027 13:38:55.973            24.114              Murmansk1           753.562
       164   02 Jun 2027 13:39:11.939   02 Jun 2027 13:39:26.857            14.918              Murmansk1           466.188
       165   02 Jun 2027 13:40:26.636   02 Jun 2027 13:40:48.795            22.159              Murmansk1           692.469
       166   02 Jun 2027 13:41:30.346   02 Jun 2027 13:41:37.610             7.264              Murmansk2           227.000
       167   02 Jun 2027 13:44:21.593   02 Jun 2027 13:46:27.033           125.440                Anadyr1          3920.000
       168   02 Jun 2027 13:48:27.741   02 Jun 2027 13:50:19.946           112.205                Anadyr1          3506.406
       169   02 Jun 2027 15:06:07.941   02 Jun 2027 15:06:25.486            17.545                 Moscow           548.281
       170   02 Jun 2027 15:07:30.348   02 Jun 2027 15:07:50.670            20.322              Murmansk2           635.062
       171   02 Jun 2027 15:07:55.259   02 Jun 2027 15:08:10.086            14.827              Murmansk1           463.344
       172   02 Jun 2027 15:09:56.038   02 Jun 2027 15:11:37.087           101.049              Murmansk2          3157.781
       173   02 Jun 2027 15:19:24.835   02 Jun 2027 15:20:23.233            58.398                Anadyr1          1824.937
       174   02 Jun 2027 15:21:07.888   02 Jun 2027 15:21:22.770            14.882                Anadyr2           465.062
       175   02 Jun 2027 15:21:23.308   02 Jun 2027 15:21:37.706            14.398                Anadyr1           449.938
       176   02 Jun 2027 15:24:31.492   02 Jun 2027 15:25:05.848            34.356                Anadyr2          1073.625
       177   02 Jun 2027 15:26:24.266   02 Jun 2027 15:26:42.120            17.854                Anadyr1           557.938
       178   02 Jun 2027 15:29:55.171   02 Jun 2027 15:30:19.559            24.388                Anadyr2           762.125
       179   02 Jun 2027 15:30:41.663   02 Jun 2027 15:30:51.408             9.745                Anadyr1           304.531
       180   02 Jun 2027 15:31:09.587   02 Jun 2027 15:31:13.447             3.860                Anadyr1           120.625
       181   02 Jun 2027 16:49:24.982   02 Jun 2027 16:51:48.011           143.029              Murmansk1          4469.656
       182   02 Jun 2027 16:55:15.204   02 Jun 2027 16:58:11.817           176.613                Anadyr1          5519.156
       183   02 Jun 2027 16:58:16.021   02 Jun 2027 16:59:16.346            60.325               Magadan2          1885.156
       184   02 Jun 2027 16:59:50.352   02 Jun 2027 17:00:15.325            24.973               Magadan1           780.406
       185   02 Jun 2027 17:02:31.074   02 Jun 2027 17:03:11.240            40.166               Magadan2          1255.188
       186   02 Jun 2027 17:04:45.516   02 Jun 2027 17:04:54.942             9.426               Magadan2           294.562
       187   02 Jun 2027 17:08:30.135   02 Jun 2027 17:08:59.158            29.023               Magadan1           906.969
       188   02 Jun 2027 18:31:09.785   02 Jun 2027 18:32:53.019           103.234                Anadyr2          3226.062
       189   02 Jun 2027 18:33:13.963   02 Jun 2027 18:35:23.606           129.643                Anadyr1          4051.344
       190   02 Jun 2027 18:35:23.720   02 Jun 2027 18:37:39.897           136.177                Norilsk          4255.531
       191   02 Jun 2027 19:25:42.870   02 Jun 2027 19:29:19.068           216.198            RioGallegos          6756.188
       192   02 Jun 2027 19:29:38.536   02 Jun 2027 19:29:53.356            14.820            RioGallegos           463.125
       193   02 Jun 2027 20:07:24.488   02 Jun 2027 20:08:39.544            75.056                Anadyr1          2345.500
       194   02 Jun 2027 20:09:01.587   02 Jun 2027 20:11:09.676           128.089                Norilsk          4002.781
       195   02 Jun 2027 20:13:14.682   02 Jun 2027 20:14:48.184            93.502                Irkutsk          2921.938
       196   02 Jun 2027 20:15:32.138   02 Jun 2027 20:18:02.548           150.410                Novosib          4700.313
       197   02 Jun 2027 20:28:13.411   02 Jun 2027 20:29:33.548            80.137                Sumatra          2504.281
       198   02 Jun 2027 20:31:08.250   02 Jun 2027 20:31:28.117            19.867                Sumatra           620.844
       199   02 Jun 2027 21:46:03.653   02 Jun 2027 21:46:37.361            33.708                Norilsk          1053.375
       200   02 Jun 2027 21:47:39.136   02 Jun 2027 21:47:59.069            19.933                Norilsk           622.906
       201   02 Jun 2027 21:48:49.036   02 Jun 2027 21:49:14.134            25.098                Irkutsk           784.312
       202   02 Jun 2027 21:49:19.684   02 Jun 2027 21:50:22.355            62.671                Novosib          1958.469
       203   02 Jun 2027 21:50:44.274   02 Jun 2027 21:51:15.021            30.747                Novosib           960.844
       204   02 Jun 2027 21:56:52.542   02 Jun 2027 22:00:19.645           207.103                  Delhi          6471.969
       205   02 Jun 2027 22:02:26.979   02 Jun 2027 22:02:45.627            18.648                  Delhi           582.750
       206   02 Jun 2027 23:16:31.357   02 Jun 2027 23:16:43.483            12.126                Anadyr2           378.938
       207   02 Jun 2027 23:17:27.172   02 Jun 2027 23:18:01.836            34.664                Anadyr1          1083.250
       208   02 Jun 2027 23:21:06.879   02 Jun 2027 23:23:17.845           130.966               Magadan2          4092.688
       209   02 Jun 2027 23:23:17.845   02 Jun 2027 23:23:28.652            10.807               Magadan1           337.719
       210   02 Jun 2027 23:23:43.160   02 Jun 2027 23:25:47.853           124.693              Murmansk1          3896.656
       211   02 Jun 2027 23:26:07.261   02 Jun 2027 23:28:19.788           132.527              Murmansk2          4141.469
       212   02 Jun 2027 23:28:24.073   02 Jun 2027 23:29:29.879            65.806                 Moscow          2056.437
       213   03 Jun 2027 00:48:32.985   03 Jun 2027 00:48:34.661             1.676                Anadyr2            52.375
       214   03 Jun 2027 00:50:03.373   03 Jun 2027 00:50:25.439            22.066                Anadyr1           689.563
       215   03 Jun 2027 00:51:22.827   03 Jun 2027 00:51:56.756            33.929                Anadyr2          1060.281
       216   03 Jun 2027 00:53:43.580   03 Jun 2027 00:54:43.260            59.680               Magadan1          1865.000
       217   03 Jun 2027 00:55:41.199   03 Jun 2027 00:55:45.288             4.089               Magadan1           127.781
       218   03 Jun 2027 00:55:45.288   03 Jun 2027 00:56:14.796            29.508               Magadan2           922.125
       219   03 Jun 2027 00:56:58.315   03 Jun 2027 00:57:30.199            31.884               Magadan1           996.375
       220   03 Jun 2027 00:59:04.859   03 Jun 2027 00:59:29.759            24.900              Murmansk2           778.125
       221   03 Jun 2027 00:59:46.436   03 Jun 2027 01:00:48.985            62.549              Murmansk1          1954.656
       222   03 Jun 2027 01:00:59.632   03 Jun 2027 01:01:15.704            16.072              Murmansk2           502.250
       223   03 Jun 2027 01:01:33.125   03 Jun 2027 01:03:50.926           137.801                Novosib          4306.281
       224   03 Jun 2027 01:26:52.833   03 Jun 2027 01:28:04.048            71.215               CapeTown          2225.469
       225   03 Jun 2027 02:23:01.725   03 Jun 2027 02:24:42.189           100.464                Anadyr2          3139.500
       226   03 Jun 2027 02:25:16.148   03 Jun 2027 02:25:38.624            22.476                Anadyr1           702.375
       227   03 Jun 2027 02:25:45.028   03 Jun 2027 02:26:00.394            15.366               Magadan1           480.187
       228   03 Jun 2027 02:26:12.041   03 Jun 2027 02:26:57.243            45.202               Magadan2          1412.562
       229   03 Jun 2027 02:28:16.303   03 Jun 2027 02:28:53.736            37.433               Magadan2          1169.781
       230   03 Jun 2027 02:33:44.859   03 Jun 2027 02:33:51.308             6.449                Norilsk           201.531
       231   03 Jun 2027 02:34:24.386   03 Jun 2027 02:34:43.640            19.254                Norilsk           601.687
       232   03 Jun 2027 02:35:02.956   03 Jun 2027 02:35:44.531            41.575              Murmansk1          1299.219
       233   03 Jun 2027 02:36:08.273   03 Jun 2027 02:36:43.157            34.884              Murmansk2          1090.125
       234   03 Jun 2027 02:38:16.808   03 Jun 2027 02:38:44.723            27.915                 Moscow           872.344
       235   03 Jun 2027 02:39:12.569   03 Jun 2027 02:39:32.544            19.975                 Moscow           624.219
       236   03 Jun 2027 02:40:14.447   03 Jun 2027 02:40:16.807             2.360                Novosib            73.750
       237   03 Jun 2027 02:42:53.459   03 Jun 2027 02:43:12.527            19.068                 Moscow           595.875
       238   03 Jun 2027 02:45:54.571   03 Jun 2027 02:46:34.425            39.854                 Moscow          1245.437
       239   03 Jun 2027 03:06:40.977   03 Jun 2027 03:06:50.611             9.634               CapeTown           301.063
       240   03 Jun 2027 03:07:03.175   03 Jun 2027 03:07:54.690            51.515               CapeTown          1609.844
       241   03 Jun 2027 04:04:33.759   03 Jun 2027 04:04:59.835            26.076               Magadan2           814.875
       242   03 Jun 2027 04:04:59.835   03 Jun 2027 04:06:51.582           111.747               Magadan1          3492.094
       243   03 Jun 2027 04:06:57.678   03 Jun 2027 04:07:20.053            22.375               Magadan2           699.219
       244   03 Jun 2027 04:07:43.254   03 Jun 2027 04:08:27.224            43.970               Magadan1          1374.063
       245   03 Jun 2027 04:08:27.224   03 Jun 2027 04:09:26.290            59.066               Magadan2          1845.812
       246   03 Jun 2027 04:10:02.069   03 Jun 2027 04:11:06.657            64.588               Magadan2          2018.375
       247   03 Jun 2027 04:11:10.334   03 Jun 2027 04:11:14.108             3.774               Magadan1           117.937
       248   03 Jun 2027 04:11:31.361   03 Jun 2027 04:11:34.428             3.067                Anadyr1            95.844
       249   03 Jun 2027 04:52:53.413   03 Jun 2027 04:55:06.784           133.371            RioGallegos          4167.844
       250   03 Jun 2027 04:55:52.931   03 Jun 2027 04:56:07.413            14.482            RioGallegos           452.563
       251   03 Jun 2027 04:56:30.951   03 Jun 2027 04:56:33.877             2.926            RioGallegos            91.438
       252   03 Jun 2027 05:43:19.168   03 Jun 2027 05:44:43.323            84.155               Magadan1          2629.844
       253   03 Jun 2027 05:44:52.882   03 Jun 2027 05:45:15.551            22.669               Magadan1           708.406
       254   03 Jun 2027 07:17:23.732   03 Jun 2027 07:17:40.506            16.774               Magadan1           524.187
       255   03 Jun 2027 07:17:46.521   03 Jun 2027 07:18:34.895            48.374                Irkutsk          1511.687
       256   03 Jun 2027 07:19:22.163   03 Jun 2027 07:19:30.431             8.268               Magadan1           258.375
       257   03 Jun 2027 07:19:57.086   03 Jun 2027 07:21:06.911            69.825               Magadan1          2182.031
       258   03 Jun 2027 07:21:32.054   03 Jun 2027 07:22:10.491            38.437               Magadan2          1201.156
       259   03 Jun 2027 07:22:49.908   03 Jun 2027 07:23:54.647            64.739              Murmansk2          2023.094
       260   03 Jun 2027 08:32:55.751   03 Jun 2027 08:34:05.954            70.203                Sumatra          2193.844
       261   03 Jun 2027 08:36:46.190   03 Jun 2027 08:36:47.993             1.803                Sumatra            56.344
       262   03 Jun 2027 08:43:25.002   03 Jun 2027 08:45:18.068           113.066                Sumatra          3533.313
       263   03 Jun 2027 08:53:18.576   03 Jun 2027 08:53:39.800            21.224                Irkutsk           663.250
       264   03 Jun 2027 08:53:56.999   03 Jun 2027 08:54:20.151            23.152                Irkutsk           723.500
       265   03 Jun 2027 08:54:40.844   03 Jun 2027 08:55:07.787            26.943                Irkutsk           841.969
       266   03 Jun 2027 08:55:53.079   03 Jun 2027 08:56:13.116            20.037                Irkutsk           626.156
       267   03 Jun 2027 08:56:55.422   03 Jun 2027 08:56:56.716             1.294                Irkutsk            40.438
       268   03 Jun 2027 08:56:58.238   03 Jun 2027 08:57:03.560             5.322                Irkutsk           166.313
       269   03 Jun 2027 08:57:32.160   03 Jun 2027 08:58:42.082            69.922                Irkutsk          2185.062
       270   03 Jun 2027 09:36:42.266   03 Jun 2027 09:37:22.844            40.578            RioGallegos          1268.062
       271   03 Jun 2027 09:40:40.758   03 Jun 2027 09:40:48.563             7.805            RioGallegos           243.906
       272   03 Jun 2027 10:10:37.038   03 Jun 2027 10:12:39.143           122.105                Sumatra          3815.781
       273   03 Jun 2027 10:30:54.934   03 Jun 2027 10:31:12.845            17.911                Novosib           559.719
       274   03 Jun 2027 10:32:29.258   03 Jun 2027 10:32:34.603             5.345                Novosib           167.031
       275   03 Jun 2027 10:33:55.983   03 Jun 2027 10:34:00.345             4.362                Novosib           136.312
       276   03 Jun 2027 10:34:12.587   03 Jun 2027 10:34:20.529             7.942                Novosib           248.188
       277   03 Jun 2027 10:34:27.007   03 Jun 2027 10:34:45.617            18.610                Novosib           581.563
       278   03 Jun 2027 11:56:23.947   03 Jun 2027 11:59:40.993           197.046                  Delhi          6157.687
       279   03 Jun 2027 12:13:11.137   03 Jun 2027 12:13:25.947            14.810                Norilsk           462.813
       280   03 Jun 2027 13:37:56.499   03 Jun 2027 13:38:56.364            59.865                 Moscow          1870.781
       281   03 Jun 2027 13:40:18.291   03 Jun 2027 13:41:07.241            48.950                 Moscow          1529.688
       282   03 Jun 2027 13:41:20.363   03 Jun 2027 13:41:36.699            16.336              Murmansk1           510.500
       283   03 Jun 2027 13:41:52.744   03 Jun 2027 13:42:25.929            33.185              Murmansk1          1037.031
       284   03 Jun 2027 13:43:20.583   03 Jun 2027 13:43:56.164            35.581              Murmansk1          1111.906
       285   03 Jun 2027 13:46:56.341   03 Jun 2027 13:47:06.885            10.544              Murmansk2           329.500
       286   03 Jun 2027 13:49:48.364   03 Jun 2027 13:50:27.084            38.720              Murmansk1          1210.000
       287   03 Jun 2027 13:51:07.808   03 Jun 2027 13:51:28.462            20.654              Murmansk2           645.437
       288   03 Jun 2027 13:56:08.773   03 Jun 2027 13:59:46.190           217.417                Anadyr1          6794.281
       289   03 Jun 2027 15:00:19.991   03 Jun 2027 15:00:52.663            32.672               CapeTown          1021.000
       290   03 Jun 2027 15:02:25.944   03 Jun 2027 15:02:52.463            26.519               CapeTown           828.719
       291   03 Jun 2027 15:20:00.762   03 Jun 2027 15:20:47.893            47.131              Murmansk2          1472.844
       292   03 Jun 2027 15:21:57.768   03 Jun 2027 15:23:38.973           101.205              Murmansk1          3162.656
       293   03 Jun 2027 15:31:24.453   03 Jun 2027 15:32:19.809            55.356                Anadyr1          1729.875
       294   03 Jun 2027 15:32:56.548   03 Jun 2027 15:33:15.746            19.198                Anadyr2           599.937
       295   03 Jun 2027 15:33:38.595   03 Jun 2027 15:33:41.672             3.077                Anadyr1            96.156
       296   03 Jun 2027 15:34:18.798   03 Jun 2027 15:35:26.552            67.754                Anadyr1          2117.313
       297   03 Jun 2027 15:35:51.949   03 Jun 2027 15:36:47.321            55.372               Magadan1          1730.375
       298   03 Jun 2027 15:36:59.197   03 Jun 2027 15:38:29.906            90.709               Magadan2          2834.656
       299   03 Jun 2027 17:07:16.595   03 Jun 2027 17:10:11.614           175.019                Anadyr2          5469.344
       300   03 Jun 2027 17:10:26.259   03 Jun 2027 17:11:40.712            74.453               Magadan2          2326.656
       301   03 Jun 2027 17:11:40.712   03 Jun 2027 17:11:46.006             5.294               Magadan1           165.438
       302   03 Jun 2027 17:11:52.902   03 Jun 2027 17:12:01.872             8.970               Magadan2           280.313
       303   03 Jun 2027 17:15:24.868   03 Jun 2027 17:15:32.094             7.226               Magadan2           225.812
       304   03 Jun 2027 17:15:49.465   03 Jun 2027 17:16:00.929            11.464               Magadan1           358.250
       305   03 Jun 2027 17:16:39.400   03 Jun 2027 17:16:47.075             7.675               Magadan2           239.844
       306   03 Jun 2027 17:17:49.508   03 Jun 2027 17:18:14.399            24.891               Magadan1           777.844
       307   03 Jun 2027 17:20:59.481   03 Jun 2027 17:21:05.499             6.018               Magadan2           188.063
       308   03 Jun 2027 17:21:12.830   03 Jun 2027 17:21:29.349            16.519               Magadan2           516.219
       309   03 Jun 2027 18:43:10.288   03 Jun 2027 18:47:10.358           240.070                Anadyr2          7502.188
       310   03 Jun 2027 18:47:13.930   03 Jun 2027 18:48:47.480            93.550               Magadan1          2923.437
       311   03 Jun 2027 18:52:54.818   03 Jun 2027 18:54:51.694           116.876                Irkutsk          3652.375
       312   03 Jun 2027 19:37:31.621   03 Jun 2027 19:39:36.293           124.672            RioGallegos          3896.000
       313   03 Jun 2027 19:40:47.141   03 Jun 2027 19:40:52.093             4.952            RioGallegos           154.750
       314   03 Jun 2027 19:46:59.190   03 Jun 2027 19:48:29.167            89.977            RioGallegos          2811.781
       315   03 Jun 2027 20:21:02.039   03 Jun 2027 20:22:52.439           110.400                Norilsk          3450.000
       316   03 Jun 2027 20:25:08.879   03 Jun 2027 20:25:08.963             0.084                Irkutsk             2.625
       317   03 Jun 2027 20:26:11.617   03 Jun 2027 20:26:40.279            28.662                Norilsk           895.688
       318   03 Jun 2027 20:26:42.242   03 Jun 2027 20:27:23.279            41.037                Irkutsk          1282.406
       319   03 Jun 2027 20:27:41.137   03 Jun 2027 20:27:42.385             1.248                Irkutsk            39.000
       320   03 Jun 2027 20:27:58.564   03 Jun 2027 20:29:47.442           108.878                Novosib          3402.437
       321   03 Jun 2027 20:30:27.374   03 Jun 2027 20:30:37.201             9.827                Novosib           307.094
       322   03 Jun 2027 20:31:55.464   03 Jun 2027 20:32:25.983            30.519                Novosib           953.719
       323   03 Jun 2027 20:38:50.877   03 Jun 2027 20:39:56.803            65.926                Sumatra          2060.188
       324   03 Jun 2027 20:41:46.454   03 Jun 2027 20:42:19.917            33.463                Sumatra          1045.719
       325   03 Jun 2027 21:54:40.015   03 Jun 2027 21:54:46.965             6.950                Anadyr2           217.188
       326   03 Jun 2027 21:56:59.519   03 Jun 2027 21:58:38.970            99.451                Norilsk          3107.844
       327   03 Jun 2027 21:59:15.181   03 Jun 2027 21:59:43.917            28.736                Norilsk           898.000
       328   03 Jun 2027 22:00:51.966   03 Jun 2027 22:01:25.051            33.085                Irkutsk          1033.906
       329   03 Jun 2027 22:02:47.370   03 Jun 2027 22:04:10.840            83.470                Novosib          2608.437
       330   03 Jun 2027 22:06:48.893   03 Jun 2027 22:07:17.101            28.208                Novosib           881.500
       331   03 Jun 2027 22:08:36.159   03 Jun 2027 22:10:41.220           125.061                  Delhi          3908.156
       332   03 Jun 2027 22:13:27.215   03 Jun 2027 22:14:51.133            83.918                  Delhi          2622.437
       333   03 Jun 2027 23:29:27.462   03 Jun 2027 23:29:31.637             4.175                Anadyr2           130.469
       334   03 Jun 2027 23:29:34.191   03 Jun 2027 23:29:58.690            24.499                Anadyr2           765.594
       335   03 Jun 2027 23:32:55.715   03 Jun 2027 23:33:59.699            63.984               Magadan1          1999.500
       336   03 Jun 2027 23:33:59.699   03 Jun 2027 23:34:47.704            48.005               Magadan2          1500.156
       337   03 Jun 2027 23:35:18.761   03 Jun 2027 23:39:57.476           278.715              Murmansk1          8709.844
       338   03 Jun 2027 23:40:43.853   03 Jun 2027 23:41:27.706            43.853                 Moscow          1370.406
       339   03 Jun 2027 23:46:03.452   03 Jun 2027 23:46:47.592            44.140                 Moscow          1379.375
       340   04 Jun 2027 01:05:11.522   04 Jun 2027 01:06:27.959            76.437               Magadan2          2388.656
       341   04 Jun 2027 01:07:16.739   04 Jun 2027 01:07:44.093            27.354               Magadan2           854.813
       342   04 Jun 2027 01:08:43.930   04 Jun 2027 01:08:47.808             3.878                Norilsk           121.188
       343   04 Jun 2027 01:08:56.549   04 Jun 2027 01:10:05.343            68.794               Magadan2          2149.812
       344   04 Jun 2027 01:11:06.300   04 Jun 2027 01:12:54.873           108.573              Murmansk2          3392.906
       345   04 Jun 2027 01:13:44.099   04 Jun 2027 01:13:48.471             4.372              Murmansk2           136.625
       346   04 Jun 2027 01:14:25.776   04 Jun 2027 01:16:04.241            98.465                 Moscow          3077.031
       347   04 Jun 2027 01:38:36.248   04 Jun 2027 01:39:11.296            35.048               CapeTown          1095.250
       348   04 Jun 2027 01:45:31.856   04 Jun 2027 01:46:00.835            28.979               CapeTown           905.594
       349   04 Jun 2027 01:49:57.810   04 Jun 2027 01:50:57.073            59.263               CapeTown          1851.969
       350   04 Jun 2027 02:35:34.119   04 Jun 2027 02:36:11.018            36.899                Anadyr2          1153.094
       351   04 Jun 2027 02:36:27.306   04 Jun 2027 02:36:57.646            30.340                Anadyr2           948.125
       352   04 Jun 2027 02:37:09.165   04 Jun 2027 02:37:12.870             3.705               Magadan1           115.781
       353   04 Jun 2027 02:37:47.640   04 Jun 2027 02:38:25.248            37.608               Magadan2          1175.250
       354   04 Jun 2027 02:39:24.454   04 Jun 2027 02:39:43.203            18.749               Magadan2           585.906
       355   04 Jun 2027 02:41:56.571   04 Jun 2027 02:42:13.203            16.632               Magadan2           519.750
       356   04 Jun 2027 02:42:24.396   04 Jun 2027 02:43:21.437            57.041               Magadan1          1782.531
       357   04 Jun 2027 02:47:04.488   04 Jun 2027 02:48:31.778            87.290              Murmansk2          2727.813
       358   04 Jun 2027 02:50:19.961   04 Jun 2027 02:50:22.950             2.989                 Moscow            93.406
       359   04 Jun 2027 02:51:14.155   04 Jun 2027 02:51:57.818            43.663                 Moscow          1364.469
       360   04 Jun 2027 02:56:32.203   04 Jun 2027 02:56:34.119             1.916                 Moscow            59.875
       361   04 Jun 2027 02:56:38.538   04 Jun 2027 02:56:44.081             5.543                 Moscow           173.219
       362   04 Jun 2027 02:58:55.715   04 Jun 2027 02:59:04.272             8.557                 Moscow           267.406
       363   04 Jun 2027 03:15:17.546   04 Jun 2027 03:15:51.449            33.903               CapeTown          1059.469
       364   04 Jun 2027 03:16:40.900   04 Jun 2027 03:18:21.263           100.363               CapeTown          3136.344
       365   04 Jun 2027 04:16:15.427   04 Jun 2027 04:18:19.804           124.377                Anadyr1          3886.781
       366   04 Jun 2027 04:18:27.158   04 Jun 2027 04:19:20.000            52.842               Magadan2          1651.312
       367   04 Jun 2027 04:19:49.102   04 Jun 2027 04:21:58.100           128.998                Anadyr1          4031.187
       368   04 Jun 2027 04:22:06.747   04 Jun 2027 04:22:17.534            10.787                Anadyr2           337.094
       369   04 Jun 2027 04:23:05.829   04 Jun 2027 04:23:09.347             3.518               Magadan1           109.938
       370   04 Jun 2027 05:52:34.543   04 Jun 2027 05:53:14.194            39.651                Irkutsk          1239.094
       371   04 Jun 2027 05:53:41.228   04 Jun 2027 05:53:46.837             5.609                Irkutsk           175.281
       372   04 Jun 2027 05:54:01.285   04 Jun 2027 05:54:15.826            14.541                Irkutsk           454.406
       373   04 Jun 2027 05:54:27.552   04 Jun 2027 05:55:21.134            53.582               Magadan2          1674.437
       374   04 Jun 2027 05:55:26.504   04 Jun 2027 05:55:54.843            28.339                Anadyr1           885.594
       375   04 Jun 2027 05:56:01.610   04 Jun 2027 05:56:36.558            34.948                Anadyr1          1092.125
       376   04 Jun 2027 05:57:01.827   04 Jun 2027 05:57:35.835            34.008               Magadan2          1062.750
       377   04 Jun 2027 05:57:43.690   04 Jun 2027 05:57:58.552            14.862                Irkutsk           464.438
       378   04 Jun 2027 05:57:59.526   04 Jun 2027 05:58:24.957            25.431                Anadyr1           794.719
       379   04 Jun 2027 05:59:16.593   04 Jun 2027 05:59:20.912             4.319               Magadan1           134.969
       380   04 Jun 2027 07:29:23.890   04 Jun 2027 07:29:43.659            19.769               Magadan1           617.781
       381   04 Jun 2027 07:30:37.003   04 Jun 2027 07:30:42.222             5.219               Magadan1           163.094
       382   04 Jun 2027 07:30:44.629   04 Jun 2027 07:30:49.683             5.054               Magadan1           157.937
       383   04 Jun 2027 07:30:49.683   04 Jun 2027 07:31:25.566            35.883               Magadan2          1121.344
       384   04 Jun 2027 07:31:32.253   04 Jun 2027 07:32:02.880            30.627               Magadan2           957.094
       385   04 Jun 2027 07:33:05.465   04 Jun 2027 07:33:29.940            24.475               Magadan2           764.844
       386   04 Jun 2027 07:33:34.855   04 Jun 2027 07:33:57.159            22.304               Magadan1           697.000
       387   04 Jun 2027 07:34:06.840   04 Jun 2027 07:34:12.417             5.577               Magadan2           174.281
       388   04 Jun 2027 07:34:48.306   04 Jun 2027 07:35:34.615            46.309              Murmansk2          1447.156
       389   04 Jun 2027 08:09:54.206   04 Jun 2027 08:09:55.185             0.979            RioGallegos            30.594
       390   04 Jun 2027 08:10:47.405   04 Jun 2027 08:11:17.828            30.423            RioGallegos           950.719
       391   04 Jun 2027 08:21:10.609   04 Jun 2027 08:21:12.029             1.420            RioGallegos            44.375
       392   04 Jun 2027 08:44:47.469   04 Jun 2027 08:45:45.811            58.342                Sumatra          1823.188
       393   04 Jun 2027 09:05:11.817   04 Jun 2027 09:05:49.982            38.165                Irkutsk          1192.656
       394   04 Jun 2027 09:06:14.325   04 Jun 2027 09:06:18.005             3.680                Novosib           115.000
       395   04 Jun 2027 09:07:07.597   04 Jun 2027 09:07:09.117             1.520                Irkutsk            47.500
       396   04 Jun 2027 09:08:13.208   04 Jun 2027 09:08:24.888            11.680                Irkutsk           365.000
       397   04 Jun 2027 09:08:29.533   04 Jun 2027 09:08:42.318            12.785                Irkutsk           399.531
       398   04 Jun 2027 09:08:44.320   04 Jun 2027 09:08:58.885            14.565                Irkutsk           455.156
       399   04 Jun 2027 09:09:32.848   04 Jun 2027 09:09:42.044             9.196                Irkutsk           287.375
       400   04 Jun 2027 09:10:10.963   04 Jun 2027 09:10:48.893            37.930                Irkutsk          1185.313
       401   04 Jun 2027 09:49:06.835   04 Jun 2027 09:49:26.739            19.904            RioGallegos           622.000
       402   04 Jun 2027 09:50:27.896   04 Jun 2027 09:50:52.686            24.790            RioGallegos           774.688
       403   04 Jun 2027 09:52:41.426   04 Jun 2027 09:53:10.308            28.882            RioGallegos           902.562
       404   04 Jun 2027 10:23:50.178   04 Jun 2027 10:24:27.587            37.409                Sumatra          1169.031
       405   04 Jun 2027 10:28:56.062   04 Jun 2027 10:29:11.179            15.117                  Delhi           472.406
       406   04 Jun 2027 10:33:26.543   04 Jun 2027 10:33:32.114             5.571                  Delhi           174.094
       407   04 Jun 2027 10:37:42.354   04 Jun 2027 10:37:49.953             7.599                  Delhi           237.469
       408   04 Jun 2027 10:42:49.832   04 Jun 2027 10:43:48.120            58.288                Norilsk          1821.500
       409   04 Jun 2027 10:44:33.681   04 Jun 2027 10:44:34.681             1.000                Novosib            31.250
       410   04 Jun 2027 10:45:39.803   04 Jun 2027 10:46:06.414            26.611                Norilsk           831.594
       411   04 Jun 2027 10:46:15.591   04 Jun 2027 10:46:15.979             0.388                Novosib            12.125
       412   04 Jun 2027 10:46:20.875   04 Jun 2027 10:46:20.893             0.018                Novosib             0.562
       413   04 Jun 2027 10:46:29.073   04 Jun 2027 10:47:05.355            36.282                Novosib          1133.813
       414   04 Jun 2027 12:11:21.399   04 Jun 2027 12:11:46.255            24.856                  Delhi           776.750
       415   04 Jun 2027 12:17:55.949   04 Jun 2027 12:18:40.847            44.898              Murmansk1          1403.063
       416   04 Jun 2027 12:18:44.823   04 Jun 2027 12:20:59.269           134.446                Novosib          4201.437
       417   04 Jun 2027 12:21:13.880   04 Jun 2027 12:22:06.503            52.623                Norilsk          1644.469
       418   04 Jun 2027 13:28:28.551   04 Jun 2027 13:29:48.398            79.847               CapeTown          2495.219
       419   04 Jun 2027 13:30:34.111   04 Jun 2027 13:31:26.140            52.029               CapeTown          1625.906
       420   04 Jun 2027 13:34:34.971   04 Jun 2027 13:35:09.176            34.205               CapeTown          1068.906
       421   04 Jun 2027 13:53:34.712   04 Jun 2027 13:54:25.088            50.376              Murmansk1          1574.250
       422   04 Jun 2027 13:54:37.647   04 Jun 2027 13:54:43.549             5.902              Murmansk1           184.438
       423   04 Jun 2027 13:55:12.941   04 Jun 2027 13:55:57.228            44.287              Murmansk1          1383.969
       424   04 Jun 2027 13:57:45.564   04 Jun 2027 13:58:06.785            21.221              Murmansk1           663.156
       425   04 Jun 2027 13:59:40.547   04 Jun 2027 14:00:09.668            29.121              Murmansk1           910.031
       426   04 Jun 2027 14:02:23.023   04 Jun 2027 14:03:01.691            38.668              Murmansk1          1208.375
       427   04 Jun 2027 14:07:59.655   04 Jun 2027 14:10:26.664           147.009                Anadyr1          4594.031
       428   04 Jun 2027 14:10:39.962   04 Jun 2027 14:11:23.456            43.494                Anadyr2          1359.188
       429   04 Jun 2027 15:08:24.117   04 Jun 2027 15:08:25.550             1.433               CapeTown            44.781
       430   04 Jun 2027 15:12:23.816   04 Jun 2027 15:13:38.102            74.286               CapeTown          2321.438
       431   04 Jun 2027 15:32:34.101   04 Jun 2027 15:33:02.391            28.290              Murmansk1           884.063
       432   04 Jun 2027 15:33:42.641   04 Jun 2027 15:33:59.628            16.987              Murmansk1           530.844
       433   04 Jun 2027 15:34:32.304   04 Jun 2027 15:35:01.990            29.686              Murmansk2           927.687
       434   04 Jun 2027 15:37:34.290   04 Jun 2027 15:37:45.092            10.802              Murmansk1           337.563
       435   04 Jun 2027 15:39:49.043   04 Jun 2027 15:41:26.367            97.324              Murmansk1          3041.375
       436   04 Jun 2027 15:44:14.682   04 Jun 2027 15:45:14.605            59.923                Anadyr1          1872.594
       437   04 Jun 2027 15:47:15.013   04 Jun 2027 15:50:27.303           192.290               Magadan2          6009.063
       438   04 Jun 2027 15:52:36.481   04 Jun 2027 15:53:35.530            59.049               Magadan1          1845.281
       439   04 Jun 2027 17:19:18.000   04 Jun 2027 17:20:00.141            42.141                Anadyr1          1316.906
       440   04 Jun 2027 17:20:41.956   04 Jun 2027 17:21:15.328            33.372                Anadyr2          1042.875
       441   04 Jun 2027 17:21:42.916   04 Jun 2027 17:23:19.496            96.580               Magadan1          3018.125
       442   04 Jun 2027 17:28:20.607   04 Jun 2027 17:28:42.088            21.481               Magadan2           671.281
       443   04 Jun 2027 17:29:27.840   04 Jun 2027 17:29:49.781            21.941               Magadan2           685.656
       444   04 Jun 2027 17:33:09.259   04 Jun 2027 17:33:31.576            22.317               Magadan1           697.406
       445   04 Jun 2027 18:55:10.496   04 Jun 2027 18:58:58.373           227.877                Anadyr2          7121.156
       446   04 Jun 2027 18:59:18.597   04 Jun 2027 19:01:20.623           122.026                Norilsk          3813.313
       447   04 Jun 2027 19:03:26.677   04 Jun 2027 19:06:05.826           159.149                Irkutsk          4973.406
       448   04 Jun 2027 19:06:31.222   04 Jun 2027 19:06:45.813            14.591                Irkutsk           455.969
       449   04 Jun 2027 19:07:19.678   04 Jun 2027 19:08:06.536            46.858                Irkutsk          1464.312
       450   04 Jun 2027 19:51:07.948   04 Jun 2027 19:51:22.230            14.282            RioGallegos           446.312
       451   04 Jun 2027 19:52:15.563   04 Jun 2027 19:52:17.511             1.948            RioGallegos            60.875
       452   04 Jun 2027 20:33:02.893   04 Jun 2027 20:34:10.263            67.370                Norilsk          2105.313
       453   04 Jun 2027 20:34:15.788   04 Jun 2027 20:34:59.431            43.643               Magadan2          1363.844
       454   04 Jun 2027 20:37:04.760   04 Jun 2027 20:38:52.835           108.075                Irkutsk          3377.344
       455   04 Jun 2027 20:39:13.574   04 Jun 2027 20:41:36.144           142.570                Novosib          4455.312
       456   04 Jun 2027 20:42:04.261   04 Jun 2027 20:42:23.489            19.228                Novosib           600.875
       457   04 Jun 2027 20:42:51.344   04 Jun 2027 20:43:27.512            36.168                Novosib          1130.250
       458   04 Jun 2027 20:50:45.484   04 Jun 2027 20:51:32.773            47.289                Sumatra          1477.781
       459   04 Jun 2027 20:58:25.944   04 Jun 2027 20:59:14.193            48.249                Sumatra          1507.781
       460   04 Jun 2027 22:09:37.753   04 Jun 2027 22:10:50.956            73.203               Magadan1          2287.594
       461   04 Jun 2027 22:12:54.692   04 Jun 2027 22:14:46.439           111.747                Novosib          3492.094
       462   04 Jun 2027 22:16:00.140   04 Jun 2027 22:16:01.939             1.799                Novosib            56.219
       463   04 Jun 2027 22:16:31.026   04 Jun 2027 22:18:06.867            95.841                Novosib          2995.031
       464   04 Jun 2027 22:20:24.760   04 Jun 2027 22:21:49.211            84.451                  Delhi          2639.094
       465   04 Jun 2027 22:23:01.819   04 Jun 2027 22:23:53.149            51.330                  Delhi          1604.062
       466   04 Jun 2027 23:44:40.409   04 Jun 2027 23:45:28.367            47.958               Magadan1          1498.688
       467   04 Jun 2027 23:46:14.343   04 Jun 2027 23:46:18.671             4.328               Magadan2           135.250
       468   04 Jun 2027 23:46:27.370   04 Jun 2027 23:46:36.421             9.051                Norilsk           282.844
       469   04 Jun 2027 23:46:49.207   04 Jun 2027 23:47:20.535            31.328                Norilsk           979.000
       470   04 Jun 2027 23:47:45.121   04 Jun 2027 23:51:33.632           228.511              Murmansk1          7140.969
       471   04 Jun 2027 23:52:46.464   04 Jun 2027 23:55:49.242           182.778                 Moscow          5711.813
       472   05 Jun 2027 00:19:41.988   05 Jun 2027 00:20:42.385            60.397               CapeTown          1887.406
       473   05 Jun 2027 00:22:32.457   05 Jun 2027 00:23:19.838            47.381               CapeTown          1480.656
       474   05 Jun 2027 01:16:39.640   05 Jun 2027 01:17:38.937            59.297               Magadan1          1853.031
       475   05 Jun 2027 01:21:01.939   05 Jun 2027 01:21:22.015            20.076               Magadan2           627.375
       476   05 Jun 2027 01:23:07.862   05 Jun 2027 01:25:47.540           159.678              Murmansk1          4989.938
       477   05 Jun 2027 01:29:12.723   05 Jun 2027 01:29:25.899            13.176                 Moscow           411.750
       478   05 Jun 2027 01:31:41.770   05 Jun 2027 01:32:00.806            19.036                 Moscow           594.875
       479   05 Jun 2027 01:33:45.176   05 Jun 2027 01:34:01.439            16.263                 Moscow           508.219
       480   05 Jun 2027 01:37:44.521   05 Jun 2027 01:37:54.847            10.326                 Moscow           322.688
       481   05 Jun 2027 01:38:21.534   05 Jun 2027 01:38:51.450            29.916                 Moscow           934.875
       482   05 Jun 2027 01:50:24.911   05 Jun 2027 01:51:53.968            89.057               CapeTown          2783.031
