uniorb/output/strategy_4/Drop/Drop_KinoSat_110909.txt

KinoSat_110909
-------------------------
    Access    *     Start Time (UTCG)     *     Stop Time (UTCG)  *   Duration (s)        *       Station  *  Data (Mbytes)
         1   01 Jun 2027 04:28:07.825   01 Jun 2027 04:28:35.993            28.168                Anadyr1           880.250
         2   01 Jun 2027 04:29:16.393   01 Jun 2027 04:29:53.992            37.599               Magadan2          1174.969
         3   01 Jun 2027 04:30:02.398   01 Jun 2027 04:32:22.876           140.478                Anadyr1          4389.937
         4   01 Jun 2027 04:32:50.922   01 Jun 2027 04:33:19.062            28.140               Magadan1           879.375
         5   01 Jun 2027 04:33:19.062   01 Jun 2027 04:35:24.229           125.167               Magadan2          3911.469
         6   01 Jun 2027 06:04:01.692   01 Jun 2027 06:08:31.229           269.537               Magadan2          8423.031
         7   01 Jun 2027 06:08:31.229   01 Jun 2027 06:08:50.458            19.229               Magadan1           600.906
         8   01 Jun 2027 06:08:51.840   01 Jun 2027 06:09:52.683            60.843                Anadyr2          1901.344
         9   01 Jun 2027 06:10:19.687   01 Jun 2027 06:10:45.463            25.776                Anadyr2           805.500
        10   01 Jun 2027 06:10:49.878   01 Jun 2027 06:11:13.121            23.243                Novosib           726.344
        11   01 Jun 2027 06:46:30.371   01 Jun 2027 06:47:43.470            73.099            RioGallegos          2284.344
        12   01 Jun 2027 07:25:31.118   01 Jun 2027 07:26:16.553            45.435                Sumatra          1419.844
        13   01 Jun 2027 07:28:34.388   01 Jun 2027 07:29:13.928            39.540                Sumatra          1235.625
        14   01 Jun 2027 07:41:59.187   01 Jun 2027 07:42:21.908            22.721               Magadan1           710.031
        15   01 Jun 2027 07:42:33.051   01 Jun 2027 07:45:06.277           153.226               Magadan2          4788.313
        16   01 Jun 2027 07:45:16.773   01 Jun 2027 07:47:16.953           120.180                Novosib          3755.625
        17   01 Jun 2027 08:21:55.906   01 Jun 2027 08:22:19.885            23.979            RioGallegos           749.344
        18   01 Jun 2027 08:26:13.733   01 Jun 2027 08:26:15.815             2.082            RioGallegos            65.062
        19   01 Jun 2027 08:56:37.395   01 Jun 2027 08:57:10.312            32.917                Sumatra          1028.656
        20   01 Jun 2027 08:59:24.932   01 Jun 2027 08:59:46.996            22.064                Sumatra           689.500
        21   01 Jun 2027 09:06:52.423   01 Jun 2027 09:07:58.816            66.393                  Delhi          2074.781
        22   01 Jun 2027 09:16:47.069   01 Jun 2027 09:16:47.378             0.309                  Delhi             9.656
        23   01 Jun 2027 09:19:49.452   01 Jun 2027 09:20:24.799            35.347                Novosib          1104.594
        24   01 Jun 2027 09:20:39.329   01 Jun 2027 09:24:19.033           219.704              Murmansk1          6865.750
        25   01 Jun 2027 09:24:19.440   01 Jun 2027 09:24:59.392            39.952                 Moscow          1248.500
        26   01 Jun 2027 09:25:02.893   01 Jun 2027 09:25:57.547            54.654              Murmansk1          1707.938
        27   01 Jun 2027 09:27:06.826   01 Jun 2027 09:30:10.759           183.933              Murmansk2          5747.906
        28   01 Jun 2027 10:02:00.922   01 Jun 2027 10:05:42.930           222.008            RioGallegos          6937.750
        29   01 Jun 2027 10:41:03.746   01 Jun 2027 10:41:52.752            49.006                  Delhi          1531.437
        30   01 Jun 2027 10:45:31.366   01 Jun 2027 10:45:49.775            18.409                  Delhi           575.281
        31   01 Jun 2027 10:47:28.620   01 Jun 2027 10:49:14.226           105.606                  Delhi          3300.188
        32   01 Jun 2027 10:56:31.141   01 Jun 2027 10:57:41.578            70.437                Novosib          2201.156
        33   01 Jun 2027 10:58:19.457   01 Jun 2027 11:00:08.840           109.383                Novosib          3418.219
        34   01 Jun 2027 11:00:10.903   01 Jun 2027 11:01:00.274            49.371              Murmansk1          1542.844
        35   01 Jun 2027 12:25:13.773   01 Jun 2027 12:27:05.400           111.627                 Moscow          3488.344
        36   01 Jun 2027 12:27:32.446   01 Jun 2027 12:29:24.300           111.854                 Moscow          3495.438
        37   01 Jun 2027 12:29:35.672   01 Jun 2027 12:32:47.742           192.070              Murmansk2          6002.187
        38   01 Jun 2027 12:33:17.983   01 Jun 2027 12:33:43.055            25.072              Murmansk1           783.500
        39   01 Jun 2027 12:33:48.812   01 Jun 2027 12:34:00.720            11.908                Norilsk           372.125
        40   01 Jun 2027 12:34:17.576   01 Jun 2027 12:34:51.163            33.587                Norilsk          1049.594
        41   01 Jun 2027 12:36:06.548   01 Jun 2027 12:36:40.452            33.904                Norilsk          1059.500
        42   01 Jun 2027 13:39:52.006   01 Jun 2027 13:42:44.627           172.621               CapeTown          5394.406
        43   01 Jun 2027 13:44:45.973   01 Jun 2027 13:46:36.745           110.772               CapeTown          3461.625
        44   01 Jun 2027 14:05:43.370   01 Jun 2027 14:06:33.230            49.860              Murmansk1          1558.125
        45   01 Jun 2027 14:06:36.180   01 Jun 2027 14:07:50.325            74.145              Murmansk2          2317.031
        46   01 Jun 2027 14:19:45.576   01 Jun 2027 14:22:19.716           154.140                Anadyr1          4816.875
        47   01 Jun 2027 14:27:26.347   01 Jun 2027 14:27:58.398            32.051                Anadyr1          1001.594
        48   01 Jun 2027 15:14:42.865   01 Jun 2027 15:16:32.782           109.917               CapeTown          3434.906
        49   01 Jun 2027 15:45:02.731   01 Jun 2027 15:45:09.359             6.628              Murmansk2           207.125
        50   01 Jun 2027 15:45:35.660   01 Jun 2027 15:47:30.215           114.555              Murmansk1          3579.844
        51   01 Jun 2027 15:47:53.809   01 Jun 2027 15:48:20.810            27.001              Murmansk2           843.781
        52   01 Jun 2027 15:55:17.402   01 Jun 2027 15:56:04.537            47.135                Anadyr2          1472.969
        53   01 Jun 2027 15:56:50.034   01 Jun 2027 15:57:32.369            42.335                Anadyr2          1322.969
        54   01 Jun 2027 15:57:47.799   01 Jun 2027 15:58:05.894            18.095                Anadyr2           565.469
        55   01 Jun 2027 15:58:30.189   01 Jun 2027 15:59:23.882            53.693                Anadyr2          1677.906
        56   01 Jun 2027 15:59:44.305   01 Jun 2027 16:00:35.873            51.568               Magadan1          1611.500
        57   01 Jun 2027 16:01:56.789   01 Jun 2027 16:03:09.677            72.888               Magadan2          2277.750
        58   01 Jun 2027 16:04:31.303   01 Jun 2027 16:05:29.746            58.443               Magadan2          1826.344
        59   01 Jun 2027 17:31:11.873   01 Jun 2027 17:34:26.848           194.975                Anadyr2          6092.969
        60   01 Jun 2027 17:34:44.410   01 Jun 2027 17:35:36.856            52.446               Magadan1          1638.938
        61   01 Jun 2027 17:35:50.037   01 Jun 2027 17:37:31.107           101.070               Magadan2          3158.438
        62   01 Jun 2027 17:38:11.010   01 Jun 2027 17:38:31.027            20.017               Magadan1           625.531
        63   01 Jun 2027 19:07:02.856   01 Jun 2027 19:08:49.044           106.188                Anadyr1          3318.375
        64   01 Jun 2027 19:08:56.662   01 Jun 2027 19:11:01.026           124.364                Anadyr2          3886.375
        65   01 Jun 2027 19:11:04.521   01 Jun 2027 19:13:31.392           146.871               Magadan1          4589.719
        66   01 Jun 2027 19:13:31.392   01 Jun 2027 19:14:21.288            49.896               Magadan2          1559.250
        67   01 Jun 2027 19:14:39.354   01 Jun 2027 19:17:43.850           184.496                Irkutsk          5765.500
        68   01 Jun 2027 19:20:04.852   01 Jun 2027 19:21:12.555            67.703                Irkutsk          2115.719
        69   01 Jun 2027 19:30:31.579   01 Jun 2027 19:31:59.380            87.801                Sumatra          2743.781
        70   01 Jun 2027 19:34:46.195   01 Jun 2027 19:35:08.401            22.206                Sumatra           693.938
        71   01 Jun 2027 20:44:56.538   01 Jun 2027 20:45:33.032            36.494                Norilsk          1140.438
        72   01 Jun 2027 20:45:56.065   01 Jun 2027 20:46:07.822            11.757                Norilsk           367.406
        73   01 Jun 2027 20:46:15.618   01 Jun 2027 20:46:41.736            26.118                Norilsk           816.187
        74   01 Jun 2027 20:48:54.557   01 Jun 2027 20:50:14.177            79.620                Irkutsk          2488.125
        75   01 Jun 2027 20:51:07.144   01 Jun 2027 20:51:26.329            19.185                Irkutsk           599.531
        76   01 Jun 2027 20:51:59.718   01 Jun 2027 20:54:09.608           129.890                Novosib          4059.063
        77   01 Jun 2027 20:56:10.354   01 Jun 2027 20:56:13.395             3.041                Novosib            95.031
        78   01 Jun 2027 21:02:38.173   01 Jun 2027 21:02:52.341            14.168                Sumatra           442.750
        79   01 Jun 2027 22:16:45.087   01 Jun 2027 22:17:05.169            20.082                Anadyr1           627.562
        80   01 Jun 2027 22:17:43.353   01 Jun 2027 22:18:03.534            20.181                Anadyr2           630.656
        81   01 Jun 2027 22:18:28.370   01 Jun 2027 22:18:34.219             5.849                Anadyr2           182.781
        82   01 Jun 2027 22:20:27.553   01 Jun 2027 22:21:23.126            55.573                Anadyr2          1736.656
        83   01 Jun 2027 22:21:30.974   01 Jun 2027 22:22:46.223            75.249               Magadan2          2351.531
        84   01 Jun 2027 22:23:11.890   01 Jun 2027 22:23:12.230             0.340               Magadan2            10.625
        85   01 Jun 2027 22:24:22.431   01 Jun 2027 22:27:55.510           213.079              Murmansk1          6658.719
        86   01 Jun 2027 22:32:10.078   01 Jun 2027 22:33:16.356            66.278                  Delhi          2071.188
        87   01 Jun 2027 22:40:14.927   01 Jun 2027 22:41:41.430            86.503                  Delhi          2703.219
        88   01 Jun 2027 23:56:13.512   01 Jun 2027 23:57:43.758            90.246               Magadan2          2820.188
        89   01 Jun 2027 23:58:05.450   01 Jun 2027 23:58:31.017            25.567               Magadan2           798.969
        90   01 Jun 2027 23:59:09.092   02 Jun 2027 00:02:04.421           175.329              Murmansk2          5479.031
        91   02 Jun 2027 00:02:50.880   02 Jun 2027 00:03:11.105            20.225              Murmansk2           632.031
        92   02 Jun 2027 00:03:24.797   02 Jun 2027 00:04:42.225            77.428                 Moscow          2419.625
        93   02 Jun 2027 00:07:45.738   02 Jun 2027 00:07:52.788             7.050                 Moscow           220.313
        94   02 Jun 2027 00:09:42.559   02 Jun 2027 00:10:16.774            34.215                 Moscow          1069.219
        95   02 Jun 2027 00:30:11.120   02 Jun 2027 00:31:57.840           106.720               CapeTown          3335.000
        96   02 Jun 2027 00:33:33.978   02 Jun 2027 00:34:54.888            80.910               CapeTown          2528.437
        97   02 Jun 2027 01:28:01.123   02 Jun 2027 01:28:03.760             2.637               Magadan1            82.406
        98   02 Jun 2027 01:28:15.963   02 Jun 2027 01:28:48.316            32.353               Magadan1          1011.031
        99   02 Jun 2027 01:29:20.108   02 Jun 2027 01:29:36.158            16.050               Magadan2           501.562
       100   02 Jun 2027 01:35:01.994   02 Jun 2027 01:36:43.767           101.773              Murmansk2          3180.406
       101   02 Jun 2027 01:37:21.503   02 Jun 2027 01:37:45.703            24.200                Novosib           756.250
       102   02 Jun 2027 01:38:16.618   02 Jun 2027 01:40:01.279           104.661                 Moscow          3270.656
       103   02 Jun 2027 02:06:21.231   02 Jun 2027 02:06:44.184            22.953               CapeTown           717.281
       104   02 Jun 2027 02:07:45.830   02 Jun 2027 02:08:06.223            20.393               CapeTown           637.281
       105   02 Jun 2027 02:58:52.237   02 Jun 2027 03:00:18.807            86.570                Anadyr1          2705.312
       106   02 Jun 2027 03:00:19.390   02 Jun 2027 03:00:26.923             7.533               Magadan1           235.406
       107   02 Jun 2027 03:05:00.578   02 Jun 2027 03:06:38.322            97.744               Magadan2          3054.500
       108   02 Jun 2027 03:06:48.507   02 Jun 2027 03:08:04.749            76.242                Anadyr1          2382.562
       109   02 Jun 2027 03:08:04.749   02 Jun 2027 03:08:52.326            47.577                Anadyr2          1486.781
       110   02 Jun 2027 03:09:18.201   02 Jun 2027 03:09:19.485             1.284                Anadyr2            40.125
       111   02 Jun 2027 03:09:38.978   02 Jun 2027 03:09:41.360             2.382               Magadan2            74.437
       112   02 Jun 2027 03:10:08.825   02 Jun 2027 03:10:19.939            11.114               Magadan2           347.313
       113   02 Jun 2027 04:41:07.965   02 Jun 2027 04:43:27.490           139.525                Anadyr1          4360.156
       114   02 Jun 2027 04:43:33.416   02 Jun 2027 04:43:53.297            19.881                Anadyr2           621.281
       115   02 Jun 2027 04:44:13.119   02 Jun 2027 04:47:04.273           171.154                Anadyr1          5348.562
       116   02 Jun 2027 06:17:14.245   02 Jun 2027 06:19:07.565           113.320                Anadyr2          3541.250
       117   02 Jun 2027 06:19:15.982   02 Jun 2027 06:22:29.377           193.395               Magadan2          6043.594
       118   02 Jun 2027 06:22:57.295   02 Jun 2027 06:23:32.087            34.792                Novosib          1087.250
       119   02 Jun 2027 07:54:17.391   02 Jun 2027 07:57:09.208           171.817               Magadan2          5369.281
       120   02 Jun 2027 07:58:25.181   02 Jun 2027 07:59:19.873            54.692                Novosib          1709.125
       121   02 Jun 2027 07:59:35.587   02 Jun 2027 07:59:57.412            21.825              Murmansk1           682.031
       122   02 Jun 2027 08:03:37.609   02 Jun 2027 08:04:35.534            57.925              Murmansk2          1810.156
       123   02 Jun 2027 08:34:08.968   02 Jun 2027 08:36:26.238           137.270            RioGallegos          4289.688
       124   02 Jun 2027 08:37:34.208   02 Jun 2027 08:38:00.287            26.079            RioGallegos           814.969
       125   02 Jun 2027 08:38:43.695   02 Jun 2027 08:39:10.164            26.469            RioGallegos           827.156
       126   02 Jun 2027 09:08:40.357   02 Jun 2027 09:09:17.664            37.307                Sumatra          1165.844
       127   02 Jun 2027 09:10:02.905   02 Jun 2027 09:10:59.671            56.766                Sumatra          1773.937
       128   02 Jun 2027 09:11:45.385   02 Jun 2027 09:12:54.533            69.148                Sumatra          2160.875
       129   02 Jun 2027 09:29:23.515   02 Jun 2027 09:29:27.112             3.597                Novosib           112.406
       130   02 Jun 2027 09:29:34.137   02 Jun 2027 09:30:19.774            45.637                Novosib          1426.156
       131   02 Jun 2027 09:31:42.068   02 Jun 2027 09:32:07.418            25.350                Irkutsk           792.188
       132   02 Jun 2027 09:32:36.319   02 Jun 2027 09:32:41.400             5.081                Novosib           158.781
       133   02 Jun 2027 09:32:54.706   02 Jun 2027 09:33:26.984            32.278                Norilsk          1008.688
       134   02 Jun 2027 09:33:36.264   02 Jun 2027 09:34:38.116            61.852                Irkutsk          1932.875
       135   02 Jun 2027 09:35:06.476   02 Jun 2027 09:35:11.529             5.053                Novosib           157.906
       136   02 Jun 2027 10:15:31.304   02 Jun 2027 10:16:31.584            60.280            RioGallegos          1883.750
       137   02 Jun 2027 10:53:23.838   02 Jun 2027 10:54:42.313            78.475                  Delhi          2452.344
       138   02 Jun 2027 10:57:40.265   02 Jun 2027 10:58:12.423            32.158                  Delhi          1004.937
       139   02 Jun 2027 11:07:29.910   02 Jun 2027 11:08:21.341            51.431                Novosib          1607.219
       140   02 Jun 2027 11:09:17.485   02 Jun 2027 11:09:18.007             0.522                Novosib            16.312
       141   02 Jun 2027 11:10:23.569   02 Jun 2027 11:10:26.173             2.604                Novosib            81.375
       142   02 Jun 2027 11:10:59.132   02 Jun 2027 11:12:02.684            63.552                Norilsk          1986.000
       143   02 Jun 2027 12:38:13.274   02 Jun 2027 12:39:02.739            49.465                 Moscow          1545.781
       144   02 Jun 2027 12:39:20.897   02 Jun 2027 12:39:57.697            36.800                 Moscow          1150.000
       145   02 Jun 2027 12:40:33.245   02 Jun 2027 12:41:33.464            60.219                 Moscow          1881.844
       146   02 Jun 2027 12:41:39.629   02 Jun 2027 12:42:26.521            46.892              Murmansk1          1465.375
       147   02 Jun 2027 12:42:44.456   02 Jun 2027 12:43:50.211            65.755              Murmansk1          2054.844
       148   02 Jun 2027 12:43:50.211   02 Jun 2027 12:44:01.277            11.066              Murmansk2           345.813
       149   02 Jun 2027 12:44:19.595   02 Jun 2027 12:44:45.290            25.695              Murmansk2           802.969
       150   02 Jun 2027 13:51:30.711   02 Jun 2027 13:54:59.181           208.470               CapeTown          6514.687
       151   02 Jun 2027 13:56:35.049   02 Jun 2027 13:57:01.083            26.034               CapeTown           813.562
       152   02 Jun 2027 14:15:03.472   02 Jun 2027 14:15:13.535            10.063                 Moscow           314.469
       153   02 Jun 2027 14:18:01.775   02 Jun 2027 14:18:42.993            41.218              Murmansk2          1288.063
       154   02 Jun 2027 14:19:51.779   02 Jun 2027 14:20:21.380            29.601              Murmansk1           925.031
       155   02 Jun 2027 14:21:40.106   02 Jun 2027 14:22:41.575            61.469              Murmansk1          1920.906
       156   02 Jun 2027 14:31:40.748   02 Jun 2027 14:34:09.046           148.298                Anadyr2          4634.312
       157   02 Jun 2027 14:37:21.054   02 Jun 2027 14:38:11.671            50.617                Anadyr2          1581.781
       158   02 Jun 2027 15:26:50.056   02 Jun 2027 15:28:27.338            97.282               CapeTown          3040.063
       159   02 Jun 2027 15:57:42.916   02 Jun 2027 15:57:55.092            12.176              Murmansk1           380.500
       160   02 Jun 2027 15:58:40.813   02 Jun 2027 15:59:19.459            38.646              Murmansk1          1207.688
       161   02 Jun 2027 15:59:55.490   02 Jun 2027 16:00:24.193            28.703              Murmansk1           896.969
       162   02 Jun 2027 16:07:18.100   02 Jun 2027 16:09:05.313           107.213                Anadyr1          3350.406
       163   02 Jun 2027 16:09:29.170   02 Jun 2027 16:10:07.149            37.979                Anadyr2          1186.844
       164   02 Jun 2027 16:10:28.584   02 Jun 2027 16:14:51.085           262.501               Magadan2          8203.156
       165   02 Jun 2027 16:16:33.659   02 Jun 2027 16:16:43.216             9.557               Magadan2           298.656
       166   02 Jun 2027 17:43:13.212   02 Jun 2027 17:44:42.989            89.777                Anadyr2          2805.531
       167   02 Jun 2027 17:45:32.837   02 Jun 2027 17:47:28.604           115.767               Magadan2          3617.719
       168   02 Jun 2027 18:39:39.341   02 Jun 2027 18:42:09.649           150.308            RioGallegos          4697.125
       169   02 Jun 2027 18:44:08.270   02 Jun 2027 18:44:43.529            35.259            RioGallegos          1101.844
       170   02 Jun 2027 19:19:02.303   02 Jun 2027 19:20:49.979           107.676                Anadyr2          3364.875
       171   02 Jun 2027 19:21:14.274   02 Jun 2027 19:24:34.012           199.738                Norilsk          6241.813
       172   02 Jun 2027 19:27:17.912   02 Jun 2027 19:29:32.816           134.904                Irkutsk          4215.750
       173   02 Jun 2027 19:30:09.480   02 Jun 2027 19:30:34.933            25.453                Irkutsk           795.406
       174   02 Jun 2027 19:31:02.918   02 Jun 2027 19:32:11.443            68.525                Irkutsk          2141.406
       175   02 Jun 2027 19:41:17.143   02 Jun 2027 19:43:32.349           135.206                Sumatra          4225.188
       176   02 Jun 2027 19:45:18.002   02 Jun 2027 19:47:01.768           103.766                Sumatra          3242.688
       177   02 Jun 2027 21:01:36.571   02 Jun 2027 21:02:14.245            37.674                Novosib          1177.313
       178   02 Jun 2027 21:03:12.145   02 Jun 2027 21:03:25.351            13.206                Novosib           412.688
       179   02 Jun 2027 21:08:01.484   02 Jun 2027 21:08:36.862            35.378                Novosib          1105.562
       180   02 Jun 2027 21:11:54.599   02 Jun 2027 21:15:41.435           226.836                  Delhi          7088.625
       181   02 Jun 2027 22:35:59.880   02 Jun 2027 22:39:34.697           214.817              Murmansk2          6713.031
       182   02 Jun 2027 22:40:10.277   02 Jun 2027 22:41:01.458            51.181              Murmansk1          1599.406
       183   03 Jun 2027 00:01:47.118   03 Jun 2027 00:01:57.642            10.524                Anadyr1           328.875
       184   03 Jun 2027 00:04:13.425   03 Jun 2027 00:04:40.666            27.241                Anadyr2           851.281
       185   03 Jun 2027 00:06:08.315   03 Jun 2027 00:06:33.709            25.394                Anadyr2           793.562
       186   03 Jun 2027 00:07:25.110   03 Jun 2027 00:08:01.193            36.083                Anadyr1          1127.594
       187   03 Jun 2027 00:08:29.585   03 Jun 2027 00:09:59.199            89.614               Magadan2          2800.437
       188   03 Jun 2027 00:10:28.951   03 Jun 2027 00:11:29.965            61.014               Magadan2          1906.688
       189   03 Jun 2027 00:11:43.856   03 Jun 2027 00:13:02.629            78.773              Murmansk1          2461.656
       190   03 Jun 2027 00:13:11.446   03 Jun 2027 00:15:12.058           120.612              Murmansk2          3769.125
       191   03 Jun 2027 00:15:22.730   03 Jun 2027 00:15:56.889            34.159                 Moscow          1067.469
       192   03 Jun 2027 00:17:02.077   03 Jun 2027 00:17:19.130            17.053                 Moscow           532.906
       193   03 Jun 2027 00:21:44.840   03 Jun 2027 00:22:30.676            45.836                 Moscow          1432.375
       194   03 Jun 2027 00:41:12.226   03 Jun 2027 00:43:28.058           135.832               CapeTown          4244.750
       195   03 Jun 2027 00:44:56.231   03 Jun 2027 00:46:06.249            70.018               CapeTown          2188.062
       196   03 Jun 2027 01:40:03.595   03 Jun 2027 01:40:18.004            14.409               Magadan1           450.281
       197   03 Jun 2027 01:40:48.494   03 Jun 2027 01:41:38.717            50.223               Magadan1          1569.469
       198   03 Jun 2027 01:47:03.709   03 Jun 2027 01:47:54.890            51.181              Murmansk1          1599.406
       199   03 Jun 2027 01:47:54.890   03 Jun 2027 01:48:39.744            44.854              Murmansk2          1401.688
       200   03 Jun 2027 01:49:32.181   03 Jun 2027 01:49:57.780            25.599                Novosib           799.969
       201   03 Jun 2027 01:51:52.713   03 Jun 2027 01:52:00.590             7.877                 Moscow           246.156
       202   03 Jun 2027 01:52:36.080   03 Jun 2027 01:53:20.022            43.942                 Moscow          1373.187
       203   03 Jun 2027 01:58:29.062   03 Jun 2027 01:58:38.297             9.235                 Moscow           288.594
       204   03 Jun 2027 02:01:18.482   03 Jun 2027 02:02:58.413            99.931                 Moscow          3122.844
       205   03 Jun 2027 03:12:34.736   03 Jun 2027 03:12:46.360            11.624               Magadan2           363.250
       206   03 Jun 2027 03:14:10.975   03 Jun 2027 03:14:14.276             3.301                Anadyr2           103.156
       207   03 Jun 2027 03:15:16.330   03 Jun 2027 03:15:29.882            13.552                Anadyr1           423.500
       208   03 Jun 2027 03:16:24.996   03 Jun 2027 03:16:25.858             0.862                Anadyr1            26.937
       209   03 Jun 2027 03:16:29.953   03 Jun 2027 03:17:04.317            34.364                Anadyr1          1073.875
       210   03 Jun 2027 03:17:17.435   03 Jun 2027 03:20:30.609           193.174               Magadan1          6036.687
       211   03 Jun 2027 03:20:33.798   03 Jun 2027 03:21:08.187            34.389                Anadyr2          1074.656
       212   03 Jun 2027 04:58:44.713   03 Jun 2027 04:59:35.945            51.232                Anadyr1          1601.000
       213   03 Jun 2027 06:28:42.834   03 Jun 2027 06:28:43.949             1.115               Magadan1            34.844
       214   03 Jun 2027 06:28:56.067   03 Jun 2027 06:29:01.997             5.930               Magadan2           185.313
       215   03 Jun 2027 06:29:21.217   03 Jun 2027 06:29:26.891             5.674               Magadan1           177.313
       216   03 Jun 2027 06:29:34.462   03 Jun 2027 06:29:39.835             5.373                Anadyr2           167.906
       217   03 Jun 2027 06:29:55.953   03 Jun 2027 06:30:34.525            38.572                Novosib          1205.375
       218   03 Jun 2027 06:30:36.210   03 Jun 2027 06:30:58.451            22.241                Anadyr1           695.031
       219   03 Jun 2027 06:31:17.459   03 Jun 2027 06:31:29.164            11.705               Magadan1           365.781
       220   03 Jun 2027 06:31:29.164   03 Jun 2027 06:32:06.887            37.723               Magadan2          1178.844
       221   03 Jun 2027 06:32:32.816   03 Jun 2027 06:33:20.011            47.195                Anadyr2          1474.844
       222   03 Jun 2027 06:33:28.406   03 Jun 2027 06:33:34.507             6.101               Magadan2           190.656
       223   03 Jun 2027 06:33:34.507   03 Jun 2027 06:34:02.255            27.748               Magadan1           867.125
       224   03 Jun 2027 06:34:55.550   03 Jun 2027 06:35:06.031            10.481               Magadan2           327.531
       225   03 Jun 2027 06:40:04.142   03 Jun 2027 06:40:29.642            25.500              Murmansk2           796.875
       226   03 Jun 2027 08:06:04.852   03 Jun 2027 08:07:06.497            61.645                Novosib          1926.406
       227   03 Jun 2027 08:07:36.542   03 Jun 2027 08:07:51.653            15.111                Irkutsk           472.219
       228   03 Jun 2027 08:08:55.536   03 Jun 2027 08:09:38.086            42.550                Irkutsk          1329.687
       229   03 Jun 2027 08:10:08.070   03 Jun 2027 08:10:11.090             3.020                Irkutsk            94.375
       230   03 Jun 2027 08:10:38.726   03 Jun 2027 08:10:57.767            19.041              Murmansk1           595.031
       231   03 Jun 2027 08:17:04.687   03 Jun 2027 08:17:30.750            26.063              Murmansk2           814.469
       232   03 Jun 2027 08:46:26.097   03 Jun 2027 08:47:27.341            61.244            RioGallegos          1913.875
       233   03 Jun 2027 09:20:49.092   03 Jun 2027 09:22:30.345           101.253                Sumatra          3164.156
       234   03 Jun 2027 09:42:25.671   03 Jun 2027 09:42:25.739             0.068                Novosib             2.125
       235   03 Jun 2027 09:44:20.666   03 Jun 2027 09:44:44.095            23.429                Irkutsk           732.156
       236   03 Jun 2027 09:44:56.579   03 Jun 2027 09:45:01.862             5.283                Novosib           165.094
       237   03 Jun 2027 09:45:21.800   03 Jun 2027 09:45:32.109            10.309                Novosib           322.156
       238   03 Jun 2027 09:45:43.676   03 Jun 2027 09:45:47.084             3.408                Irkutsk           106.500
       239   03 Jun 2027 09:46:21.583   03 Jun 2027 09:47:02.585            41.002                Novosib          1281.312
       240   03 Jun 2027 11:05:27.393   03 Jun 2027 11:06:57.482            90.089                  Delhi          2815.281
       241   03 Jun 2027 11:07:28.179   03 Jun 2027 11:09:40.810           132.631                  Delhi          4144.719
       242   03 Jun 2027 11:19:14.496   03 Jun 2027 11:19:40.048            25.552                Novosib           798.500
       243   03 Jun 2027 11:19:45.505   03 Jun 2027 11:20:17.118            31.613                Novosib           987.906
       244   03 Jun 2027 11:20:23.199   03 Jun 2027 11:20:47.087            23.888                Norilsk           746.500
       245   03 Jun 2027 11:20:56.131   03 Jun 2027 11:21:13.381            17.250                Novosib           539.063
       246   03 Jun 2027 11:22:23.752   03 Jun 2027 11:22:32.257             8.505                Novosib           265.781
       247   03 Jun 2027 12:49:18.021   03 Jun 2027 12:50:17.823            59.802                 Moscow          1868.813
       248   03 Jun 2027 12:51:12.031   03 Jun 2027 12:51:36.122            24.091                 Moscow           752.844
       249   03 Jun 2027 12:51:52.604   03 Jun 2027 12:52:04.707            12.103                 Moscow           378.219
       250   03 Jun 2027 12:52:34.009   03 Jun 2027 12:53:45.938            71.929                 Moscow          2247.781
       251   03 Jun 2027 12:53:50.197   03 Jun 2027 12:53:55.645             5.448              Murmansk2           170.250
       252   03 Jun 2027 12:54:25.184   03 Jun 2027 12:55:48.732            83.548              Murmansk2          2610.875
       253   03 Jun 2027 12:58:16.484   03 Jun 2027 12:59:47.265            90.781                Norilsk          2836.906
       254   03 Jun 2027 14:03:15.223   03 Jun 2027 14:06:03.698           168.475               CapeTown          5264.844
       255   03 Jun 2027 14:30:22.349   03 Jun 2027 14:31:53.387            91.038              Murmansk2          2844.938
       256   03 Jun 2027 14:33:43.218   03 Jun 2027 14:34:00.351            17.133              Murmansk2           535.406
       257   03 Jun 2027 14:43:37.271   03 Jun 2027 14:45:53.975           136.704                Anadyr1          4272.000
       258   03 Jun 2027 14:49:28.198   03 Jun 2027 14:50:10.374            42.176                Anadyr2          1318.000
       259   03 Jun 2027 15:39:00.333   03 Jun 2027 15:40:11.645            71.312               CapeTown          2228.500
       260   03 Jun 2027 16:10:27.475   03 Jun 2027 16:13:22.680           175.205              Murmansk1          5475.156
       261   03 Jun 2027 16:19:19.030   03 Jun 2027 16:19:43.984            24.954                Anadyr2           779.812
       262   03 Jun 2027 16:20:57.008   03 Jun 2027 16:21:04.774             7.766                Anadyr2           242.687
       263   03 Jun 2027 16:21:10.264   03 Jun 2027 16:22:16.565            66.301                Anadyr1          2071.906
       264   03 Jun 2027 16:22:16.824   03 Jun 2027 16:25:59.736           222.912               Magadan2          6966.000
       265   03 Jun 2027 17:55:14.463   03 Jun 2027 17:58:17.031           182.568                Anadyr2          5705.250
       266   03 Jun 2027 17:58:36.305   03 Jun 2027 17:58:54.407            18.102                Anadyr2           565.688
       267   03 Jun 2027 17:59:27.007   03 Jun 2027 18:00:36.628            69.621               Magadan2          2175.656
       268   03 Jun 2027 18:00:56.864   03 Jun 2027 18:01:58.110            61.246               Magadan2          1913.937
       269   03 Jun 2027 18:50:54.164   03 Jun 2027 18:53:53.827           179.663            RioGallegos          5614.469
       270   03 Jun 2027 18:56:14.669   03 Jun 2027 18:57:33.797            79.128            RioGallegos          2472.750
       271   03 Jun 2027 19:31:01.282   03 Jun 2027 19:31:04.625             3.343                Anadyr2           104.469
       272   03 Jun 2027 19:32:24.239   03 Jun 2027 19:32:50.686            26.447                Anadyr1           826.469
       273   03 Jun 2027 19:33:11.497   03 Jun 2027 19:37:06.189           234.692                Norilsk          7334.125
       274   03 Jun 2027 19:37:54.305   03 Jun 2027 19:39:00.462            66.157                Irkutsk          2067.406
       275   03 Jun 2027 19:39:54.649   03 Jun 2027 19:40:44.356            49.707                Irkutsk          1553.344
       276   03 Jun 2027 19:41:14.383   03 Jun 2027 19:41:24.509            10.126                Irkutsk           316.438
       277   03 Jun 2027 19:52:27.897   03 Jun 2027 19:55:13.297           165.400                Sumatra          5168.750
       278   03 Jun 2027 19:56:32.606   03 Jun 2027 19:57:39.220            66.614                Sumatra          2081.687
       279   03 Jun 2027 19:59:00.768   03 Jun 2027 19:59:23.668            22.900                Sumatra           715.625
       280   03 Jun 2027 21:10:13.180   03 Jun 2027 21:10:41.810            28.630                Norilsk           894.688
       281   03 Jun 2027 21:13:25.853   03 Jun 2027 21:14:28.846            62.993                Novosib          1968.531
       282   03 Jun 2027 21:15:03.497   03 Jun 2027 21:15:32.968            29.471                Novosib           920.969
       283   03 Jun 2027 21:22:19.173   03 Jun 2027 21:23:21.621            62.448                Novosib          1951.500
       284   03 Jun 2027 21:23:39.830   03 Jun 2027 21:25:04.578            84.748                  Delhi          2648.375
       285   03 Jun 2027 21:30:09.789   03 Jun 2027 21:30:10.731             0.942                  Delhi            29.438
       286   03 Jun 2027 22:45:24.572   03 Jun 2027 22:46:38.883            74.311                Norilsk          2322.219
       287   03 Jun 2027 22:47:06.018   03 Jun 2027 22:47:16.657            10.639               Magadan2           332.469
       288   03 Jun 2027 22:47:46.738   03 Jun 2027 22:51:30.541           223.803              Murmansk1          6993.844
       289   03 Jun 2027 22:52:23.098   03 Jun 2027 22:53:55.248            92.150              Murmansk2          2879.687
       290   03 Jun 2027 23:05:42.964   03 Jun 2027 23:05:51.896             8.932                  Delhi           279.125
       291   03 Jun 2027 23:07:06.789   03 Jun 2027 23:07:46.723            39.934                  Delhi          1247.937
       292   04 Jun 2027 00:18:16.934   04 Jun 2027 00:18:30.146            13.212                Anadyr2           412.875
       293   04 Jun 2027 00:18:34.137   04 Jun 2027 00:19:10.805            36.668                Anadyr2          1145.875
       294   04 Jun 2027 00:19:22.848   04 Jun 2027 00:20:14.854            52.006               Magadan1          1625.187
       295   04 Jun 2027 00:20:21.099   04 Jun 2027 00:20:52.584            31.485               Magadan1           983.906
       296   04 Jun 2027 00:21:27.004   04 Jun 2027 00:21:31.871             4.867               Magadan1           152.094
       297   04 Jun 2027 00:22:05.627   04 Jun 2027 00:22:34.087            28.460               Magadan2           889.375
       298   04 Jun 2027 00:23:09.350   04 Jun 2027 00:27:54.030           284.680              Murmansk1          8896.250
       299   04 Jun 2027 00:28:08.757   04 Jun 2027 00:28:49.859            41.102                 Moscow          1284.437
       300   04 Jun 2027 00:52:26.834   04 Jun 2027 00:54:13.751           106.917               CapeTown          3341.156
       301   04 Jun 2027 00:56:31.713   04 Jun 2027 00:57:11.521            39.808               CapeTown          1244.000
       302   04 Jun 2027 01:51:00.999   04 Jun 2027 01:52:53.646           112.647               Magadan2          3520.219
       303   04 Jun 2027 01:59:05.442   04 Jun 2027 02:00:35.056            89.614              Murmansk2          2800.437
       304   04 Jun 2027 02:01:08.190   04 Jun 2027 02:01:24.478            16.288              Murmansk1           509.000
       305   04 Jun 2027 02:01:45.076   04 Jun 2027 02:02:49.302            64.226                Novosib          2007.063
       306   04 Jun 2027 02:12:10.022   04 Jun 2027 02:12:27.720            17.698                 Moscow           553.063
       307   04 Jun 2027 02:26:13.339   04 Jun 2027 02:26:35.472            22.133               CapeTown           691.656
       308   04 Jun 2027 02:27:02.025   04 Jun 2027 02:28:23.862            81.837               CapeTown          2557.406
       309   04 Jun 2027 03:23:00.500   04 Jun 2027 03:23:32.054            31.554                Anadyr2           986.062
       310   04 Jun 2027 03:24:40.659   04 Jun 2027 03:24:45.237             4.578                Anadyr1           143.062
       311   04 Jun 2027 03:26:11.407   04 Jun 2027 03:26:15.523             4.116                Anadyr2           128.625
       312   04 Jun 2027 03:28:55.274   04 Jun 2027 03:31:24.719           149.445               Magadan2          4670.156
       313   04 Jun 2027 03:31:24.719   04 Jun 2027 03:33:16.980           112.261               Magadan1          3508.156
       314   04 Jun 2027 05:05:56.967   04 Jun 2027 05:07:40.815           103.848                Irkutsk          3245.250
       315   04 Jun 2027 05:08:39.581   04 Jun 2027 05:08:57.681            18.100                Irkutsk           565.625
       316   04 Jun 2027 06:42:31.032   04 Jun 2027 06:43:05.394            34.362                Novosib          1073.812
       317   04 Jun 2027 06:43:15.690   04 Jun 2027 06:43:51.346            35.656                Anadyr1          1114.250
       318   04 Jun 2027 06:43:57.943   04 Jun 2027 06:44:37.306            39.363                Anadyr1          1230.094
       319   04 Jun 2027 06:45:15.205   04 Jun 2027 06:45:31.614            16.409               Magadan1           512.781
       320   04 Jun 2027 06:46:02.331   04 Jun 2027 06:46:14.727            12.396               Magadan2           387.375
       321   04 Jun 2027 06:46:43.091   04 Jun 2027 06:46:59.106            16.015               Magadan1           500.469
       322   04 Jun 2027 06:50:03.125   04 Jun 2027 06:50:38.745            35.620                Norilsk          1113.125
       323   04 Jun 2027 08:17:36.387   04 Jun 2027 08:18:09.549            33.162                Irkutsk          1036.313
       324   04 Jun 2027 08:19:02.447   04 Jun 2027 08:19:09.909             7.462                Novosib           233.187
       325   04 Jun 2027 08:19:10.694   04 Jun 2027 08:19:31.129            20.435                Irkutsk           638.594
       326   04 Jun 2027 08:19:53.824   04 Jun 2027 08:20:11.325            17.501                Irkutsk           546.906
       327   04 Jun 2027 08:20:13.967   04 Jun 2027 08:20:33.936            19.969              Murmansk2           624.031
       328   04 Jun 2027 08:20:53.693   04 Jun 2027 08:21:53.026            59.333                Novosib          1854.156
       329   04 Jun 2027 08:22:10.212   04 Jun 2027 08:22:21.622            11.410                Novosib           356.562
       330   04 Jun 2027 08:22:23.300   04 Jun 2027 08:22:28.542             5.242                Irkutsk           163.812
       331   04 Jun 2027 08:22:58.410   04 Jun 2027 08:23:16.298            17.888              Murmansk1           559.000
       332   04 Jun 2027 08:58:47.691   04 Jun 2027 08:58:55.755             8.064            RioGallegos           252.000
       333   04 Jun 2027 08:59:31.507   04 Jun 2027 08:59:35.075             3.568            RioGallegos           111.500
       334   04 Jun 2027 09:00:44.414   04 Jun 2027 09:00:49.959             5.545            RioGallegos           173.281
       335   04 Jun 2027 09:01:58.979   04 Jun 2027 09:02:28.791            29.812            RioGallegos           931.625
       336   04 Jun 2027 09:04:16.946   04 Jun 2027 09:04:19.469             2.523            RioGallegos            78.844
       337   04 Jun 2027 09:06:31.022   04 Jun 2027 09:06:32.367             1.345            RioGallegos            42.031
       338   04 Jun 2027 09:07:10.112   04 Jun 2027 09:07:46.928            36.816            RioGallegos          1150.500
       339   04 Jun 2027 09:33:04.163   04 Jun 2027 09:34:31.056            86.893                Sumatra          2715.406
       340   04 Jun 2027 09:56:40.497   04 Jun 2027 09:57:26.565            46.068                Novosib          1439.625
       341   04 Jun 2027 09:57:48.370   04 Jun 2027 09:58:25.645            37.275                Novosib          1164.844
       342   04 Jun 2027 11:17:54.176   04 Jun 2027 11:21:16.569           202.393                  Delhi          6324.781
       343   04 Jun 2027 11:30:39.396   04 Jun 2027 11:30:50.898            11.502                Novosib           359.438
       344   04 Jun 2027 11:32:11.322   04 Jun 2027 11:32:37.484            26.162                Novosib           817.563
       345   04 Jun 2027 11:33:11.552   04 Jun 2027 11:34:23.151            71.599                Novosib          2237.469
       346   04 Jun 2027 11:34:37.771   04 Jun 2027 11:35:39.602            61.831                Novosib          1932.219
       347   04 Jun 2027 13:02:21.888   04 Jun 2027 13:02:47.452            25.564                 Moscow           798.875
       348   04 Jun 2027 13:03:05.873   04 Jun 2027 13:04:11.022            65.149                 Moscow          2035.906
       349   04 Jun 2027 13:05:09.458   04 Jun 2027 13:05:23.589            14.131              Murmansk2           441.594
       350   04 Jun 2027 13:05:49.832   04 Jun 2027 13:06:25.260            35.428              Murmansk2          1107.125
       351   04 Jun 2027 13:07:36.017   04 Jun 2027 13:08:02.704            26.687              Murmansk2           833.969
       352   04 Jun 2027 13:08:58.631   04 Jun 2027 13:09:36.860            38.229              Murmansk2          1194.656
       353   04 Jun 2027 13:11:16.559   04 Jun 2027 13:12:48.108            91.549                Norilsk          2860.906
       354   04 Jun 2027 14:15:04.254   04 Jun 2027 14:16:27.735            83.481               CapeTown          2608.781
       355   04 Jun 2027 14:42:26.999   04 Jun 2027 14:43:05.246            38.247                 Moscow          1195.219
       356   04 Jun 2027 14:43:55.124   04 Jun 2027 14:45:12.531            77.407              Murmansk2          2418.969
       357   04 Jun 2027 14:46:24.589   04 Jun 2027 14:47:41.299            76.710              Murmansk2          2397.187
       358   04 Jun 2027 14:55:34.849   04 Jun 2027 14:59:25.779           230.930                Anadyr1          7216.562
       359   04 Jun 2027 16:23:17.689   04 Jun 2027 16:25:44.710           147.021              Murmansk2          4594.406
       360   04 Jun 2027 16:31:20.141   04 Jun 2027 16:31:37.860            17.719                Anadyr2           553.719
       361   04 Jun 2027 16:32:51.265   04 Jun 2027 16:33:04.718            13.453                Anadyr2           420.406
       362   04 Jun 2027 16:33:15.410   04 Jun 2027 16:34:17.607            62.197                Anadyr1          1943.656
       363   04 Jun 2027 16:34:22.783   04 Jun 2027 16:37:09.341           166.558               Magadan2          5204.938
       364   04 Jun 2027 16:39:47.909   04 Jun 2027 16:40:15.328            27.419               Magadan1           856.844
       365   04 Jun 2027 16:44:16.775   04 Jun 2027 16:44:23.976             7.201               Magadan2           225.031
       366   04 Jun 2027 18:07:15.582   04 Jun 2027 18:12:00.895           285.313                Anadyr1          8916.031
       367   04 Jun 2027 18:12:01.941   04 Jun 2027 18:12:45.123            43.182               Magadan1          1349.437
       368   04 Jun 2027 18:13:32.726   04 Jun 2027 18:13:48.035            15.309               Magadan1           478.406
       369   04 Jun 2027 18:15:10.101   04 Jun 2027 18:16:34.370            84.269               Magadan2          2633.406
       370   04 Jun 2027 19:02:25.472   04 Jun 2027 19:05:41.970           196.498            RioGallegos          6140.563
       371   04 Jun 2027 19:08:22.128   04 Jun 2027 19:09:11.346            49.218            RioGallegos          1538.063
       372   04 Jun 2027 19:44:34.453   04 Jun 2027 19:45:03.580            29.127                Anadyr1           910.219
       373   04 Jun 2027 19:45:09.892   04 Jun 2027 19:49:10.590           240.698                Norilsk          7521.812
       374   04 Jun 2027 19:49:40.405   04 Jun 2027 19:51:25.795           105.390                Irkutsk          3293.437
       375   04 Jun 2027 19:51:55.172   04 Jun 2027 19:52:09.885            14.713                Irkutsk           459.781
       376   04 Jun 2027 20:03:52.673   04 Jun 2027 20:07:00.926           188.253                Sumatra          5882.906
       377   04 Jun 2027 20:08:57.949   04 Jun 2027 20:09:53.214            55.265                Sumatra          1727.031
       378   04 Jun 2027 21:24:53.055   04 Jun 2027 21:25:26.465            33.410                Irkutsk          1044.062
       379   04 Jun 2027 21:25:45.779   04 Jun 2027 21:28:09.323           143.544                Novosib          4485.750
       380   04 Jun 2027 21:33:53.965   04 Jun 2027 21:36:47.184           173.219                  Delhi          5413.094
       381   04 Jun 2027 21:40:29.991   04 Jun 2027 21:41:21.877            51.886                  Delhi          1621.437
       382   04 Jun 2027 22:58:12.313   04 Jun 2027 22:58:13.538             1.225                Norilsk            38.281
       383   04 Jun 2027 22:58:29.378   04 Jun 2027 22:58:50.089            20.711               Magadan2           647.219
       384   04 Jun 2027 22:59:38.231   04 Jun 2027 23:03:27.814           229.583              Murmansk1          7174.469
       385   04 Jun 2027 23:03:47.611   04 Jun 2027 23:04:34.048            46.437              Murmansk2          1451.156
       386   05 Jun 2027 00:25:12.065   05 Jun 2027 00:25:31.985            19.920                Anadyr2           622.500
       387   05 Jun 2027 00:26:19.606   05 Jun 2027 00:27:46.979            87.373                Anadyr2          2730.406
       388   05 Jun 2027 00:30:53.452   05 Jun 2027 00:31:56.311            62.859               Magadan1          1964.344
       389   05 Jun 2027 00:32:10.412   05 Jun 2027 00:32:29.420            19.008               Magadan1           594.000
       390   05 Jun 2027 00:33:01.260   05 Jun 2027 00:33:18.695            17.435               Magadan2           544.844
       391   05 Jun 2027 00:35:10.090   05 Jun 2027 00:37:10.090           120.000              Murmansk1          3750.000
       392   05 Jun 2027 00:37:51.166   05 Jun 2027 00:38:28.311            37.145                Novosib          1160.781
       393   05 Jun 2027 00:38:43.582   05 Jun 2027 00:39:34.023            50.441                 Moscow          1576.281
       394   05 Jun 2027 00:40:17.353   05 Jun 2027 00:40:54.392            37.039                 Moscow          1157.469
       395   05 Jun 2027 00:41:20.181   05 Jun 2027 00:41:21.373             1.192                 Moscow            37.250
       396   05 Jun 2027 00:44:38.310   05 Jun 2027 00:45:49.190            70.880                 Moscow          2215.000
       397   05 Jun 2027 00:49:56.505   05 Jun 2027 00:50:08.193            11.688                 Moscow           365.250
       398   05 Jun 2027 01:03:50.855   05 Jun 2027 01:05:25.543            94.688               CapeTown          2959.000
       399   05 Jun 2027 01:09:22.234   05 Jun 2027 01:10:28.304            66.070               CapeTown          2064.687
       400   05 Jun 2027 02:01:23.315   05 Jun 2027 02:01:41.020            17.705                Anadyr2           553.281
       401   05 Jun 2027 02:02:32.670   05 Jun 2027 02:03:43.742            71.072               Magadan1          2221.000
       402   05 Jun 2027 02:04:01.383   05 Jun 2027 02:04:08.625             7.242               Magadan1           226.313
       403   05 Jun 2027 02:07:55.325   05 Jun 2027 02:08:10.043            14.718               Magadan1           459.938
       404   05 Jun 2027 02:11:04.434   05 Jun 2027 02:11:40.091            35.657                Norilsk          1114.281
       405   05 Jun 2027 02:11:41.367   05 Jun 2027 02:13:07.853            86.486              Murmansk2          2702.688
       406   05 Jun 2027 02:14:01.596   05 Jun 2027 02:14:30.259            28.663                Novosib           895.719
       407   05 Jun 2027 02:17:36.539   05 Jun 2027 02:17:37.913             1.374                 Moscow            42.937
       408   05 Jun 2027 02:18:40.972   05 Jun 2027 02:18:56.065            15.093                 Moscow           471.656
       409   05 Jun 2027 02:21:19.085   05 Jun 2027 02:21:29.675            10.590                 Moscow           330.937
       410   05 Jun 2027 02:23:44.971   05 Jun 2027 02:23:55.704            10.733                 Moscow           335.406
       411   05 Jun 2027 02:38:22.164   05 Jun 2027 02:39:25.159            62.995               CapeTown          1968.594
       412   05 Jun 2027 02:47:02.490   05 Jun 2027 02:47:39.262            36.772               CapeTown          1149.125
       413   05 Jun 2027 03:40:56.190   05 Jun 2027 03:43:25.849           149.659               Magadan1          4676.844
       414   05 Jun 2027 03:43:53.342   05 Jun 2027 03:47:51.918           238.576                Anadyr1          7455.500
       415   05 Jun 2027 05:16:45.678   05 Jun 2027 05:17:35.450            49.772                Irkutsk          1555.375
       416   05 Jun 2027 05:20:55.070   05 Jun 2027 05:21:03.321             8.251                Irkutsk           257.844
       417   05 Jun 2027 05:21:16.629   05 Jun 2027 05:21:49.766            33.137                Anadyr2          1035.531
       418   05 Jun 2027 05:21:57.852   05 Jun 2027 05:23:16.029            78.177               Magadan1          2443.031
       419   05 Jun 2027 06:53:44.628   05 Jun 2027 06:54:34.857            50.229                Novosib          1569.656
       420   05 Jun 2027 06:54:50.336   05 Jun 2027 06:55:18.013            27.677                Novosib           864.906
       421   05 Jun 2027 06:55:24.665   05 Jun 2027 06:55:47.709            23.044               Magadan1           720.125
       422   05 Jun 2027 06:55:56.945   05 Jun 2027 06:57:15.602            78.657               Magadan2          2458.031
       423   05 Jun 2027 06:57:34.764   05 Jun 2027 06:58:30.222            55.458               Magadan2          1733.063
       424   05 Jun 2027 06:58:34.670   05 Jun 2027 06:58:36.047             1.377               Magadan2            43.031
       425   05 Jun 2027 06:59:06.713   05 Jun 2027 07:00:00.102            53.389              Murmansk2          1668.406
       426   05 Jun 2027 08:20:03.034   05 Jun 2027 08:20:08.190             5.156                Sumatra           161.125
       427   05 Jun 2027 08:30:05.097   05 Jun 2027 08:30:33.903            28.806                Novosib           900.188
       428   05 Jun 2027 08:31:12.836   05 Jun 2027 08:32:00.807            47.971                Novosib          1499.094
       429   05 Jun 2027 08:32:29.336   05 Jun 2027 08:32:51.867            22.531                Norilsk           704.094
       430   05 Jun 2027 08:32:54.158   05 Jun 2027 08:33:26.463            32.305                Irkutsk          1009.531
       431   05 Jun 2027 08:33:47.815   05 Jun 2027 08:33:59.268            11.453                Irkutsk           357.906
       432   05 Jun 2027 08:34:23.037   05 Jun 2027 08:35:24.929            61.892                Novosib          1934.125
       433   05 Jun 2027 09:11:14.296   05 Jun 2027 09:11:39.169            24.873            RioGallegos           777.281
       434   05 Jun 2027 09:45:26.701   05 Jun 2027 09:46:25.905            59.204                Sumatra          1850.125
       435   05 Jun 2027 09:54:38.694   05 Jun 2027 09:55:28.718            50.024                  Delhi          1563.250
       436   05 Jun 2027 10:06:59.287   05 Jun 2027 10:07:32.725            33.438                Novosib          1044.938
       437   05 Jun 2027 10:07:48.345   05 Jun 2027 10:08:25.163            36.818                Novosib          1150.562
       438   05 Jun 2027 10:08:41.731   05 Jun 2027 10:08:54.790            13.059                Novosib           408.094
       439   05 Jun 2027 10:09:01.958   05 Jun 2027 10:09:32.504            30.546                Irkutsk           954.563
       440   05 Jun 2027 10:09:35.620   05 Jun 2027 10:10:09.376            33.756                Norilsk          1054.875
       441   05 Jun 2027 10:10:21.400   05 Jun 2027 10:10:29.229             7.829                Novosib           244.656
       442   05 Jun 2027 10:10:33.698   05 Jun 2027 10:11:12.858            39.160              Murmansk1          1223.750
       443   05 Jun 2027 11:30:30.466   05 Jun 2027 11:31:03.067            32.601                  Delhi          1018.781
       444   05 Jun 2027 11:31:13.120   05 Jun 2027 11:32:58.719           105.599                  Delhi          3299.969
       445   05 Jun 2027 11:44:14.370   05 Jun 2027 11:44:23.480             9.110                Norilsk           284.688
       446   05 Jun 2027 11:44:26.671   05 Jun 2027 11:44:56.454            29.783                Norilsk           930.719
       447   05 Jun 2027 11:46:28.572   05 Jun 2027 11:46:54.955            26.383                Norilsk           824.469
       448   05 Jun 2027 11:48:06.871   05 Jun 2027 11:48:08.306             1.435                Norilsk            44.844
       449   05 Jun 2027 13:13:34.403   05 Jun 2027 13:14:17.321            42.918                 Moscow          1341.188
       450   05 Jun 2027 13:14:33.367   05 Jun 2027 13:14:46.296            12.929                 Moscow           404.031
       451   05 Jun 2027 13:15:57.689   05 Jun 2027 13:16:16.735            19.046                 Moscow           595.188
       452   05 Jun 2027 13:16:33.381   05 Jun 2027 13:17:37.148            63.767                 Moscow          1992.719
       453   05 Jun 2027 13:24:39.749   05 Jun 2027 13:26:27.365           107.616                Norilsk          3363.000
       454   05 Jun 2027 13:32:47.805   05 Jun 2027 13:33:36.462            48.657                Anadyr2          1520.531
       455   05 Jun 2027 13:36:13.485   05 Jun 2027 13:36:48.216            34.731                Anadyr1          1085.344
       456   05 Jun 2027 14:26:57.013   05 Jun 2027 14:28:06.943            69.930               CapeTown          2185.313
       457   05 Jun 2027 14:29:30.130   05 Jun 2027 14:29:51.002            20.872               CapeTown           652.250
       458   05 Jun 2027 14:34:06.489   05 Jun 2027 14:34:55.131            48.642               CapeTown          1520.063
       459   05 Jun 2027 14:55:10.422   05 Jun 2027 14:56:31.829            81.407              Murmansk2          2543.969
       460   05 Jun 2027 14:57:46.550   05 Jun 2027 14:58:02.950            16.400              Murmansk1           512.500
       461   05 Jun 2027 14:58:15.607   05 Jun 2027 14:58:26.264            10.657              Murmansk2           333.031
       462   05 Jun 2027 14:59:43.204   05 Jun 2027 15:00:02.111            18.907              Murmansk1           590.844
       463   05 Jun 2027 15:02:03.060   05 Jun 2027 15:02:17.032            13.972              Murmansk2           436.625
       464   05 Jun 2027 15:03:53.105   05 Jun 2027 15:04:17.717            24.612              Murmansk2           769.125
       465   05 Jun 2027 15:07:33.260   05 Jun 2027 15:09:35.909           122.649                Anadyr2          3832.781
       466   05 Jun 2027 15:09:43.982   05 Jun 2027 15:11:10.846            86.864                Anadyr1          2714.500
       467   05 Jun 2027 15:18:43.270   05 Jun 2027 15:19:00.082            16.812                Anadyr2           525.375
       468   05 Jun 2027 16:08:40.683   05 Jun 2027 16:09:07.085            26.402               CapeTown           825.062
       469   05 Jun 2027 16:36:16.403   05 Jun 2027 16:39:47.998           211.595              Murmansk2          6612.344
       470   05 Jun 2027 16:43:21.381   05 Jun 2027 16:45:11.322           109.941                Anadyr1          3435.656
       471   05 Jun 2027 16:46:01.445   05 Jun 2027 16:47:13.738            72.293               Magadan1          2259.156
       472   05 Jun 2027 16:47:13.807   05 Jun 2027 16:48:35.506            81.699               Magadan2          2553.094
       473   05 Jun 2027 16:53:00.325   05 Jun 2027 16:53:55.623            55.298               Magadan2          1728.062
       474   05 Jun 2027 18:19:16.543   05 Jun 2027 18:22:35.378           198.835                Anadyr2          6213.594
       475   05 Jun 2027 18:22:50.207   05 Jun 2027 18:22:56.966             6.759                Anadyr2           211.219
       476   05 Jun 2027 18:23:16.882   05 Jun 2027 18:24:50.943            94.061               Magadan2          2939.406
       477   05 Jun 2027 18:25:26.949   05 Jun 2027 18:25:51.670            24.721               Magadan1           772.531
       478   05 Jun 2027 19:14:05.200   05 Jun 2027 19:17:33.061           207.861            RioGallegos          6495.656
       479   05 Jun 2027 19:18:01.614   05 Jun 2027 19:19:11.837            70.223            RioGallegos          2194.469
       480   05 Jun 2027 19:20:27.476   05 Jun 2027 19:20:28.967             1.491            RioGallegos            46.594
       481   05 Jun 2027 19:57:09.161   05 Jun 2027 19:59:29.249           140.088                Norilsk          4377.750
       482   05 Jun 2027 19:59:39.567   05 Jun 2027 20:01:10.684            91.117                Norilsk          2847.406
