uniorb/output/strategy_4/Drop/Drop_KinoSat_110502.txt

KinoSat_110502
-------------------------
    Access    *     Start Time (UTCG)     *     Stop Time (UTCG)  *   Duration (s)        *       Station  *  Data (Mbytes)
         1   01 Jun 2027 04:16:34.983   01 Jun 2027 04:17:48.430            73.447               Magadan1          9180.875
         2   01 Jun 2027 04:17:56.904   01 Jun 2027 04:19:03.383            66.479               Magadan2          8309.875
         3   01 Jun 2027 04:19:12.594   01 Jun 2027 04:19:39.658            27.064               Magadan2          3383.000
         4   01 Jun 2027 04:20:03.572   01 Jun 2027 04:20:18.386            14.814               Magadan2          1851.750
         5   01 Jun 2027 04:20:29.085   01 Jun 2027 04:22:07.181            98.096                Anadyr1         12262.000
         6   01 Jun 2027 04:22:16.414   01 Jun 2027 04:22:20.927             4.513                Anadyr1           564.125
         7   01 Jun 2027 04:22:37.746   01 Jun 2027 04:23:19.896            42.150               Magadan2          5268.750
         8   01 Jun 2027 04:58:21.215   01 Jun 2027 04:58:41.239            20.024            RioGallegos          2503.000
         9   01 Jun 2027 05:35:13.745   01 Jun 2027 05:35:37.104            23.359                Sumatra          2919.875
        10   01 Jun 2027 05:40:17.097   01 Jun 2027 05:41:22.481            65.384                Sumatra          8173.000
        11   01 Jun 2027 05:54:16.232   01 Jun 2027 05:55:34.015            77.783                Irkutsk          9722.875
        12   01 Jun 2027 05:56:38.359   01 Jun 2027 05:57:54.489            76.130                Irkutsk          9516.250
        13   01 Jun 2027 05:58:11.129   01 Jun 2027 05:58:43.930            32.801              Murmansk2          4100.125
        14   01 Jun 2027 05:58:51.345   01 Jun 2027 05:59:07.032            15.687                Norilsk          1960.875
        15   01 Jun 2027 05:59:15.086   01 Jun 2027 05:59:37.124            22.038                Novosib          2754.750
        16   01 Jun 2027 06:34:35.744   01 Jun 2027 06:34:53.326            17.582            RioGallegos          2197.750
        17   01 Jun 2027 07:09:00.157   01 Jun 2027 07:10:33.558            93.401                Sumatra         11675.125
        18   01 Jun 2027 07:30:25.988   01 Jun 2027 07:30:30.801             4.813                Irkutsk           601.625
        19   01 Jun 2027 07:32:00.126   01 Jun 2027 07:32:11.264            11.138              Murmansk1          1392.250
        20   01 Jun 2027 07:32:19.958   01 Jun 2027 07:33:09.772            49.814                 Moscow          6226.750
        21   01 Jun 2027 07:33:20.169   01 Jun 2027 07:33:45.466            25.297                Irkutsk          3162.125
        22   01 Jun 2027 07:34:14.224   01 Jun 2027 07:35:30.114            75.890              Murmansk1          9486.250
        23   01 Jun 2027 07:36:02.591   01 Jun 2027 07:36:50.932            48.341                Novosib          6042.625
        24   01 Jun 2027 08:53:36.355   01 Jun 2027 08:54:11.871            35.516                  Delhi          4439.500
        25   01 Jun 2027 09:08:33.134   01 Jun 2027 09:08:48.215            15.081                Novosib          1885.125
        26   01 Jun 2027 09:09:37.631   01 Jun 2027 09:09:58.172            20.541              Murmansk1          2567.625
        27   01 Jun 2027 09:10:05.038   01 Jun 2027 09:10:39.583            34.545                Novosib          4318.125
        28   01 Jun 2027 09:10:48.560   01 Jun 2027 09:17:57.514           428.954              Murmansk1         53619.250
        29   01 Jun 2027 10:40:47.173   01 Jun 2027 10:42:31.486           104.313                 Moscow         13039.125
        30   01 Jun 2027 10:42:41.609   01 Jun 2027 10:42:50.894             9.285              Murmansk1          1160.625
        31   01 Jun 2027 10:45:50.188   01 Jun 2027 10:50:21.885           271.697                 Moscow         33962.125
        32   01 Jun 2027 10:50:24.949   01 Jun 2027 10:51:37.702            72.753                Norilsk          9094.125
        33   01 Jun 2027 10:52:15.006   01 Jun 2027 10:53:52.876            97.870              Murmansk2         12233.750
        34   01 Jun 2027 11:51:31.349   01 Jun 2027 11:55:32.715           241.366               CapeTown         30170.750
        35   01 Jun 2027 11:56:57.704   01 Jun 2027 11:57:38.719            41.015               CapeTown          5126.875
        36   01 Jun 2027 12:31:51.458   01 Jun 2027 12:33:43.389           111.931                Anadyr2         13991.375
        37   01 Jun 2027 12:36:08.038   01 Jun 2027 12:38:16.039           128.001                Anadyr1         16000.125
        38   01 Jun 2027 12:40:46.873   01 Jun 2027 12:40:46.877             0.004                Anadyr1             0.500
        39   01 Jun 2027 14:10:32.548   01 Jun 2027 14:14:35.952           243.404               Magadan1         30425.500
        40   01 Jun 2027 14:16:10.434   01 Jun 2027 14:17:24.414            73.980               Magadan2          9247.500
        41   01 Jun 2027 14:18:59.264   01 Jun 2027 14:19:55.689            56.425               Magadan2          7053.125
        42   01 Jun 2027 16:39:15.236   01 Jun 2027 16:42:27.686           192.450            RioGallegos         24056.250
        43   01 Jun 2027 17:27:52.039   01 Jun 2027 17:31:54.003           241.964                Irkutsk         30245.500
        44   01 Jun 2027 17:40:49.716   01 Jun 2027 17:45:30.791           281.075                Sumatra         35134.375
        45   01 Jun 2027 19:05:29.188   01 Jun 2027 19:07:31.469           122.281                Novosib         15285.125
        46   01 Jun 2027 19:11:04.578   01 Jun 2027 19:12:48.667           104.089                  Delhi          1751.501
        47   02 Jun 2027 04:35:03.967   02 Jun 2027 04:35:08.055             4.088                Irkutsk           511.000
        48   02 Jun 2027 04:35:17.283   02 Jun 2027 04:40:21.397           304.114              Murmansk2         38014.250
        49   02 Jun 2027 05:46:29.405   02 Jun 2027 05:49:40.825           191.420                Sumatra         23927.500
        50   02 Jun 2027 06:09:12.636   02 Jun 2027 06:10:26.260            73.624                Novosib          9203.000
        51   02 Jun 2027 06:10:36.709   02 Jun 2027 06:11:23.906            47.197                Irkutsk          5899.625
        52   02 Jun 2027 06:11:30.006   02 Jun 2027 06:17:16.920           346.914              Murmansk2         43364.250
        53   02 Jun 2027 06:18:01.698   02 Jun 2027 06:19:06.990            65.292              Murmansk1          8161.500
        54   02 Jun 2027 06:46:56.366   02 Jun 2027 06:51:20.632           264.266            RioGallegos         33033.250
        55   02 Jun 2027 07:21:13.821   02 Jun 2027 07:24:34.953           201.132                Sumatra         25141.500
        56   02 Jun 2027 07:46:39.963   02 Jun 2027 07:51:49.985           310.022              Murmansk2         38752.750
        57   02 Jun 2027 07:51:56.148   02 Jun 2027 07:52:19.939            23.791                Norilsk          2973.875
        58   02 Jun 2027 07:53:38.106   02 Jun 2027 07:54:16.393            38.287              Murmansk1          4785.875
        59   02 Jun 2027 09:06:01.444   02 Jun 2027 09:13:36.552           455.108                  Delhi         56888.500
        60   02 Jun 2027 09:14:30.613   02 Jun 2027 09:18:15.081           224.468                Novosib         28058.500
        61   02 Jun 2027 09:23:42.926   02 Jun 2027 09:23:55.303            12.377                Novosib          1547.125
        62   02 Jun 2027 09:24:06.634   02 Jun 2027 09:26:22.410           135.776                 Moscow         16972.000
        63   02 Jun 2027 09:26:55.376   02 Jun 2027 09:27:36.503            41.127              Murmansk2          5140.875
        64   02 Jun 2027 09:27:36.503   02 Jun 2027 09:28:44.935            68.432              Murmansk1          8554.000
        65   02 Jun 2027 09:29:32.627   02 Jun 2027 09:29:58.185            25.558              Murmansk2          3194.750
        66   02 Jun 2027 10:52:47.319   02 Jun 2027 10:54:49.022           121.703                 Moscow         15212.875
        67   02 Jun 2027 10:54:51.396   02 Jun 2027 10:55:39.724            48.328              Murmansk2          6041.000
        68   02 Jun 2027 10:55:44.883   02 Jun 2027 10:55:54.527             9.644              Murmansk2          1205.500
        69   02 Jun 2027 10:56:18.668   02 Jun 2027 10:56:37.522            18.854              Murmansk2          2356.750
        70   02 Jun 2027 10:57:11.139   02 Jun 2027 11:04:14.050           422.911              Murmansk2         52863.875
        71   02 Jun 2027 11:09:43.297   02 Jun 2027 11:13:07.347           204.050                Anadyr1         25506.250
        72   02 Jun 2027 12:03:19.482   02 Jun 2027 12:05:27.973           128.491               CapeTown         16061.375
        73   02 Jun 2027 12:05:44.781   02 Jun 2027 12:07:32.223           107.442               CapeTown         13430.250
        74   02 Jun 2027 12:08:25.581   02 Jun 2027 12:08:37.504            11.923               CapeTown          1490.375
        75   02 Jun 2027 12:09:12.211   02 Jun 2027 12:09:45.736            33.525               CapeTown          4190.625
        76   02 Jun 2027 12:10:45.989   02 Jun 2027 12:12:27.405           101.416               CapeTown         12677.000
        77   02 Jun 2027 14:22:23.152   02 Jun 2027 14:26:32.559           249.407               Magadan1         31175.875
        78   02 Jun 2027 14:27:51.189   02 Jun 2027 14:28:06.972            15.783               Magadan1          1972.875
        79   02 Jun 2027 14:28:33.800   02 Jun 2027 14:29:28.107            54.307               Magadan2          6788.375
        80   02 Jun 2027 16:50:44.053   02 Jun 2027 16:54:17.132           213.079            RioGallegos         26634.875
        81   02 Jun 2027 16:55:34.555   02 Jun 2027 16:56:52.304            77.749            RioGallegos          9718.625
        82   02 Jun 2027 17:35:40.841   02 Jun 2027 17:35:50.612             9.771                Norilsk          1221.375
        83   02 Jun 2027 17:41:17.532   02 Jun 2027 17:41:55.501            37.969                Irkutsk          4746.125
        84   02 Jun 2027 17:55:28.887   02 Jun 2027 17:59:31.104           242.217                Sumatra         30277.125
        85   02 Jun 2027 19:22:15.158   02 Jun 2027 19:25:20.637           185.479                  Delhi         23184.875
        86   02 Jun 2027 19:30:26.009   02 Jun 2027 19:31:08.815            42.806                  Delhi          5350.750
        87   02 Jun 2027 20:49:17.720   02 Jun 2027 20:52:06.327           168.607              Murmansk1         21075.875
        88   02 Jun 2027 22:56:34.073   02 Jun 2027 22:59:17.634           163.561               CapeTown         20445.125
        89   03 Jun 2027 04:47:18.630   03 Jun 2027 04:48:19.432            60.802                Novosib          7600.250
        90   03 Jun 2027 04:48:30.081   03 Jun 2027 04:48:46.208            16.127                Norilsk          2015.875
        91   03 Jun 2027 04:50:52.715   03 Jun 2027 04:51:29.276            36.561              Murmansk2          4570.125
        92   03 Jun 2027 04:51:58.109   03 Jun 2027 04:52:01.097             2.988                Norilsk           373.500
        93   03 Jun 2027 04:54:53.465   03 Jun 2027 04:55:09.294            15.829              Murmansk2          1978.625
        94   03 Jun 2027 04:55:25.005   03 Jun 2027 04:56:29.780            64.775              Murmansk2          8096.875
        95   03 Jun 2027 05:26:24.487   03 Jun 2027 05:26:39.141            14.654            RioGallegos          1831.750
        96   03 Jun 2027 05:57:57.418   03 Jun 2027 05:59:15.781            78.363                Sumatra          9795.375
        97   03 Jun 2027 05:59:31.667   03 Jun 2027 06:01:33.950           122.283                Sumatra         15285.375
        98   03 Jun 2027 06:10:32.551   03 Jun 2027 06:12:01.392            88.841                Irkutsk         11105.125
        99   03 Jun 2027 06:12:53.778   03 Jun 2027 06:13:49.476            55.698                Irkutsk          6962.250
       100   03 Jun 2027 06:23:17.451   03 Jun 2027 06:28:22.338           304.887                Norilsk         38110.875
       101   03 Jun 2027 06:28:34.070   03 Jun 2027 06:29:41.308            67.238              Murmansk2          8404.750
       102   03 Jun 2027 06:29:41.308   03 Jun 2027 06:31:00.085            78.777              Murmansk1          9847.125
       103   03 Jun 2027 06:59:21.862   03 Jun 2027 07:06:08.794           406.932            RioGallegos         50866.500
       104   03 Jun 2027 07:33:34.648   03 Jun 2027 07:41:05.181           450.533                Sumatra         56316.625
       105   03 Jun 2027 07:48:07.180   03 Jun 2027 07:48:57.931            50.751                Novosib          6343.875
       106   03 Jun 2027 07:49:20.030   03 Jun 2027 07:54:34.412           314.382                Irkutsk         39297.750
       107   03 Jun 2027 07:59:07.783   03 Jun 2027 08:02:20.459           192.676              Murmansk1         24084.500
       108   03 Jun 2027 08:02:20.459   03 Jun 2027 08:03:00.710            40.251              Murmansk2          5031.375
       109   03 Jun 2027 08:05:39.031   03 Jun 2027 08:06:14.577            35.546              Murmansk2          4443.250
       110   03 Jun 2027 09:18:35.547   03 Jun 2027 09:28:34.069           598.522                  Delhi         74815.250
       111   03 Jun 2027 09:28:48.223   03 Jun 2027 09:30:45.861           117.638                Novosib         14704.750
       112   03 Jun 2027 09:35:02.356   03 Jun 2027 09:35:39.201            36.845                Novosib          4605.625
       113   03 Jun 2027 09:35:51.113   03 Jun 2027 09:40:16.278           265.165                Norilsk         33145.625
       114   03 Jun 2027 11:05:16.335   03 Jun 2027 11:06:18.090            61.755              Murmansk2          7719.375
       115   03 Jun 2027 11:06:39.329   03 Jun 2027 11:07:33.004            53.675              Murmansk1          6709.375
       116   03 Jun 2027 11:08:20.334   03 Jun 2027 11:08:42.659            22.325              Murmansk1          2790.625
       117   03 Jun 2027 11:09:12.343   03 Jun 2027 11:09:37.551            25.208              Murmansk1          3151.000
       118   03 Jun 2027 11:09:49.072   03 Jun 2027 11:09:58.583             9.511              Murmansk1          1188.875
       119   03 Jun 2027 11:10:12.882   03 Jun 2027 11:10:34.559            21.677              Murmansk1          2709.625
       120   03 Jun 2027 11:11:05.997   03 Jun 2027 11:12:24.774            78.777              Murmansk1          9847.125
       121   03 Jun 2027 11:12:34.045   03 Jun 2027 11:14:50.252           136.207                Norilsk         17025.875
       122   03 Jun 2027 11:21:06.785   03 Jun 2027 11:26:21.281           314.496                Anadyr1         39312.000
       123   03 Jun 2027 12:15:26.112   03 Jun 2027 12:17:12.130           106.018               CapeTown         13252.250
       124   03 Jun 2027 12:41:13.894   03 Jun 2027 12:42:58.952           105.058                 Moscow         13132.250
       125   03 Jun 2027 14:34:16.080   03 Jun 2027 14:38:09.877           233.797               Magadan2         29224.625
       126   03 Jun 2027 14:40:53.591   03 Jun 2027 14:41:29.309            35.718               Magadan2          4464.750
       127   03 Jun 2027 17:03:44.710   03 Jun 2027 17:08:50.235           305.525            RioGallegos         38190.625
       128   03 Jun 2027 17:47:31.910   03 Jun 2027 17:48:11.887            39.977                Norilsk          4997.125
       129   03 Jun 2027 18:09:01.342   03 Jun 2027 18:10:27.021            85.679                Sumatra         10709.875
       130   03 Jun 2027 19:35:14.293   03 Jun 2027 19:39:53.494           279.201                  Delhi         34900.125
       131   03 Jun 2027 21:00:24.379   03 Jun 2027 21:00:51.512            27.133              Murmansk1          3391.625
       132   03 Jun 2027 21:01:11.566   03 Jun 2027 21:03:47.893           156.327              Murmansk2         19540.875
       133   03 Jun 2027 21:05:56.824   03 Jun 2027 21:07:06.701            69.877                 Moscow          8734.625
       134   03 Jun 2027 22:35:40.848   03 Jun 2027 22:36:25.280            44.432              Murmansk1          5554.000
       135   03 Jun 2027 23:09:19.382   03 Jun 2027 23:10:23.859            64.477               CapeTown          8059.625
       136   04 Jun 2027 04:59:25.172   04 Jun 2027 05:01:34.641           129.469                Norilsk         16183.625
       137   04 Jun 2027 05:02:42.641   04 Jun 2027 05:03:21.980            39.339              Murmansk2          4917.375
       138   04 Jun 2027 05:03:25.105   04 Jun 2027 05:03:50.277            25.172                Norilsk          3146.500
       139   04 Jun 2027 05:06:46.020   04 Jun 2027 05:07:55.449            69.429              Murmansk2          8678.625
       140   04 Jun 2027 06:09:34.419   04 Jun 2027 06:11:17.899           103.480                Sumatra         12935.000
       141   04 Jun 2027 06:22:37.981   04 Jun 2027 06:25:49.459           191.478                Irkutsk         23934.750
       142   04 Jun 2027 06:26:39.385   04 Jun 2027 06:27:34.425            55.040                Irkutsk          6880.000
       143   04 Jun 2027 06:35:06.481   04 Jun 2027 06:42:53.918           467.437              Murmansk1         58429.625
       144   04 Jun 2027 07:11:52.978   04 Jun 2027 07:19:16.078           443.100            RioGallegos         55387.500
       145   04 Jun 2027 07:46:55.717   04 Jun 2027 07:56:01.816           546.099                Sumatra         68262.375
       146   04 Jun 2027 08:01:40.204   04 Jun 2027 08:06:38.978           298.774                Irkutsk         37346.750
       147   04 Jun 2027 08:11:00.797   04 Jun 2027 08:11:41.169            40.372                Norilsk          5046.500
       148   04 Jun 2027 08:12:10.805   04 Jun 2027 08:12:48.974            38.169                Novosib          4771.125
       149   04 Jun 2027 08:13:04.153   04 Jun 2027 08:14:07.754            63.601              Murmansk2          7950.125
       150   04 Jun 2027 08:14:07.754   04 Jun 2027 08:15:36.115            88.361              Murmansk1         11045.125
       151   04 Jun 2027 08:15:54.459   04 Jun 2027 08:16:23.611            29.152                Norilsk          3644.000
       152   04 Jun 2027 08:17:40.737   04 Jun 2027 08:18:13.224            32.487              Murmansk2          4060.875
       153   04 Jun 2027 09:31:21.900   04 Jun 2027 09:39:57.726           515.826                  Delhi         64478.250
       154   04 Jun 2027 09:40:11.753   04 Jun 2027 09:42:32.296           140.543                Novosib         17567.875
       155   04 Jun 2027 09:47:44.245   04 Jun 2027 09:51:35.240           230.995                Norilsk         28874.375
       156   04 Jun 2027 09:51:35.711   04 Jun 2027 09:54:00.162           144.451              Murmansk1         18056.375
       157   04 Jun 2027 11:17:26.509   04 Jun 2027 11:28:35.603           669.094              Murmansk1         83636.750
       158   04 Jun 2027 11:32:45.949   04 Jun 2027 11:34:27.705           101.756                Anadyr2         12719.500
       159   04 Jun 2027 11:36:12.257   04 Jun 2027 11:36:39.598            27.341                Anadyr1          3417.625
       160   04 Jun 2027 11:38:38.388   04 Jun 2027 11:39:22.906            44.518                Anadyr2          5564.750
       161   04 Jun 2027 12:27:06.756   04 Jun 2027 12:28:37.323            90.567               CapeTown         11320.875
       162   04 Jun 2027 12:32:38.904   04 Jun 2027 12:33:40.494            61.590               CapeTown          7698.750
       163   04 Jun 2027 12:54:15.297   04 Jun 2027 12:57:08.130           172.833                 Moscow         21604.125
       164   04 Jun 2027 14:46:10.774   04 Jun 2027 14:48:16.850           126.076               Magadan1         15759.500
       165   04 Jun 2027 14:51:24.591   04 Jun 2027 14:51:41.566            16.975               Magadan2          2121.875
       166   04 Jun 2027 14:54:53.564   04 Jun 2027 14:55:42.087            48.523               Magadan1          6065.375
       167   04 Jun 2027 17:17:18.785   04 Jun 2027 17:20:11.740           172.955            RioGallegos         21619.375
       168   04 Jun 2027 18:04:07.431   04 Jun 2027 18:07:51.213           223.782                Novosib         27972.750
       169   04 Jun 2027 19:49:27.348   04 Jun 2027 19:51:50.577           143.229                  Delhi         17903.625
       170   04 Jun 2027 21:13:01.984   04 Jun 2027 21:17:11.780           249.796              Murmansk2         31224.500
       171   04 Jun 2027 21:17:37.672   04 Jun 2027 21:20:02.057           144.385                 Moscow         18048.125
       172   04 Jun 2027 21:22:07.753   04 Jun 2027 21:22:34.444            26.691                 Moscow          3336.375
       173   05 Jun 2027 05:11:37.071   05 Jun 2027 05:17:23.770           346.699              Murmansk2         43337.375
       174   05 Jun 2027 05:17:23.770   05 Jun 2027 05:20:07.023           163.253              Murmansk1         20406.625
       175   05 Jun 2027 05:46:08.378   05 Jun 2027 05:49:25.485           197.107            RioGallegos         24638.375
       176   05 Jun 2027 05:50:09.271   05 Jun 2027 05:50:54.078            44.807            RioGallegos          5600.875
       177   05 Jun 2027 06:21:18.675   05 Jun 2027 06:22:57.227            98.552                Sumatra         12319.000
       178   05 Jun 2027 06:24:26.182   05 Jun 2027 06:25:37.075            70.893                Sumatra          8861.625
       179   05 Jun 2027 06:33:18.850   05 Jun 2027 06:33:43.208            24.358                  Delhi          3044.750
       180   05 Jun 2027 06:34:46.860   05 Jun 2027 06:39:13.349           266.489                Irkutsk         33311.125
       181   05 Jun 2027 06:39:42.633   05 Jun 2027 06:40:40.244            57.611                Irkutsk          7201.375
       182   05 Jun 2027 06:47:08.442   05 Jun 2027 06:51:50.884           282.442              Murmansk2         35305.250
       183   05 Jun 2027 06:51:50.884   05 Jun 2027 06:54:48.479           177.595              Murmansk1         22199.375
       184   05 Jun 2027 07:24:30.853   05 Jun 2027 07:33:03.261           512.408            RioGallegos         64051.000
       185   05 Jun 2027 07:58:47.212   05 Jun 2027 08:07:13.691           506.479                Sumatra         63309.875
       186   05 Jun 2027 08:14:37.213   05 Jun 2027 08:19:13.830           276.617                Irkutsk         34577.125
       187   05 Jun 2027 08:22:56.632   05 Jun 2027 08:23:38.971            42.339                 Moscow          5292.375
       188   05 Jun 2027 08:24:20.457   05 Jun 2027 08:24:46.496            26.039                Novosib          3254.875
       189   05 Jun 2027 08:24:49.843   05 Jun 2027 08:28:18.861           209.018              Murmansk2         26127.250
       190   05 Jun 2027 08:29:41.761   05 Jun 2027 08:30:12.298            30.537              Murmansk2          3817.125
       191   05 Jun 2027 09:44:28.180   05 Jun 2027 09:51:03.397           395.217                  Delhi         49402.125
       192   05 Jun 2027 09:58:46.547   05 Jun 2027 09:59:14.182            27.635                 Moscow          3454.375
       193   05 Jun 2027 10:00:05.887   05 Jun 2027 10:06:01.412           355.525              Murmansk1         44440.625
       194   05 Jun 2027 11:05:42.049   05 Jun 2027 11:10:35.241           293.192               CapeTown         36649.000
       195   05 Jun 2027 11:12:22.079   05 Jun 2027 11:12:47.620            25.541               CapeTown          3192.625
       196   05 Jun 2027 11:26:13.698   05 Jun 2027 11:32:07.164           353.466                 Moscow         44183.250
       197   05 Jun 2027 11:32:23.605   05 Jun 2027 11:39:42.915           439.310              Murmansk2         54913.750
       198   05 Jun 2027 11:40:07.644   05 Jun 2027 11:40:54.880            47.236              Murmansk2          5904.500
       199   05 Jun 2027 11:44:32.041   05 Jun 2027 11:48:06.616           214.575                Anadyr1         26821.875
       200   05 Jun 2027 12:39:05.015   05 Jun 2027 12:41:01.318           116.303               CapeTown         14537.875
       201   05 Jun 2027 12:41:27.167   05 Jun 2027 12:41:50.886            23.719               CapeTown          2964.875
       202   05 Jun 2027 12:42:18.049   05 Jun 2027 12:43:47.347            89.298               CapeTown         11162.250
       203   05 Jun 2027 12:47:43.362   05 Jun 2027 12:48:40.164            56.802               CapeTown          7100.250
       204   05 Jun 2027 13:07:41.879   05 Jun 2027 13:08:21.709            39.830                 Moscow          4978.750
       205   05 Jun 2027 13:24:23.990   05 Jun 2027 13:27:20.615           176.625               Magadan2         22078.125
       206   05 Jun 2027 14:59:51.749   05 Jun 2027 14:59:56.800             5.051               Magadan1           631.375
       207   05 Jun 2027 18:15:14.038   05 Jun 2027 18:21:18.798           364.760                Novosib         45595.000
       208   05 Jun 2027 20:02:35.612   05 Jun 2027 20:03:10.454            34.842                  Delhi          4355.250
       209   05 Jun 2027 21:24:46.295   05 Jun 2027 21:29:04.164           257.869              Murmansk2         32233.625
       210   05 Jun 2027 21:29:23.967   05 Jun 2027 21:32:40.970           197.003              Murmansk1         24625.375
       211   05 Jun 2027 21:34:16.883   05 Jun 2027 21:35:39.848            82.965                 Moscow         10370.625
       212   06 Jun 2027 03:45:51.647   06 Jun 2027 03:47:41.574           109.927               Magadan1         13740.875
       213   06 Jun 2027 03:47:41.952   06 Jun 2027 03:52:05.859           263.907              Murmansk1         32988.375
       214   06 Jun 2027 05:23:33.333   06 Jun 2027 05:24:42.287            68.954                Novosib          8619.250
       215   06 Jun 2027 05:24:44.853   06 Jun 2027 05:28:32.358           227.505                Norilsk         28438.125
       216   06 Jun 2027 05:28:38.710   06 Jun 2027 05:31:56.525           197.815              Murmansk2         24726.875
       217   06 Jun 2027 05:58:13.413   06 Jun 2027 06:01:25.498           192.085            RioGallegos         24010.625
       218   06 Jun 2027 06:02:14.284   06 Jun 2027 06:02:32.437            18.153            RioGallegos          2269.125
       219   06 Jun 2027 06:03:05.199   06 Jun 2027 06:03:26.288            21.089            RioGallegos          2636.125
       220   06 Jun 2027 06:05:28.018   06 Jun 2027 06:05:43.540            15.522            RioGallegos          1940.250
       221   06 Jun 2027 06:06:37.935   06 Jun 2027 06:07:29.637            51.702            RioGallegos          6462.750
       222   06 Jun 2027 06:33:09.202   06 Jun 2027 06:33:55.248            46.046                Sumatra          5755.750
       223   06 Jun 2027 06:36:09.753   06 Jun 2027 06:37:47.295            97.542                Sumatra         12192.750
       224   06 Jun 2027 06:40:30.237   06 Jun 2027 06:40:44.412            14.175                Sumatra          1771.875
       225   06 Jun 2027 06:44:15.287   06 Jun 2027 06:45:54.947            99.660                  Delhi         12457.500
       226   06 Jun 2027 06:46:59.370   06 Jun 2027 06:50:40.562           221.192                Irkutsk         27649.000
       227   06 Jun 2027 06:50:56.370   06 Jun 2027 06:50:57.596             1.226                Novosib           153.250
       228   06 Jun 2027 06:51:33.238   06 Jun 2027 06:52:28.907            55.669                Norilsk          6958.625
       229   06 Jun 2027 06:59:03.541   06 Jun 2027 07:01:03.477           119.936                 Moscow         14992.000
       230   06 Jun 2027 07:01:05.950   06 Jun 2027 07:06:43.730           337.780              Murmansk1         42222.500
       231   06 Jun 2027 07:37:17.419   06 Jun 2027 07:45:28.484           491.065            RioGallegos         61383.125
       232   06 Jun 2027 08:11:52.885   06 Jun 2027 08:18:01.704           368.819                Sumatra         46102.375
       233   06 Jun 2027 08:27:11.321   06 Jun 2027 08:27:50.811            39.490                Novosib          4936.250
       234   06 Jun 2027 08:27:54.837   06 Jun 2027 08:31:21.805           206.968                Irkutsk         25871.000
       235   06 Jun 2027 08:34:59.017   06 Jun 2027 08:36:42.826           103.809                Novosib         12976.125
       236   06 Jun 2027 08:36:47.432   06 Jun 2027 08:38:36.140           108.708                Norilsk         13588.500
       237   06 Jun 2027 08:38:53.553   06 Jun 2027 08:40:54.725           121.172              Murmansk1         15146.500
       238   06 Jun 2027 08:41:41.472   06 Jun 2027 08:42:11.764            30.292              Murmansk1          3786.500
       239   06 Jun 2027 09:58:30.124   06 Jun 2027 10:01:15.382           165.258                  Delhi         20657.250
       240   06 Jun 2027 10:11:56.047   06 Jun 2027 10:16:11.800           255.753                Norilsk         31969.125
       241   06 Jun 2027 10:16:35.842   06 Jun 2027 10:18:02.801            86.959              Murmansk2         10869.875
       242   06 Jun 2027 11:16:56.332   06 Jun 2027 11:25:48.249           531.917               CapeTown         66489.625
       243   06 Jun 2027 11:38:33.386   06 Jun 2027 11:48:26.611           593.225                 Moscow         74153.125
       244   06 Jun 2027 11:48:30.168   06 Jun 2027 11:54:00.835           330.667              Murmansk1         41333.375
       245   06 Jun 2027 11:56:22.200   06 Jun 2027 12:04:54.882           512.682                Anadyr2         64085.250
       246   06 Jun 2027 12:51:06.054   06 Jun 2027 12:51:51.833            45.779               CapeTown          5722.375
       247   06 Jun 2027 12:52:41.287   06 Jun 2027 12:54:04.319            83.032               CapeTown         10379.000
       248   06 Jun 2027 13:35:41.970   06 Jun 2027 13:38:22.213           160.243               Magadan2         20030.375
       249   06 Jun 2027 13:38:49.611   06 Jun 2027 13:41:12.441           142.830               Magadan1         17853.750
       250   06 Jun 2027 16:51:58.793   06 Jun 2027 16:56:47.507           288.714                Irkutsk         36089.250
       251   06 Jun 2027 18:26:43.375   06 Jun 2027 18:34:20.580           457.205                Novosib         57150.625
       252   06 Jun 2027 21:36:15.601   06 Jun 2027 21:37:18.502            62.901              Murmansk1          7862.625
       253   06 Jun 2027 21:38:57.228   06 Jun 2027 21:40:59.017           121.789              Murmansk1         15223.625
       254   06 Jun 2027 21:41:03.356   06 Jun 2027 21:43:06.085           122.729                 Moscow         15341.125
       255   06 Jun 2027 21:45:00.763   06 Jun 2027 21:46:22.877            82.114                 Moscow         10264.250
       256   06 Jun 2027 22:08:24.503   06 Jun 2027 22:09:11.662            47.159               CapeTown          5894.875
       257   06 Jun 2027 22:10:12.547   06 Jun 2027 22:12:14.215           121.668               CapeTown         11326.374
       258   07 Jun 2027 03:58:20.377   07 Jun 2027 03:59:08.045            47.668                Anadyr2          5958.500
       259   07 Jun 2027 03:59:10.442   07 Jun 2027 03:59:15.320             4.878                Anadyr1           609.750
       260   07 Jun 2027 03:59:19.641   07 Jun 2027 03:59:40.094            20.453               Magadan1          2556.625
       261   07 Jun 2027 03:59:41.245   07 Jun 2027 04:02:29.685           168.440                Norilsk         21055.000
       262   07 Jun 2027 05:14:31.726   07 Jun 2027 05:15:39.304            67.578                Sumatra          8447.250
       263   07 Jun 2027 05:16:28.880   07 Jun 2027 05:17:29.263            60.383                Sumatra          7547.875
       264   07 Jun 2027 05:35:36.776   07 Jun 2027 05:36:48.340            71.564                Novosib          8945.500
       265   07 Jun 2027 05:36:49.076   07 Jun 2027 05:39:57.459           188.383                Norilsk         23547.875
       266   07 Jun 2027 05:40:01.042   07 Jun 2027 05:43:46.689           225.647              Murmansk2         28205.875
       267   07 Jun 2027 06:10:21.985   07 Jun 2027 06:14:18.426           236.441            RioGallegos         29555.125
       268   07 Jun 2027 06:14:33.836   07 Jun 2027 06:15:21.412            47.576            RioGallegos          5947.000
       269   07 Jun 2027 06:18:23.702   07 Jun 2027 06:19:35.759            72.057            RioGallegos          9007.125
       270   07 Jun 2027 06:45:05.487   07 Jun 2027 06:46:42.551            97.064                Sumatra         12133.000
       271   07 Jun 2027 06:47:54.865   07 Jun 2027 06:48:14.706            19.841                Sumatra          2480.125
       272   07 Jun 2027 06:52:15.191   07 Jun 2027 06:53:05.579            50.388                Sumatra          6298.500
       273   07 Jun 2027 06:54:38.870   07 Jun 2027 06:54:41.060             2.190                Sumatra           273.750
       274   07 Jun 2027 06:55:27.808   07 Jun 2027 06:57:37.944           130.136                  Delhi         16267.000
       275   07 Jun 2027 06:59:15.771   07 Jun 2027 07:02:35.811           200.040                Irkutsk         25005.000
       276   07 Jun 2027 07:02:54.467   07 Jun 2027 07:03:50.208            55.741                Novosib          6967.625
       277   07 Jun 2027 07:11:01.218   07 Jun 2027 07:13:03.330           122.112                Novosib         15264.000
       278   07 Jun 2027 07:13:04.583   07 Jun 2027 07:18:39.642           335.059              Murmansk2         41882.375
       279   07 Jun 2027 07:50:16.551   07 Jun 2027 07:56:56.919           400.368            RioGallegos         50046.000
       280   07 Jun 2027 08:29:42.161   07 Jun 2027 08:29:58.634            16.473                  Delhi          2059.125
       281   07 Jun 2027 08:30:59.247   07 Jun 2027 08:32:25.475            86.228                  Delhi         10778.500
       282   07 Jun 2027 08:37:07.173   07 Jun 2027 08:37:25.531            18.358                Novosib          2294.750
       283   07 Jun 2027 08:39:07.386   07 Jun 2027 08:42:59.677           232.291                Novosib         29036.375
       284   07 Jun 2027 08:47:11.312   07 Jun 2027 08:50:23.497           192.185                 Moscow         24023.125
       285   07 Jun 2027 08:50:49.959   07 Jun 2027 08:52:03.021            73.062              Murmansk1          9132.750
       286   07 Jun 2027 08:52:03.021   07 Jun 2027 08:54:11.582           128.561              Murmansk2         16070.125
       287   07 Jun 2027 10:22:35.715   07 Jun 2027 10:28:07.826           332.111                Norilsk         41513.875
       288   07 Jun 2027 10:28:33.451   07 Jun 2027 10:30:04.297            90.846              Murmansk2         11355.750
       289   07 Jun 2027 11:28:24.963   07 Jun 2027 11:37:40.860           555.897               CapeTown         69487.125
       290   07 Jun 2027 11:50:57.227   07 Jun 2027 12:00:54.144           596.917                 Moscow         74614.625
       291   07 Jun 2027 12:00:57.105   07 Jun 2027 12:06:02.147           305.042              Murmansk2         38130.250
       292   07 Jun 2027 12:08:15.055   07 Jun 2027 12:17:32.519           557.464                Anadyr1         69683.000
       293   07 Jun 2027 13:03:09.816   07 Jun 2027 13:04:24.898            75.082               CapeTown          9385.250
       294   07 Jun 2027 13:47:16.858   07 Jun 2027 13:51:01.379           224.521               Magadan2         28065.125
       295   07 Jun 2027 13:51:26.451   07 Jun 2027 13:53:24.178           117.727               Magadan1         14715.875
       296   07 Jun 2027 17:03:13.981   07 Jun 2027 17:10:11.866           417.885                Irkutsk         52235.625
       297   07 Jun 2027 17:19:18.567   07 Jun 2027 17:20:40.340            81.773                Sumatra         10221.625
       298   07 Jun 2027 17:21:56.146   07 Jun 2027 17:24:21.971           145.825                Sumatra         18228.125
       299   07 Jun 2027 18:38:53.985   07 Jun 2027 18:40:02.760            68.775                Novosib          8596.875
       300   07 Jun 2027 18:41:35.440   07 Jun 2027 18:42:11.186            35.746                Novosib          4468.250
       301   07 Jun 2027 18:43:35.843   07 Jun 2027 18:44:52.976            77.133                Novosib          9641.625
       302   07 Jun 2027 21:47:51.288   07 Jun 2027 21:49:35.244           103.956              Murmansk2         12994.500
       303   07 Jun 2027 21:51:37.260   07 Jun 2027 21:53:43.596           126.336              Murmansk2         15792.000
       304   07 Jun 2027 21:53:51.720   07 Jun 2027 21:55:06.942            75.222                 Moscow          9402.750
       305   07 Jun 2027 21:58:25.873   07 Jun 2027 22:00:00.781            94.908                 Moscow         11863.500
       306   07 Jun 2027 22:20:37.757   07 Jun 2027 22:21:39.595            61.838               CapeTown          1691.624
       307   08 Jun 2027 04:10:21.488   08 Jun 2027 04:10:52.566            31.078                Anadyr1          3884.750
       308   08 Jun 2027 04:11:40.243   08 Jun 2027 04:16:51.292           311.049                Norilsk         38881.125
       309   08 Jun 2027 04:17:01.564   08 Jun 2027 04:20:59.711           238.147              Murmansk1         29768.375
       310   08 Jun 2027 05:24:31.988   08 Jun 2027 05:25:50.417            78.429                Sumatra          9803.625
       311   08 Jun 2027 05:47:43.396   08 Jun 2027 05:55:37.561           474.165              Murmansk1         59270.625
       312   08 Jun 2027 06:22:34.285   08 Jun 2027 06:28:17.007           342.722            RioGallegos         42840.250
       313   08 Jun 2027 06:29:29.238   08 Jun 2027 06:30:39.868            70.630            RioGallegos          8828.750
       314   08 Jun 2027 06:31:40.945   08 Jun 2027 06:32:08.316            27.371            RioGallegos          3421.375
       315   08 Jun 2027 06:57:07.345   08 Jun 2027 06:59:56.171           168.826                Sumatra         21103.250
       316   08 Jun 2027 07:06:28.560   08 Jun 2027 07:06:47.446            18.886                Sumatra          2360.750
       317   08 Jun 2027 07:06:50.995   08 Jun 2027 07:07:41.501            50.506                  Delhi          6313.250
       318   08 Jun 2027 07:08:08.540   08 Jun 2027 07:08:28.143            19.603                  Delhi          2450.375
       319   08 Jun 2027 07:10:38.442   08 Jun 2027 07:11:20.462            42.020                  Delhi          5252.500
       320   08 Jun 2027 07:11:36.424   08 Jun 2027 07:17:02.490           326.066                Irkutsk         40758.250
       321   08 Jun 2027 07:23:35.076   08 Jun 2027 07:25:40.529           125.453                 Moscow         15681.625
       322   08 Jun 2027 07:26:00.592   08 Jun 2027 07:28:30.807           150.215                Norilsk         18776.875
       323   08 Jun 2027 07:28:37.603   08 Jun 2027 07:30:36.186           118.583              Murmansk1         14822.875
       324   08 Jun 2027 08:03:39.377   08 Jun 2027 08:08:04.766           265.389            RioGallegos         33173.625
       325   08 Jun 2027 08:41:33.341   08 Jun 2027 08:47:36.583           363.242                  Delhi         45405.250
       326   08 Jun 2027 08:49:41.973   08 Jun 2027 08:50:00.135            18.162                  Delhi          2270.250
       327   08 Jun 2027 08:51:01.972   08 Jun 2027 08:53:52.428           170.456                Novosib         21307.000
       328   08 Jun 2027 08:59:07.911   08 Jun 2027 09:00:30.882            82.971                Novosib         10371.375
       329   08 Jun 2027 09:00:43.130   08 Jun 2027 09:03:53.699           190.569              Murmansk2         23821.125
       330   08 Jun 2027 09:03:53.699   08 Jun 2027 09:06:11.718           138.019              Murmansk1         17252.375
       331   08 Jun 2027 10:25:42.061   08 Jun 2027 10:26:20.222            38.161                 Moscow          4770.125
       332   08 Jun 2027 10:30:11.379   08 Jun 2027 10:30:58.553            47.174              Murmansk1          5896.750
       333   08 Jun 2027 10:34:19.486   08 Jun 2027 10:42:05.875           466.389              Murmansk2         58298.625
       334   08 Jun 2027 11:40:02.316   08 Jun 2027 11:51:05.291           662.975               CapeTown         82871.875
       335   08 Jun 2027 12:03:25.748   08 Jun 2027 12:13:26.912           601.164                 Moscow         75145.500
       336   08 Jun 2027 12:13:30.867   08 Jun 2027 12:13:54.666            23.799                 Moscow          2974.875
       337   08 Jun 2027 12:14:27.273   08 Jun 2027 12:18:03.262           215.989              Murmansk1         26998.625
       338   08 Jun 2027 12:20:09.835   08 Jun 2027 12:24:09.156           239.321                Anadyr2         29915.125
       339   08 Jun 2027 12:24:28.056   08 Jun 2027 12:26:09.620           101.564                Anadyr2         12695.500
       340   08 Jun 2027 12:29:00.491   08 Jun 2027 12:29:00.983             0.492                Anadyr2            61.500
       341   08 Jun 2027 13:58:59.596   08 Jun 2027 14:03:58.137           298.541               Magadan1         37317.625
       342   08 Jun 2027 16:28:20.159   08 Jun 2027 16:30:56.151           155.992            RioGallegos         19499.000
       343   08 Jun 2027 17:14:45.638   08 Jun 2027 17:18:22.834           217.196                Irkutsk         27149.500
       344   08 Jun 2027 17:20:59.842   08 Jun 2027 17:21:48.898            49.056                Irkutsk          6132.000
       345   08 Jun 2027 17:29:56.474   08 Jun 2027 17:32:16.991           140.517                Sumatra         17564.625
       346   08 Jun 2027 17:34:07.938   08 Jun 2027 17:36:19.068           131.130                Sumatra         16391.250
       347   08 Jun 2027 18:52:37.730   08 Jun 2027 18:54:05.507            87.777                Novosib         10972.125
       348   08 Jun 2027 19:00:45.063   08 Jun 2027 19:02:11.091            86.028                  Delhi         10753.500
       349   08 Jun 2027 19:02:47.965   08 Jun 2027 19:04:06.095            78.130                  Delhi          9766.250
       350   08 Jun 2027 20:25:41.735   08 Jun 2027 20:27:59.206           137.471              Murmansk2         17183.875
       351   08 Jun 2027 22:03:28.696   08 Jun 2027 22:05:20.280           111.584                 Moscow         11300.125
       352   09 Jun 2027 04:23:39.632   09 Jun 2027 04:28:49.565           309.933                Norilsk         38741.625
       353   09 Jun 2027 04:29:13.775   09 Jun 2027 04:31:48.225           154.450              Murmansk2         19306.250
       354   09 Jun 2027 05:35:27.736   09 Jun 2027 05:38:08.135           160.399                Sumatra         20049.875
       355   09 Jun 2027 05:59:21.895   09 Jun 2027 06:04:34.489           312.594                Norilsk         39074.250
       356   09 Jun 2027 06:04:41.282   09 Jun 2027 06:07:29.167           167.885              Murmansk1         20985.625
       357   09 Jun 2027 06:34:50.583   09 Jun 2027 06:40:36.148           345.565            RioGallegos         43195.625
       358   09 Jun 2027 07:09:14.903   09 Jun 2027 07:12:07.783           172.880                Sumatra         21610.000
       359   09 Jun 2027 07:14:20.823   09 Jun 2027 07:15:03.749            42.926                Sumatra          5365.750
       360   09 Jun 2027 07:21:59.160   09 Jun 2027 07:22:59.296            60.136                  Delhi          7517.000
       361   09 Jun 2027 07:24:01.812   09 Jun 2027 07:30:42.796           400.984                Irkutsk         50123.000
       362   09 Jun 2027 07:35:22.961   09 Jun 2027 07:37:05.556           102.595                Novosib         12824.375
       363   09 Jun 2027 07:37:20.810   09 Jun 2027 07:40:54.534           213.724              Murmansk2         26715.500
       364   09 Jun 2027 07:41:27.875   09 Jun 2027 07:41:50.819            22.944              Murmansk2          2868.000
       365   09 Jun 2027 07:41:50.819   09 Jun 2027 07:42:33.312            42.493              Murmansk1          5311.625
       366   09 Jun 2027 08:53:51.224   09 Jun 2027 08:57:19.025           207.801                  Delhi         25975.125
       367   09 Jun 2027 08:58:06.059   09 Jun 2027 09:00:30.552           144.493                  Delhi         18061.625
       368   09 Jun 2027 09:02:54.712   09 Jun 2027 09:06:25.726           211.014                Novosib         26376.750
       369   09 Jun 2027 09:11:03.103   09 Jun 2027 09:15:49.192           286.089              Murmansk1         35761.125
       370   09 Jun 2027 09:15:49.192   09 Jun 2027 09:16:45.471            56.279              Murmansk2          7034.875
       371   09 Jun 2027 09:17:05.008   09 Jun 2027 09:18:12.135            67.127              Murmansk2          8390.875
       372   09 Jun 2027 10:46:04.390   09 Jun 2027 10:50:36.502           272.112                 Moscow         34014.000
       373   09 Jun 2027 10:50:40.190   09 Jun 2027 10:51:52.172            71.982                Norilsk          8997.750
       374   09 Jun 2027 10:52:30.190   09 Jun 2027 10:54:07.510            97.320              Murmansk2         12165.000
       375   09 Jun 2027 11:53:14.506   09 Jun 2027 12:03:30.056           615.550               CapeTown         76943.750
       376   09 Jun 2027 12:15:59.685   09 Jun 2027 12:21:45.169           345.484                 Moscow         43185.500
       377   09 Jun 2027 12:32:06.040   09 Jun 2027 12:34:15.893           129.853                Anadyr2         16231.625
       378   09 Jun 2027 14:10:47.040   09 Jun 2027 14:16:25.391           338.351               Magadan1         42293.875
       379   09 Jun 2027 16:39:29.403   09 Jun 2027 16:42:42.173           192.770            RioGallegos         24096.250
       380   09 Jun 2027 17:28:08.048   09 Jun 2027 17:30:15.486           127.438                Irkutsk         15929.750
       381   09 Jun 2027 17:32:08.950   09 Jun 2027 17:32:46.745            37.795                Irkutsk          4724.375
       382   09 Jun 2027 17:41:03.803   09 Jun 2027 17:44:25.425           201.622                Sumatra         25202.750
       383   09 Jun 2027 17:45:45.162   09 Jun 2027 17:48:26.450           161.288                Sumatra         20161.000
       384   09 Jun 2027 19:11:18.465   09 Jun 2027 19:13:03.626           105.161                  Delhi         13145.125
       385   09 Jun 2027 20:37:39.213   09 Jun 2027 20:39:02.365            83.152              Murmansk2         10394.000
       386   09 Jun 2027 22:15:19.576   09 Jun 2027 22:17:09.155           109.579                 Moscow         13697.375
       387   09 Jun 2027 22:43:22.042   09 Jun 2027 22:43:50.226            28.184               CapeTown          3523.000
       388   09 Jun 2027 22:46:10.830   09 Jun 2027 22:47:53.154           102.324               CapeTown          9277.000
       389   10 Jun 2027 04:35:18.990   10 Jun 2027 04:35:22.760             3.770                Irkutsk           471.250
       390   10 Jun 2027 04:35:30.464   10 Jun 2027 04:36:24.266            53.802                Novosib          6725.250
       391   10 Jun 2027 04:36:28.479   10 Jun 2027 04:40:14.795           226.316                Norilsk         28289.500
       392   10 Jun 2027 04:40:36.129   10 Jun 2027 04:40:48.650            12.521              Murmansk1          1565.125
       393   10 Jun 2027 05:46:43.576   10 Jun 2027 05:49:55.343           191.767                Sumatra         23970.875
       394   10 Jun 2027 06:11:32.063   10 Jun 2027 06:16:35.639           303.576                Norilsk         37947.000
       395   10 Jun 2027 06:16:50.926   10 Jun 2027 06:19:16.341           145.415              Murmansk2         18176.875
       396   10 Jun 2027 06:19:16.341   10 Jun 2027 06:19:21.523             5.182              Murmansk1           647.750
       397   10 Jun 2027 06:47:11.258   10 Jun 2027 06:51:50.770           279.512            RioGallegos         34939.000
       398   10 Jun 2027 07:21:28.643   10 Jun 2027 07:27:54.896           386.253                Sumatra         48281.625
       399   10 Jun 2027 07:36:15.267   10 Jun 2027 07:37:20.228            64.961                Novosib          8120.125
       400   10 Jun 2027 07:37:22.116   10 Jun 2027 07:41:34.704           252.588                Irkutsk         31573.500
       401   10 Jun 2027 07:46:05.248   10 Jun 2027 07:47:25.387            80.139                Norilsk         10017.375
       402   10 Jun 2027 07:47:35.170   10 Jun 2027 07:51:18.816           223.646              Murmansk2         27955.750
       403   10 Jun 2027 07:51:55.588   10 Jun 2027 07:52:34.580            38.992                Norilsk          4874.000
       404   10 Jun 2027 07:53:52.819   10 Jun 2027 07:54:30.988            38.169              Murmansk2          4771.125
       405   10 Jun 2027 09:06:16.413   10 Jun 2027 09:09:37.982           201.569                  Delhi         25196.125
       406   10 Jun 2027 09:10:32.169   10 Jun 2027 09:13:52.539           200.370                  Delhi         25046.250
       407   10 Jun 2027 09:14:45.092   10 Jun 2027 09:18:04.032           198.940                Novosib         24867.500
       408   10 Jun 2027 09:23:45.834   10 Jun 2027 09:26:41.939           176.105                Norilsk         22013.125
       409   10 Jun 2027 09:27:11.184   10 Jun 2027 09:27:52.548            41.364              Murmansk2          5170.500
       410   10 Jun 2027 09:27:58.073   10 Jun 2027 09:28:30.868            32.795                Norilsk          4099.375
       411   10 Jun 2027 09:29:47.361   10 Jun 2027 09:30:12.813            25.452              Murmansk1          3181.500
       412   10 Jun 2027 10:53:22.651   10 Jun 2027 10:55:06.608           103.957              Murmansk1         12994.625
       413   10 Jun 2027 10:55:30.066   10 Jun 2027 10:55:54.564            24.498              Murmansk1          3062.250
       414   10 Jun 2027 10:56:33.304   10 Jun 2027 10:56:54.935            21.631              Murmansk1          2703.875
       415   10 Jun 2027 10:57:25.875   10 Jun 2027 11:02:57.637           331.762              Murmansk2         41470.250
       416   10 Jun 2027 11:02:57.637   10 Jun 2027 11:03:03.767             6.130              Murmansk1           766.250
       417   10 Jun 2027 11:03:08.571   10 Jun 2027 11:03:36.439            27.868                Norilsk          3483.500
       418   10 Jun 2027 11:09:57.301   10 Jun 2027 11:13:08.843           191.542                Anadyr2         23942.750
       419   10 Jun 2027 12:03:33.987   10 Jun 2027 12:05:42.494           128.507               CapeTown         16063.375
       420   10 Jun 2027 12:06:53.363   10 Jun 2027 12:07:46.874            53.511               CapeTown          6688.875
       421   10 Jun 2027 12:12:42.283   10 Jun 2027 12:13:01.873            19.590               CapeTown          2448.750
       422   10 Jun 2027 12:28:40.168   10 Jun 2027 12:31:12.717           152.549                 Moscow         19068.625
       423   10 Jun 2027 12:45:06.497   10 Jun 2027 12:46:27.531            81.034                Anadyr2         10129.250
       424   10 Jun 2027 14:22:37.676   10 Jun 2027 14:26:06.436           208.760               Magadan1         26095.000
       425   10 Jun 2027 14:26:06.436   10 Jun 2027 14:26:23.423            16.987               Magadan2          2123.375
       426   10 Jun 2027 14:28:08.682   10 Jun 2027 14:28:21.419            12.737               Magadan1          1592.125
       427   10 Jun 2027 14:29:42.973   10 Jun 2027 14:31:16.081            93.108               Magadan2         11638.500
       428   10 Jun 2027 16:50:58.370   10 Jun 2027 16:54:31.656           213.286            RioGallegos         26660.750
       429   10 Jun 2027 16:57:07.174   10 Jun 2027 16:58:19.021            71.847            RioGallegos          8980.875
       430   10 Jun 2027 17:41:33.039   10 Jun 2027 17:42:10.082            37.043                Irkutsk          4630.375
       431   10 Jun 2027 17:55:45.296   10 Jun 2027 17:58:51.130           185.834                Sumatra         23229.250
       432   10 Jun 2027 19:22:29.300   10 Jun 2027 19:25:35.119           185.819                  Delhi         23227.375
       433   10 Jun 2027 19:29:49.602   10 Jun 2027 19:30:40.031            50.429                  Delhi          6303.625
       434   10 Jun 2027 20:48:08.059   10 Jun 2027 20:52:01.353           233.294              Murmansk2         29161.750
       435   10 Jun 2027 22:56:49.452   10 Jun 2027 22:57:53.771            64.319               CapeTown          8039.875
       436   11 Jun 2027 04:47:32.667   11 Jun 2027 04:48:34.165            61.498                Novosib          7687.250
       437   11 Jun 2027 04:48:45.227   11 Jun 2027 04:50:30.269           105.042                Norilsk         13130.250
       438   11 Jun 2027 04:51:07.223   11 Jun 2027 04:51:43.829            36.606              Murmansk1          4575.750
       439   11 Jun 2027 04:55:08.057   11 Jun 2027 04:55:22.371            14.314              Murmansk1          1789.250
       440   11 Jun 2027 04:55:39.514   11 Jun 2027 04:56:44.258            64.744              Murmansk1          8093.000
       441   11 Jun 2027 05:58:11.712   11 Jun 2027 05:59:30.762            79.050                Sumatra          9881.250
       442   11 Jun 2027 06:10:47.213   11 Jun 2027 06:14:04.098           196.885                Irkutsk         24610.625
       443   11 Jun 2027 06:14:49.137   11 Jun 2027 06:15:28.719            39.582                Novosib          4947.750
       444   11 Jun 2027 06:15:29.182   11 Jun 2027 06:15:48.072            18.890                Irkutsk          2361.250
       445   11 Jun 2027 06:23:32.759   11 Jun 2027 06:28:14.282           281.523                Norilsk         35190.375
       446   11 Jun 2027 06:28:16.216   11 Jun 2027 06:31:14.627           178.411              Murmansk2         22301.375
       447   11 Jun 2027 06:59:36.818   11 Jun 2027 07:06:24.159           407.341            RioGallegos         50917.625
       448   11 Jun 2027 07:33:49.564   11 Jun 2027 07:41:21.386           451.822                Sumatra         56477.750
       449   11 Jun 2027 07:48:21.895   11 Jun 2027 07:49:16.963            55.068                Novosib          6883.500
       450   11 Jun 2027 07:49:36.099   11 Jun 2027 07:54:48.963           312.864                Irkutsk         39108.000
       451   11 Jun 2027 07:59:15.835   11 Jun 2027 08:03:17.467           241.632              Murmansk1         30204.000
       452   11 Jun 2027 08:05:54.052   11 Jun 2027 08:06:29.177            35.125              Murmansk1          4390.625
       453   11 Jun 2027 09:18:50.639   11 Jun 2027 09:19:35.246            44.607                  Delhi          5575.875
       454   11 Jun 2027 09:20:51.004   11 Jun 2027 09:28:48.317           477.313                  Delhi         59664.125
       455   11 Jun 2027 09:29:04.952   11 Jun 2027 09:31:00.883           115.931                Novosib         14491.375
       456   11 Jun 2027 09:35:15.302   11 Jun 2027 09:36:42.085            86.783              Murmansk2         10847.875
       457   11 Jun 2027 09:36:47.767   11 Jun 2027 09:40:30.887           223.120                Norilsk         27890.000
       458   11 Jun 2027 09:41:49.023   11 Jun 2027 09:42:13.704            24.681              Murmansk1          3085.125
       459   11 Jun 2027 11:05:31.064   11 Jun 2027 11:07:47.868           136.804              Murmansk2         17100.500
       460   11 Jun 2027 11:07:47.868   11 Jun 2027 11:08:34.970            47.102              Murmansk1          5887.750
       461   11 Jun 2027 11:08:49.396   11 Jun 2027 11:08:58.274             8.878              Murmansk1          1109.750
       462   11 Jun 2027 11:09:27.079   11 Jun 2027 11:09:53.130            26.051              Murmansk1          3256.375
       463   11 Jun 2027 11:09:57.217   11 Jun 2027 11:10:05.822             8.605              Murmansk1          1075.625
       464   11 Jun 2027 11:10:13.678   11 Jun 2027 11:10:27.589            13.911              Murmansk1          1738.875
       465   11 Jun 2027 11:10:49.565   11 Jun 2027 11:11:22.029            32.464              Murmansk1          4058.000
       466   11 Jun 2027 11:12:22.323   11 Jun 2027 11:13:07.556            45.233              Murmansk1          5654.125
       467   11 Jun 2027 11:13:07.556   11 Jun 2027 11:15:41.126           153.570              Murmansk2         19196.250
       468   11 Jun 2027 11:16:19.731   11 Jun 2027 11:16:25.799             6.068              Murmansk2           758.500
       469   11 Jun 2027 11:21:21.102   11 Jun 2027 11:25:00.362           219.260                Anadyr2         27407.500
       470   11 Jun 2027 12:15:26.010   11 Jun 2027 12:17:26.579           120.569               CapeTown         15071.125
       471   11 Jun 2027 12:41:29.167   11 Jun 2027 12:44:16.232           167.065                 Moscow         20883.125
       472   11 Jun 2027 14:34:30.628   11 Jun 2027 14:37:04.379           153.751               Magadan2         19218.875
       473   11 Jun 2027 14:38:57.124   11 Jun 2027 14:40:06.854            69.730               Magadan1          8716.250
       474   11 Jun 2027 14:43:16.183   11 Jun 2027 14:44:00.820            44.637               Magadan2          5579.625
       475   11 Jun 2027 17:04:00.939   11 Jun 2027 17:09:04.283           303.344            RioGallegos         37918.000
       476   11 Jun 2027 17:47:48.634   11 Jun 2027 17:48:27.014            38.380                Norilsk          4797.500
       477   11 Jun 2027 18:09:16.820   11 Jun 2027 18:10:41.010            84.190                Sumatra         10523.750
       478   11 Jun 2027 19:35:32.274   11 Jun 2027 19:39:27.856           235.582                  Delhi         29447.750
       479   11 Jun 2027 21:00:39.804   11 Jun 2027 21:01:16.158            36.354              Murmansk2          4544.250
       480   11 Jun 2027 21:01:28.681   11 Jun 2027 21:04:19.614           170.933              Murmansk1         21366.625
       481   11 Jun 2027 21:04:37.114   11 Jun 2027 21:05:37.832            60.718              Murmansk2          7589.750
       482   11 Jun 2027 21:06:10.221   11 Jun 2027 21:07:21.963            71.742                 Moscow          8967.750
