uniorb/output/strategy_4/Drop/Drop_KinoSat_111304.txt

KinoSat_111304
-------------------------
    Access    *     Start Time (UTCG)     *     Stop Time (UTCG)  *   Duration (s)        *       Station  *  Data (Mbytes)
         1   01 Jun 2027 03:39:36.291   01 Jun 2027 03:39:58.252            21.961                Norilsk           686.281
         2   01 Jun 2027 03:40:01.272   01 Jun 2027 03:40:32.438            31.166                Norilsk           973.938
         3   01 Jun 2027 03:40:34.239   01 Jun 2027 03:40:58.388            24.149              Murmansk2           754.656
         4   01 Jun 2027 03:41:00.033   01 Jun 2027 03:41:21.888            21.855              Murmansk2           682.969
         5   01 Jun 2027 03:41:23.210   01 Jun 2027 03:42:12.838            49.628              Murmansk2          1550.875
         6   01 Jun 2027 03:42:56.816   01 Jun 2027 03:43:02.225             5.409              Murmansk1           169.031
         7   01 Jun 2027 03:43:26.955   01 Jun 2027 03:44:00.331            33.376              Murmansk2          1043.000
         8   01 Jun 2027 05:02:05.779   01 Jun 2027 05:03:54.219           108.440               Magadan1          3388.750
         9   01 Jun 2027 05:04:18.701   01 Jun 2027 05:04:52.072            33.371                Anadyr2          1042.844
        10   01 Jun 2027 05:05:24.301   01 Jun 2027 05:06:09.064            44.763                Anadyr1          1398.844
        11   01 Jun 2027 06:39:18.686   01 Jun 2027 06:42:25.476           186.790                Anadyr2          5837.187
        12   01 Jun 2027 06:42:47.786   01 Jun 2027 06:42:50.744             2.958               Magadan2            92.437
        13   01 Jun 2027 07:21:56.469   01 Jun 2027 07:23:04.852            68.383            RioGallegos          2136.969
        14   01 Jun 2027 08:13:17.708   01 Jun 2027 08:19:26.705           368.997               Magadan2         11531.156
        15   01 Jun 2027 08:19:35.007   01 Jun 2027 08:19:57.644            22.637              Murmansk1           707.406
        16   01 Jun 2027 08:23:35.318   01 Jun 2027 08:24:33.005            57.687              Murmansk2          1802.719
        17   01 Jun 2027 08:55:00.272   01 Jun 2027 08:55:04.653             4.381            RioGallegos           136.906
        18   01 Jun 2027 08:55:56.055   01 Jun 2027 08:56:24.272            28.217            RioGallegos           881.781
        19   01 Jun 2027 09:31:18.572   01 Jun 2027 09:31:57.951            39.379                Sumatra          1230.594
        20   01 Jun 2027 09:35:18.025   01 Jun 2027 09:35:25.853             7.828                Sumatra           244.625
        21   01 Jun 2027 09:50:35.220   01 Jun 2027 09:52:38.746           123.526               Magadan1          3860.187
        22   01 Jun 2027 09:53:10.527   01 Jun 2027 09:53:26.620            16.093              Murmansk1           502.906
        23   01 Jun 2027 09:53:32.392   01 Jun 2027 09:55:16.842           104.450                Irkutsk          3264.062
        24   01 Jun 2027 09:55:31.496   01 Jun 2027 09:55:39.814             8.318                Novosib           259.937
        25   01 Jun 2027 10:30:41.882   01 Jun 2027 10:32:10.731            88.849            RioGallegos          2776.531
        26   01 Jun 2027 11:05:06.538   01 Jun 2027 11:07:19.203           132.665                Sumatra          4145.781
        27   01 Jun 2027 11:27:25.219   01 Jun 2027 11:30:51.051           205.832                Irkutsk          6432.250
        28   01 Jun 2027 11:31:11.089   01 Jun 2027 11:31:55.397            44.308                Novosib          1384.625
        29   01 Jun 2027 12:49:42.770   01 Jun 2027 12:50:32.370            49.600                  Delhi          1550.000
        30   01 Jun 2027 12:54:29.068   01 Jun 2027 12:54:43.885            14.817                  Delhi           463.031
        31   01 Jun 2027 12:57:52.543   01 Jun 2027 12:58:33.321            40.778                Novosib          1274.313
        32   01 Jun 2027 12:59:38.849   01 Jun 2027 13:02:02.875           144.026                Novosib          4500.813
        33   01 Jun 2027 13:02:47.657   01 Jun 2027 13:04:29.106           101.449                Norilsk          3170.281
        34   01 Jun 2027 14:33:36.516   01 Jun 2027 14:37:40.624           244.108                 Moscow          7628.375
        35   01 Jun 2027 14:38:27.269   01 Jun 2027 14:40:14.618           107.349              Murmansk2          3354.656
        36   01 Jun 2027 14:40:23.352   01 Jun 2027 14:40:29.075             5.723              Murmansk1           178.844
        37   01 Jun 2027 14:42:23.971   01 Jun 2027 14:42:54.788            30.817                Norilsk           963.031
        38   01 Jun 2027 14:43:06.608   01 Jun 2027 14:44:21.188            74.580                Norilsk          2330.625
        39   01 Jun 2027 14:46:38.992   01 Jun 2027 14:46:47.723             8.731                Norilsk           272.844
        40   01 Jun 2027 15:47:36.624   01 Jun 2027 15:49:28.142           111.518               CapeTown          3484.937
        41   01 Jun 2027 15:49:34.090   01 Jun 2027 15:50:59.332            85.242               CapeTown          2663.812
        42   01 Jun 2027 16:11:50.668   01 Jun 2027 16:12:17.290            26.622                 Moscow           831.938
        43   01 Jun 2027 16:14:37.463   01 Jun 2027 16:15:35.479            58.016              Murmansk1          1813.000
        44   01 Jun 2027 16:18:04.932   01 Jun 2027 16:18:26.557            21.625              Murmansk2           675.781
        45   01 Jun 2027 16:23:52.716   01 Jun 2027 16:24:16.849            24.133              Murmansk2           754.156
        46   01 Jun 2027 16:27:56.396   01 Jun 2027 16:29:39.975           103.579                Anadyr2          3236.844
        47   01 Jun 2027 16:29:57.067   01 Jun 2027 16:30:44.025            46.958                Anadyr1          1467.438
        48   01 Jun 2027 17:23:17.982   01 Jun 2027 17:25:07.007           109.025               CapeTown          3407.031
        49   01 Jun 2027 17:32:51.827   01 Jun 2027 17:33:02.752            10.925               CapeTown           341.406
        50   01 Jun 2027 17:34:36.468   01 Jun 2027 17:34:42.536             6.068               CapeTown           189.625
        51   01 Jun 2027 17:54:37.008   01 Jun 2027 17:59:22.963           285.955              Murmansk2          8936.094
        52   01 Jun 2027 18:00:04.431   01 Jun 2027 18:00:59.970            55.539              Murmansk1          1735.594
        53   01 Jun 2027 18:06:37.053   01 Jun 2027 18:08:00.486            83.433               Magadan1          2607.281
        54   01 Jun 2027 18:15:54.356   01 Jun 2027 18:16:03.423             9.067               Magadan2           283.344
        55   01 Jun 2027 19:39:33.884   01 Jun 2027 19:43:20.632           226.748                Anadyr1          7085.875
        56   01 Jun 2027 19:43:23.687   01 Jun 2027 19:43:31.334             7.647                Anadyr2           238.969
        57   01 Jun 2027 19:43:44.027   01 Jun 2027 19:46:02.006           137.979                Anadyr2          4311.844
        58   01 Jun 2027 19:46:36.741   01 Jun 2027 19:46:53.974            17.233               Magadan1           538.531
        59   01 Jun 2027 19:47:29.312   01 Jun 2027 19:48:55.596            86.284               Magadan1          2696.375
        60   01 Jun 2027 20:35:18.439   01 Jun 2027 20:38:04.403           165.964            RioGallegos          5186.375
        61   01 Jun 2027 20:40:52.585   01 Jun 2027 20:41:23.373            30.788            RioGallegos           962.125
        62   01 Jun 2027 20:41:49.309   01 Jun 2027 20:42:07.679            18.370            RioGallegos           574.063
        63   01 Jun 2027 21:16:30.003   01 Jun 2027 21:17:40.247            70.244                Anadyr1          2195.125
        64   01 Jun 2027 21:17:48.142   01 Jun 2027 21:19:09.124            80.982               Magadan1          2530.688
        65   01 Jun 2027 21:19:09.124   01 Jun 2027 21:20:23.553            74.429               Magadan2          2325.906
        66   01 Jun 2027 21:20:26.932   01 Jun 2027 21:21:11.131            44.199                Norilsk          1381.219
        67   01 Jun 2027 21:22:15.690   01 Jun 2027 21:24:52.997           157.307                Irkutsk          4915.844
        68   01 Jun 2027 21:40:02.954   01 Jun 2027 21:41:30.132            87.178                Sumatra          2724.312
        69   01 Jun 2027 21:43:29.616   01 Jun 2027 21:44:19.658            50.042                Sumatra          1563.812
        70   01 Jun 2027 22:50:33.874   01 Jun 2027 22:50:59.603            25.729                Anadyr1           804.031
        71   01 Jun 2027 22:51:08.347   01 Jun 2027 22:51:33.734            25.387                Anadyr2           793.344
        72   01 Jun 2027 22:51:44.834   01 Jun 2027 22:53:07.367            82.533                Anadyr2          2579.156
        73   01 Jun 2027 22:53:18.158   01 Jun 2027 22:53:49.212            31.054                Norilsk           970.438
        74   01 Jun 2027 22:53:55.017   01 Jun 2027 22:54:08.640            13.623               Magadan2           425.719
        75   01 Jun 2027 22:54:27.114   01 Jun 2027 22:55:14.715            47.601               Magadan1          1487.531
        76   01 Jun 2027 22:55:52.647   01 Jun 2027 22:56:10.323            17.676               Magadan2           552.375
        77   01 Jun 2027 22:56:48.295   01 Jun 2027 22:57:14.958            26.663               Magadan2           833.219
        78   01 Jun 2027 22:57:46.194   01 Jun 2027 23:00:45.087           178.893                Novosib          5590.406
        79   01 Jun 2027 23:07:08.130   01 Jun 2027 23:09:19.958           131.828                  Delhi          4119.625
        80   01 Jun 2027 23:56:24.782   01 Jun 2027 23:56:53.406            28.624            RioGallegos           894.500
        81   02 Jun 2027 00:24:35.414   02 Jun 2027 00:25:52.270            76.856                Anadyr1          2401.750
        82   02 Jun 2027 00:25:52.270   02 Jun 2027 00:26:04.361            12.091                Anadyr2           377.844
        83   02 Jun 2027 00:26:30.663   02 Jun 2027 00:26:51.666            21.003                Anadyr2           656.344
        84   02 Jun 2027 00:27:06.714   02 Jun 2027 00:27:18.114            11.400                Anadyr2           356.250
        85   02 Jun 2027 00:29:18.598   02 Jun 2027 00:30:54.044            95.446                Norilsk          2982.688
        86   02 Jun 2027 00:31:16.479   02 Jun 2027 00:31:21.605             5.126                Norilsk           160.188
        87   02 Jun 2027 00:32:05.973   02 Jun 2027 00:33:31.125            85.152              Murmansk1          2661.000
        88   02 Jun 2027 00:33:31.918   02 Jun 2027 00:35:17.470           105.552              Murmansk2          3298.500
        89   02 Jun 2027 00:36:09.049   02 Jun 2027 00:37:28.258            79.209              Murmansk2          2475.281
        90   02 Jun 2027 00:43:38.231   02 Jun 2027 00:43:47.343             9.112                  Delhi           284.750
        91   02 Jun 2027 00:44:18.663   02 Jun 2027 00:45:02.017            43.354                  Delhi          1354.813
        92   02 Jun 2027 01:22:32.305   02 Jun 2027 01:23:46.770            74.465            RioGallegos          2327.031
        93   02 Jun 2027 01:24:27.163   02 Jun 2027 01:24:37.862            10.699            RioGallegos           334.344
        94   02 Jun 2027 01:25:27.732   02 Jun 2027 01:26:22.897            55.165            RioGallegos          1723.906
        95   02 Jun 2027 01:57:52.428   02 Jun 2027 01:58:19.070            26.642                Anadyr2           832.562
        96   02 Jun 2027 01:58:55.292   02 Jun 2027 01:58:59.327             4.035                Anadyr2           126.094
        97   02 Jun 2027 01:59:45.541   02 Jun 2027 01:59:59.338            13.797                Anadyr2           431.156
        98   02 Jun 2027 02:03:19.821   02 Jun 2027 02:03:37.325            17.504                Anadyr2           547.000
        99   02 Jun 2027 02:03:50.159   02 Jun 2027 02:04:45.406            55.247               Magadan1          1726.469
       100   02 Jun 2027 02:05:13.106   02 Jun 2027 02:05:35.162            22.056                Norilsk           689.250
       101   02 Jun 2027 02:05:46.511   02 Jun 2027 02:05:55.311             8.800               Magadan1           275.000
       102   02 Jun 2027 02:06:54.154   02 Jun 2027 02:07:04.706            10.552                Norilsk           329.750
       103   02 Jun 2027 02:07:20.703   02 Jun 2027 02:07:20.861             0.158                Norilsk             4.937
       104   02 Jun 2027 02:07:27.991   02 Jun 2027 02:08:49.050            81.059              Murmansk2          2533.094
       105   02 Jun 2027 02:09:14.092   02 Jun 2027 02:09:58.763            44.671                Novosib          1395.969
       106   02 Jun 2027 02:11:29.919   02 Jun 2027 02:12:14.040            44.121                Irkutsk          1378.781
       107   02 Jun 2027 02:17:09.489   02 Jun 2027 02:17:17.127             7.638                 Moscow           238.688
       108   02 Jun 2027 02:18:45.793   02 Jun 2027 02:19:27.940            42.147                  Delhi          1317.094
       109   02 Jun 2027 02:23:22.576   02 Jun 2027 02:23:29.436             6.860                  Delhi           214.375
       110   02 Jun 2027 02:24:27.694   02 Jun 2027 02:24:49.724            22.030                  Delhi           688.438
       111   02 Jun 2027 02:43:36.521   02 Jun 2027 02:44:06.524            30.003               CapeTown           937.594
       112   02 Jun 2027 02:45:57.794   02 Jun 2027 02:46:07.114             9.320               CapeTown           291.250
       113   02 Jun 2027 03:42:53.514   02 Jun 2027 03:43:17.625            24.111                Anadyr1           753.469
       114   02 Jun 2027 03:44:06.969   02 Jun 2027 03:44:14.488             7.519                Anadyr1           234.969
       115   02 Jun 2027 03:51:18.780   02 Jun 2027 03:51:58.620            39.840              Murmansk1          1245.000
       116   02 Jun 2027 03:52:07.904   02 Jun 2027 03:53:00.294            52.390              Murmansk2          1637.188
       117   02 Jun 2027 03:53:00.294   02 Jun 2027 03:53:53.627            53.333              Murmansk1          1666.656
       118   02 Jun 2027 03:54:01.054   02 Jun 2027 03:54:25.274            24.220              Murmansk1           756.875
       119   02 Jun 2027 03:55:48.822   02 Jun 2027 03:56:06.548            17.726              Murmansk1           553.938
       120   02 Jun 2027 05:14:00.407   02 Jun 2027 05:16:03.212           122.805               Magadan2          3837.656
       121   02 Jun 2027 05:16:25.035   02 Jun 2027 05:16:58.598            33.563                Anadyr1          1048.844
       122   02 Jun 2027 06:52:36.991   02 Jun 2027 06:53:08.361            31.370                Anadyr2           980.312
       123   02 Jun 2027 08:26:53.924   02 Jun 2027 08:27:28.820            34.896               Magadan2          1090.500
       124   02 Jun 2027 08:27:48.707   02 Jun 2027 08:28:12.481            23.774               Magadan2           742.937
       125   02 Jun 2027 08:28:21.394   02 Jun 2027 08:29:08.508            47.114                Irkutsk          1472.313
       126   02 Jun 2027 08:29:54.980   02 Jun 2027 08:30:23.772            28.792                Irkutsk           899.750
       127   02 Jun 2027 08:30:27.471   02 Jun 2027 08:31:13.632            46.161                Irkutsk          1442.531
       128   02 Jun 2027 08:32:30.317   02 Jun 2027 08:33:24.837            54.520              Murmansk1          1703.750
       129   02 Jun 2027 09:06:19.427   02 Jun 2027 09:07:28.835            69.408            RioGallegos          2169.000
       130   02 Jun 2027 09:08:23.556   02 Jun 2027 09:09:19.399            55.843            RioGallegos          1745.094
       131   02 Jun 2027 09:12:25.497   02 Jun 2027 09:13:10.346            44.849            RioGallegos          1401.531
       132   02 Jun 2027 09:13:58.834   02 Jun 2027 09:14:53.141            54.307            RioGallegos          1697.094
       133   02 Jun 2027 09:17:02.570   02 Jun 2027 09:17:04.662             2.092            RioGallegos            65.375
       134   02 Jun 2027 09:18:13.911   02 Jun 2027 09:18:28.916            15.005            RioGallegos           468.906
       135   02 Jun 2027 09:42:34.537   02 Jun 2027 09:43:42.118            67.581                Sumatra          2111.906
       136   02 Jun 2027 09:45:17.244   02 Jun 2027 09:46:04.783            47.539                Sumatra          1485.594
       137   02 Jun 2027 09:47:40.194   02 Jun 2027 09:48:43.396            63.202                Sumatra          1975.063
       138   02 Jun 2027 10:01:39.921   02 Jun 2027 10:02:50.257            70.336                Irkutsk          2198.000
       139   02 Jun 2027 10:02:55.081   02 Jun 2027 10:03:43.810            48.729                Irkutsk          1522.781
       140   02 Jun 2027 10:03:51.302   02 Jun 2027 10:05:00.148            68.846                Novosib          2151.438
       141   02 Jun 2027 10:05:08.088   02 Jun 2027 10:05:21.156            13.068                Novosib           408.375
       142   02 Jun 2027 10:05:26.620   02 Jun 2027 10:05:39.975            13.355                Norilsk           417.344
       143   02 Jun 2027 10:05:43.862   02 Jun 2027 10:06:35.215            51.353                Irkutsk          1604.781
       144   02 Jun 2027 10:06:39.347   02 Jun 2027 10:07:11.298            31.951                Norilsk           998.469
       145   02 Jun 2027 10:07:14.397   02 Jun 2027 10:07:30.246            15.849                Irkutsk           495.281
       146   02 Jun 2027 10:43:02.772   02 Jun 2027 10:43:03.006             0.234            RioGallegos             7.312
       147   02 Jun 2027 10:43:44.722   02 Jun 2027 10:44:16.354            31.632            RioGallegos           988.500
       148   02 Jun 2027 10:45:37.116   02 Jun 2027 10:46:24.503            47.387            RioGallegos          1480.844
       149   02 Jun 2027 11:17:20.640   02 Jun 2027 11:17:56.580            35.940                Sumatra          1123.125
       150   02 Jun 2027 11:25:52.159   02 Jun 2027 11:26:24.475            32.316                  Delhi          1009.875
       151   02 Jun 2027 11:38:01.253   02 Jun 2027 11:38:37.639            36.386                Irkutsk          1137.063
       152   02 Jun 2027 11:39:12.125   02 Jun 2027 11:39:37.713            25.588                Norilsk           799.625
       153   02 Jun 2027 11:39:50.432   02 Jun 2027 11:40:34.888            44.456                Irkutsk          1389.250
       154   02 Jun 2027 11:40:42.820   02 Jun 2027 11:40:59.492            16.672                Novosib           521.000
       155   02 Jun 2027 11:41:04.640   02 Jun 2027 11:41:33.397            28.757                Norilsk           898.656
       156   02 Jun 2027 11:41:44.641   02 Jun 2027 11:42:27.656            43.015                Irkutsk          1344.219
       157   02 Jun 2027 11:42:39.461   02 Jun 2027 11:42:58.021            18.560                Norilsk           580.000
       158   02 Jun 2027 13:02:08.269   02 Jun 2027 13:05:01.283           173.014                  Delhi          5406.688
       159   02 Jun 2027 13:10:27.925   02 Jun 2027 13:11:41.413            73.488                Novosib          2296.500
       160   02 Jun 2027 13:13:14.082   02 Jun 2027 13:14:16.996            62.914                Novosib          1966.063
       161   02 Jun 2027 13:14:26.570   02 Jun 2027 13:16:23.493           116.923                Norilsk          3653.844
       162   02 Jun 2027 14:45:42.681   02 Jun 2027 14:48:53.815           191.134                 Moscow          5972.938
       163   02 Jun 2027 14:49:14.218   02 Jun 2027 14:52:25.239           191.021              Murmansk1          5969.406
       164   02 Jun 2027 14:55:21.496   02 Jun 2027 14:56:16.554            55.058                Norilsk          1720.563
       165   02 Jun 2027 14:56:52.204   02 Jun 2027 14:58:28.369            96.165                Norilsk          3005.156
       166   02 Jun 2027 15:07:44.720   02 Jun 2027 15:08:28.128            43.408                Anadyr2          1356.500
       167   02 Jun 2027 16:07:04.273   02 Jun 2027 16:08:35.833            91.560               CapeTown          2861.250
       168   02 Jun 2027 16:27:00.020   02 Jun 2027 16:28:22.318            82.298              Murmansk1          2571.812
       169   02 Jun 2027 16:39:54.023   02 Jun 2027 16:41:40.838           106.815                Anadyr2          3337.969
       170   02 Jun 2027 16:41:47.021   02 Jun 2027 16:42:41.065            54.044                Anadyr1          1688.875
       171   02 Jun 2027 17:35:31.407   02 Jun 2027 17:36:17.826            46.419               CapeTown          1450.594
       172   02 Jun 2027 17:39:29.149   02 Jun 2027 17:39:50.771            21.622               CapeTown           675.688
       173   02 Jun 2027 17:40:07.119   02 Jun 2027 17:40:20.644            13.525               CapeTown           422.656
       174   02 Jun 2027 17:42:01.461   02 Jun 2027 17:42:41.977            40.516               CapeTown          1266.125
       175   02 Jun 2027 18:07:25.957   02 Jun 2027 18:12:04.247           278.290              Murmansk2          8696.563
       176   02 Jun 2027 18:16:12.531   02 Jun 2027 18:16:20.894             8.363                Anadyr1           261.344
       177   02 Jun 2027 18:17:27.362   02 Jun 2027 18:17:36.237             8.875                Anadyr1           277.344
       178   02 Jun 2027 18:18:28.068   02 Jun 2027 18:19:48.839            80.771               Magadan2          2524.094
       179   02 Jun 2027 18:26:23.139   02 Jun 2027 18:26:54.652            31.513               Magadan1           984.781
       180   02 Jun 2027 19:51:35.207   02 Jun 2027 19:55:04.931           209.724                Anadyr1          6553.875
       181   02 Jun 2027 19:55:08.031   02 Jun 2027 19:57:50.208           162.177               Magadan2          5068.031
       182   02 Jun 2027 19:58:23.267   02 Jun 2027 19:58:31.737             8.470               Magadan1           264.688
       183   02 Jun 2027 19:58:39.401   02 Jun 2027 19:58:46.686             7.285               Magadan1           227.656
       184   02 Jun 2027 20:00:58.342   02 Jun 2027 20:01:32.416            34.074               Magadan2          1064.813
       185   02 Jun 2027 20:46:48.096   02 Jun 2027 20:49:44.976           176.880            RioGallegos          5527.500
       186   02 Jun 2027 20:53:16.664   02 Jun 2027 20:53:33.982            17.318            RioGallegos           541.187
       187   02 Jun 2027 21:27:20.283   02 Jun 2027 21:27:53.938            33.655                Anadyr2          1051.719
       188   02 Jun 2027 21:29:28.453   02 Jun 2027 21:32:39.136           190.683                Norilsk          5958.844
       189   02 Jun 2027 21:33:10.762   02 Jun 2027 21:33:22.076            11.314                Norilsk           353.563
       190   02 Jun 2027 21:34:01.311   02 Jun 2027 21:35:14.987            73.676                Irkutsk          2302.375
       191   02 Jun 2027 21:36:51.357   02 Jun 2027 21:37:24.002            32.645                Irkutsk          1020.156
       192   02 Jun 2027 21:43:12.188   02 Jun 2027 21:43:23.411            11.223                Irkutsk           350.719
       193   02 Jun 2027 21:48:17.420   02 Jun 2027 21:50:17.390           119.970                Sumatra          3749.062
       194   02 Jun 2027 21:58:57.514   02 Jun 2027 21:59:05.598             8.084                Sumatra           252.625
       195   02 Jun 2027 23:02:25.343   02 Jun 2027 23:02:38.764            13.421                Anadyr2           419.406
       196   02 Jun 2027 23:02:50.033   02 Jun 2027 23:03:36.505            46.472                Anadyr2          1452.250
       197   02 Jun 2027 23:05:33.391   02 Jun 2027 23:05:38.353             4.962                Anadyr1           155.062
       198   02 Jun 2027 23:05:57.814   02 Jun 2027 23:07:20.288            82.474               Magadan1          2577.313
       199   02 Jun 2027 23:07:20.288   02 Jun 2027 23:07:41.107            20.819               Magadan2           650.594
       200   02 Jun 2027 23:09:12.416   02 Jun 2027 23:09:50.298            37.882                Irkutsk          1183.812
       201   02 Jun 2027 23:10:02.894   02 Jun 2027 23:10:39.207            36.313                Novosib          1134.781
       202   02 Jun 2027 23:12:30.211   02 Jun 2027 23:13:27.861            57.650                Irkutsk          1801.562
       203   02 Jun 2027 23:15:31.202   02 Jun 2027 23:15:47.304            16.102                Novosib           503.187
       204   02 Jun 2027 23:16:03.629   02 Jun 2027 23:18:22.863           139.234                Novosib          4351.063
       205   02 Jun 2027 23:25:23.909   02 Jun 2027 23:25:39.543            15.634                  Delhi           488.562
       206   02 Jun 2027 23:27:10.866   02 Jun 2027 23:27:18.555             7.689                  Delhi           240.281
       207   03 Jun 2027 00:06:04.530   03 Jun 2027 00:07:05.899            61.369            RioGallegos          1917.781
       208   03 Jun 2027 00:36:17.729   03 Jun 2027 00:36:40.484            22.755                Anadyr2           711.094
       209   03 Jun 2027 00:37:40.428   03 Jun 2027 00:38:32.001            51.573                Anadyr1          1611.656
       210   03 Jun 2027 00:41:20.509   03 Jun 2027 00:41:36.701            16.192                Norilsk           506.000
       211   03 Jun 2027 00:41:49.480   03 Jun 2027 00:44:07.503           138.023               Magadan2          4313.219
       212   03 Jun 2027 00:44:24.482   03 Jun 2027 00:45:31.313            66.831              Murmansk2          2088.469
       213   03 Jun 2027 00:46:03.252   03 Jun 2027 00:47:17.305            74.053                Novosib          2314.156
       214   03 Jun 2027 00:47:18.846   03 Jun 2027 00:48:10.719            51.873              Murmansk1          1621.031
       215   03 Jun 2027 00:57:23.467   03 Jun 2027 00:57:25.093             1.626                  Delhi            50.813
       216   03 Jun 2027 00:58:54.331   03 Jun 2027 01:00:25.615            91.284                  Delhi          2852.625
       217   03 Jun 2027 01:34:58.848   03 Jun 2027 01:35:20.322            21.474            RioGallegos           671.063
       218   03 Jun 2027 01:37:21.764   03 Jun 2027 01:37:34.084            12.320            RioGallegos           385.000
       219   03 Jun 2027 01:38:36.922   03 Jun 2027 01:39:12.397            35.475            RioGallegos          1108.594
       220   03 Jun 2027 02:09:35.130   03 Jun 2027 02:09:53.464            18.334                Anadyr2           572.937
       221   03 Jun 2027 02:10:53.756   03 Jun 2027 02:11:38.020            44.264                Anadyr1          1383.250
       222   03 Jun 2027 02:15:20.858   03 Jun 2027 02:16:33.817            72.959               Magadan2          2279.969
       223   03 Jun 2027 02:17:13.343   03 Jun 2027 02:17:37.516            24.173                Norilsk           755.406
       224   03 Jun 2027 02:18:59.434   03 Jun 2027 02:19:23.144            23.710                Norilsk           740.938
       225   03 Jun 2027 02:19:28.877   03 Jun 2027 02:19:56.870            27.993              Murmansk1           874.781
       226   03 Jun 2027 02:20:10.439   03 Jun 2027 02:20:40.871            30.432              Murmansk2           951.000
       227   03 Jun 2027 02:21:19.434   03 Jun 2027 02:22:10.261            50.827                Novosib          1588.344
       228   03 Jun 2027 02:22:37.374   03 Jun 2027 02:22:51.149            13.775                Novosib           430.469
       229   03 Jun 2027 02:24:33.287   03 Jun 2027 02:24:37.812             4.525                Novosib           141.406
       230   03 Jun 2027 02:25:54.948   03 Jun 2027 02:26:01.309             6.361                 Moscow           198.781
       231   03 Jun 2027 02:27:08.739   03 Jun 2027 02:27:32.139            23.400                 Moscow           731.250
       232   03 Jun 2027 02:30:21.438   03 Jun 2027 02:31:11.114            49.676                Novosib          1552.375
       233   03 Jun 2027 02:48:16.396   03 Jun 2027 02:48:16.988             0.592               CapeTown            18.500
       234   03 Jun 2027 02:49:28.972   03 Jun 2027 02:50:59.679            90.707               CapeTown          2834.594
       235   03 Jun 2027 03:55:13.783   03 Jun 2027 03:55:20.242             6.459                Anadyr1           201.844
       236   03 Jun 2027 03:55:36.629   03 Jun 2027 03:55:42.129             5.500               Magadan2           171.875
       237   03 Jun 2027 04:04:52.980   03 Jun 2027 04:05:50.983            58.003                 Moscow          1812.594
       238   03 Jun 2027 04:06:00.617   03 Jun 2027 04:08:18.816           138.199              Murmansk2          4318.719
       239   03 Jun 2027 04:23:58.607   03 Jun 2027 04:24:48.659            50.052               CapeTown          1564.125
       240   03 Jun 2027 04:28:16.658   03 Jun 2027 04:28:22.038             5.380               CapeTown           168.125
       241   03 Jun 2027 05:25:51.254   03 Jun 2027 05:29:07.280           196.026                Anadyr2          6125.812
       242   03 Jun 2027 05:29:07.280   03 Jun 2027 05:30:56.728           109.448                Anadyr1          3420.250
       243   03 Jun 2027 07:03:41.895   03 Jun 2027 07:04:14.946            33.051                Anadyr1          1032.844
       244   03 Jun 2027 07:04:34.375   03 Jun 2027 07:05:43.594            69.219               Magadan1          2163.094
       245   03 Jun 2027 07:06:27.683   03 Jun 2027 07:07:04.253            36.570                Anadyr1          1142.813
       246   03 Jun 2027 08:37:06.041   03 Jun 2027 08:37:12.038             5.997               Magadan1           187.406
       247   03 Jun 2027 08:37:59.170   03 Jun 2027 08:38:20.253            21.083               Magadan2           658.844
       248   03 Jun 2027 08:39:03.865   03 Jun 2027 08:39:46.102            42.237               Magadan2          1319.906
       249   03 Jun 2027 08:40:15.154   03 Jun 2027 08:40:17.280             2.126               Magadan2            66.437
       250   03 Jun 2027 08:40:48.148   03 Jun 2027 08:42:03.935            75.787               Magadan1          2368.344
       251   03 Jun 2027 08:42:47.716   03 Jun 2027 08:43:01.606            13.890               Magadan1           434.062
       252   03 Jun 2027 08:43:14.519   03 Jun 2027 08:43:20.600             6.081                Irkutsk           190.031
       253   03 Jun 2027 08:43:22.327   03 Jun 2027 08:43:25.407             3.080                Norilsk            96.250
       254   03 Jun 2027 08:43:36.078   03 Jun 2027 08:43:47.336            11.258                Norilsk           351.813
       255   03 Jun 2027 09:19:25.179   03 Jun 2027 09:20:06.306            41.127            RioGallegos          1285.219
       256   03 Jun 2027 09:23:23.504   03 Jun 2027 09:24:15.870            52.366            RioGallegos          1636.437
       257   03 Jun 2027 09:54:02.874   03 Jun 2027 09:55:18.236            75.362                Sumatra          2355.063
       258   03 Jun 2027 10:15:13.772   03 Jun 2027 10:15:28.159            14.387                Novosib           449.594
       259   03 Jun 2027 10:16:30.232   03 Jun 2027 10:17:05.645            35.413                Novosib          1106.656
       260   03 Jun 2027 10:17:16.771   03 Jun 2027 10:17:44.530            27.759                Irkutsk           867.469
       261   03 Jun 2027 10:18:27.888   03 Jun 2027 10:18:32.796             4.908                Irkutsk           153.375
       262   03 Jun 2027 10:18:45.337   03 Jun 2027 10:19:10.602            25.265                Norilsk           789.531
       263   03 Jun 2027 10:19:18.080   03 Jun 2027 10:19:47.104            29.024                Novosib           907.000
       264   03 Jun 2027 10:55:28.577   03 Jun 2027 10:56:25.572            56.995            RioGallegos          1781.094
       265   03 Jun 2027 11:29:42.004   03 Jun 2027 11:31:07.919            85.915                Sumatra          2684.844
       266   03 Jun 2027 11:51:12.463   03 Jun 2027 11:51:55.051            42.588                Irkutsk          1330.875
       267   03 Jun 2027 11:52:19.933   03 Jun 2027 11:53:06.858            46.925                Novosib          1466.406
       268   03 Jun 2027 11:53:55.788   03 Jun 2027 11:54:22.424            26.636                Novosib           832.375
       269   03 Jun 2027 11:54:40.916   03 Jun 2027 11:55:14.507            33.591                Novosib          1049.719
       270   03 Jun 2027 13:14:42.878   03 Jun 2027 13:17:43.449           180.571                  Delhi          5642.844
       271   03 Jun 2027 13:18:27.813   03 Jun 2027 13:19:45.605            77.792                  Delhi          2431.000
       272   03 Jun 2027 13:23:10.172   03 Jun 2027 13:23:11.867             1.695                Novosib            52.969
       273   03 Jun 2027 13:25:10.401   03 Jun 2027 13:26:12.586            62.185                Novosib          1943.281
       274   03 Jun 2027 13:26:43.389   03 Jun 2027 13:27:07.626            24.237                Norilsk           757.406
       275   03 Jun 2027 13:27:29.592   03 Jun 2027 13:27:59.888            30.296                Novosib           946.750
       276   03 Jun 2027 13:29:38.827   03 Jun 2027 13:30:32.400            53.573                Norilsk          1674.156
       277   03 Jun 2027 14:57:52.002   03 Jun 2027 14:59:44.457           112.455                 Moscow          3514.219
       278   03 Jun 2027 15:00:53.449   03 Jun 2027 15:01:05.646            12.197                 Moscow           381.156
       279   03 Jun 2027 15:01:22.816   03 Jun 2027 15:04:27.154           184.338              Murmansk1          5760.563
       280   03 Jun 2027 15:08:15.411   03 Jun 2027 15:08:36.439            21.028              Murmansk1           657.125
       281   03 Jun 2027 15:08:54.358   03 Jun 2027 15:10:38.496           104.138                Norilsk          3254.313
       282   03 Jun 2027 15:11:02.461   03 Jun 2027 15:11:03.419             0.958                Norilsk            29.937
       283   03 Jun 2027 15:17:09.308   03 Jun 2027 15:17:27.074            17.766                Anadyr2           555.188
       284   03 Jun 2027 15:18:12.599   03 Jun 2027 15:18:27.516            14.917                Anadyr2           466.156
       285   03 Jun 2027 15:18:48.252   03 Jun 2027 15:19:04.436            16.184                Anadyr2           505.750
       286   03 Jun 2027 15:19:26.385   03 Jun 2027 15:20:25.867            59.482                Anadyr2          1858.812
       287   03 Jun 2027 16:18:09.630   03 Jun 2027 16:18:19.656            10.026               CapeTown           313.313
       288   03 Jun 2027 16:18:53.349   03 Jun 2027 16:19:18.169            24.820               CapeTown           775.625
       289   03 Jun 2027 16:23:16.102   03 Jun 2027 16:23:39.930            23.828               CapeTown           744.625
       290   03 Jun 2027 16:37:20.513   03 Jun 2027 16:38:00.290            39.777                 Moscow          1243.031
       291   03 Jun 2027 16:39:24.944   03 Jun 2027 16:39:31.126             6.182              Murmansk1           193.187
       292   03 Jun 2027 16:40:23.065   03 Jun 2027 16:40:44.898            21.833              Murmansk2           682.281
       293   03 Jun 2027 16:41:54.664   03 Jun 2027 16:42:30.245            35.581              Murmansk2          1111.906
       294   03 Jun 2027 16:44:06.539   03 Jun 2027 16:44:19.308            12.769              Murmansk2           399.031
       295   03 Jun 2027 16:46:28.555   03 Jun 2027 16:47:07.137            38.582              Murmansk2          1205.688
       296   03 Jun 2027 16:48:47.488   03 Jun 2027 16:49:37.086            49.598              Murmansk1          1549.938
       297   03 Jun 2027 16:51:52.513   03 Jun 2027 16:52:10.341            17.828                Anadyr2           557.125
       298   03 Jun 2027 16:52:28.090   03 Jun 2027 16:52:46.387            18.297                Anadyr1           571.781
       299   03 Jun 2027 16:53:24.913   03 Jun 2027 16:53:41.899            16.986                Anadyr1           530.813
       300   03 Jun 2027 16:55:23.408   03 Jun 2027 16:55:28.339             4.931                Anadyr1           154.094
       301   03 Jun 2027 16:56:53.728   03 Jun 2027 16:57:08.342            14.614                Anadyr1           456.687
       302   03 Jun 2027 16:57:20.286   03 Jun 2027 16:57:47.447            27.161                Anadyr2           848.781
       303   03 Jun 2027 17:02:55.736   03 Jun 2027 17:03:07.024            11.288                Anadyr2           352.750
       304   03 Jun 2027 17:47:49.034   03 Jun 2027 17:48:38.310            49.276               CapeTown          1539.875
       305   03 Jun 2027 17:51:04.858   03 Jun 2027 17:51:14.600             9.742               CapeTown           304.438
       306   03 Jun 2027 17:54:17.292   03 Jun 2027 17:54:19.913             2.621               CapeTown            81.906
       307   03 Jun 2027 17:54:28.874   03 Jun 2027 17:55:00.830            31.956               CapeTown           998.625
       308   03 Jun 2027 18:20:22.450   03 Jun 2027 18:24:50.089           267.639              Murmansk1          8363.719
       309   03 Jun 2027 18:30:21.365   03 Jun 2027 18:31:10.561            49.196               Magadan1          1537.375
       310   03 Jun 2027 18:33:08.267   03 Jun 2027 18:33:30.386            22.119               Magadan1           691.219
       311   03 Jun 2027 18:34:56.571   03 Jun 2027 18:35:57.608            61.037               Magadan2          1907.406
       312   03 Jun 2027 20:03:36.378   03 Jun 2027 20:05:42.592           126.214                Anadyr1          3944.187
       313   03 Jun 2027 20:05:51.498   03 Jun 2027 20:07:22.013            90.515                Anadyr2          2828.594
       314   03 Jun 2027 20:07:23.281   03 Jun 2027 20:08:20.464            57.183                Norilsk          1786.969
       315   03 Jun 2027 20:08:48.281   03 Jun 2027 20:09:43.275            54.994               Magadan2          1718.562
       316   03 Jun 2027 20:09:43.275   03 Jun 2027 20:10:25.688            42.413               Magadan1          1325.406
       317   03 Jun 2027 20:10:47.405   03 Jun 2027 20:10:53.843             6.438               Magadan1           201.188
       318   03 Jun 2027 20:14:51.272   03 Jun 2027 20:14:55.183             3.911               Magadan1           122.219
       319   03 Jun 2027 20:15:02.346   03 Jun 2027 20:16:03.765            61.419               Magadan1          1919.344
       320   03 Jun 2027 20:58:26.950   03 Jun 2027 21:00:59.151           152.201            RioGallegos          4756.281
       321   03 Jun 2027 21:02:58.347   03 Jun 2027 21:03:15.397            17.050            RioGallegos           532.812
       322   03 Jun 2027 21:03:18.673   03 Jun 2027 21:04:36.661            77.988            RioGallegos          2437.125
       323   03 Jun 2027 21:39:22.077   03 Jun 2027 21:39:55.675            33.598                Anadyr2          1049.937
       324   03 Jun 2027 21:41:27.843   03 Jun 2027 21:41:52.653            24.810                Norilsk           775.313
       325   03 Jun 2027 21:41:53.528   03 Jun 2027 21:43:29.079            95.551               Magadan1          2985.969
       326   03 Jun 2027 21:45:50.563   03 Jun 2027 21:47:15.055            84.492                Irkutsk          2640.375
       327   03 Jun 2027 21:48:37.523   03 Jun 2027 21:49:09.555            32.032                Irkutsk          1001.000
       328   03 Jun 2027 21:54:54.808   03 Jun 2027 21:55:18.390            23.582                Irkutsk           736.937
       329   03 Jun 2027 21:59:50.553   03 Jun 2027 22:01:26.661            96.108                Sumatra          3003.375
       330   03 Jun 2027 22:04:44.037   03 Jun 2027 22:05:08.024            23.987                Sumatra           749.594
       331   03 Jun 2027 22:44:13.867   03 Jun 2027 22:44:53.421            39.554            RioGallegos          1236.062
       332   03 Jun 2027 23:14:32.277   03 Jun 2027 23:14:39.123             6.846                Anadyr2           213.937
       333   03 Jun 2027 23:15:41.275   03 Jun 2027 23:16:58.684            77.409                Anadyr2          2419.031
       334   03 Jun 2027 23:17:43.004   03 Jun 2027 23:17:50.113             7.109                Norilsk           222.156
       335   03 Jun 2027 23:18:00.454   03 Jun 2027 23:18:32.537            32.083               Magadan1          1002.594
       336   03 Jun 2027 23:18:34.898   03 Jun 2027 23:18:52.084            17.186                Norilsk           537.062
       337   03 Jun 2027 23:19:13.129   03 Jun 2027 23:19:50.770            37.641               Magadan2          1176.281
       338   03 Jun 2027 23:20:23.154   03 Jun 2027 23:20:28.509             5.355               Magadan2           167.344
       339   03 Jun 2027 23:21:02.817   03 Jun 2027 23:21:12.573             9.756               Magadan1           304.875
       340   03 Jun 2027 23:21:13.823   03 Jun 2027 23:21:56.586            42.763                Irkutsk          1336.344
       341   03 Jun 2027 23:22:22.328   03 Jun 2027 23:23:16.202            53.874                Novosib          1683.562
       342   03 Jun 2027 23:24:28.313   03 Jun 2027 23:25:39.873            71.560                Novosib          2236.250
       343   03 Jun 2027 23:28:23.597   03 Jun 2027 23:30:18.608           115.011                Novosib          3594.094
       344   04 Jun 2027 00:16:31.163   04 Jun 2027 00:16:41.034             9.871            RioGallegos           308.469
       345   04 Jun 2027 00:17:57.186   04 Jun 2027 00:18:20.646            23.460            RioGallegos           733.125
       346   04 Jun 2027 00:47:59.425   04 Jun 2027 00:48:31.727            32.302                Anadyr2          1009.437
       347   04 Jun 2027 00:48:31.727   04 Jun 2027 00:48:57.549            25.822                Anadyr1           806.938
       348   04 Jun 2027 00:49:44.368   04 Jun 2027 00:50:15.726            31.358                Anadyr2           979.937
       349   04 Jun 2027 00:50:15.726   04 Jun 2027 00:50:24.897             9.171                Anadyr1           286.594
       350   04 Jun 2027 00:50:29.280   04 Jun 2027 00:50:33.335             4.055                Anadyr2           126.719
       351   04 Jun 2027 00:50:33.335   04 Jun 2027 00:50:55.499            22.164                Anadyr1           692.625
       352   04 Jun 2027 00:53:22.297   04 Jun 2027 00:53:51.906            29.609                Norilsk           925.281
       353   04 Jun 2027 00:54:28.927   04 Jun 2027 00:55:26.084            57.157                Norilsk          1786.156
       354   04 Jun 2027 00:55:35.206   04 Jun 2027 00:56:04.457            29.251               Magadan1           914.094
       355   04 Jun 2027 00:56:14.135   04 Jun 2027 00:58:07.940           113.805              Murmansk2          3556.406
       356   04 Jun 2027 00:58:27.186   04 Jun 2027 00:58:42.569            15.383              Murmansk2           480.719
       357   04 Jun 2027 00:59:20.077   04 Jun 2027 01:00:12.397            52.320              Murmansk2          1635.000
       358   04 Jun 2027 01:02:35.399   04 Jun 2027 01:02:39.857             4.458                 Moscow           139.313
       359   04 Jun 2027 01:02:43.410   04 Jun 2027 01:03:24.777            41.367                 Moscow          1292.719
       360   04 Jun 2027 01:13:43.494   04 Jun 2027 01:14:16.031            32.537                  Delhi          1016.781
       361   04 Jun 2027 01:47:42.419   04 Jun 2027 01:48:11.172            28.753            RioGallegos           898.531
       362   04 Jun 2027 01:49:29.159   04 Jun 2027 01:50:39.752            70.593            RioGallegos          2206.031
       363   04 Jun 2027 02:21:18.643   04 Jun 2027 02:21:41.545            22.902                Anadyr2           715.687
       364   04 Jun 2027 02:22:52.781   04 Jun 2027 02:23:11.400            18.619                Anadyr2           581.844
       365   04 Jun 2027 02:24:15.862   04 Jun 2027 02:24:38.452            22.590                Anadyr2           705.937
       366   04 Jun 2027 02:26:49.858   04 Jun 2027 02:27:53.565            63.707               Magadan2          1990.844
       367   04 Jun 2027 02:28:11.058   04 Jun 2027 02:28:24.070            13.012               Magadan1           406.625
       368   04 Jun 2027 02:29:13.247   04 Jun 2027 02:29:28.029            14.782                Norilsk           461.937
       369   04 Jun 2027 02:30:32.876   04 Jun 2027 02:30:41.912             9.036               Magadan1           282.375
       370   04 Jun 2027 02:30:56.992   04 Jun 2027 02:31:25.634            28.642                Norilsk           895.063
       371   04 Jun 2027 02:31:30.069   04 Jun 2027 02:32:04.185            34.116              Murmansk1          1066.125
       372   04 Jun 2027 02:32:23.600   04 Jun 2027 02:33:18.669            55.069              Murmansk1          1720.906
       373   04 Jun 2027 02:33:25.343   04 Jun 2027 02:34:06.531            41.188                Novosib          1287.125
       374   04 Jun 2027 02:42:18.855   04 Jun 2027 02:42:32.410            13.555                Novosib           423.594
       375   04 Jun 2027 02:46:28.796   04 Jun 2027 02:46:56.015            27.219                 Moscow           850.594
       376   04 Jun 2027 02:59:46.628   04 Jun 2027 03:00:39.499            52.871               CapeTown          1652.219
       377   04 Jun 2027 03:09:29.117   04 Jun 2027 03:10:19.245            50.128               CapeTown          1566.500
       378   04 Jun 2027 04:16:27.637   04 Jun 2027 04:17:19.913            52.276              Murmansk1          1633.625
       379   04 Jun 2027 04:17:55.489   04 Jun 2027 04:18:37.937            42.448              Murmansk1          1326.500
       380   04 Jun 2027 04:18:46.608   04 Jun 2027 04:20:23.740            97.132              Murmansk1          3035.375
       381   04 Jun 2027 04:21:37.477   04 Jun 2027 04:22:34.331            56.854                 Moscow          1776.687
       382   04 Jun 2027 05:38:05.363   04 Jun 2027 05:38:32.965            27.602               Magadan1           862.563
       383   04 Jun 2027 05:38:36.207   04 Jun 2027 05:38:38.628             2.421               Magadan2            75.656
       384   04 Jun 2027 05:38:48.183   04 Jun 2027 05:43:41.387           293.204                Anadyr1          9162.625
       385   04 Jun 2027 05:43:41.387   04 Jun 2027 05:44:12.590            31.203                Anadyr2           975.094
       386   04 Jun 2027 07:15:25.921   04 Jun 2027 07:15:40.542            14.621               Magadan1           456.906
       387   04 Jun 2027 07:15:40.542   04 Jun 2027 07:16:05.532            24.990               Magadan2           780.937
       388   04 Jun 2027 07:16:11.562   04 Jun 2027 07:16:42.163            30.601               Magadan2           956.281
       389   04 Jun 2027 07:17:02.387   04 Jun 2027 07:17:18.770            16.383                Anadyr1           511.969
       390   04 Jun 2027 07:17:41.339   04 Jun 2027 07:17:54.710            13.371               Magadan1           417.844
       391   04 Jun 2027 07:18:28.355   04 Jun 2027 07:19:47.796            79.441                Anadyr1          2482.531
       392   04 Jun 2027 08:48:59.334   04 Jun 2027 08:49:02.268             2.934               Magadan2            91.688
       393   04 Jun 2027 08:49:02.268   04 Jun 2027 08:50:21.304            79.036               Magadan1          2469.875
       394   04 Jun 2027 08:50:46.653   04 Jun 2027 08:51:16.699            30.046               Magadan2           938.937
       395   04 Jun 2027 08:51:42.359   04 Jun 2027 08:51:44.658             2.299               Magadan2            71.844
       396   04 Jun 2027 08:51:52.755   04 Jun 2027 08:52:14.951            22.196                Irkutsk           693.625
       397   04 Jun 2027 08:52:17.615   04 Jun 2027 08:52:50.337            32.722               Magadan1          1022.562
       398   04 Jun 2027 08:52:52.989   04 Jun 2027 08:52:59.294             6.305                Irkutsk           197.031
       399   04 Jun 2027 08:53:04.876   04 Jun 2027 08:53:10.186             5.310                Irkutsk           165.937
       400   04 Jun 2027 08:53:39.306   04 Jun 2027 08:53:47.468             8.162                Irkutsk           255.062
       401   04 Jun 2027 08:54:03.729   04 Jun 2027 08:54:53.793            50.064               Magadan2          1564.500
       402   04 Jun 2027 08:54:57.439   04 Jun 2027 08:56:19.714            82.275                Novosib          2571.094
       403   04 Jun 2027 10:05:40.226   04 Jun 2027 10:06:17.145            36.919                Sumatra          1153.719
       404   04 Jun 2027 10:06:46.273   04 Jun 2027 10:07:36.943            50.670                Sumatra          1583.438
       405   04 Jun 2027 10:19:02.556   04 Jun 2027 10:19:06.942             4.386                  Delhi           137.063
       406   04 Jun 2027 10:27:55.758   04 Jun 2027 10:28:01.705             5.947                Novosib           185.844
       407   04 Jun 2027 10:28:26.085   04 Jun 2027 10:29:08.847            42.762                Irkutsk          1336.312
       408   04 Jun 2027 10:29:49.363   04 Jun 2027 10:30:08.781            19.418                Irkutsk           606.812
       409   04 Jun 2027 10:30:23.661   04 Jun 2027 10:31:30.117            66.456                Irkutsk          2076.750
       410   04 Jun 2027 11:09:37.294   04 Jun 2027 11:09:46.803             9.509            RioGallegos           297.156
       411   04 Jun 2027 11:42:12.544   04 Jun 2027 11:43:04.092            51.548                Sumatra          1610.875
       412   04 Jun 2027 11:46:40.950   04 Jun 2027 11:47:21.754            40.804                Sumatra          1275.125
       413   04 Jun 2027 12:06:57.953   04 Jun 2027 12:07:21.799            23.846                Novosib           745.188
       414   04 Jun 2027 12:10:01.462   04 Jun 2027 12:10:10.882             9.420                Norilsk           294.375
       415   04 Jun 2027 12:10:33.707   04 Jun 2027 12:10:48.330            14.623                Norilsk           456.969
       416   04 Jun 2027 13:27:29.908   04 Jun 2027 13:29:31.811           121.903                  Delhi          3809.469
       417   04 Jun 2027 13:30:52.657   04 Jun 2027 13:32:14.945            82.288                  Delhi          2571.500
       418   04 Jun 2027 13:35:04.652   04 Jun 2027 13:35:39.946            35.294                 Moscow          1102.937
       419   04 Jun 2027 13:37:12.885   04 Jun 2027 13:38:33.846            80.961              Murmansk1          2530.031
       420   04 Jun 2027 13:40:25.454   04 Jun 2027 13:40:53.440            27.986                Novosib           874.563
       421   04 Jun 2027 13:43:02.178   04 Jun 2027 13:44:19.323            77.145                Norilsk          2410.781
       422   04 Jun 2027 14:51:01.846   04 Jun 2027 14:52:31.312            89.466               CapeTown          2795.812
       423   04 Jun 2027 14:53:59.816   04 Jun 2027 14:55:23.269            83.453               CapeTown          2607.906
       424   04 Jun 2027 15:11:18.068   04 Jun 2027 15:11:31.624            13.556                 Moscow           423.625
       425   04 Jun 2027 15:13:33.207   04 Jun 2027 15:14:19.067            45.860              Murmansk1          1433.125
       426   04 Jun 2027 15:16:42.530   04 Jun 2027 15:16:50.637             8.107              Murmansk1           253.344
       427   04 Jun 2027 15:18:25.057   04 Jun 2027 15:18:33.283             8.226              Murmansk1           257.062
       428   04 Jun 2027 15:18:44.877   04 Jun 2027 15:20:17.114            92.237              Murmansk2          2882.406
       429   04 Jun 2027 15:28:49.594   04 Jun 2027 15:30:29.760           100.166                Anadyr2          3130.188
       430   04 Jun 2027 15:35:16.897   04 Jun 2027 15:35:33.136            16.239                Anadyr1           507.469
       431   04 Jun 2027 16:27:12.665   04 Jun 2027 16:29:13.661           120.996               CapeTown          3781.125
       432   04 Jun 2027 16:51:04.052   04 Jun 2027 16:51:42.312            38.260                 Moscow          1195.625
       433   04 Jun 2027 16:52:23.401   04 Jun 2027 16:52:30.807             7.406              Murmansk2           231.437
       434   04 Jun 2027 16:53:45.416   04 Jun 2027 16:54:31.882            46.466              Murmansk2          1452.063
       435   04 Jun 2027 17:00:22.819   04 Jun 2027 17:00:48.677            25.858              Murmansk2           808.063
       436   04 Jun 2027 17:03:51.691   04 Jun 2027 17:04:48.590            56.899                Anadyr1          1778.094
       437   04 Jun 2027 17:05:23.076   04 Jun 2027 17:05:30.142             7.066                Anadyr2           220.812
       438   04 Jun 2027 17:05:47.621   04 Jun 2027 17:06:10.004            22.383                Anadyr1           699.469
       439   04 Jun 2027 17:07:22.874   04 Jun 2027 17:08:22.249            59.375                Anadyr2          1855.469
       440   04 Jun 2027 17:14:46.607   04 Jun 2027 17:14:54.845             8.238                Anadyr2           257.438
       441   04 Jun 2027 17:15:12.970   04 Jun 2027 17:15:38.058            25.088                Anadyr1           784.000
       442   04 Jun 2027 18:05:58.631   04 Jun 2027 18:06:27.342            28.711               CapeTown           897.219
       443   04 Jun 2027 18:33:33.291   04 Jun 2027 18:36:35.645           182.354              Murmansk1          5698.563
       444   04 Jun 2027 18:39:42.231   04 Jun 2027 18:40:02.197            19.966                Anadyr2           623.937
       445   04 Jun 2027 18:40:54.528   04 Jun 2027 18:41:16.170            21.642                Anadyr2           676.313
       446   04 Jun 2027 18:42:16.407   04 Jun 2027 18:43:55.400            98.993               Magadan2          3093.531
       447   04 Jun 2027 18:44:57.339   04 Jun 2027 18:44:58.243             0.904               Magadan1            28.250
       448   04 Jun 2027 18:45:31.606   04 Jun 2027 18:46:34.657            63.051               Magadan1          1970.344
       449   04 Jun 2027 18:50:27.776   04 Jun 2027 18:50:59.940            32.164               Magadan1          1005.125
       450   04 Jun 2027 20:15:37.341   04 Jun 2027 20:19:48.944           251.603                Anadyr1          7862.594
       451   04 Jun 2027 20:20:32.679   04 Jun 2027 20:22:44.410           131.731               Magadan1          4116.594
       452   04 Jun 2027 20:24:54.299   04 Jun 2027 20:24:56.512             2.213               Magadan2            69.156
       453   04 Jun 2027 20:25:05.834   04 Jun 2027 20:25:39.935            34.101               Magadan2          1065.656
       454   04 Jun 2027 21:10:11.474   04 Jun 2027 21:12:43.497           152.023            RioGallegos          4750.719
       455   04 Jun 2027 21:12:52.273   04 Jun 2027 21:13:32.533            40.260            RioGallegos          1258.125
       456   04 Jun 2027 21:19:30.574   04 Jun 2027 21:19:36.428             5.854            RioGallegos           182.938
       457   04 Jun 2027 21:51:15.812   04 Jun 2027 21:52:02.198            46.386                Anadyr1          1449.562
       458   04 Jun 2027 21:53:27.924   04 Jun 2027 21:53:41.765            13.841                Norilsk           432.531
       459   04 Jun 2027 21:53:56.385   04 Jun 2027 21:55:19.065            82.680               Magadan1          2583.750
       460   04 Jun 2027 21:55:19.065   04 Jun 2027 21:56:01.514            42.449               Magadan2          1326.531
       461   04 Jun 2027 21:57:13.629   04 Jun 2027 21:57:14.065             0.436                Norilsk            13.625
       462   04 Jun 2027 21:57:42.539   04 Jun 2027 21:58:30.728            48.189                Irkutsk          1505.906
       463   04 Jun 2027 21:59:01.983   04 Jun 2027 21:59:23.574            21.591                Irkutsk           674.719
       464   04 Jun 2027 21:59:29.335   04 Jun 2027 22:00:25.214            55.879                Irkutsk          1746.219
       465   04 Jun 2027 22:01:09.946   04 Jun 2027 22:02:43.355            93.409                Novosib          2919.031
       466   04 Jun 2027 22:13:58.047   04 Jun 2027 22:14:56.440            58.393                Sumatra          1824.781
       467   04 Jun 2027 23:26:04.442   04 Jun 2027 23:26:39.743            35.301                Anadyr1          1103.156
       468   04 Jun 2027 23:26:39.743   04 Jun 2027 23:27:41.049            61.306                Anadyr2          1915.813
       469   04 Jun 2027 23:27:59.714   04 Jun 2027 23:28:22.839            23.125                Anadyr2           722.656
       470   04 Jun 2027 23:29:24.209   04 Jun 2027 23:31:24.520           120.311                Norilsk          3759.719
       471   04 Jun 2027 23:33:16.053   04 Jun 2027 23:34:24.663            68.610                Irkutsk          2144.062
       472   04 Jun 2027 23:34:30.563   04 Jun 2027 23:35:39.323            68.760                Novosib          2148.750
       473   04 Jun 2027 23:41:22.530   04 Jun 2027 23:42:34.601            72.071                  Delhi          2252.219
       474   04 Jun 2027 23:43:07.400   04 Jun 2027 23:44:33.891            86.491                  Delhi          2702.844
       475   05 Jun 2027 00:31:03.326   05 Jun 2027 00:31:15.763            12.437            RioGallegos           388.656
       476   05 Jun 2027 00:59:40.699   05 Jun 2027 00:59:47.012             6.313                Anadyr2           197.281
       477   05 Jun 2027 00:59:47.012   05 Jun 2027 01:00:24.517            37.505                Anadyr1          1172.031
       478   05 Jun 2027 01:00:56.264   05 Jun 2027 01:01:38.035            41.771                Anadyr1          1305.344
       479   05 Jun 2027 01:02:11.210   05 Jun 2027 01:02:38.912            27.702                Anadyr2           865.687
       480   05 Jun 2027 01:05:23.944   05 Jun 2027 01:05:40.931            16.987                Norilsk           530.844
       481   05 Jun 2027 01:06:09.516   05 Jun 2027 01:07:30.546            81.030               Magadan1          2532.188
       482   05 Jun 2027 01:07:47.782   05 Jun 2027 01:10:17.872           150.090              Murmansk1          4690.313
