uniorb/output/strategy_4/Drop/Drop_KinoSat_110207.txt

KinoSat_110207
-------------------------
    Access    *     Start Time (UTCG)     *     Stop Time (UTCG)  *   Duration (s)        *       Station  *  Data (Mbytes)
         1   01 Jun 2027 03:43:19.873   01 Jun 2027 03:44:04.111            44.238               Magadan1          5529.750
         2   01 Jun 2027 03:44:08.954   01 Jun 2027 03:44:27.866            18.912               Magadan2          2364.000
         3   01 Jun 2027 03:44:46.766   01 Jun 2027 03:45:35.443            48.677               Magadan2          6084.625
         4   01 Jun 2027 03:45:56.590   01 Jun 2027 03:47:02.080            65.490               Magadan2          8186.250
         5   01 Jun 2027 03:47:11.439   01 Jun 2027 03:47:22.828            11.389               Magadan1          1423.625
         6   01 Jun 2027 03:48:06.603   01 Jun 2027 03:48:12.319             5.716                Norilsk           714.500
         7   01 Jun 2027 03:48:35.030   01 Jun 2027 03:49:23.518            48.488                Irkutsk          6061.000
         8   01 Jun 2027 03:49:27.077   01 Jun 2027 03:49:36.889             9.812                Norilsk          1226.500
         9   01 Jun 2027 03:49:39.835   01 Jun 2027 03:50:34.305            54.470              Murmansk1          6808.750
        10   01 Jun 2027 03:50:44.730   01 Jun 2027 03:51:21.780            37.050              Murmansk2          4631.250
        11   01 Jun 2027 04:24:20.021   01 Jun 2027 04:24:47.755            27.734            RioGallegos          3466.750
        12   01 Jun 2027 04:30:09.702   01 Jun 2027 04:30:25.803            16.101            RioGallegos          2012.625
        13   01 Jun 2027 04:31:56.948   01 Jun 2027 04:32:20.424            23.476            RioGallegos          2934.500
        14   01 Jun 2027 04:58:54.938   01 Jun 2027 05:01:10.218           135.280                Sumatra         16910.000
        15   01 Jun 2027 05:09:25.057   01 Jun 2027 05:11:54.914           149.857                  Delhi         18732.125
        16   01 Jun 2027 05:22:04.191   01 Jun 2027 05:23:33.957            89.766                Novosib         11220.750
        17   01 Jun 2027 05:23:51.255   01 Jun 2027 05:24:57.087            65.832                Irkutsk          8229.000
        18   01 Jun 2027 05:25:07.053   01 Jun 2027 05:26:44.663            97.610                Novosib         12201.250
        19   01 Jun 2027 06:43:19.087   01 Jun 2027 06:44:10.978            51.891                  Delhi          6486.375
        20   01 Jun 2027 06:46:00.999   01 Jun 2027 06:47:58.545           117.546                  Delhi         14693.250
        21   01 Jun 2027 06:59:40.294   01 Jun 2027 07:00:29.869            49.575                 Moscow          6196.875
        22   01 Jun 2027 07:00:39.106   01 Jun 2027 07:01:30.647            51.541                 Moscow          6442.625
        23   01 Jun 2027 08:34:03.808   01 Jun 2027 08:39:01.857           298.049              Murmansk2         37256.125
        24   01 Jun 2027 09:41:54.279   01 Jun 2027 09:48:33.319           399.040               CapeTown         49880.000
        25   01 Jun 2027 10:24:34.064   01 Jun 2027 10:28:23.334           229.270                Anadyr2         28658.750
        26   01 Jun 2027 13:36:08.445   01 Jun 2027 13:38:36.702           148.257               Magadan2         18532.125
        27   01 Jun 2027 15:31:57.124   01 Jun 2027 15:36:35.182           278.058                Sumatra         34757.250
        28   01 Jun 2027 16:51:57.888   01 Jun 2027 16:54:17.047           139.159                Novosib         17394.875
        29   01 Jun 2027 16:58:41.565   01 Jun 2027 17:01:22.591           161.026                Novosib         20128.250
        30   01 Jun 2027 17:03:01.891   01 Jun 2027 17:06:02.267           180.376                  Delhi         22547.000
        31   01 Jun 2027 18:34:23.759   01 Jun 2027 18:36:59.130           155.371                  Delhi          7582.250
        32   02 Jun 2027 04:01:18.719   02 Jun 2027 04:01:25.577             6.858                Irkutsk           857.250
        33   02 Jun 2027 04:01:38.428   02 Jun 2027 04:02:21.240            42.812                Norilsk          5351.500
        34   02 Jun 2027 04:02:33.464   02 Jun 2027 04:03:45.195            71.731                Norilsk          8966.375
        35   02 Jun 2027 04:41:54.085   02 Jun 2027 04:43:01.323            67.238            RioGallegos          8404.750
        36   02 Jun 2027 05:11:01.454   02 Jun 2027 05:12:29.411            87.957                Sumatra         10994.625
        37   02 Jun 2027 05:17:19.314   02 Jun 2027 05:17:23.424             4.110                Sumatra           513.750
        38   02 Jun 2027 05:20:15.582   02 Jun 2027 05:21:47.372            91.790                  Delhi         11473.750
        39   02 Jun 2027 05:35:17.635   02 Jun 2027 05:36:36.150            78.515                Irkutsk          9814.375
        40   02 Jun 2027 05:37:03.722   02 Jun 2027 05:38:53.865           110.143                Novosib         13767.875
        41   02 Jun 2027 05:38:54.012   02 Jun 2027 05:39:38.743            44.731                 Moscow          5591.375
        42   02 Jun 2027 05:39:50.512   02 Jun 2027 05:42:42.447           171.935              Murmansk1         21491.875
        43   02 Jun 2027 06:55:35.760   02 Jun 2027 06:59:58.230           262.470                  Delhi         32808.750
        44   02 Jun 2027 07:01:01.537   02 Jun 2027 07:02:56.636           115.099                  Delhi         14387.375
        45   02 Jun 2027 07:12:52.237   02 Jun 2027 07:20:00.393           428.156              Murmansk2         53519.500
        46   02 Jun 2027 08:39:32.665   02 Jun 2027 08:43:25.351           232.686                 Moscow         29085.750
        47   02 Jun 2027 08:43:47.118   02 Jun 2027 08:44:03.130            16.012              Murmansk1          2001.500
        48   02 Jun 2027 08:44:28.026   02 Jun 2027 08:44:58.224            30.198                 Moscow          3774.750
        49   02 Jun 2027 08:48:07.830   02 Jun 2027 08:49:11.285            63.455                 Moscow          7931.875
        50   02 Jun 2027 08:49:22.482   02 Jun 2027 08:53:19.168           236.686                Norilsk         29585.750
        51   02 Jun 2027 08:53:28.940   02 Jun 2027 08:54:14.161            45.221              Murmansk2          5652.625
        52   02 Jun 2027 09:57:59.733   02 Jun 2027 09:59:44.582           104.849               CapeTown         13106.125
        53   02 Jun 2027 10:20:30.817   02 Jun 2027 10:21:16.349            45.532              Murmansk2          5691.500
        54   02 Jun 2027 10:24:41.178   02 Jun 2027 10:25:14.749            33.571              Murmansk1          4196.375
        55   02 Jun 2027 10:26:00.790   02 Jun 2027 10:26:38.224            37.434              Murmansk1          4679.250
        56   02 Jun 2027 10:26:56.257   02 Jun 2027 10:27:04.913             8.656              Murmansk1          1082.000
        57   02 Jun 2027 10:27:07.681   02 Jun 2027 10:30:14.880           187.199              Murmansk1         23399.875
        58   02 Jun 2027 10:33:54.870   02 Jun 2027 10:35:40.439           105.569                Anadyr1         13196.125
        59   02 Jun 2027 10:35:52.351   02 Jun 2027 10:43:27.057           454.706                Anadyr2         56838.250
        60   02 Jun 2027 12:13:38.077   02 Jun 2027 12:15:32.315           114.238               Magadan2         14279.750
        61   02 Jun 2027 12:16:13.150   02 Jun 2027 12:16:56.820            43.670               Magadan1          5458.750
        62   02 Jun 2027 13:47:48.929   02 Jun 2027 13:48:30.119            41.190               Magadan1          5148.750
        63   02 Jun 2027 13:51:57.964   02 Jun 2027 13:52:37.526            39.562               Magadan2          4945.250
        64   02 Jun 2027 13:55:57.265   02 Jun 2027 13:57:23.405            86.140               Magadan2         10767.500
        65   02 Jun 2027 15:28:17.081   02 Jun 2027 15:29:36.678            79.597                Irkutsk          9949.625
        66   02 Jun 2027 15:34:23.043   02 Jun 2027 15:34:50.580            27.537                Irkutsk          3442.125
        67   02 Jun 2027 15:43:00.589   02 Jun 2027 15:48:51.161           350.572                Sumatra         43821.500
        68   02 Jun 2027 17:06:30.914   02 Jun 2027 17:08:07.841            96.927                Novosib         12115.875
        69   02 Jun 2027 17:13:13.048   02 Jun 2027 17:14:06.873            53.825                Novosib          6728.125
        70   02 Jun 2027 17:15:52.873   02 Jun 2027 17:19:59.528           246.655                  Delhi         30831.875
        71   02 Jun 2027 18:55:57.986   02 Jun 2027 18:57:23.545            85.559                  Delhi         10694.875
        72   02 Jun 2027 20:17:09.338   02 Jun 2027 20:20:51.203           221.865                 Moscow         18160.125
        73   03 Jun 2027 04:13:15.406   03 Jun 2027 04:13:26.829            11.423                Irkutsk          1427.875
        74   03 Jun 2027 05:23:14.033   03 Jun 2027 05:23:59.886            45.853                Sumatra          5731.625
        75   03 Jun 2027 05:25:31.935   03 Jun 2027 05:27:48.410           136.475                Sumatra         17059.375
        76   03 Jun 2027 05:31:52.624   03 Jun 2027 05:34:04.012           131.388                  Delhi         16423.500
        77   03 Jun 2027 05:48:25.614   03 Jun 2027 05:50:54.171           148.557                Novosib         18569.625
        78   03 Jun 2027 05:51:14.795   03 Jun 2027 05:51:49.375            34.580                 Moscow          4322.500
        79   03 Jun 2027 05:51:51.626   03 Jun 2027 05:53:59.714           128.088              Murmansk1         16011.000
        80   03 Jun 2027 05:53:59.714   03 Jun 2027 05:54:44.489            44.775              Murmansk2          5596.875
        81   03 Jun 2027 05:55:07.334   03 Jun 2027 05:55:47.079            39.745              Murmansk2          4968.125
        82   03 Jun 2027 07:10:26.022   03 Jun 2027 07:11:38.232            72.210                  Delhi          9026.250
        83   03 Jun 2027 07:17:25.303   03 Jun 2027 07:19:57.549           152.246                Novosib         19030.750
        84   03 Jun 2027 07:25:00.101   03 Jun 2027 07:25:50.581            50.480              Murmansk1          6310.000
        85   03 Jun 2027 07:25:50.581   03 Jun 2027 07:32:01.061           370.480              Murmansk2         46310.000
        86   03 Jun 2027 08:54:58.466   03 Jun 2027 08:57:16.905           138.439                 Moscow         17304.875
        87   03 Jun 2027 08:59:29.657   03 Jun 2027 09:01:41.322           131.665                 Moscow         16458.125
        88   03 Jun 2027 09:01:56.501   03 Jun 2027 09:05:29.185           212.684                Norilsk         26585.500
        89   03 Jun 2027 09:11:55.494   03 Jun 2027 09:14:53.865           178.371                Anadyr1         22296.375
        90   03 Jun 2027 10:10:59.208   03 Jun 2027 10:11:11.598            12.390               CapeTown          1548.750
        91   03 Jun 2027 10:39:32.772   03 Jun 2027 10:41:10.505            97.733              Murmansk1         12216.625
        92   03 Jun 2027 10:45:52.046   03 Jun 2027 10:47:09.561            77.515                Anadyr1          9689.375
        93   03 Jun 2027 10:50:05.335   03 Jun 2027 10:50:58.587            53.252                Anadyr2          6656.500
        94   03 Jun 2027 10:52:48.951   03 Jun 2027 10:56:45.637           236.686                Anadyr1         29585.750
        95   03 Jun 2027 12:15:16.917   03 Jun 2027 12:16:01.308            44.391              Murmansk1          5548.875
        96   03 Jun 2027 12:16:16.260   03 Jun 2027 12:16:39.451            23.191              Murmansk2          2898.875
        97   03 Jun 2027 12:21:55.524   03 Jun 2027 12:23:32.053            96.529                Anadyr2         12066.125
        98   03 Jun 2027 12:24:27.448   03 Jun 2027 12:28:33.139           245.691               Magadan2         30711.375
        99   03 Jun 2027 13:59:48.931   03 Jun 2027 14:01:19.162            90.231               Magadan1         11278.875
       100   03 Jun 2027 14:56:56.647   03 Jun 2027 14:58:05.290            68.643            RioGallegos          8580.375
       101   03 Jun 2027 15:40:01.535   03 Jun 2027 15:42:09.602           128.067                Irkutsk         16008.375
       102   03 Jun 2027 15:44:16.317   03 Jun 2027 15:46:01.759           105.442                Irkutsk         13180.250
       103   03 Jun 2027 15:54:20.817   03 Jun 2027 15:57:57.112           216.295                Sumatra         27036.875
       104   03 Jun 2027 16:01:00.692   03 Jun 2027 16:02:18.516            77.824                Sumatra          9728.000
       105   03 Jun 2027 17:19:31.812   03 Jun 2027 17:20:05.338            33.526                Novosib          4190.750
       106   03 Jun 2027 17:24:25.212   03 Jun 2027 17:30:03.064           337.852                  Delhi         42231.500
       107   03 Jun 2027 20:29:02.133   03 Jun 2027 20:31:43.849           161.716                 Moscow         20214.500
       108   03 Jun 2027 22:28:34.532   03 Jun 2027 22:29:43.191            68.659               CapeTown          4604.375
       109   04 Jun 2027 05:35:33.569   04 Jun 2027 05:35:38.817             5.248                Sumatra           656.000
       110   04 Jun 2027 05:37:29.246   04 Jun 2027 05:39:22.536           113.290                Sumatra         14161.250
       111   04 Jun 2027 05:43:35.855   04 Jun 2027 05:46:16.165           160.310                  Delhi         20038.750
       112   04 Jun 2027 06:00:56.947   04 Jun 2027 06:02:03.949            67.002              Murmansk1          8375.250
       113   04 Jun 2027 06:02:10.396   04 Jun 2027 06:03:09.530            59.134                Norilsk          7391.750
       114   04 Jun 2027 06:03:11.126   04 Jun 2027 06:03:58.484            47.358                 Moscow          5919.750
       115   04 Jun 2027 06:04:08.323   04 Jun 2027 06:06:02.474           114.151              Murmansk1         14268.875
       116   04 Jun 2027 06:06:02.474   04 Jun 2027 06:06:14.290            11.816              Murmansk2          1477.000
       117   04 Jun 2027 07:21:28.045   04 Jun 2027 07:22:32.834            64.789                  Delhi          8098.625
       118   04 Jun 2027 07:29:24.314   04 Jun 2027 07:31:15.201           110.887                Novosib         13860.875
       119   04 Jun 2027 07:32:31.115   04 Jun 2027 07:32:31.754             0.639                 Moscow            79.875
       120   04 Jun 2027 07:36:47.410   04 Jun 2027 07:44:01.950           434.540              Murmansk1         54317.500
       121   04 Jun 2027 09:07:17.788   04 Jun 2027 09:08:32.029            74.241              Murmansk1          9280.125
       122   04 Jun 2027 09:11:53.064   04 Jun 2027 09:12:07.872            14.808              Murmansk2          1851.000
       123   04 Jun 2027 09:12:41.493   04 Jun 2027 09:13:11.575            30.082              Murmansk2          3760.250
       124   04 Jun 2027 09:15:39.255   04 Jun 2027 09:17:09.127            89.872              Murmansk2         11234.000
       125   04 Jun 2027 09:23:14.037   04 Jun 2027 09:27:05.656           231.619                Anadyr2         28952.375
       126   04 Jun 2027 10:57:50.129   04 Jun 2027 10:59:16.160            86.031                Anadyr1         10753.875
       127   04 Jun 2027 11:01:59.181   04 Jun 2027 11:02:53.144            53.963                Anadyr1          6745.375
       128   04 Jun 2027 12:26:09.788   04 Jun 2027 12:30:16.498           246.710              Murmansk1         30838.750
       129   04 Jun 2027 12:33:41.695   04 Jun 2027 12:33:54.557            12.862                Anadyr1          1607.750
       130   04 Jun 2027 12:36:20.065   04 Jun 2027 12:41:55.361           335.296               Magadan1         41912.000
       131   04 Jun 2027 14:11:49.404   04 Jun 2027 14:13:47.290           117.886               Magadan2         14735.750
       132   04 Jun 2027 15:04:28.437   04 Jun 2027 15:05:43.886            75.449            RioGallegos          9431.125
       133   04 Jun 2027 15:51:49.882   04 Jun 2027 15:55:23.623           213.741                Irkutsk         26717.625
       134   04 Jun 2027 16:07:28.188   04 Jun 2027 16:09:52.358           144.170                Sumatra         18021.250
       135   04 Jun 2027 17:27:30.120   04 Jun 2027 17:29:07.261            97.141                Novosib         12142.625
       136   04 Jun 2027 17:35:04.212   04 Jun 2027 17:37:00.496           116.284                Novosib         14535.500
       137   04 Jun 2027 17:42:19.966   04 Jun 2027 17:43:49.418            89.452                  Delhi         11181.500
       138   04 Jun 2027 19:10:29.223   04 Jun 2027 19:11:21.172            51.949                  Delhi          6493.625
       139   04 Jun 2027 19:13:27.965   04 Jun 2027 19:15:18.012           110.047                  Delhi         13755.875
       140   04 Jun 2027 20:40:56.767   04 Jun 2027 20:42:52.126           115.359                 Moscow         14419.875
       141   04 Jun 2027 21:13:16.271   04 Jun 2027 21:15:02.916           106.645               CapeTown         13287.750
       142   05 Jun 2027 04:11:40.886   05 Jun 2027 04:15:55.676           254.790                Sumatra         31848.750
       143   05 Jun 2027 05:50:11.107   05 Jun 2027 05:51:56.187           105.080                Sumatra         13135.000
       144   05 Jun 2027 05:58:24.505   05 Jun 2027 05:59:09.965            45.460                  Delhi          5682.500
       145   05 Jun 2027 06:13:10.235   05 Jun 2027 06:13:21.865            11.630                 Moscow          1453.750
       146   05 Jun 2027 06:13:45.195   05 Jun 2027 06:14:14.049            28.854              Murmansk2          3606.750
       147   05 Jun 2027 06:14:14.049   05 Jun 2027 06:15:12.091            58.042              Murmansk1          7255.250
       148   05 Jun 2027 06:15:21.095   05 Jun 2027 06:16:06.456            45.361                 Moscow          5670.125
       149   05 Jun 2027 06:16:21.317   05 Jun 2027 06:18:04.167           102.850                Norilsk         12856.250
       150   05 Jun 2027 06:18:13.028   05 Jun 2027 06:20:16.429           123.401              Murmansk1         15425.125
       151   05 Jun 2027 07:33:15.850   05 Jun 2027 07:36:30.928           195.078                  Delhi         24384.750
       152   05 Jun 2027 07:41:47.841   05 Jun 2027 07:43:20.583            92.742                Novosib         11592.750
       153   05 Jun 2027 07:43:20.890   05 Jun 2027 07:44:31.130            70.240                 Moscow          8780.000
       154   05 Jun 2027 07:49:37.839   05 Jun 2027 07:54:19.173           281.334                Norilsk         35166.750
       155   05 Jun 2027 07:54:22.135   05 Jun 2027 07:56:03.045           100.910              Murmansk2         12613.750
       156   05 Jun 2027 09:16:31.644   05 Jun 2027 09:19:27.769           176.125                 Moscow         22015.625
       157   05 Jun 2027 09:19:32.837   05 Jun 2027 09:21:35.697           122.860              Murmansk1         15357.500
       158   05 Jun 2027 09:22:09.225   05 Jun 2027 09:25:00.901           171.676              Murmansk1         21459.500
       159   05 Jun 2027 09:27:39.884   05 Jun 2027 09:28:49.149            69.265              Murmansk2          8658.125
       160   05 Jun 2027 09:34:51.595   05 Jun 2027 09:41:17.015           385.420                Anadyr2         48177.500
       161   05 Jun 2027 11:13:38.054   05 Jun 2027 11:14:35.098            57.044                Anadyr2          7130.500
       162   05 Jun 2027 12:48:14.530   05 Jun 2027 12:52:50.516           275.986               Magadan1         34498.250
       163   05 Jun 2027 14:23:50.295   05 Jun 2027 14:24:14.990            24.695               Magadan2          3086.875
       164   05 Jun 2027 14:26:11.391   05 Jun 2027 14:27:09.524            58.133               Magadan2          7266.625
       165   05 Jun 2027 15:16:11.689   05 Jun 2027 15:20:24.187           252.498            RioGallegos         31562.250
       166   05 Jun 2027 16:03:41.105   05 Jun 2027 16:05:14.168            93.063                Irkutsk         11632.875
       167   05 Jun 2027 16:17:31.589   05 Jun 2027 16:19:50.967           139.378                Sumatra         17422.250
       168   05 Jun 2027 17:39:25.091   05 Jun 2027 17:41:31.111           126.020                Novosib         15752.500
       169   05 Jun 2027 17:47:23.792   05 Jun 2027 17:51:25.012           241.220                  Delhi         30152.500
       170   05 Jun 2027 20:49:28.195   05 Jun 2027 20:49:31.461             3.266              Murmansk1           408.250
       171   05 Jun 2027 20:52:52.885   05 Jun 2027 20:54:22.026            89.141                 Moscow         11142.625
       172   05 Jun 2027 20:55:17.808   05 Jun 2027 20:58:03.439           165.631                 Moscow         20703.875
       173   06 Jun 2027 03:13:48.313   06 Jun 2027 03:17:57.119           248.806                Norilsk         31100.750
       174   06 Jun 2027 04:23:24.002   06 Jun 2027 04:25:59.450           155.448                Sumatra         19431.000
       175   06 Jun 2027 04:49:12.499   06 Jun 2027 04:49:24.972            12.473                Irkutsk          1559.125
       176   06 Jun 2027 04:49:42.430   06 Jun 2027 04:50:10.472            28.042                 Moscow          3505.250
       177   06 Jun 2027 04:50:17.990   06 Jun 2027 04:54:13.959           235.969              Murmansk1         29496.125
       178   06 Jun 2027 04:54:13.959   06 Jun 2027 04:54:51.316            37.357              Murmansk2          4669.625
       179   06 Jun 2027 05:28:09.384   06 Jun 2027 05:28:26.202            16.818            RioGallegos          2102.250
       180   06 Jun 2027 05:28:44.367   06 Jun 2027 05:28:51.284             6.917            RioGallegos           864.625
       181   06 Jun 2027 05:29:23.375   06 Jun 2027 05:31:21.321           117.946            RioGallegos         14743.250
       182   06 Jun 2027 05:33:51.313   06 Jun 2027 05:34:05.964            14.651            RioGallegos          1831.375
       183   06 Jun 2027 06:00:41.852   06 Jun 2027 06:02:20.464            98.612                Sumatra         12326.500
       184   06 Jun 2027 06:02:50.403   06 Jun 2027 06:04:08.996            78.593                Sumatra          9824.125
       185   06 Jun 2027 06:07:19.034   06 Jun 2027 06:10:11.235           172.201                  Delhi         21525.125
       186   06 Jun 2027 06:14:30.598   06 Jun 2027 06:18:57.310           266.712                Novosib         33339.000
       187   06 Jun 2027 06:19:50.834   06 Jun 2027 06:22:07.521           136.687                 Moscow         17085.875
       188   06 Jun 2027 06:25:03.628   06 Jun 2027 06:28:13.535           189.907                 Moscow         23738.375
       189   06 Jun 2027 06:28:30.316   06 Jun 2027 06:30:00.636            90.320                Norilsk         11290.000
       190   06 Jun 2027 06:30:11.291   06 Jun 2027 06:30:32.785            21.494              Murmansk2          2686.750
       191   06 Jun 2027 07:52:59.740   06 Jun 2027 07:54:32.103            92.363                 Moscow         11545.375
       192   06 Jun 2027 07:54:40.391   06 Jun 2027 07:55:32.763            52.372                 Moscow          6546.500
       193   06 Jun 2027 07:55:44.989   06 Jun 2027 07:56:18.026            33.037              Murmansk1          4129.625
       194   06 Jun 2027 08:00:47.064   06 Jun 2027 08:01:07.828            20.764                 Moscow          2595.500
       195   06 Jun 2027 08:02:03.290   06 Jun 2027 08:05:09.920           186.630                Norilsk         23328.750
       196   06 Jun 2027 08:05:15.350   06 Jun 2027 08:06:17.412            62.062              Murmansk2          7757.750
       197   06 Jun 2027 08:06:17.412   06 Jun 2027 08:08:04.301           106.889              Murmansk1         13361.125
       198   06 Jun 2027 09:07:55.073   06 Jun 2027 09:10:38.917           163.844               CapeTown         20480.500
       199   06 Jun 2027 09:28:13.779   06 Jun 2027 09:29:47.172            93.393                 Moscow         11674.125
       200   06 Jun 2027 09:30:46.463   06 Jun 2027 09:32:29.687           103.224                 Moscow         12903.000
       201   06 Jun 2027 09:34:36.430   06 Jun 2027 09:37:30.154           173.724              Murmansk1         21715.500
       202   06 Jun 2027 09:39:40.732   06 Jun 2027 09:40:14.924            34.192              Murmansk1          4274.000
       203   06 Jun 2027 09:46:36.862   06 Jun 2027 09:54:07.588           450.726                Anadyr2         56340.750
       204   06 Jun 2027 11:11:09.125   06 Jun 2027 11:11:12.031             2.906              Murmansk2           363.250
       205   06 Jun 2027 11:11:27.207   06 Jun 2027 11:12:19.092            51.885              Murmansk2          6485.625
       206   06 Jun 2027 11:24:59.336   06 Jun 2027 11:26:35.929            96.593                Anadyr1         12074.125
       207   06 Jun 2027 11:26:37.328   06 Jun 2027 11:28:42.436           125.108               Magadan1         15638.500
       208   06 Jun 2027 13:00:10.440   06 Jun 2027 13:01:43.585            93.145               Magadan2         11643.125
       209   06 Jun 2027 14:39:10.252   06 Jun 2027 14:40:43.297            93.045               Magadan1         11630.625
       210   06 Jun 2027 15:27:59.166   06 Jun 2027 15:32:20.589           261.423            RioGallegos         32677.875
       211   06 Jun 2027 16:15:34.569   06 Jun 2027 16:17:39.087           124.518                Irkutsk         15564.750
       212   06 Jun 2027 16:29:18.014   06 Jun 2027 16:32:06.241           168.227                Sumatra         21028.375
       213   06 Jun 2027 17:51:21.477   06 Jun 2027 17:52:46.384            84.907                Novosib         10613.375
       214   06 Jun 2027 17:59:05.262   06 Jun 2027 18:03:23.303           258.041                  Delhi         32255.125
       215   06 Jun 2027 21:02:10.222   06 Jun 2027 21:03:08.147            57.925              Murmansk1          7240.625
       216   06 Jun 2027 21:04:50.229   06 Jun 2027 21:06:01.395            71.166                 Moscow          8895.750
       217   06 Jun 2027 21:29:05.365   06 Jun 2027 21:30:53.096           107.731               CapeTown         13466.375
       218   07 Jun 2027 03:25:37.185   07 Jun 2027 03:26:44.142            66.957                Novosib          8369.625
       219   07 Jun 2027 03:26:46.567   07 Jun 2027 03:31:20.878           274.311              Murmansk2         34288.875
       220   07 Jun 2027 03:33:04.400   07 Jun 2027 03:33:48.030            43.630              Murmansk1          5453.750
       221   07 Jun 2027 04:35:13.529   07 Jun 2027 04:38:11.447           177.918                Sumatra         22239.750
       222   07 Jun 2027 05:01:33.796   07 Jun 2027 05:01:43.943            10.147                Norilsk          1268.375
       223   07 Jun 2027 05:01:55.526   07 Jun 2027 05:03:01.036            65.510                 Moscow          8188.750
       224   07 Jun 2027 05:03:04.338   07 Jun 2027 05:06:53.421           229.083              Murmansk1         28635.375
       225   07 Jun 2027 05:40:54.370   07 Jun 2027 05:41:22.197            27.827            RioGallegos          3478.375
       226   07 Jun 2027 05:45:23.455   07 Jun 2027 05:45:52.932            29.477            RioGallegos          3684.625
       227   07 Jun 2027 06:13:42.275   07 Jun 2027 06:16:28.803           166.528                Sumatra         20816.000
       228   07 Jun 2027 06:19:18.597   07 Jun 2027 06:21:26.740           128.143                  Delhi         16017.875
       229   07 Jun 2027 06:26:46.637   07 Jun 2027 06:31:03.501           256.864                Novosib         32108.000
       230   07 Jun 2027 06:31:17.990   07 Jun 2027 06:32:23.857            65.867                 Moscow          8233.375
       231   07 Jun 2027 06:37:21.852   07 Jun 2027 06:37:36.459            14.607              Murmansk1          1825.875
       232   07 Jun 2027 06:37:45.558   07 Jun 2027 06:41:56.464           250.906                Norilsk         31363.250
       233   07 Jun 2027 06:42:09.033   07 Jun 2027 06:42:22.423            13.390              Murmansk1          1673.750
       234   07 Jun 2027 08:00:01.693   07 Jun 2027 08:01:27.750            86.057                  Delhi         10757.125
       235   07 Jun 2027 08:05:06.023   07 Jun 2027 08:06:54.033           108.010                 Moscow         13501.250
       236   07 Jun 2027 08:12:41.983   07 Jun 2027 08:13:19.263            37.280              Murmansk1          4660.000
       237   07 Jun 2027 08:14:09.224   07 Jun 2027 08:20:05.708           356.484              Murmansk2         44560.500
       238   07 Jun 2027 09:19:05.838   07 Jun 2027 09:27:42.501           516.663               CapeTown         64582.875
       239   07 Jun 2027 09:40:32.818   07 Jun 2027 09:44:41.407           248.589                 Moscow         31073.625
       240   07 Jun 2027 09:46:37.879   07 Jun 2027 09:49:47.558           189.679              Murmansk2         23709.875
       241   07 Jun 2027 09:50:25.185   07 Jun 2027 09:51:10.369            45.184              Murmansk2          5648.000
       242   07 Jun 2027 09:51:41.787   07 Jun 2027 09:53:42.433           120.646              Murmansk2         15080.750
       243   07 Jun 2027 09:58:26.521   07 Jun 2027 10:04:07.541           341.020                Anadyr1         42627.500
       244   07 Jun 2027 10:06:33.437   07 Jun 2027 10:06:51.317            17.880                Anadyr2          2235.000
       245   07 Jun 2027 11:23:13.646   07 Jun 2027 11:23:19.525             5.879              Murmansk1           734.875
       246   07 Jun 2027 11:24:17.654   07 Jun 2027 11:24:49.917            32.263              Murmansk1          4032.875
       247   07 Jun 2027 11:25:09.911   07 Jun 2027 11:25:37.642            27.731              Murmansk2          3466.375
       248   07 Jun 2027 11:25:55.406   07 Jun 2027 11:26:12.466            17.060              Murmansk2          2132.500
       249   07 Jun 2027 11:33:48.204   07 Jun 2027 11:36:17.217           149.013                Anadyr2         18626.625
       250   07 Jun 2027 11:36:54.176   07 Jun 2027 11:37:55.196            61.020                Anadyr2          7627.500
       251   07 Jun 2027 11:38:18.851   07 Jun 2027 11:38:36.958            18.107                Anadyr2          2263.375
       252   07 Jun 2027 11:39:18.628   07 Jun 2027 11:41:46.331           147.703               Magadan2         18462.875
       253   07 Jun 2027 13:12:07.498   07 Jun 2027 13:17:55.746           348.248               Magadan1         43531.000
       254   07 Jun 2027 15:39:49.747   07 Jun 2027 15:44:15.311           265.564            RioGallegos         33195.500
       255   07 Jun 2027 16:27:29.839   07 Jun 2027 16:29:14.777           104.938                Irkutsk         13117.250
       256   07 Jun 2027 16:41:10.499   07 Jun 2027 16:44:15.155           184.656                Sumatra         23082.000
       257   07 Jun 2027 18:05:08.573   07 Jun 2027 18:06:06.690            58.117                Novosib          7264.625
       258   07 Jun 2027 18:08:04.236   07 Jun 2027 18:08:24.280            20.044                Novosib          2505.500
       259   07 Jun 2027 18:10:52.134   07 Jun 2027 18:13:18.834           146.700                  Delhi         18337.500
       260   07 Jun 2027 19:42:03.176   07 Jun 2027 19:42:37.360            34.184                 Moscow          4273.000
       261   07 Jun 2027 19:49:18.989   07 Jun 2027 19:50:26.423            67.434                 Moscow          8429.250
       262   07 Jun 2027 21:13:31.032   07 Jun 2027 21:13:46.295            15.263              Murmansk1          1907.875
       263   07 Jun 2027 21:19:47.549   07 Jun 2027 21:20:00.913            13.364                 Moscow          1670.500
       264   07 Jun 2027 21:23:52.462   07 Jun 2027 21:24:54.387            61.925                 Moscow          7740.625
       265   07 Jun 2027 21:40:52.139   07 Jun 2027 21:43:45.137           172.998               CapeTown         21624.750
       266   08 Jun 2027 03:17:25.713   08 Jun 2027 03:18:42.757            77.044                Sumatra          9630.500
       267   08 Jun 2027 03:37:43.808   08 Jun 2027 03:40:52.908           189.100              Murmansk1         23637.500
       268   08 Jun 2027 04:47:08.881   08 Jun 2027 04:50:17.420           188.539                Sumatra         23567.375
       269   08 Jun 2027 05:13:49.543   08 Jun 2027 05:15:06.184            76.641                Novosib          9580.125
       270   08 Jun 2027 05:15:06.401   08 Jun 2027 05:18:55.393           228.992              Murmansk1         28624.000
       271   08 Jun 2027 05:20:39.018   08 Jun 2027 05:20:43.336             4.318              Murmansk2           539.750
       272   08 Jun 2027 05:52:08.206   08 Jun 2027 05:53:27.392            79.186            RioGallegos          9898.250
       273   08 Jun 2027 05:55:40.013   08 Jun 2027 05:56:42.000            61.987            RioGallegos          7748.375
       274   08 Jun 2027 05:58:00.330   08 Jun 2027 05:58:17.547            17.217            RioGallegos          2152.125
       275   08 Jun 2027 06:27:47.151   08 Jun 2027 06:28:57.310            70.159                Sumatra          8769.875
       276   08 Jun 2027 06:31:23.544   08 Jun 2027 06:32:52.135            88.591                  Delhi         11073.875
       277   08 Jun 2027 06:33:56.263   08 Jun 2027 06:37:27.824           211.561                  Delhi         26445.125
       278   08 Jun 2027 06:39:06.488   08 Jun 2027 06:42:37.969           211.481                Novosib         26435.125
       279   08 Jun 2027 06:42:39.590   08 Jun 2027 06:44:18.270            98.680                 Moscow         12335.000
       280   08 Jun 2027 06:44:34.074   08 Jun 2027 06:44:45.885            11.811              Murmansk1          1476.375
       281   08 Jun 2027 06:49:17.717   08 Jun 2027 06:50:42.015            84.298                Novosib         10537.250
       282   08 Jun 2027 06:50:46.519   08 Jun 2027 06:53:51.642           185.123                Norilsk         23140.375
       283   08 Jun 2027 08:25:39.236   08 Jun 2027 08:30:12.183           272.947                Norilsk         34118.375
       284   08 Jun 2027 08:30:35.516   08 Jun 2027 08:32:07.222            91.706              Murmansk1         11463.250
       285   08 Jun 2027 09:30:32.605   08 Jun 2027 09:40:28.818           596.213               CapeTown         74526.625
       286   08 Jun 2027 09:52:55.941   08 Jun 2027 09:56:53.349           237.408                 Moscow         29676.000
       287   08 Jun 2027 09:57:05.023   08 Jun 2027 10:01:40.387           275.364              Murmansk2         34420.500
       288   08 Jun 2027 10:03:43.007   08 Jun 2027 10:04:28.249            45.242              Murmansk2          5655.250
       289   08 Jun 2027 10:05:38.896   08 Jun 2027 10:05:45.584             6.688              Murmansk2           836.000
       290   08 Jun 2027 10:06:30.151   08 Jun 2027 10:07:24.648            54.497              Murmansk1          6812.125
       291   08 Jun 2027 10:10:19.038   08 Jun 2027 10:15:45.438           326.400                Anadyr2         40800.000
       292   08 Jun 2027 10:16:15.388   08 Jun 2027 10:19:29.771           194.383                Anadyr1         24297.875
       293   08 Jun 2027 11:37:52.202   08 Jun 2027 11:38:37.431            45.229              Murmansk1          5653.625
       294   08 Jun 2027 11:39:40.931   08 Jun 2027 11:39:54.320            13.389              Murmansk1          1673.625
       295   08 Jun 2027 11:43:05.863   08 Jun 2027 11:43:35.059            29.196              Murmansk1          3649.500
       296   08 Jun 2027 11:45:48.456   08 Jun 2027 11:46:17.696            29.240                Anadyr1          3655.000
       297   08 Jun 2027 11:46:22.452   08 Jun 2027 11:49:44.952           202.500                Anadyr2         25312.500
       298   08 Jun 2027 11:50:12.525   08 Jun 2027 11:53:21.498           188.973               Magadan1         23621.625
       299   08 Jun 2027 11:53:29.985   08 Jun 2027 11:53:58.865            28.880               Magadan2          3610.000
       300   08 Jun 2027 13:24:05.504   08 Jun 2027 13:29:08.732           303.228               Magadan1         37903.500
       301   08 Jun 2027 15:10:23.387   08 Jun 2027 15:12:04.191           100.804                Irkutsk         12600.500
       302   08 Jun 2027 15:21:41.926   08 Jun 2027 15:24:27.097           165.171                Sumatra         20646.375
       303   08 Jun 2027 16:01:13.052   08 Jun 2027 16:03:11.058           118.006            RioGallegos         14750.750
       304   08 Jun 2027 16:39:26.597   08 Jun 2027 16:40:48.961            82.364                Irkutsk         10295.500
       305   08 Jun 2027 16:47:41.345   08 Jun 2027 16:49:05.353            84.008                Novosib         10501.000
       306   08 Jun 2027 16:53:52.550   08 Jun 2027 16:55:50.430           117.880                Sumatra         14735.000
       307   08 Jun 2027 18:18:46.366   08 Jun 2027 18:20:19.288            92.922                Novosib         11615.250
       308   08 Jun 2027 18:22:43.424   08 Jun 2027 18:25:35.080           171.656                  Delhi         21457.000
       309   08 Jun 2027 18:31:26.314   08 Jun 2027 18:32:13.746            47.432                  Delhi          5929.000
       310   08 Jun 2027 19:54:28.307   08 Jun 2027 19:55:54.025            85.718                 Moscow         10714.750
       311   08 Jun 2027 21:33:10.283   08 Jun 2027 21:33:37.987            27.704                 Moscow          3463.000
       312   08 Jun 2027 21:52:44.003   08 Jun 2027 21:55:45.741           181.738               CapeTown         22717.250
       313   09 Jun 2027 03:26:49.374   09 Jun 2027 03:28:43.529           114.155                Sumatra           537.499
       314   09 Jun 2027 03:49:43.472   09 Jun 2027 03:53:05.090           201.618                Norilsk         25202.250
       315   09 Jun 2027 04:59:09.831   09 Jun 2027 05:01:24.259           134.428                Sumatra         16803.500
       316   09 Jun 2027 05:06:54.350   09 Jun 2027 05:08:49.151           114.801                Sumatra         14350.125
       317   09 Jun 2027 05:24:29.478   09 Jun 2027 05:24:51.906            22.428              Murmansk2          2803.500
       318   09 Jun 2027 05:25:41.388   09 Jun 2027 05:30:52.033           310.645              Murmansk1         38830.625
       319   09 Jun 2027 06:05:25.206   09 Jun 2027 06:05:34.535             9.329            RioGallegos          1166.125
       320   09 Jun 2027 06:43:34.138   09 Jun 2027 06:50:05.406           391.268                  Delhi         48908.500
       321   09 Jun 2027 06:53:06.340   09 Jun 2027 06:54:42.030            95.690                Novosib         11961.250
       322   09 Jun 2027 06:54:52.181   09 Jun 2027 06:56:51.206           119.025                 Moscow         14878.125
       323   09 Jun 2027 07:01:16.816   09 Jun 2027 07:01:27.561            10.745                Novosib          1343.125
       324   09 Jun 2027 07:01:40.860   09 Jun 2027 07:03:28.625           107.765              Murmansk2         13470.625
       325   09 Jun 2027 07:03:38.193   09 Jun 2027 07:06:32.669           174.476                Norilsk         21809.500
       326   09 Jun 2027 08:32:36.386   09 Jun 2027 08:32:48.487            12.101                 Moscow          1512.625
       327   09 Jun 2027 08:36:24.547   09 Jun 2027 08:42:06.580           342.033                Norilsk         42754.125
       328   09 Jun 2027 08:42:33.586   09 Jun 2027 08:44:08.826            95.240              Murmansk1         11905.000
       329   09 Jun 2027 09:42:08.747   09 Jun 2027 09:48:47.146           398.399               CapeTown         49799.875
       330   09 Jun 2027 10:05:23.649   09 Jun 2027 10:07:10.855           107.206                 Moscow         13400.750
       331   09 Jun 2027 10:07:45.896   09 Jun 2027 10:08:59.086            73.190                 Moscow          9148.750
       332   09 Jun 2027 10:09:18.512   09 Jun 2027 10:09:40.806            22.294              Murmansk1          2786.750
       333   09 Jun 2027 10:10:41.028   09 Jun 2027 10:11:20.186            39.158              Murmansk1          4894.750
       334   09 Jun 2027 10:12:13.008   09 Jun 2027 10:12:34.203            21.195              Murmansk1          2649.375
       335   09 Jun 2027 10:15:44.368   09 Jun 2027 10:18:04.942           140.574              Murmansk2         17571.750
       336   09 Jun 2027 10:22:13.584   09 Jun 2027 10:32:03.832           590.248                Anadyr1         73781.000
       337   09 Jun 2027 11:52:22.266   09 Jun 2027 11:52:34.123            11.857              Murmansk1          1482.125
       338   09 Jun 2027 11:52:43.444   09 Jun 2027 11:53:08.537            25.093              Murmansk1          3136.625
       339   09 Jun 2027 11:53:53.572   09 Jun 2027 11:54:36.969            43.397              Murmansk1          5424.625
       340   09 Jun 2027 11:55:39.102   09 Jun 2027 11:55:43.933             4.831              Murmansk2           603.875
       341   09 Jun 2027 11:57:49.025   09 Jun 2027 11:58:54.072            65.047                Anadyr2          8130.875
       342   09 Jun 2027 11:59:55.050   09 Jun 2027 12:00:44.953            49.903                Anadyr2          6237.875
       343   09 Jun 2027 12:01:05.037   09 Jun 2027 12:05:06.033           240.996               Magadan2         30124.500
       344   09 Jun 2027 13:36:04.295   09 Jun 2027 13:36:23.601            19.306               Magadan2          2413.250
       345   09 Jun 2027 13:36:23.601   09 Jun 2027 13:38:51.765           148.164               Magadan1         18520.500
       346   09 Jun 2027 15:21:44.247   09 Jun 2027 15:25:02.679           198.432                Irkutsk         24804.000
       347   09 Jun 2027 15:32:10.782   09 Jun 2027 15:34:33.966           143.184                Sumatra         17898.000
       348   09 Jun 2027 16:52:12.463   09 Jun 2027 16:54:44.584           152.121                Novosib         19015.125
       349   09 Jun 2027 17:01:37.218   09 Jun 2027 17:01:47.214             9.996                Novosib          1249.500
       350   09 Jun 2027 17:03:13.601   09 Jun 2027 17:06:20.447           186.846                  Delhi         23355.750
       351   09 Jun 2027 17:11:51.826   09 Jun 2027 17:13:01.001            69.175                Sumatra          8646.875
       352   09 Jun 2027 18:32:07.700   09 Jun 2027 18:33:46.287            98.587                Novosib         12323.375
       353   09 Jun 2027 18:34:38.529   09 Jun 2027 18:37:13.085           154.556                  Delhi         19319.500
       354   09 Jun 2027 20:08:02.594   09 Jun 2027 20:11:20.414           197.820                 Moscow         24727.500
       355   09 Jun 2027 22:06:52.675   09 Jun 2027 22:07:54.185            61.510               CapeTown          7688.750
       356   09 Jun 2027 22:09:36.495   09 Jun 2027 22:09:59.039            22.544               CapeTown          1116.875
       357   10 Jun 2027 04:01:35.704   10 Jun 2027 04:01:53.446            17.742                Norilsk          2217.750
       358   10 Jun 2027 04:02:07.794   10 Jun 2027 04:03:27.850            80.056              Murmansk2         10007.000
       359   10 Jun 2027 05:11:16.442   10 Jun 2027 05:12:43.623            87.181                Sumatra         10897.625
       360   10 Jun 2027 05:19:06.077   10 Jun 2027 05:20:23.991            77.914                Sumatra          9739.250
       361   10 Jun 2027 05:20:29.961   10 Jun 2027 05:22:02.517            92.556                  Delhi         11569.500
       362   10 Jun 2027 05:36:04.597   10 Jun 2027 05:36:36.668            32.071                 Moscow          4008.875
       363   10 Jun 2027 05:37:33.023   10 Jun 2027 05:39:08.702            95.679                Novosib         11959.875
       364   10 Jun 2027 05:39:10.980   10 Jun 2027 05:42:35.656           204.676                Norilsk         25584.500
       365   10 Jun 2027 06:55:50.927   10 Jun 2027 06:56:05.135            14.208                  Delhi          1776.000
       366   10 Jun 2027 06:58:15.069   10 Jun 2027 07:00:12.972           117.903                  Delhi         14737.875
       367   10 Jun 2027 07:04:59.370   10 Jun 2027 07:08:15.188           195.818                 Moscow         24477.250
       368   10 Jun 2027 07:13:07.963   10 Jun 2027 07:18:54.820           346.857              Murmansk2         43357.125
       369   10 Jun 2027 08:39:47.556   10 Jun 2027 08:43:39.609           232.053                 Moscow         29006.625
       370   10 Jun 2027 08:43:44.492   10 Jun 2027 08:44:02.948            18.456              Murmansk2          2307.000
       371   10 Jun 2027 08:44:42.672   10 Jun 2027 08:45:42.939            60.267                 Moscow          7533.375
       372   10 Jun 2027 08:48:18.591   10 Jun 2027 08:52:39.758           261.167                 Moscow         32645.875
       373   10 Jun 2027 08:52:44.923   10 Jun 2027 08:53:44.258            59.335              Murmansk2          7416.875
       374   10 Jun 2027 08:53:44.258   10 Jun 2027 08:54:31.100            46.842              Murmansk1          5855.250
       375   10 Jun 2027 09:58:15.450   10 Jun 2027 09:59:58.725           103.275               CapeTown         12909.375
       376   10 Jun 2027 10:21:06.305   10 Jun 2027 10:21:32.220            25.915              Murmansk2          3239.375
       377   10 Jun 2027 10:22:42.686   10 Jun 2027 10:23:21.189            38.503              Murmansk2          4812.875
       378   10 Jun 2027 10:23:21.189   10 Jun 2027 10:24:00.309            39.120              Murmansk1          4890.000
       379   10 Jun 2027 10:24:56.891   10 Jun 2027 10:25:29.402            32.511              Murmansk2          4063.875
       380   10 Jun 2027 10:26:39.655   10 Jun 2027 10:26:53.410            13.755              Murmansk2          1719.375
       381   10 Jun 2027 10:27:11.861   10 Jun 2027 10:29:15.002           123.141              Murmansk2         15392.625
       382   10 Jun 2027 10:29:30.103   10 Jun 2027 10:30:31.199            61.096              Murmansk1          7637.000
       383   10 Jun 2027 10:34:09.627   10 Jun 2027 10:43:41.827           572.200                Anadyr2         71525.000
       384   10 Jun 2027 12:04:35.781   10 Jun 2027 12:05:02.005            26.224              Murmansk2          3278.000
       385   10 Jun 2027 12:05:54.762   10 Jun 2027 12:06:40.153            45.391              Murmansk2          5673.875
       386   10 Jun 2027 12:09:49.846   10 Jun 2027 12:10:11.767            21.921                Anadyr1          2740.125
       387   10 Jun 2027 12:11:22.144   10 Jun 2027 12:11:36.962            14.818                Anadyr1          1852.250
       388   10 Jun 2027 12:13:49.250   10 Jun 2027 12:16:26.018           156.768               Magadan1         19596.000
       389   10 Jun 2027 13:48:03.746   10 Jun 2027 13:48:44.662            40.916               Magadan1          5114.500
       390   10 Jun 2027 13:49:01.558   10 Jun 2027 13:51:04.065           122.507               Magadan2         15313.375
       391   10 Jun 2027 14:45:52.995   10 Jun 2027 14:48:06.080           133.085            RioGallegos         16635.625
       392   10 Jun 2027 15:28:31.583   10 Jun 2027 15:30:12.330           100.747                Irkutsk         12593.375
       393   10 Jun 2027 15:34:38.511   10 Jun 2027 15:35:04.318            25.807                Irkutsk          3225.875
       394   10 Jun 2027 15:43:14.615   10 Jun 2027 15:46:19.916           185.301                Sumatra         23162.625
       395   10 Jun 2027 15:49:06.404   10 Jun 2027 15:52:16.561           190.157                Sumatra         23769.625
       396   10 Jun 2027 17:13:32.241   10 Jun 2027 17:16:07.512           155.271                  Delhi         19408.875
       397   10 Jun 2027 17:17:54.603   10 Jun 2027 17:20:15.722           141.119                  Delhi         17639.875
       398   10 Jun 2027 18:54:01.960   10 Jun 2027 18:54:13.849            11.889                  Delhi          1486.125
       399   10 Jun 2027 18:56:12.860   10 Jun 2027 18:57:31.975            79.115                  Delhi          9889.375
       400   10 Jun 2027 20:17:24.011   10 Jun 2027 20:18:18.330            54.319                 Moscow          6789.875
       401   10 Jun 2027 20:21:06.721   10 Jun 2027 20:21:51.450            44.729                 Moscow          5591.125
       402   10 Jun 2027 21:58:47.461   10 Jun 2027 21:58:49.464             2.003                 Moscow           250.375
       403   10 Jun 2027 21:59:16.018   10 Jun 2027 21:59:22.433             6.415              Murmansk2           801.875
       404   10 Jun 2027 22:16:42.608   10 Jun 2027 22:18:25.633           103.025               CapeTown         11437.625
       405   11 Jun 2027 04:13:27.131   11 Jun 2027 04:13:50.864            23.733                Norilsk          2966.625
       406   11 Jun 2027 05:23:29.131   11 Jun 2027 05:24:14.209            45.078                Sumatra          5634.750
       407   11 Jun 2027 05:25:46.923   11 Jun 2027 05:26:01.352            14.429                Sumatra          1803.625
       408   11 Jun 2027 05:30:37.758   11 Jun 2027 05:31:06.434            28.676                Sumatra          3584.500
       409   11 Jun 2027 05:32:07.114   11 Jun 2027 05:34:19.074           131.960                  Delhi         16495.000
       410   11 Jun 2027 05:48:43.756   11 Jun 2027 05:51:41.924           178.168              Murmansk2         22271.000
       411   11 Jun 2027 05:51:51.218   11 Jun 2027 05:52:04.351            13.133                 Moscow          1641.625
       412   11 Jun 2027 05:52:06.265   11 Jun 2027 05:56:14.447           248.182              Murmansk2         31022.750
       413   11 Jun 2027 07:08:14.821   11 Jun 2027 07:10:01.538           106.717                  Delhi         13339.625
       414   11 Jun 2027 07:17:39.931   11 Jun 2027 07:20:13.057           153.126                Novosib         19140.750
       415   11 Jun 2027 07:25:09.863   11 Jun 2027 07:26:15.504            65.641                Novosib          8205.125
       416   11 Jun 2027 07:26:20.681   11 Jun 2027 07:29:48.028           207.347              Murmansk2         25918.375
       417   11 Jun 2027 07:29:48.028   11 Jun 2027 07:32:15.898           147.870              Murmansk1         18483.750
       418   11 Jun 2027 08:55:05.244   11 Jun 2027 08:57:32.315           147.071                 Moscow         18383.875
       419   11 Jun 2027 08:59:44.569   11 Jun 2027 09:04:39.467           294.898                 Moscow         36862.250
       420   11 Jun 2027 09:05:02.115   11 Jun 2027 09:05:43.746            41.631                Norilsk          5203.875
       421   11 Jun 2027 09:12:09.178   11 Jun 2027 09:15:10.548           181.370                Anadyr2         22671.250
       422   11 Jun 2027 10:11:14.628   11 Jun 2027 10:11:25.909            11.281               CapeTown          1410.125
       423   11 Jun 2027 10:39:47.407   11 Jun 2027 10:40:40.909            53.502              Murmansk1          6687.750
       424   11 Jun 2027 10:46:06.819   11 Jun 2027 10:47:23.909            77.090                Anadyr2          9636.250
       425   11 Jun 2027 10:50:20.613   11 Jun 2027 10:55:39.757           319.144                Anadyr1         39893.000
       426   11 Jun 2027 12:15:44.904   11 Jun 2027 12:16:31.538            46.634              Murmansk2          5829.250
       427   11 Jun 2027 12:17:56.104   11 Jun 2027 12:18:04.507             8.403              Murmansk1          1050.375
       428   11 Jun 2027 12:18:24.925   11 Jun 2027 12:18:44.928            20.003              Murmansk1          2500.375
       429   11 Jun 2027 12:19:27.432   11 Jun 2027 12:19:28.652             1.220              Murmansk1           152.500
       430   11 Jun 2027 12:21:50.867   11 Jun 2027 12:22:10.147            19.280                Anadyr1          2410.000
       431   11 Jun 2027 12:24:08.509   11 Jun 2027 12:26:42.218           153.709                Anadyr2         19213.625
       432   11 Jun 2027 12:27:10.649   11 Jun 2027 12:28:57.599           106.950               Magadan1         13368.750
       433   11 Jun 2027 14:00:03.758   11 Jun 2027 14:01:34.181            90.423               Magadan2         11302.875
       434   11 Jun 2027 14:11:31.479   11 Jun 2027 14:12:53.628            82.149               Magadan1         10268.625
       435   11 Jun 2027 14:58:20.873   11 Jun 2027 15:01:07.280           166.407            RioGallegos         20800.875
       436   11 Jun 2027 15:42:25.594   11 Jun 2027 15:44:31.207           125.613                Irkutsk         15701.625
       437   11 Jun 2027 15:54:35.066   11 Jun 2027 15:58:11.987           216.921                Sumatra         27115.125
       438   11 Jun 2027 17:16:54.094   11 Jun 2027 17:20:20.274           206.180                Novosib         25772.500
       439   11 Jun 2027 17:24:39.299   11 Jun 2027 17:27:54.040           194.741                  Delhi         24342.625
       440   11 Jun 2027 18:58:38.984   11 Jun 2027 18:58:57.429            18.445                  Delhi          2305.625
       441   11 Jun 2027 20:29:16.844   11 Jun 2027 20:31:57.552           160.708                 Moscow         20088.500
       442   11 Jun 2027 20:36:47.833   11 Jun 2027 20:38:46.973           119.140                 Moscow          8151.375
       443   12 Jun 2027 05:35:48.796   12 Jun 2027 05:35:53.238             4.442                Sumatra           555.250
       444   12 Jun 2027 05:37:43.709   12 Jun 2027 05:39:35.659           111.950                Sumatra         13993.750
       445   12 Jun 2027 05:43:50.445   12 Jun 2027 05:46:31.160           160.715                  Delhi         20089.375
       446   12 Jun 2027 06:01:13.932   12 Jun 2027 06:02:22.590            68.658              Murmansk1          8582.250
       447   12 Jun 2027 06:02:26.935   12 Jun 2027 06:03:24.977            58.042                Norilsk          7255.250
       448   12 Jun 2027 06:03:40.937   12 Jun 2027 06:04:13.437            32.500                 Moscow          4062.500
       449   12 Jun 2027 06:04:23.420   12 Jun 2027 06:06:17.370           113.950              Murmansk2         14243.750
       450   12 Jun 2027 06:06:17.370   12 Jun 2027 06:06:29.930            12.560              Murmansk1          1570.000
       451   12 Jun 2027 07:20:47.393   12 Jun 2027 07:22:47.542           120.149                  Delhi         15018.625
       452   12 Jun 2027 07:29:38.935   12 Jun 2027 07:31:29.865           110.930                Novosib         13866.250
       453   12 Jun 2027 07:32:12.084   12 Jun 2027 07:32:18.507             6.423              Murmansk2           802.875
       454   12 Jun 2027 07:32:45.288   12 Jun 2027 07:32:46.696             1.408                 Moscow           176.000
       455   12 Jun 2027 07:37:02.463   12 Jun 2027 07:37:56.339            53.876              Murmansk1          6734.500
       456   12 Jun 2027 07:37:56.339   12 Jun 2027 07:44:16.790           380.451              Murmansk2         47556.375
       457   12 Jun 2027 09:07:16.504   12 Jun 2027 09:08:39.335            82.831                 Moscow         10353.875
       458   12 Jun 2027 09:15:30.724   12 Jun 2027 09:17:24.495           113.771              Murmansk2         14221.375
       459   12 Jun 2027 09:23:28.342   12 Jun 2027 09:28:32.231           303.889                Anadyr1         37986.125
       460   12 Jun 2027 10:58:04.919   12 Jun 2027 10:59:05.344            60.425                Anadyr2          7553.125
       461   12 Jun 2027 11:02:15.431   12 Jun 2027 11:03:07.781            52.350                Anadyr1          6543.750
       462   12 Jun 2027 12:26:25.601   12 Jun 2027 12:28:55.475           149.874              Murmansk2         18734.250
       463   12 Jun 2027 12:29:57.582   12 Jun 2027 12:30:03.103             5.521              Murmansk2           690.125
       464   12 Jun 2027 12:33:56.863   12 Jun 2027 12:36:08.849           131.986                Anadyr2         16498.250
       465   12 Jun 2027 12:37:00.969   12 Jun 2027 12:40:08.521           187.552               Magadan1         23444.000
       466   12 Jun 2027 12:40:08.521   12 Jun 2027 12:40:15.509             6.988               Magadan2           873.500
       467   12 Jun 2027 12:40:51.156   12 Jun 2027 12:43:36.369           165.213               Magadan2         20651.625
       468   12 Jun 2027 15:04:42.918   12 Jun 2027 15:08:44.254           241.336            RioGallegos         30167.000
       469   12 Jun 2027 16:06:06.453   12 Jun 2027 16:10:08.457           242.004                Sumatra         30250.500
       470   12 Jun 2027 17:27:44.838   12 Jun 2027 17:29:22.533            97.695                Novosib         12211.875
       471   12 Jun 2027 17:36:03.702   12 Jun 2027 17:42:35.235           391.533                  Delhi         48941.625
       472   12 Jun 2027 20:41:11.508   12 Jun 2027 20:43:06.299           114.791                 Moscow         14348.875
       473   12 Jun 2027 22:41:01.866   12 Jun 2027 22:41:35.672            33.806               CapeTown          2593.375
       474   13 Jun 2027 04:11:55.362   13 Jun 2027 04:16:10.730           255.368                Sumatra         31921.000
       475   13 Jun 2027 05:49:18.419   13 Jun 2027 05:50:25.901            67.482                Sumatra          8435.250
       476   13 Jun 2027 05:55:39.438   13 Jun 2027 05:58:39.440           180.002                  Delhi         22500.250
       477   13 Jun 2027 06:13:51.679   13 Jun 2027 06:16:21.392           149.713                 Moscow         18714.125
       478   13 Jun 2027 06:16:34.231   13 Jun 2027 06:16:58.812            24.581              Murmansk2          3072.625
       479   13 Jun 2027 06:17:04.806   13 Jun 2027 06:19:57.282           172.476              Murmansk1         21559.500
       480   13 Jun 2027 07:33:31.551   13 Jun 2027 07:34:50.959            79.408                  Delhi          9926.000
       481   13 Jun 2027 07:42:03.586   13 Jun 2027 07:43:35.283            91.697                Novosib         11462.125
       482   13 Jun 2027 07:43:38.447   13 Jun 2027 07:44:46.132            67.685                 Moscow          8460.625
