uniorb/output/strategy_4/Drop/Drop_KinoSat_111502.txt

KinoSat_111502
-------------------------
    Access    *     Start Time (UTCG)     *     Stop Time (UTCG)  *   Duration (s)        *       Station  *  Data (Mbytes)
         1   01 Jun 2027 03:50:30.260   01 Jun 2027 03:51:28.686            58.426                Norilsk          1825.813
         2   01 Jun 2027 03:51:51.442   01 Jun 2027 03:51:55.760             4.318                Norilsk           134.937
         3   01 Jun 2027 03:51:59.529   01 Jun 2027 03:52:32.163            32.634              Murmansk2          1019.812
         4   01 Jun 2027 03:52:37.137   01 Jun 2027 03:53:21.835            44.698                Novosib          1396.812
         5   01 Jun 2027 03:53:25.628   01 Jun 2027 03:55:12.502           106.874              Murmansk2          3339.812
         6   01 Jun 2027 03:55:56.187   01 Jun 2027 03:58:54.191           178.004                 Moscow          5562.625
         7   01 Jun 2027 04:10:37.699   01 Jun 2027 04:17:01.097           383.398               CapeTown         11981.187
         8   01 Jun 2027 04:18:42.455   01 Jun 2027 04:20:01.511            79.056               CapeTown          2470.500
         9   01 Jun 2027 05:13:59.083   01 Jun 2027 05:14:31.492            32.409                Anadyr1          1012.781
        10   01 Jun 2027 05:15:44.298   01 Jun 2027 05:16:04.857            20.559                Anadyr1           642.469
        11   01 Jun 2027 05:26:05.204   01 Jun 2027 05:26:50.903            45.699              Murmansk2          1428.094
        12   01 Jun 2027 05:27:11.355   01 Jun 2027 05:27:29.187            17.832              Murmansk2           557.250
        13   01 Jun 2027 05:28:01.717   01 Jun 2027 05:28:03.373             1.656              Murmansk1            51.750
        14   01 Jun 2027 05:28:03.373   01 Jun 2027 05:28:36.817            33.444              Murmansk2          1045.125
        15   01 Jun 2027 05:29:25.874   01 Jun 2027 05:29:41.158            15.284              Murmansk1           477.625
        16   01 Jun 2027 05:29:44.935   01 Jun 2027 05:30:28.346            43.411              Murmansk1          1356.594
        17   01 Jun 2027 06:48:58.403   01 Jun 2027 06:49:12.117            13.714               Magadan2           428.563
        18   01 Jun 2027 06:49:36.121   01 Jun 2027 06:49:38.368             2.247               Magadan2            70.219
        19   01 Jun 2027 06:49:38.368   01 Jun 2027 06:51:38.676           120.308               Magadan1          3759.625
        20   01 Jun 2027 06:51:49.504   01 Jun 2027 06:53:51.607           122.103                Norilsk          3815.719
        21   01 Jun 2027 06:54:02.667   01 Jun 2027 06:54:19.374            16.707                Anadyr1           522.094
        22   01 Jun 2027 08:23:07.206   01 Jun 2027 08:23:50.152            42.946                Irkutsk          1342.063
        23   01 Jun 2027 08:25:40.509   01 Jun 2027 08:26:06.026            25.517                Anadyr2           797.406
        24   01 Jun 2027 08:27:00.153   01 Jun 2027 08:30:26.266           206.113                Norilsk          6441.031
        25   01 Jun 2027 08:30:35.316   01 Jun 2027 08:30:48.656            13.340                Norilsk           416.875
        26   01 Jun 2027 08:31:57.257   01 Jun 2027 08:32:09.899            12.642                Norilsk           395.062
        27   01 Jun 2027 08:32:14.467   01 Jun 2027 08:32:43.858            29.391              Murmansk2           918.469
        28   01 Jun 2027 09:06:57.685   01 Jun 2027 09:07:31.419            33.734            RioGallegos          1054.188
        29   01 Jun 2027 09:59:50.202   01 Jun 2027 10:02:54.588           184.386               Magadan1          5762.063
        30   01 Jun 2027 10:03:01.925   01 Jun 2027 10:04:08.135            66.210               Magadan2          2069.062
        31   01 Jun 2027 10:05:27.155   01 Jun 2027 10:06:16.694            49.539               Magadan1          1548.094
        32   01 Jun 2027 10:07:25.046   01 Jun 2027 10:08:16.647            51.601                Novosib          1612.531
        33   01 Jun 2027 11:17:24.635   01 Jun 2027 11:18:57.179            92.544                Sumatra          2892.000
        34   01 Jun 2027 11:38:47.579   01 Jun 2027 11:40:21.329            93.750                Novosib          2929.688
        35   01 Jun 2027 11:40:52.355   01 Jun 2027 11:41:52.941            60.586                Irkutsk          1893.312
        36   01 Jun 2027 11:41:54.544   01 Jun 2027 11:42:46.654            52.110                 Moscow          1628.438
        37   01 Jun 2027 11:44:13.500   01 Jun 2027 11:44:37.479            23.979                Novosib           749.344
        38   01 Jun 2027 12:21:04.319   01 Jun 2027 12:21:45.838            41.519            RioGallegos          1297.469
        39   01 Jun 2027 12:22:24.497   01 Jun 2027 12:22:46.589            22.092            RioGallegos           690.375
        40   01 Jun 2027 12:24:59.329   01 Jun 2027 12:25:34.384            35.055            RioGallegos          1095.469
        41   01 Jun 2027 12:55:22.606   01 Jun 2027 12:57:28.085           125.479                Sumatra          3921.219
        42   01 Jun 2027 12:59:41.937   01 Jun 2027 12:59:48.498             6.561                Sumatra           205.031
        43   01 Jun 2027 13:00:52.232   01 Jun 2027 13:01:25.190            32.958                  Delhi          1029.937
        44   01 Jun 2027 13:04:04.528   01 Jun 2027 13:04:55.152            50.624                  Delhi          1582.000
        45   01 Jun 2027 13:08:21.098   01 Jun 2027 13:09:47.081            85.983                Novosib          2686.969
        46   01 Jun 2027 13:10:55.984   01 Jun 2027 13:12:56.129           120.145                Novosib          3754.531
        47   01 Jun 2027 13:13:20.966   01 Jun 2027 13:15:05.973           105.007                Irkutsk          3281.469
        48   01 Jun 2027 14:41:45.799   01 Jun 2027 14:44:01.396           135.597                  Delhi          4237.406
        49   01 Jun 2027 14:45:00.676   01 Jun 2027 14:45:12.106            11.430                  Delhi           357.187
        50   01 Jun 2027 14:45:21.830   01 Jun 2027 14:47:10.140           108.310                 Moscow          3384.687
        51   01 Jun 2027 14:48:42.143   01 Jun 2027 14:50:04.481            82.338              Murmansk1          2573.063
        52   01 Jun 2027 14:50:21.159   01 Jun 2027 14:50:28.121             6.962              Murmansk2           217.563
        53   01 Jun 2027 14:51:25.554   01 Jun 2027 14:53:02.751            97.197                Novosib          3037.406
        54   01 Jun 2027 14:54:25.974   01 Jun 2027 14:55:55.621            89.647                Norilsk          2801.469
        55   01 Jun 2027 16:01:27.200   01 Jun 2027 16:03:15.091           107.891               CapeTown          3371.594
        56   01 Jun 2027 16:22:07.477   01 Jun 2027 16:22:47.445            39.968                 Moscow          1249.000
        57   01 Jun 2027 16:25:27.143   01 Jun 2027 16:25:46.111            18.968              Murmansk2           592.750
        58   01 Jun 2027 16:25:56.525   01 Jun 2027 16:26:16.648            20.123              Murmansk1           628.844
        59   01 Jun 2027 16:27:36.275   01 Jun 2027 16:28:02.416            26.141              Murmansk2           816.906
        60   01 Jun 2027 16:28:02.416   01 Jun 2027 16:28:38.963            36.547              Murmansk1          1142.094
        61   01 Jun 2027 16:39:57.073   01 Jun 2027 16:41:10.085            73.012                Anadyr1          2281.625
        62   01 Jun 2027 16:41:54.309   01 Jun 2027 16:43:13.864            79.555                Anadyr2          2486.094
        63   01 Jun 2027 16:43:20.064   01 Jun 2027 16:43:25.419             5.355                Anadyr1           167.344
        64   01 Jun 2027 16:44:38.353   01 Jun 2027 16:45:03.997            25.644                Anadyr2           801.375
        65   01 Jun 2027 16:46:46.634   01 Jun 2027 16:47:01.837            15.203                Anadyr1           475.094
        66   01 Jun 2027 17:34:42.536   01 Jun 2027 17:37:05.281           142.745               CapeTown          4460.781
        67   01 Jun 2027 17:44:39.755   01 Jun 2027 17:46:33.349           113.594               CapeTown          3549.812
        68   01 Jun 2027 18:04:20.020   01 Jun 2027 18:04:49.829            29.809              Murmansk2           931.531
        69   01 Jun 2027 18:05:23.309   01 Jun 2027 18:07:28.208           124.899              Murmansk1          3903.094
        70   01 Jun 2027 18:07:59.665   01 Jun 2027 18:08:36.169            36.504              Murmansk1          1140.750
        71   01 Jun 2027 18:09:13.948   01 Jun 2027 18:09:47.052            33.104              Murmansk1          1034.500
        72   01 Jun 2027 18:19:17.472   01 Jun 2027 18:20:25.891            68.419               Magadan1          2138.094
        73   01 Jun 2027 18:23:09.573   01 Jun 2027 18:23:57.172            47.599               Magadan2          1487.469
        74   01 Jun 2027 18:24:43.394   01 Jun 2027 18:25:16.678            33.284               Magadan1          1040.125
        75   01 Jun 2027 19:12:52.195   01 Jun 2027 19:13:12.054            19.859               CapeTown           620.594
        76   01 Jun 2027 19:14:39.358   01 Jun 2027 19:17:31.866           172.508               CapeTown          5390.875
        77   01 Jun 2027 19:51:25.945   01 Jun 2027 19:52:06.403            40.458                Anadyr2          1264.313
        78   01 Jun 2027 19:52:43.214   01 Jun 2027 19:52:55.735            12.521                Anadyr2           391.281
        79   01 Jun 2027 19:53:40.000   01 Jun 2027 19:55:53.532           133.532               Magadan1          4172.875
        80   01 Jun 2027 19:56:22.820   01 Jun 2027 19:56:50.884            28.064               Magadan1           877.000
        81   01 Jun 2027 19:58:14.929   01 Jun 2027 19:58:32.418            17.489               Magadan1           546.531
        82   01 Jun 2027 20:04:02.420   01 Jun 2027 20:04:16.359            13.939               Magadan1           435.594
        83   01 Jun 2027 20:05:13.730   01 Jun 2027 20:05:36.534            22.804               Magadan2           712.625
        84   01 Jun 2027 21:27:08.454   01 Jun 2027 21:31:11.787           243.333                Anadyr1          7604.156
        85   01 Jun 2027 21:31:24.028   01 Jun 2027 21:33:13.109           109.081               Magadan1          3408.781
        86   01 Jun 2027 21:33:19.576   01 Jun 2027 21:34:43.833            84.257               Magadan2          2633.031
        87   01 Jun 2027 21:34:43.833   01 Jun 2027 21:35:23.900            40.067               Magadan1          1252.094
        88   01 Jun 2027 21:35:36.324   01 Jun 2027 21:36:23.667            47.343                Irkutsk          1479.469
        89   01 Jun 2027 21:37:55.448   01 Jun 2027 21:38:35.871            40.423                Irkutsk          1263.219
        90   01 Jun 2027 22:21:21.641   01 Jun 2027 22:22:34.415            72.774            RioGallegos          2274.187
        91   01 Jun 2027 22:26:31.188   01 Jun 2027 22:27:29.342            58.154            RioGallegos          1817.312
        92   01 Jun 2027 22:30:31.707   01 Jun 2027 22:31:13.114            41.407            RioGallegos          1293.969
        93   01 Jun 2027 23:02:39.130   01 Jun 2027 23:04:42.429           123.299                Anadyr1          3853.094
        94   01 Jun 2027 23:04:58.589   01 Jun 2027 23:05:49.788            51.199                Norilsk          1599.969
        95   01 Jun 2027 23:05:59.698   01 Jun 2027 23:06:43.057            43.359                Norilsk          1354.969
        96   01 Jun 2027 23:07:01.464   01 Jun 2027 23:07:10.736             9.272               Magadan1           289.750
        97   01 Jun 2027 23:08:20.214   01 Jun 2027 23:08:33.071            12.857               Magadan1           401.781
        98   01 Jun 2027 23:09:02.411   01 Jun 2027 23:09:41.022            38.611                Irkutsk          1206.594
        99   01 Jun 2027 23:10:19.474   01 Jun 2027 23:11:04.005            44.531                Novosib          1391.594
       100   01 Jun 2027 23:11:05.872   01 Jun 2027 23:11:34.612            28.740                Irkutsk           898.125
       101   01 Jun 2027 23:11:58.099   01 Jun 2027 23:12:22.978            24.879                Novosib           777.469
       102   01 Jun 2027 23:15:57.890   01 Jun 2027 23:16:07.346             9.456                Novosib           295.500
       103   01 Jun 2027 23:16:55.309   01 Jun 2027 23:17:14.905            19.596                Irkutsk           612.375
       104   01 Jun 2027 23:17:26.978   01 Jun 2027 23:17:54.180            27.202                Novosib           850.062
       105   01 Jun 2027 23:22:43.608   01 Jun 2027 23:23:16.837            33.229                Sumatra          1038.406
       106   01 Jun 2027 23:25:49.084   01 Jun 2027 23:25:55.417             6.333                Sumatra           197.906
       107   01 Jun 2027 23:26:45.372   01 Jun 2027 23:28:49.667           124.295                Sumatra          3884.219
       108   02 Jun 2027 00:06:01.374   02 Jun 2027 00:06:30.299            28.925            RioGallegos           903.906
       109   02 Jun 2027 00:07:49.172   02 Jun 2027 00:08:34.204            45.032            RioGallegos          1407.250
       110   02 Jun 2027 00:37:23.027   02 Jun 2027 00:38:07.428            44.401                Anadyr2          1387.531
       111   02 Jun 2027 00:39:26.574   02 Jun 2027 00:40:07.263            40.689                Anadyr2          1271.531
       112   02 Jun 2027 00:40:57.735   02 Jun 2027 00:42:59.877           122.142                Norilsk          3816.937
       113   02 Jun 2027 00:44:51.926   02 Jun 2027 00:45:59.777            67.851                Novosib          2120.344
       114   02 Jun 2027 00:46:09.015   02 Jun 2027 00:46:52.769            43.754                Irkutsk          1367.313
       115   02 Jun 2027 00:47:28.004   02 Jun 2027 00:47:41.629            13.625                Novosib           425.781
       116   02 Jun 2027 00:48:28.879   02 Jun 2027 00:48:31.872             2.993                Novosib            93.531
       117   02 Jun 2027 00:49:39.617   02 Jun 2027 00:49:58.701            19.084                Novosib           596.375
       118   02 Jun 2027 00:52:24.337   02 Jun 2027 00:53:11.719            47.382                  Delhi          1480.688
       119   02 Jun 2027 00:54:37.389   02 Jun 2027 00:54:53.978            16.589                  Delhi           518.406
       120   02 Jun 2027 00:56:55.864   02 Jun 2027 00:58:36.374           100.510                  Delhi          3140.937
       121   02 Jun 2027 01:35:06.970   02 Jun 2027 01:35:08.876             1.906            RioGallegos            59.563
       122   02 Jun 2027 01:35:57.439   02 Jun 2027 01:36:09.475            12.036            RioGallegos           376.125
       123   02 Jun 2027 01:36:50.342   02 Jun 2027 01:37:19.899            29.557            RioGallegos           923.656
       124   02 Jun 2027 01:39:51.969   02 Jun 2027 01:40:03.428            11.459            RioGallegos           358.094
       125   02 Jun 2027 01:40:13.767   02 Jun 2027 01:40:47.690            33.923            RioGallegos          1060.094
       126   02 Jun 2027 01:41:35.067   02 Jun 2027 01:42:29.453            54.386            RioGallegos          1699.563
       127   02 Jun 2027 02:13:23.827   02 Jun 2027 02:13:32.216             8.389                Anadyr1           262.156
       128   02 Jun 2027 02:15:13.356   02 Jun 2027 02:15:58.310            44.954                Anadyr1          1404.812
       129   02 Jun 2027 02:16:47.915   02 Jun 2027 02:17:35.088            47.173               Magadan2          1474.156
       130   02 Jun 2027 02:17:51.115   02 Jun 2027 02:17:54.583             3.468               Magadan2           108.375
       131   02 Jun 2027 02:18:15.117   02 Jun 2027 02:18:30.887            15.770                Norilsk           492.812
       132   02 Jun 2027 02:19:13.225   02 Jun 2027 02:20:52.595            99.370              Murmansk1          3105.313
       133   02 Jun 2027 02:20:56.148   02 Jun 2027 02:21:04.338             8.190                Novosib           255.938
       134   02 Jun 2027 02:21:39.600   02 Jun 2027 02:22:40.681            61.081                Irkutsk          1908.781
       135   02 Jun 2027 02:24:39.002   02 Jun 2027 02:25:01.798            22.796                Irkutsk           712.375
       136   02 Jun 2027 02:27:44.517   02 Jun 2027 02:28:47.615            63.098                Irkutsk          1971.813
       137   02 Jun 2027 02:38:29.690   02 Jun 2027 02:39:06.813            37.123                  Delhi          1160.094
       138   02 Jun 2027 04:02:55.618   02 Jun 2027 04:04:08.779            73.161              Murmansk1          2286.281
       139   02 Jun 2027 04:04:13.841   02 Jun 2027 04:04:33.069            19.228              Murmansk1           600.875
       140   02 Jun 2027 04:04:41.972   02 Jun 2027 04:05:48.878            66.906                Novosib          2090.813
       141   02 Jun 2027 04:05:52.003   02 Jun 2027 04:06:24.404            32.401              Murmansk2          1012.531
       142   02 Jun 2027 04:06:38.552   02 Jun 2027 04:09:03.971           145.419                 Moscow          4544.344
       143   02 Jun 2027 04:22:24.976   02 Jun 2027 04:22:49.295            24.319               CapeTown           759.969
       144   02 Jun 2027 04:23:15.318   02 Jun 2027 04:24:02.640            47.322               CapeTown          1478.812
       145   02 Jun 2027 04:25:18.975   02 Jun 2027 04:25:55.993            37.018               CapeTown          1156.813
       146   02 Jun 2027 05:25:33.856   02 Jun 2027 05:26:00.654            26.798                Anadyr2           837.438
       147   02 Jun 2027 05:26:18.295   02 Jun 2027 05:29:30.568           192.273                Anadyr1          6008.531
       148   02 Jun 2027 05:29:30.568   02 Jun 2027 05:30:08.184            37.616                Anadyr2          1175.500
       149   02 Jun 2027 05:30:23.567   02 Jun 2027 05:30:50.397            26.830                Anadyr2           838.437
       150   02 Jun 2027 05:31:32.355   02 Jun 2027 05:31:35.526             3.171                Anadyr2            99.094
       151   02 Jun 2027 07:03:18.405   02 Jun 2027 07:07:28.342           249.937               Magadan1          7810.531
       152   02 Jun 2027 07:16:57.645   02 Jun 2027 07:17:07.616             9.971                 Moscow           311.594
       153   02 Jun 2027 08:37:21.096   02 Jun 2027 08:37:48.842            27.746               Magadan1           867.063
       154   02 Jun 2027 08:37:56.695   02 Jun 2027 08:41:24.107           207.412               Magadan1          6481.625
       155   02 Jun 2027 08:41:24.107   02 Jun 2027 08:43:17.876           113.769               Magadan2          3555.281
       156   02 Jun 2027 10:13:29.087   02 Jun 2027 10:13:42.137            13.050                Irkutsk           407.812
       157   02 Jun 2027 10:13:50.769   02 Jun 2027 10:14:33.438            42.669                Irkutsk          1333.406
       158   02 Jun 2027 10:14:52.303   02 Jun 2027 10:15:17.744            25.441                Irkutsk           795.031
       159   02 Jun 2027 10:15:34.007   02 Jun 2027 10:16:19.560            45.553               Magadan1          1423.531
       160   02 Jun 2027 10:16:44.994   02 Jun 2027 10:16:56.110            11.116                Norilsk           347.375
       161   02 Jun 2027 10:17:05.065   02 Jun 2027 10:17:45.820            40.755                Irkutsk          1273.594
       162   02 Jun 2027 10:17:48.455   02 Jun 2027 10:18:32.043            43.588                Novosib          1362.125
       163   02 Jun 2027 10:18:41.155   02 Jun 2027 10:18:53.712            12.557                Norilsk           392.406
       164   02 Jun 2027 10:19:02.896   02 Jun 2027 10:19:09.172             6.276                Irkutsk           196.125
       165   02 Jun 2027 10:53:57.712   02 Jun 2027 10:55:15.633            77.921            RioGallegos          2435.031
       166   02 Jun 2027 11:28:42.367   02 Jun 2027 11:29:38.008            55.641                Sumatra          1738.781
       167   02 Jun 2027 11:37:44.972   02 Jun 2027 11:38:17.623            32.651                Sumatra          1020.344
       168   02 Jun 2027 11:48:48.543   02 Jun 2027 11:49:28.377            39.834                Irkutsk          1244.812
       169   02 Jun 2027 11:49:52.478   02 Jun 2027 11:49:59.375             6.897                Novosib           215.531
       170   02 Jun 2027 11:50:01.722   02 Jun 2027 11:50:24.984            23.262                Norilsk           726.937
       171   02 Jun 2027 11:50:29.950   02 Jun 2027 11:50:33.928             3.978                Norilsk           124.312
       172   02 Jun 2027 11:50:36.417   02 Jun 2027 11:50:39.614             3.197                Novosib            99.906
       173   02 Jun 2027 11:50:49.063   02 Jun 2027 11:51:21.919            32.856                Novosib          1026.750
       174   02 Jun 2027 11:51:28.018   02 Jun 2027 11:51:44.597            16.579                Novosib           518.094
       175   02 Jun 2027 11:52:02.954   02 Jun 2027 11:52:36.221            33.267                Irkutsk          1039.594
       176   02 Jun 2027 11:52:52.345   02 Jun 2027 11:52:52.550             0.205                Novosib             6.406
       177   02 Jun 2027 11:53:00.087   02 Jun 2027 11:54:15.882            75.795                Norilsk          2368.594
       178   02 Jun 2027 11:54:21.333   02 Jun 2027 11:54:31.046             9.713                Norilsk           303.531
       179   02 Jun 2027 11:54:31.723   02 Jun 2027 11:54:42.493            10.770                Novosib           336.562
       180   02 Jun 2027 11:54:45.185   02 Jun 2027 11:54:52.362             7.177              Murmansk2           224.281
       181   02 Jun 2027 11:54:53.864   02 Jun 2027 11:55:02.737             8.873                Norilsk           277.281
       182   02 Jun 2027 11:55:16.151   02 Jun 2027 11:56:04.270            48.119              Murmansk2          1503.719
       183   02 Jun 2027 12:33:45.387   02 Jun 2027 12:36:59.032           193.645            RioGallegos          6051.406
       184   02 Jun 2027 13:09:49.918   02 Jun 2027 13:11:13.288            83.370                Sumatra          2605.313
       185   02 Jun 2027 13:21:17.300   02 Jun 2027 13:21:53.969            36.669                Novosib          1145.906
       186   02 Jun 2027 13:22:45.615   02 Jun 2027 13:23:47.506            61.891                Novosib          1934.094
       187   02 Jun 2027 13:25:54.768   02 Jun 2027 13:26:27.622            32.854                Irkutsk          1026.687
       188   02 Jun 2027 13:29:24.846   02 Jun 2027 13:30:35.022            70.176                Novosib          2193.000
       189   02 Jun 2027 14:57:19.023   02 Jun 2027 14:58:38.761            79.738                 Moscow          2491.812
       190   02 Jun 2027 14:59:42.108   02 Jun 2027 15:01:04.531            82.423                 Moscow          2575.719
       191   02 Jun 2027 15:02:01.165   02 Jun 2027 15:03:01.503            60.338              Murmansk2          1885.563
       192   02 Jun 2027 15:03:58.661   02 Jun 2027 15:05:49.484           110.823              Murmansk1          3463.219
       193   02 Jun 2027 15:08:13.010   02 Jun 2027 15:09:26.850            73.840                Norilsk          2307.500
       194   02 Jun 2027 16:12:02.795   02 Jun 2027 16:13:10.088            67.293               CapeTown          2102.906
       195   02 Jun 2027 16:15:48.430   02 Jun 2027 16:16:10.241            21.811               CapeTown           681.594
       196   02 Jun 2027 16:20:47.186   02 Jun 2027 16:21:18.397            31.211               CapeTown           975.344
       197   02 Jun 2027 16:34:31.181   02 Jun 2027 16:34:44.016            12.835                 Moscow           401.094
       198   02 Jun 2027 16:37:43.118   02 Jun 2027 16:38:47.102            63.984              Murmansk2          1999.500
       199   02 Jun 2027 16:39:02.995   02 Jun 2027 16:39:30.602            27.607              Murmansk1           862.719
       200   02 Jun 2027 16:40:04.236   02 Jun 2027 16:40:40.983            36.747              Murmansk1          1148.344
       201   02 Jun 2027 16:45:54.808   02 Jun 2027 16:47:31.614            96.806              Murmansk1          3025.188
       202   02 Jun 2027 16:51:50.291   02 Jun 2027 16:52:12.674            22.383                Anadyr2           699.469
       203   02 Jun 2027 16:52:37.311   02 Jun 2027 16:52:58.004            20.693                Anadyr2           646.656
       204   02 Jun 2027 16:54:26.661   02 Jun 2027 16:54:47.324            20.663                Anadyr1           645.719
       205   02 Jun 2027 16:58:35.816   02 Jun 2027 16:59:00.752            24.936                Anadyr1           779.250
       206   02 Jun 2027 17:00:37.322   02 Jun 2027 17:00:43.848             6.526                Anadyr1           203.937
       207   02 Jun 2027 17:00:43.848   02 Jun 2027 17:00:47.490             3.642                Anadyr2           113.812
       208   02 Jun 2027 17:46:46.503   02 Jun 2027 17:48:49.581           123.078               CapeTown          3846.187
       209   02 Jun 2027 18:16:55.753   02 Jun 2027 18:17:44.474            48.721              Murmansk1          1522.531
       210   02 Jun 2027 18:18:04.520   02 Jun 2027 18:19:23.428            78.908              Murmansk2          2465.875
       211   02 Jun 2027 18:20:01.705   02 Jun 2027 18:21:07.139            65.434              Murmansk2          2044.812
       212   02 Jun 2027 18:21:46.860   02 Jun 2027 18:22:14.617            27.757              Murmansk2           867.406
       213   02 Jun 2027 18:22:55.421   02 Jun 2027 18:23:05.375             9.954              Murmansk1           311.063
       214   02 Jun 2027 18:23:52.991   02 Jun 2027 18:25:23.800            90.809              Murmansk1          2837.781
       215   02 Jun 2027 18:35:46.222   02 Jun 2027 18:35:59.622            13.400               Magadan2           418.750
       216   02 Jun 2027 18:36:46.676   02 Jun 2027 18:37:28.988            42.312               Magadan2          1322.250
       217   02 Jun 2027 19:26:23.838   02 Jun 2027 19:26:36.198            12.360               CapeTown           386.250
       218   02 Jun 2027 19:28:46.420   02 Jun 2027 19:29:21.489            35.069               CapeTown          1095.906
       219   02 Jun 2027 20:03:16.587   02 Jun 2027 20:04:56.353            99.766                Anadyr2          3117.688
       220   02 Jun 2027 20:05:21.128   02 Jun 2027 20:07:24.488           123.360                Anadyr1          3855.000
       221   02 Jun 2027 20:07:25.387   02 Jun 2027 20:08:51.069            85.682               Magadan1          2677.562
       222   02 Jun 2027 20:09:49.112   02 Jun 2027 20:10:16.829            27.717               Magadan1           866.156
       223   02 Jun 2027 20:11:47.958   02 Jun 2027 20:12:23.683            35.725               Magadan2          1116.406
       224   02 Jun 2027 20:16:21.202   02 Jun 2027 20:16:33.984            12.782               Magadan1           399.437
       225   02 Jun 2027 21:39:08.700   02 Jun 2027 21:43:13.038           244.338                Anadyr2          7635.562
       226   02 Jun 2027 21:43:17.456   02 Jun 2027 21:44:57.568           100.112                Norilsk          3128.500
       227   02 Jun 2027 21:45:02.839   02 Jun 2027 21:45:34.644            31.805               Magadan1           993.906
       228   02 Jun 2027 21:46:02.779   02 Jun 2027 21:46:50.395            47.616               Magadan1          1488.000
       229   02 Jun 2027 21:46:50.720   02 Jun 2027 21:47:22.049            31.329                Irkutsk           979.031
       230   02 Jun 2027 21:49:14.134   02 Jun 2027 21:49:38.372            24.238                Irkutsk           757.438
       231   02 Jun 2027 21:52:01.867   02 Jun 2027 21:52:35.387            33.520                Irkutsk          1047.500
       232   02 Jun 2027 22:03:04.931   02 Jun 2027 22:04:20.913            75.982                Sumatra          2374.438
       233   02 Jun 2027 22:04:36.950   02 Jun 2027 22:06:47.349           130.399                Sumatra          4074.969
       234   02 Jun 2027 23:14:34.175   02 Jun 2027 23:14:49.157            14.982                Anadyr2           468.187
       235   02 Jun 2027 23:15:02.689   02 Jun 2027 23:15:07.480             4.791                Anadyr1           149.719
       236   02 Jun 2027 23:15:09.529   02 Jun 2027 23:15:13.538             4.009                Anadyr2           125.281
       237   02 Jun 2027 23:15:33.149   02 Jun 2027 23:16:31.357            58.208                Anadyr2          1819.000
       238   02 Jun 2027 23:17:20.919   02 Jun 2027 23:18:28.847            67.928                Norilsk          2122.750
       239   02 Jun 2027 23:18:35.194   02 Jun 2027 23:18:45.138             9.944                Norilsk           310.750
       240   02 Jun 2027 23:18:50.617   02 Jun 2027 23:19:23.255            32.638               Magadan1          1019.938
       241   02 Jun 2027 23:19:57.487   02 Jun 2027 23:20:01.303             3.816               Magadan2           119.250
       242   02 Jun 2027 23:20:41.184   02 Jun 2027 23:21:02.407            21.223               Magadan1           663.219
       243   02 Jun 2027 23:21:58.592   02 Jun 2027 23:22:42.111            43.519                Novosib          1359.969
       244   02 Jun 2027 23:23:12.544   02 Jun 2027 23:24:02.107            49.563                Novosib          1548.844
       245   02 Jun 2027 23:25:29.339   02 Jun 2027 23:25:51.026            21.687                Novosib           677.719
       246   02 Jun 2027 23:28:23.867   02 Jun 2027 23:28:26.899             3.032                Novosib            94.750
       247   02 Jun 2027 23:34:42.527   02 Jun 2027 23:35:10.115            27.588                Sumatra           862.125
       248   02 Jun 2027 23:37:08.443   02 Jun 2027 23:37:31.249            22.806                Sumatra           712.687
       249   02 Jun 2027 23:38:43.221   02 Jun 2027 23:39:16.549            33.328                Sumatra          1041.500
       250   03 Jun 2027 00:09:41.628   03 Jun 2027 00:10:04.516            22.888            RioGallegos           715.250
       251   03 Jun 2027 00:12:48.507   03 Jun 2027 00:13:11.762            23.255            RioGallegos           726.719
       252   03 Jun 2027 00:16:06.712   03 Jun 2027 00:16:46.365            39.653            RioGallegos          1239.156
       253   03 Jun 2027 00:48:55.945   03 Jun 2027 00:50:03.373            67.428                Anadyr1          2107.125
       254   03 Jun 2027 00:50:25.439   03 Jun 2027 00:50:51.840            26.401                Anadyr1           825.031
       255   03 Jun 2027 00:52:59.969   03 Jun 2027 00:53:01.403             1.434                Norilsk            44.813
       256   03 Jun 2027 00:53:38.602   03 Jun 2027 00:55:34.428           115.826               Magadan2          3619.562
       257   03 Jun 2027 00:56:14.796   03 Jun 2027 00:56:57.220            42.424               Magadan1          1325.750
       258   03 Jun 2027 00:57:19.666   03 Jun 2027 00:58:50.626            90.960                Novosib          2842.500
       259   03 Jun 2027 00:59:12.966   03 Jun 2027 00:59:46.436            33.470              Murmansk1          1045.937
       260   03 Jun 2027 01:04:02.774   03 Jun 2027 01:04:09.398             6.624                Novosib           207.000
       261   03 Jun 2027 01:04:16.300   03 Jun 2027 01:05:05.790            49.490                  Delhi          1546.563
       262   03 Jun 2027 01:07:09.981   03 Jun 2027 01:07:26.545            16.564                  Delhi           517.625
       263   03 Jun 2027 01:14:16.414   03 Jun 2027 01:14:31.607            15.193                  Delhi           474.781
       264   03 Jun 2027 01:16:41.461   03 Jun 2027 01:16:52.627            11.166                  Delhi           348.938
       265   03 Jun 2027 01:45:42.587   03 Jun 2027 01:47:13.392            90.805            RioGallegos          2837.656
       266   03 Jun 2027 01:51:58.422   03 Jun 2027 01:52:29.895            31.473            RioGallegos           983.531
       267   03 Jun 2027 02:22:16.641   03 Jun 2027 02:23:01.725            45.084                Anadyr2          1408.875
       268   03 Jun 2027 02:24:42.189   03 Jun 2027 02:25:15.197            33.008                Anadyr2          1031.500
       269   03 Jun 2027 02:28:29.521   03 Jun 2027 02:28:53.736            24.215               Magadan1           756.719
       270   03 Jun 2027 02:28:53.736   03 Jun 2027 02:29:25.302            31.566               Magadan2           986.437
       271   03 Jun 2027 02:30:06.988   03 Jun 2027 02:30:26.857            19.869                Norilsk           620.906
       272   03 Jun 2027 02:30:45.491   03 Jun 2027 02:31:18.979            33.488               Magadan2          1046.500
       273   03 Jun 2027 02:31:22.945   03 Jun 2027 02:32:41.496            78.551              Murmansk2          2454.719
       274   03 Jun 2027 02:32:50.579   03 Jun 2027 02:33:44.327            53.748                Novosib          1679.625
       275   03 Jun 2027 02:38:28.308   03 Jun 2027 02:38:32.715             4.407                Novosib           137.719
       276   03 Jun 2027 02:39:25.649   03 Jun 2027 02:39:26.173             0.524                Irkutsk            16.375
       277   03 Jun 2027 02:39:33.938   03 Jun 2027 02:39:50.691            16.753                Irkutsk           523.531
       278   03 Jun 2027 02:41:07.179   03 Jun 2027 02:41:33.393            26.214                  Delhi           819.187
       279   03 Jun 2027 02:45:10.223   03 Jun 2027 02:46:26.545            76.322                  Delhi          2385.063
       280   03 Jun 2027 04:14:18.937   03 Jun 2027 04:14:35.268            16.331                Norilsk           510.344
       281   03 Jun 2027 04:14:50.676   03 Jun 2027 04:15:24.579            33.903                Novosib          1059.469
       282   03 Jun 2027 04:15:29.940   03 Jun 2027 04:16:38.901            68.961                Novosib          2155.031
       283   03 Jun 2027 04:17:57.270   03 Jun 2027 04:19:38.779           101.509              Murmansk1          3172.156
       284   03 Jun 2027 04:20:59.733   03 Jun 2027 04:23:11.695           131.962                 Moscow          4123.812
       285   03 Jun 2027 04:43:49.293   03 Jun 2027 04:44:07.372            18.079               CapeTown           564.969
       286   03 Jun 2027 04:44:09.723   03 Jun 2027 04:46:43.135           153.412               CapeTown          4794.125
       287   03 Jun 2027 05:37:37.047   03 Jun 2027 05:37:46.129             9.082               Magadan2           283.812
       288   03 Jun 2027 05:37:48.250   03 Jun 2027 05:40:03.021           134.771               Magadan2          4211.594
       289   03 Jun 2027 05:40:08.289   03 Jun 2027 05:41:18.826            70.537                Anadyr2          2204.281
       290   03 Jun 2027 05:41:18.826   03 Jun 2027 05:43:53.247           154.421                Anadyr1          4825.656
       291   03 Jun 2027 07:13:10.642   03 Jun 2027 07:13:38.154            27.512               Magadan2           859.750
       292   03 Jun 2027 07:13:45.087   03 Jun 2027 07:14:14.751            29.664               Magadan1           927.000
       293   03 Jun 2027 07:14:40.670   03 Jun 2027 07:14:51.552            10.882                Anadyr2           340.063
       294   03 Jun 2027 07:15:16.332   03 Jun 2027 07:15:32.068            15.736               Magadan1           491.750
       295   03 Jun 2027 07:15:44.129   03 Jun 2027 07:16:12.479            28.350               Magadan1           885.938
       296   03 Jun 2027 07:16:16.291   03 Jun 2027 07:17:40.506            84.215               Magadan2          2631.719
       297   03 Jun 2027 08:45:53.439   03 Jun 2027 08:46:36.691            43.252               Magadan1          1351.625
       298   03 Jun 2027 08:47:52.857   03 Jun 2027 08:48:10.705            17.848               Magadan2           557.750
       299   03 Jun 2027 08:49:17.609   03 Jun 2027 08:49:27.221             9.612               Magadan1           300.375
       300   03 Jun 2027 08:49:27.221   03 Jun 2027 08:49:51.352            24.131               Magadan2           754.094
       301   03 Jun 2027 08:50:23.928   03 Jun 2027 08:51:38.139            74.211               Magadan2          2319.094
       302   03 Jun 2027 08:52:29.452   03 Jun 2027 08:52:45.001            15.549               Magadan2           485.906
       303   03 Jun 2027 08:52:50.860   03 Jun 2027 08:53:43.504            52.644               Magadan1          1645.125
       304   03 Jun 2027 08:53:52.489   03 Jun 2027 08:54:42.034            49.545                Anadyr2          1548.281
       305   03 Jun 2027 08:54:48.739   03 Jun 2027 08:55:16.037            27.298               Magadan2           853.063
       306   03 Jun 2027 09:30:25.336   03 Jun 2027 09:30:51.987            26.651            RioGallegos           832.844
       307   03 Jun 2027 09:31:21.451   03 Jun 2027 09:31:40.256            18.805            RioGallegos           587.656
       308   03 Jun 2027 10:08:15.349   03 Jun 2027 10:09:36.611            81.262                Sumatra          2539.437
       309   03 Jun 2027 10:24:01.414   03 Jun 2027 10:25:40.824            99.410               Magadan2          3106.563
       310   03 Jun 2027 10:26:46.265   03 Jun 2027 10:27:22.739            36.474                Irkutsk          1139.813
       311   03 Jun 2027 10:27:47.759   03 Jun 2027 10:27:58.619            10.860                Irkutsk           339.375
       312   03 Jun 2027 10:28:32.296   03 Jun 2027 10:28:41.506             9.210                Norilsk           287.813
       313   03 Jun 2027 10:28:44.621   03 Jun 2027 10:29:04.595            19.974                Norilsk           624.187
       314   03 Jun 2027 10:29:09.380   03 Jun 2027 10:29:21.160            11.780                Norilsk           368.125
       315   03 Jun 2027 10:29:21.478   03 Jun 2027 10:29:28.961             7.483               Magadan2           233.844
       316   03 Jun 2027 10:30:02.785   03 Jun 2027 10:30:35.891            33.106                Novosib          1034.563
       317   03 Jun 2027 10:30:42.602   03 Jun 2027 10:30:54.934            12.332                Novosib           385.375
       318   03 Jun 2027 10:31:12.845   03 Jun 2027 10:32:05.804            52.959                Novosib          1654.969
       319   03 Jun 2027 11:06:09.921   03 Jun 2027 11:07:07.094            57.173            RioGallegos          1786.656
       320   03 Jun 2027 11:40:44.106   03 Jun 2027 11:40:46.900             2.794                Sumatra            87.313
       321   03 Jun 2027 11:42:37.501   03 Jun 2027 11:43:20.930            43.429                Sumatra          1357.156
       322   03 Jun 2027 11:53:44.446   03 Jun 2027 11:53:52.895             8.449                  Delhi           264.031
       323   03 Jun 2027 12:04:53.290   03 Jun 2027 12:06:30.676            97.386                Novosib          3043.313
       324   03 Jun 2027 12:47:04.365   03 Jun 2027 12:48:57.538           113.173            RioGallegos          3536.656
       325   03 Jun 2027 13:33:06.128   03 Jun 2027 13:34:04.058            57.930                Novosib          1810.313
       326   03 Jun 2027 13:35:04.341   03 Jun 2027 13:35:45.329            40.988                Novosib          1280.875
       327   03 Jun 2027 13:38:02.246   03 Jun 2027 13:39:03.003            60.757                Novosib          1898.656
       328   03 Jun 2027 13:42:29.396   03 Jun 2027 13:43:31.671            62.275                Norilsk          1946.094
       329   03 Jun 2027 15:09:19.058   03 Jun 2027 15:11:28.410           129.352                 Moscow          4042.250
       330   03 Jun 2027 15:12:13.168   03 Jun 2027 15:12:31.526            18.358                 Moscow           573.687
       331   03 Jun 2027 15:14:17.638   03 Jun 2027 15:14:24.682             7.044              Murmansk2           220.125
       332   03 Jun 2027 15:14:49.330   03 Jun 2027 15:15:20.941            31.611              Murmansk1           987.844
       333   03 Jun 2027 15:17:15.058   03 Jun 2027 15:20:11.663           176.605                Norilsk          5518.906
       334   03 Jun 2027 15:21:02.182   03 Jun 2027 15:21:37.863            35.681                Norilsk          1115.031
       335   03 Jun 2027 15:21:54.535   03 Jun 2027 15:23:03.064            68.529                Norilsk          2141.531
       336   03 Jun 2027 16:33:03.712   03 Jun 2027 16:33:32.112            28.400               CapeTown           887.500
       337   03 Jun 2027 16:33:58.950   03 Jun 2027 16:34:09.943            10.993               CapeTown           343.531
       338   03 Jun 2027 16:46:59.537   03 Jun 2027 16:47:42.620            43.083                 Moscow          1346.344
       339   03 Jun 2027 16:50:01.161   03 Jun 2027 16:50:20.850            19.689              Murmansk2           615.281
       340   03 Jun 2027 16:52:05.907   03 Jun 2027 16:52:12.076             6.169              Murmansk1           192.781
       341   03 Jun 2027 16:52:35.136   03 Jun 2027 16:53:16.245            41.109                 Moscow          1284.656
       342   03 Jun 2027 16:57:19.133   03 Jun 2027 16:57:56.744            37.611              Murmansk2          1175.344
       343   03 Jun 2027 16:59:32.167   03 Jun 2027 16:59:51.363            19.196              Murmansk2           599.875
       344   03 Jun 2027 17:03:45.441   03 Jun 2027 17:04:57.554            72.113                Anadyr2          2253.531
       345   03 Jun 2027 17:07:20.238   03 Jun 2027 17:07:45.948            25.710                Anadyr1           803.437
       346   03 Jun 2027 17:08:50.863   03 Jun 2027 17:08:58.888             8.025                Anadyr1           250.781
       347   03 Jun 2027 17:09:19.296   03 Jun 2027 17:09:46.557            27.261                Anadyr1           851.906
       348   03 Jun 2027 17:12:23.955   03 Jun 2027 17:12:31.936             7.981                Anadyr2           249.406
       349   03 Jun 2027 17:13:08.504   03 Jun 2027 17:13:16.967             8.463                Anadyr1           264.469
       350   03 Jun 2027 17:59:53.185   03 Jun 2027 18:00:53.660            60.475               CapeTown          1889.844
       351   03 Jun 2027 18:09:29.345   03 Jun 2027 18:10:06.132            36.787               CapeTown          1149.594
       352   03 Jun 2027 18:29:34.984   03 Jun 2027 18:33:45.944           250.960              Murmansk2          7842.500
       353   03 Jun 2027 18:42:35.431   03 Jun 2027 18:44:13.745            98.314               Magadan1          3072.312
       354   03 Jun 2027 18:48:47.480   03 Jun 2027 18:48:57.126             9.646               Magadan1           301.438
       355   03 Jun 2027 18:49:59.978   03 Jun 2027 18:50:12.147            12.169               Magadan2           380.281
       356   03 Jun 2027 20:15:18.233   03 Jun 2027 20:19:03.264           225.031                Anadyr2          7032.219
       357   03 Jun 2027 20:19:25.509   03 Jun 2027 20:21:20.557           115.048               Magadan2          3595.250
       358   03 Jun 2027 20:21:20.557   03 Jun 2027 20:21:56.034            35.477               Magadan1          1108.656
       359   03 Jun 2027 20:22:31.358   03 Jun 2027 20:22:46.473            15.115               Magadan1           472.344
       360   03 Jun 2027 20:23:18.041   03 Jun 2027 20:23:32.354            14.313               Magadan2           447.281
       361   03 Jun 2027 20:25:23.833   03 Jun 2027 20:25:40.438            16.605               Magadan2           518.906
       362   03 Jun 2027 20:26:04.532   03 Jun 2027 20:26:21.540            17.008               Magadan2           531.500
       363   03 Jun 2027 21:11:57.917   03 Jun 2027 21:14:08.830           130.913            RioGallegos          4091.031
       364   03 Jun 2027 21:16:11.163   03 Jun 2027 21:16:25.716            14.553            RioGallegos           454.781
       365   03 Jun 2027 21:51:08.547   03 Jun 2027 21:52:25.333            76.786                Anadyr2          2399.562
       366   03 Jun 2027 21:52:37.093   03 Jun 2027 21:52:49.926            12.833                Anadyr2           401.031
       367   03 Jun 2027 21:52:55.789   03 Jun 2027 21:53:21.463            25.674                Anadyr2           802.313
       368   03 Jun 2027 21:53:31.426   03 Jun 2027 21:55:47.297           135.871               Magadan1          4245.969
       369   03 Jun 2027 21:56:06.862   03 Jun 2027 21:56:35.113            28.251               Magadan1           882.844
       370   03 Jun 2027 21:58:22.269   03 Jun 2027 21:58:50.215            27.946                Irkutsk           873.312
       371   03 Jun 2027 21:59:58.659   03 Jun 2027 22:00:51.966            53.307                Irkutsk          1665.844
       372   03 Jun 2027 22:03:56.350   03 Jun 2027 22:05:44.570           108.220                Irkutsk          3381.875
       373   03 Jun 2027 22:13:38.305   03 Jun 2027 22:15:24.640           106.335                Sumatra          3322.969
       374   03 Jun 2027 23:26:50.558   03 Jun 2027 23:26:57.126             6.568                Anadyr2           205.250
       375   03 Jun 2027 23:27:14.542   03 Jun 2027 23:27:18.955             4.413                Anadyr2           137.906
       376   03 Jun 2027 23:28:32.501   03 Jun 2027 23:28:57.559            25.058                Anadyr1           783.063
       377   03 Jun 2027 23:29:01.711   03 Jun 2027 23:30:47.224           105.513                Norilsk          3297.281
       378   03 Jun 2027 23:31:29.195   03 Jun 2027 23:32:50.216            81.021               Magadan2          2531.906
       379   03 Jun 2027 23:33:43.543   03 Jun 2027 23:34:40.286            56.743                Novosib          1773.219
       380   03 Jun 2027 23:37:33.103   03 Jun 2027 23:38:54.172            81.069                Irkutsk          2533.406
       381   03 Jun 2027 23:43:16.306   03 Jun 2027 23:43:25.585             9.279                Novosib           289.969
       382   03 Jun 2027 23:44:29.580   03 Jun 2027 23:45:37.010            67.430                  Delhi          2107.187
       383   04 Jun 2027 00:24:54.696   04 Jun 2027 00:25:07.397            12.701            RioGallegos           396.906
       384   04 Jun 2027 00:27:03.508   04 Jun 2027 00:27:40.367            36.859            RioGallegos          1151.844
       385   04 Jun 2027 01:00:40.133   04 Jun 2027 01:01:02.324            22.191                Anadyr1           693.469
       386   04 Jun 2027 01:01:02.324   04 Jun 2027 01:01:39.782            37.458                Anadyr2          1170.563
       387   04 Jun 2027 01:02:01.072   04 Jun 2027 01:02:53.032            51.960                Anadyr2          1623.750
       388   04 Jun 2027 01:05:02.159   04 Jun 2027 01:05:22.375            20.216                Norilsk           631.750
       389   04 Jun 2027 01:05:39.276   04 Jun 2027 01:06:27.880            48.604               Magadan1          1518.875
       390   04 Jun 2027 01:06:27.959   04 Jun 2027 01:07:16.739            48.780               Magadan2          1524.375
       391   04 Jun 2027 01:08:05.223   04 Jun 2027 01:09:02.410            57.187              Murmansk2          1787.094
       392   04 Jun 2027 01:09:38.534   04 Jun 2027 01:11:04.431            85.897              Murmansk2          2684.281
       393   04 Jun 2027 01:13:16.271   04 Jun 2027 01:13:23.932             7.661                Novosib           239.406
       394   04 Jun 2027 01:14:43.145   04 Jun 2027 01:14:44.597             1.452                Novosib            45.375
       395   04 Jun 2027 01:15:59.688   04 Jun 2027 01:16:07.770             8.082                Irkutsk           252.563
       396   04 Jun 2027 01:16:12.078   04 Jun 2027 01:16:32.147            20.069                  Delhi           627.156
       397   04 Jun 2027 01:18:19.123   04 Jun 2027 01:18:30.788            11.665                Novosib           364.531
       398   04 Jun 2027 01:19:02.891   04 Jun 2027 01:19:19.839            16.948                  Delhi           529.625
       399   04 Jun 2027 01:21:51.001   04 Jun 2027 01:22:13.308            22.307                  Delhi           697.094
       400   04 Jun 2027 01:23:49.378   04 Jun 2027 01:24:00.227            10.849                  Delhi           339.031
       401   04 Jun 2027 01:25:35.052   04 Jun 2027 01:25:45.560            10.508                  Delhi           328.375
       402   04 Jun 2027 01:26:15.705   04 Jun 2027 01:28:08.172           112.467                  Delhi          3514.594
       403   04 Jun 2027 02:00:13.803   04 Jun 2027 02:00:32.826            19.023            RioGallegos           594.469
       404   04 Jun 2027 02:34:43.055   04 Jun 2027 02:34:57.641            14.586                Anadyr2           455.813
       405   04 Jun 2027 02:35:34.119   04 Jun 2027 02:36:11.018            36.899                Anadyr1          1153.094
       406   04 Jun 2027 02:36:57.646   04 Jun 2027 02:37:05.354             7.708                Anadyr2           240.875
       407   04 Jun 2027 02:39:46.125   04 Jun 2027 02:40:03.229            17.104                Anadyr2           534.500
       408   04 Jun 2027 02:40:06.666   04 Jun 2027 02:40:55.680            49.014               Magadan2          1531.688
       409   04 Jun 2027 02:40:58.445   04 Jun 2027 02:41:01.823             3.378                Norilsk           105.562
       410   04 Jun 2027 02:41:23.726   04 Jun 2027 02:41:56.571            32.845               Magadan2          1026.406
       411   04 Jun 2027 02:43:12.825   04 Jun 2027 02:44:40.177            87.352              Murmansk1          2729.750
       412   04 Jun 2027 02:44:40.177   04 Jun 2027 02:44:53.322            13.145              Murmansk2           410.781
       413   04 Jun 2027 02:44:55.003   04 Jun 2027 02:45:56.350            61.347                Novosib          1917.094
       414   04 Jun 2027 02:50:36.159   04 Jun 2027 02:51:02.748            26.589                Irkutsk           830.906
       415   04 Jun 2027 02:53:39.844   04 Jun 2027 02:53:59.511            19.667                  Delhi           614.594
       416   04 Jun 2027 02:54:47.284   04 Jun 2027 02:56:09.170            81.886                  Delhi          2558.938
       417   04 Jun 2027 04:27:10.996   04 Jun 2027 04:28:34.653            83.657                Novosib          2614.281
       418   04 Jun 2027 04:29:52.996   04 Jun 2027 04:32:45.719           172.723                 Moscow          5397.594
       419   04 Jun 2027 04:46:14.830   04 Jun 2027 04:49:04.521           169.691               CapeTown          5302.844
       420   04 Jun 2027 05:49:15.542   04 Jun 2027 05:51:32.976           137.434               Magadan1          4294.812
       421   04 Jun 2027 05:51:42.622   04 Jun 2027 05:52:10.041            27.419                Anadyr1           856.844
       422   04 Jun 2027 07:26:59.490   04 Jun 2027 07:28:02.942            63.452                Anadyr2          1982.875
       423   04 Jun 2027 07:28:12.436   04 Jun 2027 07:29:23.890            71.454               Magadan1          2232.937
       424   04 Jun 2027 08:12:23.764   04 Jun 2027 08:13:04.876            41.112            RioGallegos          1284.750
       425   04 Jun 2027 09:01:05.902   04 Jun 2027 09:01:53.619            47.717               Magadan1          1491.156
       426   04 Jun 2027 09:02:06.934   04 Jun 2027 09:05:12.808           185.874                Anadyr1          5808.562
       427   04 Jun 2027 09:05:27.013   04 Jun 2027 09:05:46.555            19.542                Anadyr1           610.688
       428   04 Jun 2027 09:05:46.555   04 Jun 2027 09:05:50.495             3.940                Anadyr2           123.125
       429   04 Jun 2027 09:05:53.185   04 Jun 2027 09:06:50.352            57.167                Irkutsk          1786.469
       430   04 Jun 2027 09:15:39.255   04 Jun 2027 09:16:08.015            28.760              Murmansk1           898.750
       431   04 Jun 2027 09:42:14.031   04 Jun 2027 09:43:06.571            52.540            RioGallegos          1641.875
       432   04 Jun 2027 10:19:08.614   04 Jun 2027 10:20:54.214           105.600                Sumatra          3300.000
       433   04 Jun 2027 10:37:33.904   04 Jun 2027 10:37:39.053             5.149               Magadan2           160.906
       434   04 Jun 2027 10:37:40.306   04 Jun 2027 10:37:52.754            12.448                Novosib           389.000
       435   04 Jun 2027 10:38:09.759   04 Jun 2027 10:38:38.079            28.320                Irkutsk           885.000
       436   04 Jun 2027 10:39:54.440   04 Jun 2027 10:40:18.962            24.522                Norilsk           766.312
       437   04 Jun 2027 10:40:22.466   04 Jun 2027 10:40:33.915            11.449                Norilsk           357.781
       438   04 Jun 2027 10:40:44.628   04 Jun 2027 10:41:09.728            25.100                Norilsk           784.375
       439   04 Jun 2027 10:41:13.310   04 Jun 2027 10:41:52.630            39.320                Irkutsk          1228.750
       440   04 Jun 2027 10:42:14.552   04 Jun 2027 10:42:35.362            20.810                Novosib           650.313
       441   04 Jun 2027 10:42:36.875   04 Jun 2027 10:43:13.785            36.910                Irkutsk          1153.438
       442   04 Jun 2027 11:18:26.142   04 Jun 2027 11:18:56.143            30.001            RioGallegos           937.531
       443   04 Jun 2027 11:19:55.955   04 Jun 2027 11:20:56.945            60.990            RioGallegos          1905.937
       444   04 Jun 2027 11:53:04.965   04 Jun 2027 11:55:05.634           120.669                Sumatra          3770.906
       445   04 Jun 2027 12:18:33.316   04 Jun 2027 12:19:02.781            29.465                Norilsk           920.781
       446   04 Jun 2027 13:37:26.897   04 Jun 2027 13:37:55.460            28.563                  Delhi           892.594
       447   04 Jun 2027 13:38:26.847   04 Jun 2027 13:39:03.004            36.157                  Delhi          1129.906
       448   04 Jun 2027 13:39:42.231   04 Jun 2027 13:42:14.360           152.129                  Delhi          4754.031
       449   04 Jun 2027 13:45:35.540   04 Jun 2027 13:46:26.294            50.754                Novosib          1586.063
       450   04 Jun 2027 13:49:02.410   04 Jun 2027 13:49:48.953            46.543                Novosib          1454.469
       451   04 Jun 2027 13:52:38.263   04 Jun 2027 13:54:16.755            98.492                Norilsk          3077.875
       452   04 Jun 2027 15:21:22.016   04 Jun 2027 15:24:20.581           178.565                 Moscow          5580.156
       453   04 Jun 2027 15:24:39.286   04 Jun 2027 15:24:56.274            16.988                 Moscow           530.875
       454   04 Jun 2027 15:26:14.157   04 Jun 2027 15:27:15.332            61.175              Murmansk2          1911.719
       455   04 Jun 2027 15:30:04.298   04 Jun 2027 15:33:02.839           178.541                Norilsk          5579.406
       456   04 Jun 2027 16:38:10.438   04 Jun 2027 16:38:42.946            32.508               CapeTown          1015.875
       457   04 Jun 2027 16:41:38.506   04 Jun 2027 16:41:44.237             5.731               CapeTown           179.094
       458   04 Jun 2027 16:42:11.992   04 Jun 2027 16:42:21.063             9.071               CapeTown           283.469
       459   04 Jun 2027 16:45:23.717   04 Jun 2027 16:45:30.616             6.899               CapeTown           215.594
       460   04 Jun 2027 16:46:46.139   04 Jun 2027 16:47:05.962            19.823               CapeTown           619.469
       461   04 Jun 2027 16:59:33.245   04 Jun 2027 17:00:01.246            28.001                 Moscow           875.031
       462   04 Jun 2027 17:00:40.602   04 Jun 2027 17:01:02.008            21.406                 Moscow           668.937
       463   04 Jun 2027 17:02:21.365   04 Jun 2027 17:03:08.943            47.578              Murmansk1          1486.813
       464   04 Jun 2027 17:05:38.010   04 Jun 2027 17:06:12.162            34.152              Murmansk2          1067.250
       465   04 Jun 2027 17:09:58.559   04 Jun 2027 17:10:24.914            26.355              Murmansk1           823.594
       466   04 Jun 2027 17:15:42.023   04 Jun 2027 17:16:56.660            74.637                Anadyr1          2332.406
       467   04 Jun 2027 17:18:38.157   04 Jun 2027 17:19:18.973            40.816                Anadyr2          1275.500
       468   04 Jun 2027 17:23:22.746   04 Jun 2027 17:24:09.376            46.630                Anadyr2          1457.188
       469   04 Jun 2027 18:13:28.745   04 Jun 2027 18:15:20.337           111.592               CapeTown          3487.250
       470   04 Jun 2027 18:42:18.297   04 Jun 2027 18:45:44.078           205.781              Murmansk1          6430.656
       471   04 Jun 2027 18:45:44.078   04 Jun 2027 18:46:26.488            42.410              Murmansk2          1325.313
       472   04 Jun 2027 18:54:23.163   04 Jun 2027 18:54:59.843            36.680               Magadan1          1146.250
       473   04 Jun 2027 18:59:39.933   04 Jun 2027 19:00:03.896            23.963               Magadan1           748.844
       474   04 Jun 2027 19:03:26.764   04 Jun 2027 19:03:40.243            13.479               Magadan2           421.219
       475   04 Jun 2027 20:27:19.797   04 Jun 2027 20:29:24.646           124.849                Anadyr1          3901.531
       476   04 Jun 2027 20:29:37.484   04 Jun 2027 20:32:50.142           192.658               Magadan1          6020.562
       477   04 Jun 2027 20:33:37.628   04 Jun 2027 20:34:19.372            41.744               Magadan1          1304.500
       478   04 Jun 2027 20:34:27.596   04 Jun 2027 20:34:59.431            31.835               Magadan1           994.844
       479   04 Jun 2027 20:37:43.072   04 Jun 2027 20:37:48.975             5.903               Magadan2           184.469
       480   04 Jun 2027 20:38:13.031   04 Jun 2027 20:38:53.775            40.744               Magadan2          1273.250
       481   04 Jun 2027 21:23:06.404   04 Jun 2027 21:25:49.376           162.972            RioGallegos          5092.875
       482   04 Jun 2027 21:28:31.943   04 Jun 2027 21:29:03.332            31.389            RioGallegos           980.906
