uniorb/output/strategy_4/Drop/Drop_KinoSat_111307.txt

KinoSat_111307
-------------------------
    Access    *     Start Time (UTCG)     *     Stop Time (UTCG)  *   Duration (s)        *       Station  *  Data (Mbytes)
         1   01 Jun 2027 03:09:22.474   01 Jun 2027 03:09:35.336            12.862              Murmansk2           401.938
         2   01 Jun 2027 03:09:45.218   01 Jun 2027 03:10:50.603            65.385                 Moscow          2043.281
         3   01 Jun 2027 03:10:55.043   01 Jun 2027 03:11:04.398             9.355                 Moscow           292.344
         4   01 Jun 2027 03:11:08.389   01 Jun 2027 03:12:07.537            59.148                Norilsk          1848.375
         5   01 Jun 2027 03:12:10.684   01 Jun 2027 03:13:55.010           104.326              Murmansk1          3260.188
         6   01 Jun 2027 03:14:10.127   01 Jun 2027 03:14:53.540            43.413              Murmansk1          1356.656
         7   01 Jun 2027 03:15:27.008   01 Jun 2027 03:18:32.837           185.829                 Moscow          5807.156
         8   01 Jun 2027 03:29:59.323   01 Jun 2027 03:32:47.829           168.506               CapeTown          5265.813
         9   01 Jun 2027 03:34:25.529   01 Jun 2027 03:35:28.148            62.619               CapeTown          1956.844
        10   01 Jun 2027 04:33:58.580   01 Jun 2027 04:37:58.174           239.594                Anadyr2          7487.313
        11   01 Jun 2027 04:38:39.359   01 Jun 2027 04:39:22.195            42.836                Anadyr1          1338.625
        12   01 Jun 2027 04:45:16.659   01 Jun 2027 04:45:38.035            21.376              Murmansk2           668.000
        13   01 Jun 2027 04:45:38.035   01 Jun 2027 04:46:06.027            27.992              Murmansk1           874.750
        14   01 Jun 2027 04:46:09.682   01 Jun 2027 04:46:29.890            20.208                Norilsk           631.500
        15   01 Jun 2027 04:47:43.386   01 Jun 2027 04:48:04.631            21.245              Murmansk2           663.906
        16   01 Jun 2027 06:09:11.582   01 Jun 2027 06:12:41.550           209.968               Magadan2          6561.500
        17   01 Jun 2027 06:13:05.453   01 Jun 2027 06:14:16.271            70.818                Anadyr1          2213.063
        18   01 Jun 2027 07:44:25.118   01 Jun 2027 07:46:40.625           135.507                Irkutsk          4234.594
        19   01 Jun 2027 07:47:05.440   01 Jun 2027 07:49:57.850           172.410                Irkutsk          5387.813
        20   01 Jun 2027 07:50:05.024   01 Jun 2027 07:50:29.926            24.902                Anadyr1           778.188
        21   01 Jun 2027 07:51:05.146   01 Jun 2027 07:51:11.554             6.408              Murmansk1           200.250
        22   01 Jun 2027 07:51:22.385   01 Jun 2027 07:51:46.616            24.231              Murmansk2           757.219
        23   01 Jun 2027 08:26:15.815   01 Jun 2027 08:26:44.548            28.733            RioGallegos           897.906
        24   01 Jun 2027 08:28:46.572   01 Jun 2027 08:29:12.417            25.845            RioGallegos           807.656
        25   01 Jun 2027 09:21:21.723   01 Jun 2027 09:25:00.055           218.332               Magadan2          6822.875
        26   01 Jun 2027 09:25:00.055   01 Jun 2027 09:25:34.290            34.235               Magadan1          1069.844
        27   01 Jun 2027 09:26:20.654   01 Jun 2027 09:26:39.292            18.638                Irkutsk           582.437
        28   01 Jun 2027 10:36:14.059   01 Jun 2027 10:37:27.186            73.127                Sumatra          2285.219
        29   01 Jun 2027 10:39:16.511   01 Jun 2027 10:40:07.399            50.888                Sumatra          1590.250
        30   01 Jun 2027 10:58:45.968   01 Jun 2027 11:01:27.762           161.794                Irkutsk          5056.063
        31   01 Jun 2027 11:01:48.688   01 Jun 2027 11:02:44.592            55.904              Murmansk1          1747.000
        32   01 Jun 2027 11:02:50.213   01 Jun 2027 11:02:52.085             1.872              Murmansk1            58.500
        33   01 Jun 2027 11:02:52.085   01 Jun 2027 11:03:04.229            12.144              Murmansk2           379.500
        34   01 Jun 2027 11:03:13.363   01 Jun 2027 11:03:33.812            20.449                 Moscow           639.031
        35   01 Jun 2027 11:03:49.747   01 Jun 2027 11:04:00.794            11.047                Norilsk           345.219
        36   01 Jun 2027 11:04:03.504   01 Jun 2027 11:04:15.091            11.587                 Moscow           362.094
        37   01 Jun 2027 11:05:11.760   01 Jun 2027 11:05:20.057             8.297              Murmansk2           259.281
        38   01 Jun 2027 11:07:08.651   01 Jun 2027 11:07:36.332            27.681                Norilsk           865.031
        39   01 Jun 2027 11:40:58.107   01 Jun 2027 11:41:33.509            35.402            RioGallegos          1106.313
        40   01 Jun 2027 11:42:13.397   01 Jun 2027 11:43:24.962            71.565            RioGallegos          2236.406
        41   01 Jun 2027 11:44:39.092   01 Jun 2027 11:45:29.853            50.761            RioGallegos          1586.281
        42   01 Jun 2027 12:16:09.652   01 Jun 2027 12:19:17.198           187.546                Sumatra          5860.812
        43   01 Jun 2027 12:28:06.180   01 Jun 2027 12:28:09.798             3.618                Novosib           113.062
        44   01 Jun 2027 12:28:51.785   01 Jun 2027 12:29:23.242            31.457                Novosib           983.031
        45   01 Jun 2027 12:30:17.581   01 Jun 2027 12:31:05.861            48.280                Novosib          1508.750
        46   01 Jun 2027 12:31:27.910   01 Jun 2027 12:32:53.846            85.936                Novosib          2685.500
        47   01 Jun 2027 12:32:56.291   01 Jun 2027 12:33:17.983            21.692              Murmansk1           677.875
        48   01 Jun 2027 12:33:18.739   01 Jun 2027 12:35:01.546           102.807                Irkutsk          3212.719
        49   01 Jun 2027 14:04:50.621   01 Jun 2027 14:07:29.628           159.007                 Moscow          4968.969
        50   01 Jun 2027 14:08:14.429   01 Jun 2027 14:10:42.029           147.600              Murmansk1          4612.500
        51   01 Jun 2027 14:10:45.245   01 Jun 2027 14:10:52.962             7.717              Murmansk2           241.156
        52   01 Jun 2027 14:11:50.176   01 Jun 2027 14:13:24.859            94.683                Norilsk          2958.844
        53   01 Jun 2027 14:15:23.682   01 Jun 2027 14:16:42.628            78.946                Norilsk          2467.063
        54   01 Jun 2027 15:19:42.806   01 Jun 2027 15:22:37.299           174.493               CapeTown          5452.906
        55   01 Jun 2027 15:41:54.852   01 Jun 2027 15:42:23.638            28.786                 Moscow           899.562
        56   01 Jun 2027 15:45:09.359   01 Jun 2027 15:47:30.215           140.856              Murmansk2          4401.750
        57   01 Jun 2027 15:59:23.882   01 Jun 2027 16:01:20.188           116.306                Anadyr2          3634.563
        58   01 Jun 2027 16:54:16.033   01 Jun 2027 16:56:28.407           132.374               CapeTown          4136.687
        59   01 Jun 2027 16:57:56.279   01 Jun 2027 16:58:18.777            22.498               CapeTown           703.063
        60   01 Jun 2027 17:24:16.326   01 Jun 2027 17:25:18.319            61.993              Murmansk2          1937.281
        61   01 Jun 2027 17:25:35.401   01 Jun 2027 17:27:41.349           125.948              Murmansk1          3935.875
        62   01 Jun 2027 17:29:16.703   01 Jun 2027 17:29:45.572            28.869              Murmansk2           902.156
        63   01 Jun 2027 17:34:52.685   01 Jun 2027 17:35:46.348            53.663                Anadyr1          1676.969
        64   01 Jun 2027 17:36:10.576   01 Jun 2027 17:36:48.594            38.018                Anadyr1          1188.063
        65   01 Jun 2027 17:38:31.027   01 Jun 2027 17:40:37.333           126.306               Magadan2          3947.062
        66   01 Jun 2027 19:10:47.096   01 Jun 2027 19:12:41.732           114.636                Anadyr1          3582.375
        67   01 Jun 2027 19:12:52.280   01 Jun 2027 19:14:51.165           118.885                Anadyr2          3715.156
        68   01 Jun 2027 19:15:11.057   01 Jun 2027 19:15:34.846            23.789               Magadan1           743.406
        69   01 Jun 2027 19:16:12.592   01 Jun 2027 19:16:31.384            18.792               Magadan1           587.250
        70   01 Jun 2027 19:18:18.738   01 Jun 2027 19:18:30.939            12.201               Magadan2           381.281
        71   01 Jun 2027 19:18:49.273   01 Jun 2027 19:19:03.728            14.455               Magadan2           451.719
        72   01 Jun 2027 19:19:55.200   01 Jun 2027 19:20:52.961            57.761               Magadan1          1805.031
        73   01 Jun 2027 20:46:39.413   01 Jun 2027 20:48:48.308           128.895                Anadyr2          4027.969
        74   01 Jun 2027 20:48:48.468   01 Jun 2027 20:50:22.101            93.633                Anadyr1          2926.031
        75   01 Jun 2027 20:50:33.248   01 Jun 2027 20:53:14.841           161.593                Norilsk          5049.781
        76   01 Jun 2027 20:54:00.359   01 Jun 2027 20:54:32.151            31.792                Norilsk           993.500
        77   01 Jun 2027 20:54:34.097   01 Jun 2027 20:54:39.629             5.532                Irkutsk           172.875
        78   01 Jun 2027 20:56:11.688   01 Jun 2027 20:57:16.489            64.801                Irkutsk          2025.031
        79   01 Jun 2027 21:00:33.100   01 Jun 2027 21:00:34.292             1.192                Irkutsk            37.250
        80   01 Jun 2027 21:11:18.613   01 Jun 2027 21:12:16.836            58.223                Sumatra          1819.469
        81   01 Jun 2027 21:13:09.989   01 Jun 2027 21:14:28.175            78.186                Sumatra          2443.313
        82   01 Jun 2027 21:40:48.272   01 Jun 2027 21:41:15.523            27.251            RioGallegos           851.594
        83   01 Jun 2027 22:22:06.256   01 Jun 2027 22:24:31.608           145.352                Anadyr2          4542.250
        84   01 Jun 2027 22:24:50.235   01 Jun 2027 22:25:34.200            43.965                Anadyr1          1373.906
        85   01 Jun 2027 22:25:37.107   01 Jun 2027 22:27:47.481           130.374               Magadan1          4074.187
        86   01 Jun 2027 22:28:31.587   01 Jun 2027 22:29:44.657            73.070                Irkutsk          2283.438
        87   01 Jun 2027 22:29:55.588   01 Jun 2027 22:31:14.495            78.907                Novosib          2465.844
        88   01 Jun 2027 22:33:16.607   01 Jun 2027 22:33:42.167            25.560                Novosib           798.750
        89   01 Jun 2027 22:42:13.326   01 Jun 2027 22:42:37.124            23.798                Sumatra           743.688
        90   01 Jun 2027 22:44:50.420   01 Jun 2027 22:45:10.010            19.590                Sumatra           612.188
        91   01 Jun 2027 23:56:30.882   01 Jun 2027 23:58:38.247           127.365                Anadyr2          3980.156
        92   01 Jun 2027 23:59:17.689   01 Jun 2027 23:59:25.298             7.609                Anadyr1           237.781
        93   02 Jun 2027 00:00:30.500   02 Jun 2027 00:00:48.925            18.425                Norilsk           575.781
        94   02 Jun 2027 00:01:08.257   02 Jun 2027 00:02:26.373            78.116               Magadan2          2441.125
        95   02 Jun 2027 00:04:15.130   02 Jun 2027 00:05:11.058            55.928               Magadan1          1747.750
        96   02 Jun 2027 00:05:38.980   02 Jun 2027 00:07:04.220            85.240                Novosib          2663.750
        97   02 Jun 2027 00:08:02.431   02 Jun 2027 00:08:20.357            17.926                Novosib           560.187
        98   02 Jun 2027 00:11:49.489   02 Jun 2027 00:13:24.687            95.198                  Delhi          2974.938
        99   02 Jun 2027 00:53:08.920   02 Jun 2027 00:53:33.220            24.300            RioGallegos           759.375
       100   02 Jun 2027 00:53:50.765   02 Jun 2027 00:54:41.018            50.253            RioGallegos          1570.406
       101   02 Jun 2027 01:29:52.898   02 Jun 2027 01:30:18.163            25.265                Anadyr1           789.531
       102   02 Jun 2027 01:31:15.232   02 Jun 2027 01:31:56.495            41.263                Anadyr1          1289.469
       103   02 Jun 2027 01:32:09.071   02 Jun 2027 01:32:28.592            19.521                Anadyr1           610.031
       104   02 Jun 2027 01:32:50.490   02 Jun 2027 01:33:04.800            14.310                Anadyr2           447.187
       105   02 Jun 2027 01:35:31.663   02 Jun 2027 01:35:45.749            14.086                Anadyr2           440.187
       106   02 Jun 2027 01:35:53.483   02 Jun 2027 01:35:58.307             4.824                Anadyr2           150.750
       107   02 Jun 2027 01:36:04.509   02 Jun 2027 01:37:52.141           107.632               Magadan1          3363.500
       108   02 Jun 2027 01:38:24.996   02 Jun 2027 01:38:49.690            24.694               Magadan2           771.688
       109   02 Jun 2027 01:39:07.956   02 Jun 2027 01:41:10.412           122.456              Murmansk1          3826.750
       110   02 Jun 2027 01:41:50.895   02 Jun 2027 01:42:20.115            29.220                Novosib           913.125
       111   02 Jun 2027 01:45:59.885   02 Jun 2027 01:46:20.545            20.660                 Moscow           645.625
       112   02 Jun 2027 01:48:29.867   02 Jun 2027 01:48:37.489             7.622                  Delhi           238.188
       113   02 Jun 2027 01:49:07.348   02 Jun 2027 01:49:17.338             9.990                  Delhi           312.188
       114   02 Jun 2027 01:51:12.508   02 Jun 2027 01:51:53.976            41.468                  Delhi          1295.875
       115   02 Jun 2027 02:10:31.630   02 Jun 2027 02:10:48.296            16.666               CapeTown           520.812
       116   02 Jun 2027 03:04:26.770   02 Jun 2027 03:04:30.421             3.651                Anadyr2           114.094
       117   02 Jun 2027 03:05:05.332   02 Jun 2027 03:05:53.667            48.335                Anadyr1          1510.469
       118   02 Jun 2027 03:06:17.498   02 Jun 2027 03:06:36.128            18.630                Anadyr1           582.187
       119   02 Jun 2027 03:22:08.633   02 Jun 2027 03:22:19.232            10.599                Norilsk           331.219
       120   02 Jun 2027 03:22:29.865   02 Jun 2027 03:23:05.895            36.030                Novosib          1125.937
       121   02 Jun 2027 03:23:44.882   02 Jun 2027 03:23:45.844             0.962              Murmansk1            30.063
       122   02 Jun 2027 03:23:46.294   02 Jun 2027 03:23:58.265            11.971                 Moscow           374.094
       123   02 Jun 2027 03:23:59.772   02 Jun 2027 03:24:03.861             4.089                Norilsk           127.781
       124   02 Jun 2027 03:24:09.861   02 Jun 2027 03:24:56.182            46.321                Novosib          1447.531
       125   02 Jun 2027 03:24:56.860   02 Jun 2027 03:29:29.086           272.226                 Moscow          8507.063
       126   02 Jun 2027 03:41:50.172   02 Jun 2027 03:44:52.101           181.929               CapeTown          5685.281
       127   02 Jun 2027 04:38:27.312   02 Jun 2027 04:40:07.761           100.449                Anadyr2          3139.031
       128   02 Jun 2027 04:45:10.541   02 Jun 2027 04:47:06.919           116.378               Magadan1          3636.812
       129   02 Jun 2027 04:47:06.919   02 Jun 2027 04:47:58.251            51.332               Magadan2          1604.125
       130   02 Jun 2027 04:47:58.251   02 Jun 2027 04:48:15.563            17.312               Magadan1           541.000
       131   02 Jun 2027 04:49:25.299   02 Jun 2027 04:51:12.421           107.122                Anadyr2          3347.562
       132   02 Jun 2027 04:51:12.421   02 Jun 2027 04:51:23.757            11.336                Anadyr1           354.250
       133   02 Jun 2027 06:23:09.475   02 Jun 2027 06:25:02.327           112.852               Magadan2          3526.625
       134   02 Jun 2027 06:25:02.327   02 Jun 2027 06:27:00.903           118.576               Magadan1          3705.500
       135   02 Jun 2027 07:55:36.728   02 Jun 2027 07:56:40.415            63.687                Anadyr2          1990.219
       136   02 Jun 2027 07:56:52.023   02 Jun 2027 07:57:58.181            66.158               Magadan1          2067.438
       137   02 Jun 2027 07:57:58.181   02 Jun 2027 07:59:08.303            70.122               Magadan2          2191.313
       138   02 Jun 2027 07:59:22.752   02 Jun 2027 08:01:17.953           115.201               Magadan2          3600.031
       139   02 Jun 2027 08:01:27.243   02 Jun 2027 08:02:08.986            41.743                Anadyr1          1304.469
       140   02 Jun 2027 09:32:08.098   02 Jun 2027 09:35:23.629           195.531               Magadan1          6110.344
       141   02 Jun 2027 09:35:36.210   02 Jun 2027 09:36:19.152            42.942               Magadan1          1341.937
       142   02 Jun 2027 09:36:38.901   02 Jun 2027 09:36:43.434             4.533                Irkutsk           141.656
       143   02 Jun 2027 09:37:47.161   02 Jun 2027 09:38:00.353            13.192                Irkutsk           412.250
       144   02 Jun 2027 09:38:02.691   02 Jun 2027 09:38:05.559             2.868                Irkutsk            89.625
       145   02 Jun 2027 09:38:22.094   02 Jun 2027 09:38:42.527            20.433                Irkutsk           638.531
       146   02 Jun 2027 10:13:36.910   02 Jun 2027 10:14:54.229            77.319            RioGallegos          2416.219
       147   02 Jun 2027 10:48:13.990   02 Jun 2027 10:48:31.640            17.650                Sumatra           551.562
       148   02 Jun 2027 10:50:18.702   02 Jun 2027 10:50:58.487            39.785                Sumatra          1243.281
       149   02 Jun 2027 10:58:12.423   02 Jun 2027 10:58:24.102            11.679                  Delhi           364.969
       150   02 Jun 2027 11:08:07.908   02 Jun 2027 11:08:32.765            24.857                  Delhi           776.781
       151   02 Jun 2027 11:09:12.146   02 Jun 2027 11:09:35.035            22.889                Irkutsk           715.281
       152   02 Jun 2027 11:09:42.130   02 Jun 2027 11:10:46.868            64.738                Irkutsk          2023.063
       153   02 Jun 2027 11:10:53.503   02 Jun 2027 11:11:24.435            30.932                Irkutsk           966.625
       154   02 Jun 2027 11:12:09.631   02 Jun 2027 11:12:28.448            18.817                Irkutsk           588.031
       155   02 Jun 2027 11:12:33.531   02 Jun 2027 11:12:33.837             0.306                Norilsk             9.563
       156   02 Jun 2027 11:12:33.962   02 Jun 2027 11:13:24.375            50.413                Norilsk          1575.406
       157   02 Jun 2027 11:13:32.972   02 Jun 2027 11:13:35.156             2.184                Irkutsk            68.250
       158   02 Jun 2027 11:13:51.254   02 Jun 2027 11:14:12.046            20.792                Norilsk           649.750
       159   02 Jun 2027 11:14:21.743   02 Jun 2027 11:14:29.107             7.364                Novosib           230.125
       160   02 Jun 2027 11:14:34.555   02 Jun 2027 11:14:36.915             2.360                Norilsk            73.750
       161   02 Jun 2027 11:15:02.878   02 Jun 2027 11:15:19.054            16.176                Norilsk           505.500
       162   02 Jun 2027 11:54:08.932   02 Jun 2027 11:55:22.574            73.642            RioGallegos          2301.313
       163   02 Jun 2027 12:34:00.227   02 Jun 2027 12:34:41.350            41.123                  Delhi          1285.094
       164   02 Jun 2027 12:35:30.607   02 Jun 2027 12:36:22.496            51.889                  Delhi          1621.531
       165   02 Jun 2027 12:40:29.410   02 Jun 2027 12:40:57.958            28.548                Novosib           892.125
       166   02 Jun 2027 12:41:56.963   02 Jun 2027 12:42:13.062            16.099                Novosib           503.094
       167   02 Jun 2027 12:42:51.696   02 Jun 2027 12:44:27.839            96.143                Novosib          3004.469
       168   02 Jun 2027 12:44:31.408   02 Jun 2027 12:44:50.404            18.996                Norilsk           593.625
       169   02 Jun 2027 12:45:10.761   02 Jun 2027 12:45:44.067            33.306              Murmansk2          1040.812
       170   02 Jun 2027 14:16:49.741   02 Jun 2027 14:19:50.563           180.822                 Moscow          5650.688
       171   02 Jun 2027 14:20:17.398   02 Jun 2027 14:23:07.533           170.135              Murmansk2          5316.719
       172   02 Jun 2027 14:24:33.176   02 Jun 2027 14:25:27.387            54.211                Norilsk          1694.094
       173   02 Jun 2027 14:27:41.628   02 Jun 2027 14:29:20.050            98.422                Norilsk          3075.687
       174   02 Jun 2027 15:31:17.460   02 Jun 2027 15:31:58.798            41.338               CapeTown          1291.812
       175   02 Jun 2027 15:32:17.710   02 Jun 2027 15:32:37.303            19.593               CapeTown           612.281
       176   02 Jun 2027 15:36:31.522   02 Jun 2027 15:36:32.486             0.964               CapeTown            30.125
       177   02 Jun 2027 15:54:21.663   02 Jun 2027 15:55:12.385            50.722                 Moscow          1585.063
       178   02 Jun 2027 15:57:26.698   02 Jun 2027 15:58:41.798            75.100              Murmansk2          2346.875
       179   02 Jun 2027 15:59:19.459   02 Jun 2027 15:59:36.114            16.655              Murmansk1           520.469
       180   02 Jun 2027 16:01:24.903   02 Jun 2027 16:01:45.602            20.699              Murmansk2           646.844
       181   02 Jun 2027 16:11:18.351   02 Jun 2027 16:13:01.546           103.195                Anadyr2          3224.844
       182   02 Jun 2027 16:13:41.869   02 Jun 2027 16:14:03.414            21.545                Anadyr2           673.281
       183   02 Jun 2027 16:17:19.145   02 Jun 2027 16:17:19.875             0.730                Anadyr2            22.813
       184   02 Jun 2027 16:19:50.874   02 Jun 2027 16:20:00.079             9.205                Anadyr2           287.656
       185   02 Jun 2027 16:20:29.331   02 Jun 2027 16:20:57.768            28.437                Anadyr2           888.656
       186   02 Jun 2027 17:06:21.823   02 Jun 2027 17:07:08.440            46.617               CapeTown          1456.781
       187   02 Jun 2027 17:07:35.130   02 Jun 2027 17:08:26.182            51.052               CapeTown          1595.375
       188   02 Jun 2027 17:36:54.410   02 Jun 2027 17:38:50.845           116.435              Murmansk1          3638.594
       189   02 Jun 2027 17:39:43.155   02 Jun 2027 17:41:15.894            92.739              Murmansk1          2898.094
       190   02 Jun 2027 17:46:53.415   02 Jun 2027 17:47:17.398            23.983                Anadyr2           749.469
       191   02 Jun 2027 17:47:29.678   02 Jun 2027 17:47:53.064            23.386                Anadyr1           730.813
       192   02 Jun 2027 17:50:11.803   02 Jun 2027 17:51:29.584            77.781               Magadan1          2430.656
       193   02 Jun 2027 17:52:16.944   02 Jun 2027 17:52:51.131            34.187               Magadan2          1068.344
       194   02 Jun 2027 17:55:13.508   02 Jun 2027 17:55:25.682            12.174               Magadan1           380.437
       195   02 Jun 2027 19:22:48.648   02 Jun 2027 19:24:41.936           113.288                Anadyr1          3540.250
       196   02 Jun 2027 19:24:53.871   02 Jun 2027 19:26:45.999           112.128                Anadyr2          3504.000
       197   02 Jun 2027 19:27:09.456   02 Jun 2027 19:28:43.583            94.127               Magadan1          2941.469
       198   02 Jun 2027 19:29:02.722   02 Jun 2027 19:29:49.387            46.665               Magadan1          1458.281
       199   02 Jun 2027 19:31:19.218   02 Jun 2027 19:32:04.227            45.009               Magadan2          1406.531
       200   02 Jun 2027 20:19:56.662   02 Jun 2027 20:21:48.846           112.184            RioGallegos          3505.750
       201   02 Jun 2027 20:58:39.279   02 Jun 2027 20:59:06.802            27.523                Anadyr1           860.094
       202   02 Jun 2027 21:00:03.683   02 Jun 2027 21:01:25.861            82.178                Anadyr2          2568.062
       203   02 Jun 2027 21:01:40.070   02 Jun 2027 21:02:29.023            48.953               Magadan2          1529.781
       204   02 Jun 2027 21:02:29.023   02 Jun 2027 21:03:20.080            51.057               Magadan1          1595.531
       205   02 Jun 2027 21:03:35.718   02 Jun 2027 21:04:08.068            32.350               Magadan1          1010.937
       206   02 Jun 2027 21:04:28.709   02 Jun 2027 21:04:40.477            11.768               Magadan1           367.750
       207   02 Jun 2027 21:06:01.573   02 Jun 2027 21:06:56.459            54.886                Irkutsk          1715.188
       208   02 Jun 2027 21:07:47.436   02 Jun 2027 21:08:07.736            20.300                Norilsk           634.375
       209   02 Jun 2027 21:08:12.953   02 Jun 2027 21:09:02.090            49.137                Irkutsk          1535.531
       210   02 Jun 2027 21:10:14.644   02 Jun 2027 21:11:54.423            99.779                Irkutsk          3118.094
       211   02 Jun 2027 21:21:30.808   02 Jun 2027 21:23:17.797           106.989                Sumatra          3343.406
       212   02 Jun 2027 21:27:09.291   02 Jun 2027 21:28:37.551            88.260                Sumatra          2758.125
       213   02 Jun 2027 22:36:32.546   02 Jun 2027 22:37:13.080            40.534                Norilsk          1266.687
       214   02 Jun 2027 22:37:23.648   02 Jun 2027 22:37:31.470             7.822               Magadan1           244.438
       215   02 Jun 2027 22:37:35.128   02 Jun 2027 22:38:02.028            26.900                Norilsk           840.625
       216   02 Jun 2027 22:40:29.591   02 Jun 2027 22:41:43.756            74.165                Irkutsk          2317.656
       217   02 Jun 2027 22:42:05.325   02 Jun 2027 22:44:06.813           121.488                Novosib          3796.500
       218   02 Jun 2027 22:53:09.733   02 Jun 2027 22:53:19.932            10.199                  Delhi           318.719
       219   02 Jun 2027 22:59:04.287   02 Jun 2027 23:00:06.643            62.356                Sumatra          1948.625
       220   03 Jun 2027 00:08:15.369   03 Jun 2027 00:09:45.238            89.869                Anadyr1          2808.406
       221   03 Jun 2027 00:10:29.942   03 Jun 2027 00:10:34.851             4.909                Anadyr1           153.406
       222   03 Jun 2027 00:10:41.103   03 Jun 2027 00:11:07.310            26.207                Anadyr2           818.969
       223   03 Jun 2027 00:12:32.592   03 Jun 2027 00:12:50.019            17.427                Norilsk           544.594
       224   03 Jun 2027 00:13:08.974   03 Jun 2027 00:15:00.004           111.030               Magadan1          3469.687
       225   03 Jun 2027 00:15:43.914   03 Jun 2027 00:17:53.422           129.508              Murmansk1          4047.125
       226   03 Jun 2027 00:18:31.760   03 Jun 2027 00:19:23.233            51.473              Murmansk1          1608.531
       227   03 Jun 2027 00:23:44.041   03 Jun 2027 00:24:18.190            34.149                  Delhi          1067.156
       228   03 Jun 2027 00:30:37.177   03 Jun 2027 00:31:37.260            60.083                  Delhi          1877.594
       229   03 Jun 2027 01:06:38.548   03 Jun 2027 01:06:50.910            12.362            RioGallegos           386.312
       230   03 Jun 2027 01:08:37.656   03 Jun 2027 01:09:11.844            34.188            RioGallegos          1068.375
       231   03 Jun 2027 01:41:34.269   03 Jun 2027 01:41:53.599            19.330                Anadyr1           604.062
       232   03 Jun 2027 01:42:00.997   03 Jun 2027 01:42:15.299            14.302                Anadyr2           446.938
       233   03 Jun 2027 01:42:43.754   03 Jun 2027 01:43:14.144            30.390                Anadyr2           949.687
       234   03 Jun 2027 01:43:14.144   03 Jun 2027 01:43:45.825            31.681                Anadyr1           990.031
       235   03 Jun 2027 01:44:11.207   03 Jun 2027 01:44:35.460            24.253                Anadyr1           757.906
       236   03 Jun 2027 01:47:27.778   03 Jun 2027 01:47:36.591             8.813                Anadyr1           275.406
       237   03 Jun 2027 01:47:43.004   03 Jun 2027 01:48:41.381            58.377               Magadan2          1824.281
       238   03 Jun 2027 01:48:43.535   03 Jun 2027 01:48:49.090             5.555                Norilsk           173.594
       239   03 Jun 2027 01:49:03.705   03 Jun 2027 01:49:54.018            50.313               Magadan1          1572.281
       240   03 Jun 2027 01:50:27.653   03 Jun 2027 01:51:14.723            47.070               Magadan2          1470.937
       241   03 Jun 2027 01:51:56.168   03 Jun 2027 01:53:03.663            67.495              Murmansk2          2109.219
       242   03 Jun 2027 01:53:19.411   03 Jun 2027 01:53:44.203            24.792              Murmansk2           774.750
       243   03 Jun 2027 01:54:39.852   03 Jun 2027 01:55:22.541            42.689                 Moscow          1334.031
       244   03 Jun 2027 02:01:09.199   03 Jun 2027 02:01:52.834            43.635                  Delhi          1363.594
       245   03 Jun 2027 02:21:20.329   03 Jun 2027 02:22:55.845            95.516               CapeTown          2984.875
       246   03 Jun 2027 03:19:50.541   03 Jun 2027 03:20:03.649            13.108                Anadyr2           409.625
       247   03 Jun 2027 03:36:14.677   03 Jun 2027 03:36:57.040            42.363                 Moscow          1323.844
       248   03 Jun 2027 03:37:32.769   03 Jun 2027 03:41:33.190           240.421                 Moscow          7513.156
       249   03 Jun 2027 03:53:46.039   03 Jun 2027 03:56:42.256           176.217               CapeTown          5506.781
       250   03 Jun 2027 04:02:12.647   03 Jun 2027 04:02:43.617            30.970               CapeTown           967.812
       251   03 Jun 2027 04:03:16.823   03 Jun 2027 04:04:02.428            45.605               CapeTown          1425.156
       252   03 Jun 2027 04:04:57.458   03 Jun 2027 04:06:00.940            63.482               CapeTown          1983.812
       253   03 Jun 2027 04:50:29.412   03 Jun 2027 04:53:24.734           175.322                Anadyr1          5478.813
       254   03 Jun 2027 04:56:37.551   03 Jun 2027 05:00:23.513           225.962               Magadan1          7061.312
       255   03 Jun 2027 05:00:23.513   03 Jun 2027 05:01:10.390            46.877               Magadan2          1464.906
       256   03 Jun 2027 05:01:26.017   03 Jun 2027 05:03:14.458           108.441                Anadyr1          3388.781
       257   03 Jun 2027 06:33:56.259   03 Jun 2027 06:34:02.115             5.856                Anadyr2           183.000
       258   03 Jun 2027 06:34:02.255   03 Jun 2027 06:34:55.550            53.295               Magadan1          1665.469
       259   03 Jun 2027 06:35:06.031   03 Jun 2027 06:35:16.079            10.048               Magadan2           314.000
       260   03 Jun 2027 06:35:16.079   03 Jun 2027 06:35:17.640             1.561               Magadan1            48.781
       261   03 Jun 2027 06:35:21.920   03 Jun 2027 06:35:23.892             1.972               Magadan2            61.625
       262   03 Jun 2027 06:35:23.892   03 Jun 2027 06:35:43.134            19.242               Magadan1           601.313
       263   03 Jun 2027 06:35:51.733   03 Jun 2027 06:36:23.113            31.380                Anadyr2           980.625
       264   03 Jun 2027 06:36:23.113   03 Jun 2027 06:36:56.696            33.583                Anadyr1          1049.469
       265   03 Jun 2027 08:07:27.288   03 Jun 2027 08:07:48.213            20.925               Magadan2           653.906
       266   03 Jun 2027 08:08:28.331   03 Jun 2027 08:08:41.451            13.120               Magadan2           410.000
       267   03 Jun 2027 08:08:47.384   03 Jun 2027 08:08:55.710             8.326               Magadan1           260.188
       268   03 Jun 2027 08:09:33.403   03 Jun 2027 08:11:07.673            94.270               Magadan2          2945.938
       269   03 Jun 2027 08:11:47.839   03 Jun 2027 08:12:41.143            53.304                Anadyr2          1665.750
       270   03 Jun 2027 08:12:56.271   03 Jun 2027 08:13:06.682            10.411               Magadan1           325.344
       271   03 Jun 2027 08:13:15.379   03 Jun 2027 08:13:57.387            42.008                Anadyr1          1312.750
       272   03 Jun 2027 08:14:01.240   03 Jun 2027 08:14:44.797            43.557               Magadan1          1361.156
       273   03 Jun 2027 08:49:47.985   03 Jun 2027 08:50:29.323            41.338            RioGallegos          1291.812
       274   03 Jun 2027 08:54:34.897   03 Jun 2027 08:55:27.821            52.924            RioGallegos          1653.875
       275   03 Jun 2027 09:28:04.100   03 Jun 2027 09:29:03.293            59.193                Sumatra          1849.781
       276   03 Jun 2027 09:45:18.958   03 Jun 2027 09:45:59.496            40.538               Magadan2          1266.812
       277   03 Jun 2027 09:46:55.969   03 Jun 2027 09:47:05.426             9.457                Irkutsk           295.531
       278   03 Jun 2027 09:47:28.005   03 Jun 2027 09:48:42.028            74.023                Irkutsk          2313.219
       279   03 Jun 2027 09:48:46.755   03 Jun 2027 09:48:55.029             8.274                Irkutsk           258.563
       280   03 Jun 2027 09:49:45.039   03 Jun 2027 09:50:07.399            22.360                Irkutsk           698.750
       281   03 Jun 2027 09:50:15.162   03 Jun 2027 09:50:16.504             1.342                Irkutsk            41.938
       282   03 Jun 2027 09:50:23.839   03 Jun 2027 09:50:44.983            21.144                Irkutsk           660.750
       283   03 Jun 2027 10:26:41.661   03 Jun 2027 10:27:26.473            44.812            RioGallegos          1400.375
       284   03 Jun 2027 10:34:19.021   03 Jun 2027 10:34:25.080             6.059            RioGallegos           189.344
       285   03 Jun 2027 11:00:19.593   03 Jun 2027 11:02:41.054           141.461                Sumatra          4420.656
       286   03 Jun 2027 11:22:56.469   03 Jun 2027 11:22:56.879             0.410                Norilsk            12.812
       287   03 Jun 2027 11:22:58.554   03 Jun 2027 11:23:00.093             1.539                Irkutsk            48.094
       288   03 Jun 2027 11:23:32.344   03 Jun 2027 11:23:42.517            10.173                Novosib           317.906
       289   03 Jun 2027 11:23:52.206   03 Jun 2027 11:23:58.609             6.403                Novosib           200.094
       290   03 Jun 2027 11:24:00.117   03 Jun 2027 11:25:01.600            61.483                Irkutsk          1921.344
       291   03 Jun 2027 11:25:17.383   03 Jun 2027 11:25:25.929             8.546                Norilsk           267.062
       292   03 Jun 2027 11:25:46.115   03 Jun 2027 11:26:06.963            20.848                Irkutsk           651.500
       293   03 Jun 2027 11:26:13.197   03 Jun 2027 11:26:31.866            18.669                Norilsk           583.406
       294   03 Jun 2027 12:08:11.907   03 Jun 2027 12:10:10.054           118.147            RioGallegos          3692.094
       295   03 Jun 2027 12:44:51.753   03 Jun 2027 12:45:26.265            34.512                  Delhi          1078.500
       296   03 Jun 2027 12:52:57.231   03 Jun 2027 12:53:44.661            47.430                Novosib          1482.188
       297   03 Jun 2027 12:54:06.854   03 Jun 2027 12:54:27.383            20.529                Novosib           641.531
       298   03 Jun 2027 12:54:54.985   03 Jun 2027 12:56:33.377            98.392                Novosib          3074.750
       299   03 Jun 2027 14:28:51.746   03 Jun 2027 14:32:15.798           204.052                 Moscow          6376.625
       300   03 Jun 2027 14:32:21.953   03 Jun 2027 14:33:43.218            81.265              Murmansk1          2539.531
       301   03 Jun 2027 14:34:00.351   03 Jun 2027 14:34:24.398            24.047              Murmansk2           751.469
       302   03 Jun 2027 14:37:20.814   03 Jun 2027 14:38:28.424            67.610                Norilsk          2112.812
       303   03 Jun 2027 14:39:39.323   03 Jun 2027 14:40:06.345            27.022                Norilsk           844.438
       304   03 Jun 2027 14:40:52.232   03 Jun 2027 14:41:52.924            60.692                Norilsk          1896.625
       305   03 Jun 2027 15:42:59.069   03 Jun 2027 15:43:52.247            53.178               CapeTown          1661.813
       306   03 Jun 2027 15:44:22.422   03 Jun 2027 15:44:33.834            11.412               CapeTown           356.625
       307   03 Jun 2027 15:45:28.215   03 Jun 2027 15:46:18.117            49.902               CapeTown          1559.437
       308   03 Jun 2027 16:06:53.582   03 Jun 2027 16:07:27.514            33.932                 Moscow          1060.375
       309   03 Jun 2027 16:09:46.157   03 Jun 2027 16:10:53.532            67.375              Murmansk2          2105.469
       310   03 Jun 2027 16:13:42.780   03 Jun 2027 16:14:45.669            62.889              Murmansk2          1965.281
       311   03 Jun 2027 16:23:14.388   03 Jun 2027 16:24:43.373            88.985                Anadyr2          2780.781
       312   03 Jun 2027 17:18:30.548   03 Jun 2027 17:20:09.920            99.372               CapeTown          3105.375
       313   03 Jun 2027 17:49:36.392   03 Jun 2027 17:53:40.243           243.851              Murmansk2          7620.344
       314   03 Jun 2027 17:53:40.243   03 Jun 2027 17:55:14.875            94.632              Murmansk1          2957.250
       315   03 Jun 2027 18:01:58.110   03 Jun 2027 18:03:20.916            82.806               Magadan1          2587.688
       316   03 Jun 2027 18:04:59.639   03 Jun 2027 18:05:22.180            22.541               Magadan1           704.406
       317   03 Jun 2027 19:34:50.127   03 Jun 2027 19:36:41.787           111.660                Anadyr1          3489.375
       318   03 Jun 2027 19:37:08.543   03 Jun 2027 19:39:03.554           115.011               Magadan2          3594.094
       319   03 Jun 2027 19:39:35.410   03 Jun 2027 19:41:04.621            89.211               Magadan1          2787.844
       320   03 Jun 2027 19:41:52.090   03 Jun 2027 19:42:00.904             8.814               Magadan1           275.437
       321   03 Jun 2027 19:42:12.779   03 Jun 2027 19:42:47.608            34.829               Magadan1          1088.406
       322   03 Jun 2027 19:44:10.549   03 Jun 2027 19:44:56.674            46.125               Magadan1          1441.406
       323   03 Jun 2027 20:30:51.031   03 Jun 2027 20:33:27.694           156.663            RioGallegos          4895.719
       324   03 Jun 2027 20:36:19.189   03 Jun 2027 20:36:43.240            24.051            RioGallegos           751.594
       325   03 Jun 2027 21:10:38.709   03 Jun 2027 21:11:08.665            29.956                Anadyr2           936.125
       326   03 Jun 2027 21:11:51.073   03 Jun 2027 21:12:56.972            65.899                Anadyr2          2059.344
       327   03 Jun 2027 21:13:03.959   03 Jun 2027 21:14:30.568            86.609               Magadan2          2706.531
       328   03 Jun 2027 21:14:35.426   03 Jun 2027 21:15:35.395            59.969                Norilsk          1874.031
       329   03 Jun 2027 21:15:45.293   03 Jun 2027 21:15:54.777             9.484                Norilsk           296.375
       330   03 Jun 2027 21:16:27.047   03 Jun 2027 21:16:28.809             1.762                Norilsk            55.063
       331   03 Jun 2027 21:17:39.324   03 Jun 2027 21:18:33.147            53.823                Irkutsk          1681.969
       332   03 Jun 2027 21:20:11.059   03 Jun 2027 21:20:51.317            40.258                Irkutsk          1258.062
       333   03 Jun 2027 21:23:54.469   03 Jun 2027 21:24:09.850            15.381                Irkutsk           480.656
       334   03 Jun 2027 21:26:12.970   03 Jun 2027 21:26:33.796            20.826                Irkutsk           650.813
       335   03 Jun 2027 21:32:29.568   03 Jun 2027 21:34:51.008           141.440                Sumatra          4420.000
       336   03 Jun 2027 22:46:22.415   03 Jun 2027 22:46:49.624            27.209                Anadyr1           850.281
       337   03 Jun 2027 22:48:34.254   03 Jun 2027 22:50:34.938           120.684                Norilsk          3771.375
       338   03 Jun 2027 22:50:43.115   03 Jun 2027 22:51:10.227            27.112               Magadan2           847.250
       339   03 Jun 2027 22:52:28.741   03 Jun 2027 22:53:39.726            70.985                Irkutsk          2218.281
       340   03 Jun 2027 22:53:47.307   03 Jun 2027 22:55:39.661           112.354                Irkutsk          3511.062
       341   03 Jun 2027 23:02:50.938   03 Jun 2027 23:04:48.226           117.288                  Delhi          3665.250
       342   04 Jun 2027 00:19:58.828   04 Jun 2027 00:20:11.557            12.729                Anadyr2           397.781
       343   04 Jun 2027 00:21:09.779   04 Jun 2027 00:22:31.079            81.300                Anadyr2          2540.625
       344   04 Jun 2027 00:22:58.908   04 Jun 2027 00:22:59.606             0.698                Anadyr2            21.813
       345   04 Jun 2027 00:24:09.363   04 Jun 2027 00:25:23.820            74.457                Anadyr1          2326.781
       346   04 Jun 2027 00:25:39.448   04 Jun 2027 00:26:44.419            64.971               Magadan2          2030.344
       347   04 Jun 2027 00:27:27.302   04 Jun 2027 00:28:47.757            80.455              Murmansk2          2514.219
       348   04 Jun 2027 00:28:48.164   04 Jun 2027 00:29:12.055            23.891                Novosib           746.594
       349   04 Jun 2027 00:29:16.221   04 Jun 2027 00:30:05.755            49.534              Murmansk1          1547.938
       350   04 Jun 2027 00:30:33.282   04 Jun 2027 00:31:24.819            51.537              Murmansk1          1610.531
       351   04 Jun 2027 00:38:55.971   04 Jun 2027 00:40:08.764            72.793                  Delhi          2274.781
       352   04 Jun 2027 01:17:40.934   04 Jun 2027 01:18:37.402            56.468            RioGallegos          1764.625
       353   04 Jun 2027 01:53:16.087   04 Jun 2027 01:53:42.841            26.754                Anadyr1           836.063
       354   04 Jun 2027 01:53:43.083   04 Jun 2027 01:54:12.855            29.772                Anadyr2           930.375
       355   04 Jun 2027 01:54:24.584   04 Jun 2027 01:54:56.296            31.712                Anadyr2           991.000
       356   04 Jun 2027 01:57:40.560   04 Jun 2027 01:57:53.598            13.038                Anadyr1           407.438
       357   04 Jun 2027 01:58:35.718   04 Jun 2027 01:59:01.171            25.453                Anadyr1           795.406
       358   04 Jun 2027 01:59:17.303   04 Jun 2027 01:59:37.211            19.908                Anadyr2           622.125
       359   04 Jun 2027 02:00:04.842   04 Jun 2027 02:00:07.353             2.511               Magadan2            78.469
       360   04 Jun 2027 02:00:29.722   04 Jun 2027 02:00:51.503            21.781                Norilsk           680.656
       361   04 Jun 2027 02:01:03.109   04 Jun 2027 02:01:24.765            21.656               Magadan1           676.750
       362   04 Jun 2027 02:01:36.255   04 Jun 2027 02:01:49.505            13.250               Magadan1           414.062
       363   04 Jun 2027 02:02:03.791   04 Jun 2027 02:02:11.641             7.850                Norilsk           245.313
       364   04 Jun 2027 02:02:22.932   04 Jun 2027 02:02:37.195            14.263                Norilsk           445.719
       365   04 Jun 2027 02:02:44.550   04 Jun 2027 02:03:11.232            26.682              Murmansk1           833.813
       366   04 Jun 2027 02:03:42.102   04 Jun 2027 02:04:40.999            58.897              Murmansk1          1840.531
       367   04 Jun 2027 02:05:29.472   04 Jun 2027 02:05:57.006            27.534                Novosib           860.437
       368   04 Jun 2027 02:06:02.334   04 Jun 2027 02:06:30.301            27.967                Irkutsk           873.969
       369   04 Jun 2027 02:06:49.669   04 Jun 2027 02:07:03.080            13.411                 Moscow           419.094
       370   04 Jun 2027 02:09:43.128   04 Jun 2027 02:09:59.525            16.397                 Moscow           512.406
       371   04 Jun 2027 02:13:40.876   04 Jun 2027 02:14:05.305            24.429                  Delhi           763.406
       372   04 Jun 2027 02:14:22.760   04 Jun 2027 02:14:55.508            32.748                  Delhi          1023.375
       373   04 Jun 2027 02:20:05.537   04 Jun 2027 02:20:36.416            30.879                  Delhi           964.969
       374   04 Jun 2027 02:40:49.165   04 Jun 2027 02:41:23.042            33.877               CapeTown          1058.656
       375   04 Jun 2027 03:30:05.504   04 Jun 2027 03:30:19.180            13.676                Anadyr2           427.375
       376   04 Jun 2027 03:31:02.173   04 Jun 2027 03:31:51.967            49.794                Anadyr2          1556.062
       377   04 Jun 2027 03:48:08.789   04 Jun 2027 03:48:54.393            45.604                 Moscow          1425.125
       378   04 Jun 2027 03:48:59.753   04 Jun 2027 03:51:26.011           146.258              Murmansk1          4570.562
       379   04 Jun 2027 03:52:14.681   04 Jun 2027 03:52:28.777            14.096                 Moscow           440.500
       380   04 Jun 2027 05:09:16.092   04 Jun 2027 05:13:45.925           269.833               Magadan2          8432.281
       381   04 Jun 2027 05:13:45.925   04 Jun 2027 05:15:02.032            76.107               Magadan1          2378.344
       382   04 Jun 2027 06:45:57.955   04 Jun 2027 06:46:13.732            15.777                Anadyr2           493.031
       383   04 Jun 2027 06:46:14.727   04 Jun 2027 06:46:43.091            28.364               Magadan2           886.375
       384   04 Jun 2027 06:46:59.106   04 Jun 2027 06:47:01.294             2.188               Magadan2            68.375
       385   04 Jun 2027 06:47:18.271   04 Jun 2027 06:47:20.910             2.639               Magadan2            82.469
       386   04 Jun 2027 06:47:32.735   04 Jun 2027 06:48:24.549            51.814                Anadyr2          1619.187
       387   04 Jun 2027 06:48:27.966   04 Jun 2027 06:49:01.981            34.015               Magadan1          1062.969
       388   04 Jun 2027 08:19:29.900   04 Jun 2027 08:20:21.580            51.680               Magadan1          1615.000
       389   04 Jun 2027 08:20:32.284   04 Jun 2027 08:20:41.116             8.832               Magadan2           276.000
       390   04 Jun 2027 08:20:41.116   04 Jun 2027 08:21:35.313            54.197               Magadan1          1693.656
       391   04 Jun 2027 08:21:43.306   04 Jun 2027 08:22:40.560            57.254                Anadyr1          1789.188
       392   04 Jun 2027 08:23:06.324   04 Jun 2027 08:23:28.743            22.419               Magadan2           700.594
       393   04 Jun 2027 08:23:48.945   04 Jun 2027 08:25:12.889            83.944                Anadyr1          2623.250
       394   04 Jun 2027 08:25:20.366   04 Jun 2027 08:25:21.908             1.542               Magadan2            48.188
       395   04 Jun 2027 08:25:22.402   04 Jun 2027 08:25:24.018             1.616                Anadyr1            50.500
       396   04 Jun 2027 08:25:54.870   04 Jun 2027 08:26:13.861            18.991               Magadan1           593.469
       397   04 Jun 2027 08:26:33.292   04 Jun 2027 08:26:41.038             7.746               Magadan1           242.063
       398   04 Jun 2027 08:27:46.990   04 Jun 2027 08:28:04.553            17.563              Murmansk2           548.844
       399   04 Jun 2027 09:01:38.880   04 Jun 2027 09:01:58.979            20.099            RioGallegos           628.094
       400   04 Jun 2027 09:02:28.791   04 Jun 2027 09:03:31.629            62.838            RioGallegos          1963.688
       401   04 Jun 2027 09:38:06.609   04 Jun 2027 09:38:19.933            13.324                Sumatra           416.375
       402   04 Jun 2027 09:42:49.258   04 Jun 2027 09:42:55.962             6.704                Sumatra           209.500
       403   04 Jun 2027 09:44:43.778   04 Jun 2027 09:45:27.270            43.492                Sumatra          1359.125
       404   04 Jun 2027 09:58:04.766   04 Jun 2027 09:58:15.800            11.034                Irkutsk           344.812
       405   04 Jun 2027 09:58:30.835   04 Jun 2027 09:58:46.573            15.738                Irkutsk           491.812
       406   04 Jun 2027 09:58:50.925   04 Jun 2027 09:58:57.213             6.288                Novosib           196.500
       407   04 Jun 2027 09:58:57.653   04 Jun 2027 09:59:09.592            11.939                Novosib           373.094
       408   04 Jun 2027 10:00:39.421   04 Jun 2027 10:00:53.603            14.182                Irkutsk           443.187
       409   04 Jun 2027 10:01:15.786   04 Jun 2027 10:01:55.808            40.022                Irkutsk          1250.687
       410   04 Jun 2027 10:02:20.487   04 Jun 2027 10:02:39.510            19.023                Novosib           594.469
       411   04 Jun 2027 10:38:10.950   04 Jun 2027 10:38:22.777            11.827            RioGallegos           369.594
       412   04 Jun 2027 10:39:00.910   04 Jun 2027 10:39:30.770            29.860            RioGallegos           933.125
       413   04 Jun 2027 10:40:12.476   04 Jun 2027 10:40:24.448            11.972            RioGallegos           374.125
       414   04 Jun 2027 11:12:31.198   04 Jun 2027 11:12:51.335            20.137                Sumatra           629.281
       415   04 Jun 2027 11:13:04.019   04 Jun 2027 11:14:30.196            86.177                Sumatra          2693.031
       416   04 Jun 2027 11:35:05.810   04 Jun 2027 11:35:53.715            47.905                Irkutsk          1497.031
       417   04 Jun 2027 11:36:05.716   04 Jun 2027 11:36:10.148             4.432                Norilsk           138.500
       418   04 Jun 2027 11:36:13.855   04 Jun 2027 11:36:24.477            10.622                Novosib           331.937
       419   04 Jun 2027 11:36:29.760   04 Jun 2027 11:37:00.499            30.739                Novosib           960.594
       420   04 Jun 2027 11:37:29.694   04 Jun 2027 11:38:00.876            31.182                Irkutsk           974.437
       421   04 Jun 2027 11:38:04.231   04 Jun 2027 11:38:30.735            26.504                Novosib           828.250
       422   04 Jun 2027 12:57:14.256   04 Jun 2027 12:59:02.321           108.065                  Delhi          3377.031
       423   04 Jun 2027 13:01:19.091   04 Jun 2027 13:01:47.088            27.997                  Delhi           874.906
       424   04 Jun 2027 13:01:59.828   04 Jun 2027 13:02:31.188            31.360                  Delhi           980.000
       425   04 Jun 2027 13:05:30.326   04 Jun 2027 13:06:00.549            30.223                Novosib           944.469
       426   04 Jun 2027 13:06:57.748   04 Jun 2027 13:07:21.243            23.495                Novosib           734.219
       427   04 Jun 2027 13:08:32.120   04 Jun 2027 13:09:08.535            36.415                Novosib          1137.969
       428   04 Jun 2027 13:09:20.602   04 Jun 2027 13:10:05.159            44.557                Norilsk          1392.406
       429   04 Jun 2027 13:13:50.017   04 Jun 2027 13:14:13.756            23.739                Norilsk           741.844
       430   04 Jun 2027 13:19:17.142   04 Jun 2027 13:19:33.900            16.758                Norilsk           523.687
       431   04 Jun 2027 14:40:56.734   04 Jun 2027 14:42:26.999            90.265                 Moscow          2820.781
       432   04 Jun 2027 14:44:10.539   04 Jun 2027 14:44:45.910            35.371                 Moscow          1105.344
       433   04 Jun 2027 14:45:12.531   04 Jun 2027 14:46:01.546            49.015              Murmansk1          1531.719
       434   04 Jun 2027 14:46:24.589   04 Jun 2027 14:47:41.299            76.710              Murmansk1          2397.187
       435   04 Jun 2027 14:50:14.896   04 Jun 2027 14:52:08.667           113.771                Norilsk          3555.344
       436   04 Jun 2027 14:53:30.638   04 Jun 2027 14:53:56.190            25.552                Norilsk           798.500
       437   04 Jun 2027 14:54:25.027   04 Jun 2027 14:54:45.541            20.514                Norilsk           641.062
       438   04 Jun 2027 15:54:45.860   04 Jun 2027 15:56:22.795            96.935               CapeTown          3029.219
       439   04 Jun 2027 16:19:31.551   04 Jun 2027 16:20:30.087            58.536                 Moscow          1829.250
       440   04 Jun 2027 16:22:07.832   04 Jun 2027 16:23:07.177            59.345              Murmansk1          1854.531
       441   04 Jun 2027 16:26:21.852   04 Jun 2027 16:26:53.494            31.642              Murmansk1           988.812
       442   04 Jun 2027 16:31:35.189   04 Jun 2027 16:32:01.124            25.935              Murmansk1           810.469
       443   04 Jun 2027 16:35:11.633   04 Jun 2027 16:35:24.875            13.242                Anadyr2           413.812
       444   04 Jun 2027 16:35:32.393   04 Jun 2027 16:36:57.035            84.642                Anadyr1          2645.062
       445   04 Jun 2027 16:38:41.496   04 Jun 2027 16:38:45.599             4.103                Anadyr1           128.219
       446   04 Jun 2027 16:39:35.952   04 Jun 2027 16:39:57.861            21.909                Anadyr2           684.656
       447   04 Jun 2027 16:40:30.459   04 Jun 2027 16:40:55.621            25.162                Anadyr2           786.313
       448   04 Jun 2027 16:43:05.322   04 Jun 2027 16:43:52.858            47.536                Anadyr2          1485.500
       449   04 Jun 2027 17:30:42.559   04 Jun 2027 17:31:43.075            60.516               CapeTown          1891.125
       450   04 Jun 2027 18:02:23.132   04 Jun 2027 18:07:29.761           306.629              Murmansk1          9582.156
       451   04 Jun 2027 18:13:48.035   04 Jun 2027 18:15:10.101            82.066               Magadan1          2564.562
       452   04 Jun 2027 18:16:56.041   04 Jun 2027 18:17:02.308             6.267               Magadan2           195.844
       453   04 Jun 2027 18:23:22.547   04 Jun 2027 18:23:42.309            19.762               Magadan2           617.562
       454   04 Jun 2027 19:46:51.503   04 Jun 2027 19:50:38.365           226.862                Anadyr2          7089.437
       455   04 Jun 2027 19:51:05.408   04 Jun 2027 19:52:54.680           109.272               Magadan1          3414.750
       456   04 Jun 2027 19:53:06.131   04 Jun 2027 19:54:37.230            91.099               Magadan2          2846.844
       457   04 Jun 2027 20:42:15.237   04 Jun 2027 20:45:12.195           176.958            RioGallegos          5529.937
       458   04 Jun 2027 20:48:35.675   04 Jun 2027 20:49:12.420            36.745            RioGallegos          1148.281
       459   04 Jun 2027 21:22:37.640   04 Jun 2027 21:23:10.498            32.858                Anadyr2          1026.812
       460   04 Jun 2027 21:24:45.719   04 Jun 2027 21:27:55.895           190.176                Norilsk          5943.000
       461   04 Jun 2027 21:28:11.395   04 Jun 2027 21:28:19.245             7.850                Norilsk           245.313
       462   04 Jun 2027 21:28:26.982   04 Jun 2027 21:28:28.826             1.844                Norilsk            57.625
       463   04 Jun 2027 21:29:23.177   04 Jun 2027 21:30:31.790            68.613                Irkutsk          2144.156
       464   04 Jun 2027 21:32:06.054   04 Jun 2027 21:32:43.251            37.197                Irkutsk          1162.406
       465   04 Jun 2027 21:43:47.198   04 Jun 2027 21:46:32.209           165.011                Sumatra          5156.594
       466   04 Jun 2027 22:58:51.619   04 Jun 2027 22:59:02.201            10.582                Anadyr1           330.688
       467   04 Jun 2027 23:00:14.203   04 Jun 2027 23:00:22.517             8.314                Anadyr1           259.813
       468   04 Jun 2027 23:00:36.126   04 Jun 2027 23:02:36.855           120.729                Norilsk          3772.781
       469   04 Jun 2027 23:02:38.071   04 Jun 2027 23:03:10.837            32.766               Magadan2          1023.937
       470   04 Jun 2027 23:04:28.901   04 Jun 2027 23:06:27.114           118.213                Irkutsk          3694.156
       471   04 Jun 2027 23:07:53.285   04 Jun 2027 23:07:57.596             4.311                Novosib           134.719
       472   04 Jun 2027 23:10:40.085   04 Jun 2027 23:10:48.450             8.365                Novosib           261.406
       473   04 Jun 2027 23:10:48.451   04 Jun 2027 23:11:31.268            42.817                Novosib          1338.031
       474   04 Jun 2027 23:13:52.710   04 Jun 2027 23:14:40.174            47.464                  Delhi          1483.250
       475   04 Jun 2027 23:16:55.718   04 Jun 2027 23:17:35.723            40.005                  Delhi          1250.156
       476   04 Jun 2027 23:20:44.629   04 Jun 2027 23:21:34.712            50.083                  Delhi          1565.094
       477   05 Jun 2027 00:31:41.430   05 Jun 2027 00:32:00.774            19.344                Anadyr1           604.500
       478   05 Jun 2027 00:32:44.139   05 Jun 2027 00:33:06.912            22.773                Anadyr2           711.656
       479   05 Jun 2027 00:33:06.912   05 Jun 2027 00:33:21.204            14.292                Anadyr1           446.625
       480   05 Jun 2027 00:33:47.857   05 Jun 2027 00:34:12.155            24.298                Anadyr1           759.312
       481   05 Jun 2027 00:34:30.877   05 Jun 2027 00:34:40.873             9.996                Anadyr2           312.375
       482   05 Jun 2027 00:36:36.581   05 Jun 2027 00:36:53.225            16.644                Norilsk           520.125
