uniorb/output/strategy_4/Drop/Drop_KinoSat_111201.txt

KinoSat_111201
-------------------------
    Access    *     Start Time (UTCG)     *     Stop Time (UTCG)  *   Duration (s)        *       Station  *  Data (Mbytes)
         1   01 Jun 2027 04:01:21.256   01 Jun 2027 04:02:56.660            95.404                Anadyr2          2981.375
         2   01 Jun 2027 04:11:08.430   01 Jun 2027 04:11:13.908             5.478              Murmansk2           171.188
         3   01 Jun 2027 04:11:36.993   01 Jun 2027 04:12:05.329            28.336                Norilsk           885.500
         4   01 Jun 2027 04:12:17.293   01 Jun 2027 04:13:04.118            46.825              Murmansk2          1463.281
         5   01 Jun 2027 04:13:53.393   01 Jun 2027 04:14:51.979            58.586              Murmansk2          1830.812
         6   01 Jun 2027 04:14:51.979   01 Jun 2027 04:15:35.489            43.510              Murmansk1          1359.688
         7   01 Jun 2027 04:16:14.671   01 Jun 2027 04:16:55.750            41.079              Murmansk2          1283.719
         8   01 Jun 2027 05:34:39.562   01 Jun 2027 05:34:44.484             4.922               Magadan1           153.812
         9   01 Jun 2027 05:34:52.929   01 Jun 2027 05:40:30.946           338.017                Anadyr2         10563.031
        10   01 Jun 2027 07:10:51.679   01 Jun 2027 07:13:04.978           133.299               Magadan2          4165.594
        11   01 Jun 2027 07:13:13.970   01 Jun 2027 07:14:02.138            48.168                Anadyr2          1505.250
        12   01 Jun 2027 07:14:02.138   01 Jun 2027 07:15:37.272            95.134                Anadyr1          2972.937
        13   01 Jun 2027 08:46:46.867   01 Jun 2027 08:48:51.312           124.445               Magadan1          3888.906
        14   01 Jun 2027 08:48:51.312   01 Jun 2027 08:49:18.662            27.350               Magadan2           854.688
        15   01 Jun 2027 08:50:06.377   01 Jun 2027 08:50:18.054            11.677                Novosib           364.906
        16   01 Jun 2027 08:50:21.069   01 Jun 2027 08:50:30.352             9.283              Murmansk2           290.094
        17   01 Jun 2027 08:50:37.152   01 Jun 2027 08:51:14.257            37.105               Magadan1          1159.531
        18   01 Jun 2027 08:51:16.599   01 Jun 2027 08:51:49.945            33.346                Irkutsk          1042.063
        19   01 Jun 2027 08:51:59.762   01 Jun 2027 08:52:39.807            40.045                Norilsk          1251.406
        20   01 Jun 2027 08:52:39.922   01 Jun 2027 08:53:14.323            34.401                Novosib          1075.031
        21   01 Jun 2027 08:53:29.814   01 Jun 2027 08:54:58.053            88.239              Murmansk1          2757.469
        22   01 Jun 2027 09:26:46.264   01 Jun 2027 09:28:56.140           129.876            RioGallegos          4058.625
        23   01 Jun 2027 09:30:45.553   01 Jun 2027 09:31:00.041            14.488            RioGallegos           452.750
        24   01 Jun 2027 10:01:44.412   01 Jun 2027 10:02:54.174            69.762                Sumatra          2180.062
        25   01 Jun 2027 10:04:03.517   01 Jun 2027 10:04:42.253            38.736                Sumatra          1210.500
        26   01 Jun 2027 10:05:16.499   01 Jun 2027 10:05:24.796             8.297                Sumatra           259.281
        27   01 Jun 2027 10:23:38.609   01 Jun 2027 10:23:50.913            12.304                Novosib           384.500
        28   01 Jun 2027 10:24:09.860   01 Jun 2027 10:24:31.899            22.039                Norilsk           688.719
        29   01 Jun 2027 10:24:33.391   01 Jun 2027 10:29:02.162           268.771                Novosib          8399.094
        30   01 Jun 2027 11:07:42.216   01 Jun 2027 11:08:05.027            22.811            RioGallegos           712.844
        31   01 Jun 2027 11:08:58.768   01 Jun 2027 11:10:04.338            65.570            RioGallegos          2049.062
        32   01 Jun 2027 11:40:13.212   01 Jun 2027 11:40:27.297            14.085                Sumatra           440.156
        33   01 Jun 2027 11:42:25.359   01 Jun 2027 11:44:02.923            97.564                Sumatra          3048.875
        34   01 Jun 2027 11:49:12.382   01 Jun 2027 11:49:59.437            47.055                  Delhi          1470.469
        35   01 Jun 2027 12:00:33.740   01 Jun 2027 12:01:28.420            54.680                Irkutsk          1708.750
        36   01 Jun 2027 12:03:49.752   01 Jun 2027 12:04:20.750            30.998                Novosib           968.687
        37   01 Jun 2027 13:41:14.046   01 Jun 2027 13:42:30.245            76.199                 Moscow          2381.219
        38   01 Jun 2027 13:42:47.586   01 Jun 2027 13:42:54.326             6.740                 Moscow           210.625
        39   01 Jun 2027 13:43:15.988   01 Jun 2027 13:44:04.938            48.950                Norilsk          1529.688
        40   01 Jun 2027 13:45:26.334   01 Jun 2027 13:46:09.274            42.940              Murmansk1          1341.875
        41   01 Jun 2027 14:52:58.642   01 Jun 2027 14:54:13.441            74.799               CapeTown          2337.469
        42   01 Jun 2027 15:16:05.250   01 Jun 2027 15:17:21.616            76.366                 Moscow          2386.438
        43   01 Jun 2027 15:17:34.877   01 Jun 2027 15:18:45.314            70.437                 Moscow          2201.156
        44   01 Jun 2027 15:19:42.660   01 Jun 2027 15:20:37.089            54.429              Murmansk1          1700.906
        45   01 Jun 2027 15:20:43.077   01 Jun 2027 15:20:50.991             7.914              Murmansk2           247.312
        46   01 Jun 2027 15:21:01.665   01 Jun 2027 15:21:29.340            27.675              Murmansk1           864.844
        47   01 Jun 2027 15:21:53.691   01 Jun 2027 15:22:35.140            41.449              Murmansk2          1295.281
        48   01 Jun 2027 15:28:44.150   01 Jun 2027 15:30:35.299           111.149                Anadyr2          3473.406
        49   01 Jun 2027 15:32:48.114   01 Jun 2027 15:33:01.871            13.757                Anadyr1           429.906
        50   01 Jun 2027 15:33:22.042   01 Jun 2027 15:33:22.886             0.844                Anadyr1            26.375
        51   01 Jun 2027 16:31:29.405   01 Jun 2027 16:32:24.999            55.594               CapeTown          1737.312
        52   01 Jun 2027 16:53:04.584   01 Jun 2027 16:54:15.231            70.647              Murmansk1          2207.719
        53   01 Jun 2027 16:54:41.028   01 Jun 2027 16:54:51.643            10.615              Murmansk1           331.719
        54   01 Jun 2027 16:55:04.433   01 Jun 2027 16:56:00.796            56.363              Murmansk2          1761.344
        55   01 Jun 2027 16:56:49.527   01 Jun 2027 16:57:29.023            39.496              Murmansk1          1234.250
        56   01 Jun 2027 17:04:19.444   01 Jun 2027 17:05:37.744            78.300               Magadan1          2446.875
        57   01 Jun 2027 17:07:00.919   01 Jun 2027 17:08:50.931           110.012               Magadan2          3437.875
        58   01 Jun 2027 18:36:12.172   01 Jun 2027 18:40:22.830           250.658                Anadyr1          7833.062
        59   01 Jun 2027 18:42:04.200   01 Jun 2027 18:42:34.084            29.884               Magadan2           933.875
        60   01 Jun 2027 18:43:10.068   01 Jun 2027 18:43:41.928            31.860               Magadan1           995.625
        61   01 Jun 2027 18:44:17.009   01 Jun 2027 18:45:16.247            59.238               Magadan1          1851.187
        62   01 Jun 2027 18:47:25.958   01 Jun 2027 18:47:53.909            27.951                Anadyr1           873.469
        63   01 Jun 2027 18:48:48.328   01 Jun 2027 18:48:56.858             8.530               Magadan1           266.562
        64   01 Jun 2027 18:49:29.771   01 Jun 2027 18:50:22.972            53.201               Magadan2          1662.531
        65   01 Jun 2027 20:12:05.444   01 Jun 2027 20:15:50.629           225.185                Anadyr2          7037.031
        66   01 Jun 2027 20:16:10.794   01 Jun 2027 20:17:09.855            59.061                Norilsk          1845.656
        67   01 Jun 2027 20:18:18.812   01 Jun 2027 20:18:33.569            14.757                Norilsk           461.156
        68   01 Jun 2027 20:19:10.196   01 Jun 2027 20:20:11.355            61.159                Norilsk          1911.219
        69   01 Jun 2027 20:21:29.602   01 Jun 2027 20:22:59.255            89.653                Irkutsk          2801.656
        70   01 Jun 2027 20:23:51.638   01 Jun 2027 20:24:11.389            19.751                Irkutsk           617.219
        71   01 Jun 2027 20:24:15.433   01 Jun 2027 20:25:15.639            60.206                Irkutsk          1881.438
        72   01 Jun 2027 21:10:42.806   01 Jun 2027 21:11:20.443            37.637            RioGallegos          1176.156
        73   01 Jun 2027 21:13:40.276   01 Jun 2027 21:14:53.868            73.592            RioGallegos          2299.750
        74   01 Jun 2027 21:48:35.748   01 Jun 2027 21:49:56.350            80.602                Anadyr1          2518.813
        75   01 Jun 2027 21:50:20.350   01 Jun 2027 21:50:33.611            13.261                Norilsk           414.406
        76   01 Jun 2027 21:50:50.787   01 Jun 2027 21:51:56.305            65.518                Norilsk          2047.438
        77   01 Jun 2027 21:54:00.492   01 Jun 2027 21:54:21.001            20.509                Irkutsk           640.906
        78   01 Jun 2027 21:54:59.898   01 Jun 2027 21:55:16.652            16.754                Irkutsk           523.562
        79   01 Jun 2027 21:55:20.363   01 Jun 2027 21:55:53.854            33.491                Novosib          1046.594
        80   01 Jun 2027 21:58:18.586   01 Jun 2027 21:58:24.016             5.430                Novosib           169.688
        81   01 Jun 2027 21:59:13.425   01 Jun 2027 22:00:03.538            50.113                Novosib          1566.031
        82   01 Jun 2027 22:01:53.574   01 Jun 2027 22:02:01.013             7.439                Novosib           232.469
        83   01 Jun 2027 22:02:40.549   01 Jun 2027 22:02:56.893            16.344                Irkutsk           510.750
        84   01 Jun 2027 22:04:50.967   01 Jun 2027 22:05:35.902            44.935                Irkutsk          1404.219
        85   01 Jun 2027 22:13:46.634   01 Jun 2027 22:14:30.896            44.262                Sumatra          1383.188
        86   01 Jun 2027 22:17:14.057   01 Jun 2027 22:17:40.103            26.046                Sumatra           813.938
        87   01 Jun 2027 22:19:44.721   01 Jun 2027 22:20:09.491            24.770                Sumatra           774.063
        88   01 Jun 2027 22:53:04.253   01 Jun 2027 22:53:29.535            25.282            RioGallegos           790.062
        89   01 Jun 2027 23:22:08.236   01 Jun 2027 23:22:33.599            25.363                Anadyr2           792.594
        90   01 Jun 2027 23:22:33.599   01 Jun 2027 23:23:41.091            67.492                Anadyr1          2109.125
        91   01 Jun 2027 23:24:50.386   01 Jun 2027 23:25:10.985            20.599                Anadyr2           643.719
        92   01 Jun 2027 23:25:55.237   01 Jun 2027 23:26:15.800            20.563                Norilsk           642.594
        93   01 Jun 2027 23:26:33.089   01 Jun 2027 23:27:58.609            85.520               Magadan1          2672.500
        94   01 Jun 2027 23:29:20.956   01 Jun 2027 23:29:28.383             7.427               Magadan2           232.094
        95   01 Jun 2027 23:29:49.045   01 Jun 2027 23:30:34.154            45.109                Irkutsk          1409.656
        96   01 Jun 2027 23:32:14.545   01 Jun 2027 23:32:26.965            12.420                Novosib           388.125
        97   01 Jun 2027 23:32:57.369   01 Jun 2027 23:33:37.285            39.916                Irkutsk          1247.375
        98   01 Jun 2027 23:35:45.837   01 Jun 2027 23:36:02.007            16.170                Novosib           505.313
        99   01 Jun 2027 23:36:49.580   01 Jun 2027 23:37:57.105            67.525                Novosib          2110.156
       100   01 Jun 2027 23:40:55.567   01 Jun 2027 23:41:45.423            49.856                  Delhi          1558.000
       101   01 Jun 2027 23:44:58.536   01 Jun 2027 23:46:50.184           111.648                  Delhi          3489.000
       102   02 Jun 2027 00:55:33.773   02 Jun 2027 00:55:55.468            21.695                Anadyr1           677.969
       103   02 Jun 2027 00:56:10.935   02 Jun 2027 00:56:44.780            33.845                Anadyr1          1057.656
       104   02 Jun 2027 00:57:10.852   02 Jun 2027 00:57:34.286            23.434                Anadyr2           732.313
       105   02 Jun 2027 00:58:08.240   02 Jun 2027 00:58:20.371            12.131                Anadyr2           379.094
       106   02 Jun 2027 00:59:27.112   02 Jun 2027 00:59:48.391            21.279                Anadyr1           664.969
       107   02 Jun 2027 01:01:15.583   02 Jun 2027 01:01:41.017            25.434                Anadyr1           794.813
       108   02 Jun 2027 01:01:43.576   02 Jun 2027 01:04:05.899           142.323               Magadan2          4447.594
       109   02 Jun 2027 01:04:11.669   02 Jun 2027 01:04:52.689            41.020              Murmansk2          1281.875
       110   02 Jun 2027 01:06:02.122   02 Jun 2027 01:07:08.313            66.191                Novosib          2068.469
       111   02 Jun 2027 01:11:38.091   02 Jun 2027 01:11:50.982            12.891              Murmansk2           402.844
       112   02 Jun 2027 01:12:19.160   02 Jun 2027 01:12:30.047            10.887                 Moscow           340.219
       113   02 Jun 2027 01:12:36.488   02 Jun 2027 01:12:42.149             5.661              Murmansk1           176.906
       114   02 Jun 2027 01:13:34.274   02 Jun 2027 01:15:25.361           111.087                 Moscow          3471.469
       115   02 Jun 2027 02:29:05.143   02 Jun 2027 02:31:41.803           156.660                Anadyr1          4895.625
       116   02 Jun 2027 02:32:20.768   02 Jun 2027 02:32:39.097            18.329                Anadyr2           572.781
       117   02 Jun 2027 02:33:47.116   02 Jun 2027 02:34:32.595            45.479               Magadan1          1421.219
       118   02 Jun 2027 02:35:04.348   02 Jun 2027 02:35:25.756            21.408               Magadan1           669.000
       119   02 Jun 2027 02:37:04.499   02 Jun 2027 02:37:11.262             6.763               Magadan1           211.344
       120   02 Jun 2027 02:37:26.443   02 Jun 2027 02:37:35.198             8.755               Magadan2           273.594
       121   02 Jun 2027 02:37:37.968   02 Jun 2027 02:37:41.553             3.585                Norilsk           112.031
       122   02 Jun 2027 02:39:00.007   02 Jun 2027 02:39:19.819            19.812                Norilsk           619.125
       123   02 Jun 2027 02:39:57.986   02 Jun 2027 02:40:17.305            19.319               Magadan1           603.719
       124   02 Jun 2027 02:40:31.924   02 Jun 2027 02:41:25.957            54.033              Murmansk2          1688.531
       125   02 Jun 2027 02:42:12.325   02 Jun 2027 02:42:40.113            27.788                Novosib           868.375
       126   02 Jun 2027 02:43:41.212   02 Jun 2027 02:44:06.612            25.400                 Moscow           793.750
       127   02 Jun 2027 02:45:25.696   02 Jun 2027 02:45:30.066             4.370                Novosib           136.563
       128   02 Jun 2027 02:46:23.656   02 Jun 2027 02:47:01.621            37.965                Novosib          1186.406
       129   02 Jun 2027 02:51:49.946   02 Jun 2027 02:52:18.692            28.746                 Moscow           898.312
       130   02 Jun 2027 02:55:03.467   02 Jun 2027 02:55:04.828             1.361                 Moscow            42.531
       131   02 Jun 2027 03:10:57.822   02 Jun 2027 03:11:25.420            27.598               CapeTown           862.437
       132   02 Jun 2027 03:14:49.012   02 Jun 2027 03:15:11.890            22.878               CapeTown           714.938
       133   02 Jun 2027 04:10:26.280   02 Jun 2027 04:13:49.031           202.751               Magadan1          6335.969
       134   02 Jun 2027 04:23:05.865   02 Jun 2027 04:23:33.614            27.749              Murmansk1           867.156
       135   02 Jun 2027 05:47:05.065   02 Jun 2027 05:50:02.458           177.393               Magadan1          5543.531
       136   02 Jun 2027 05:50:19.499   02 Jun 2027 05:50:37.013            17.514                Anadyr1           547.312
       137   02 Jun 2027 05:50:37.013   02 Jun 2027 05:51:41.232            64.219                Anadyr2          2006.844
       138   02 Jun 2027 07:22:54.213   02 Jun 2027 07:25:45.291           171.078               Magadan2          5346.187
       139   02 Jun 2027 07:25:46.104   02 Jun 2027 07:26:01.677            15.573               Magadan1           486.656
       140   02 Jun 2027 07:26:14.528   02 Jun 2027 07:27:04.002            49.474                Anadyr1          1546.062
       141   02 Jun 2027 07:27:08.922   02 Jun 2027 07:28:15.013            66.091               Magadan1          2065.344
       142   02 Jun 2027 08:59:34.092   02 Jun 2027 09:01:36.985           122.893               Magadan1          3840.406
       143   02 Jun 2027 09:01:36.985   02 Jun 2027 09:02:55.461            78.476               Magadan2          2452.375
       144   02 Jun 2027 10:13:39.887   02 Jun 2027 10:14:12.872            32.985                Sumatra          1030.781
       145   02 Jun 2027 10:14:41.315   02 Jun 2027 10:16:28.275           106.960                Sumatra          3342.500
       146   02 Jun 2027 10:36:08.780   02 Jun 2027 10:36:38.891            30.111                Novosib           940.969
       147   02 Jun 2027 10:37:09.281   02 Jun 2027 10:37:29.117            19.836                Irkutsk           619.875
       148   02 Jun 2027 10:37:36.650   02 Jun 2027 10:37:46.159             9.509                Irkutsk           297.156
       149   02 Jun 2027 10:37:47.569   02 Jun 2027 10:37:52.180             4.611                Novosib           144.094
       150   02 Jun 2027 10:37:54.214   02 Jun 2027 10:37:58.929             4.715                Norilsk           147.344
       151   02 Jun 2027 10:38:00.539   02 Jun 2027 10:38:40.955            40.416              Murmansk2          1263.000
       152   02 Jun 2027 10:38:52.189   02 Jun 2027 10:39:43.146            50.957                Irkutsk          1592.406
       153   02 Jun 2027 10:40:01.384   02 Jun 2027 10:40:30.087            28.703                Norilsk           896.969
       154   02 Jun 2027 11:18:38.228   02 Jun 2027 11:19:00.260            22.032            RioGallegos           688.500
       155   02 Jun 2027 11:19:35.686   02 Jun 2027 11:20:10.648            34.962            RioGallegos          1092.562
       156   02 Jun 2027 11:54:18.354   02 Jun 2027 11:56:33.912           135.558                Sumatra          4236.187
       157   02 Jun 2027 12:10:25.216   02 Jun 2027 12:10:38.255            13.039                Irkutsk           407.469
       158   02 Jun 2027 12:13:28.114   02 Jun 2027 12:13:41.217            13.103                Norilsk           409.469
       159   02 Jun 2027 12:17:18.571   02 Jun 2027 12:17:32.210            13.639                Norilsk           426.219
       160   02 Jun 2027 13:42:16.479   02 Jun 2027 13:46:08.004           231.525                 Moscow          7235.156
       161   02 Jun 2027 13:46:32.275   02 Jun 2027 13:47:51.277            79.002              Murmansk1          2468.813
       162   02 Jun 2027 13:48:43.314   02 Jun 2027 13:48:50.013             6.699              Murmansk1           209.344
       163   02 Jun 2027 13:49:25.870   02 Jun 2027 13:50:46.091            80.221                Norilsk          2506.906
       164   02 Jun 2027 13:56:14.637   02 Jun 2027 13:56:44.621            29.984                Norilsk           937.000
       165   02 Jun 2027 14:57:03.098   02 Jun 2027 15:00:02.836           179.738               CapeTown          5616.812
       166   02 Jun 2027 15:02:11.541   02 Jun 2027 15:03:03.422            51.881               CapeTown          1621.281
       167   02 Jun 2027 15:24:18.210   02 Jun 2027 15:25:01.039            42.829              Murmansk1          1338.406
       168   02 Jun 2027 15:27:19.280   02 Jun 2027 15:27:54.535            35.255              Murmansk1          1101.719
       169   02 Jun 2027 15:31:09.036   02 Jun 2027 15:31:35.842            26.806              Murmansk2           837.688
       170   02 Jun 2027 15:36:49.152   02 Jun 2027 15:38:33.435           104.283                Anadyr2          3258.844
       171   02 Jun 2027 15:39:26.022   02 Jun 2027 15:39:48.496            22.474                Anadyr1           702.312
       172   02 Jun 2027 15:41:28.671   02 Jun 2027 15:42:36.075            67.404                Anadyr1          2106.375
       173   02 Jun 2027 16:42:04.980   02 Jun 2027 16:42:27.111            22.131               CapeTown           691.594
       174   02 Jun 2027 17:01:50.880   02 Jun 2027 17:03:15.138            84.258              Murmansk2          2633.063
       175   02 Jun 2027 17:04:24.717   02 Jun 2027 17:05:06.454            41.737              Murmansk1          1304.281
       176   02 Jun 2027 17:06:40.721   02 Jun 2027 17:07:06.618            25.897              Murmansk1           809.281
       177   02 Jun 2027 17:12:19.216   02 Jun 2027 17:13:28.780            69.564                Anadyr2          2173.875
       178   02 Jun 2027 17:13:42.507   02 Jun 2027 17:14:28.144            45.637                Anadyr1          1426.156
       179   02 Jun 2027 17:15:53.004   02 Jun 2027 17:16:52.827            59.823               Magadan1          1869.469
       180   02 Jun 2027 17:18:38.959   02 Jun 2027 17:19:02.467            23.508               Magadan2           734.625
       181   02 Jun 2027 17:19:02.467   02 Jun 2027 17:19:04.528             2.061               Magadan1            64.406
       182   02 Jun 2027 17:19:40.577   02 Jun 2027 17:21:18.772            98.195               Magadan2          3068.594
       183   02 Jun 2027 18:48:13.698   02 Jun 2027 18:50:19.450           125.752                Anadyr2          3929.750
       184   02 Jun 2027 18:50:29.149   02 Jun 2027 18:52:23.537           114.388                Anadyr1          3574.625
       185   02 Jun 2027 18:53:01.954   02 Jun 2027 18:53:21.162            19.208               Magadan1           600.250
       186   02 Jun 2027 18:54:50.867   02 Jun 2027 18:55:12.192            21.325               Magadan1           666.406
       187   02 Jun 2027 18:57:27.241   02 Jun 2027 18:58:26.666            59.425               Magadan1          1857.031
       188   02 Jun 2027 20:24:05.558   02 Jun 2027 20:27:50.782           225.224                Anadyr2          7038.250
       189   02 Jun 2027 20:27:53.334   02 Jun 2027 20:28:20.174            26.840                Anadyr2           838.750
       190   02 Jun 2027 20:28:27.317   02 Jun 2027 20:29:38.348            71.031               Magadan1          2219.719
       191   02 Jun 2027 20:30:16.181   02 Jun 2027 20:30:47.548            31.367               Magadan2           980.219
       192   02 Jun 2027 20:31:52.568   02 Jun 2027 20:32:15.241            22.673                Irkutsk           708.531
       193   02 Jun 2027 20:32:16.272   02 Jun 2027 20:32:59.342            43.070                Norilsk          1345.937
       194   02 Jun 2027 20:34:01.992   02 Jun 2027 20:34:41.328            39.336                Irkutsk          1229.250
       195   02 Jun 2027 20:35:25.346   02 Jun 2027 20:36:10.299            44.953                Irkutsk          1404.781
       196   02 Jun 2027 20:37:52.718   02 Jun 2027 20:38:36.124            43.406                Irkutsk          1356.438
       197   02 Jun 2027 20:48:12.997   02 Jun 2027 20:49:12.191            59.194                Sumatra          1849.812
       198   02 Jun 2027 20:50:05.760   02 Jun 2027 20:51:54.480           108.720                Sumatra          3397.500
       199   02 Jun 2027 22:01:57.855   02 Jun 2027 22:03:24.249            86.394                Norilsk          2699.812
       200   02 Jun 2027 22:03:32.581   02 Jun 2027 22:03:39.528             6.947               Magadan1           217.094
       201   02 Jun 2027 22:03:46.738   02 Jun 2027 22:04:03.192            16.454                Norilsk           514.188
       202   02 Jun 2027 22:05:57.424   02 Jun 2027 22:07:17.695            80.271                Irkutsk          2508.469
       203   02 Jun 2027 22:08:06.105   02 Jun 2027 22:09:25.669            79.564                Novosib          2486.375
       204   02 Jun 2027 22:19:39.731   02 Jun 2027 22:20:00.253            20.522                Sumatra           641.312
       205   02 Jun 2027 22:21:56.621   02 Jun 2027 22:22:30.034            33.413                Sumatra          1044.156
       206   02 Jun 2027 22:28:46.992   02 Jun 2027 22:29:05.928            18.936                Sumatra           591.750
       207   02 Jun 2027 23:06:22.659   02 Jun 2027 23:06:27.549             4.890            RioGallegos           152.813
       208   02 Jun 2027 23:33:53.586   02 Jun 2027 23:35:42.149           108.563                Anadyr1          3392.594
       209   02 Jun 2027 23:37:55.068   02 Jun 2027 23:38:05.414            10.346                Anadyr1           323.313
       210   02 Jun 2027 23:38:12.917   02 Jun 2027 23:39:13.055            60.138                Anadyr1          1879.312
       211   02 Jun 2027 23:39:30.101   02 Jun 2027 23:39:47.819            17.718                Norilsk           553.688
       212   02 Jun 2027 23:39:56.414   02 Jun 2027 23:39:57.965             1.551               Magadan2            48.469
       213   02 Jun 2027 23:40:06.316   02 Jun 2027 23:40:14.836             8.520               Magadan2           266.250
       214   02 Jun 2027 23:40:24.669   02 Jun 2027 23:40:36.009            11.340               Magadan2           354.375
       215   02 Jun 2027 23:41:34.384   02 Jun 2027 23:42:26.779            52.395              Murmansk1          1637.344
       216   02 Jun 2027 23:42:38.245   02 Jun 2027 23:44:05.709            87.464                Novosib          2733.250
       217   02 Jun 2027 23:44:27.683   02 Jun 2027 23:44:32.933             5.250              Murmansk1           164.062
       218   02 Jun 2027 23:48:19.880   02 Jun 2027 23:48:54.154            34.274                Novosib          1071.062
       219   02 Jun 2027 23:49:14.338   02 Jun 2027 23:50:14.975            60.637                  Delhi          1894.906
       220   02 Jun 2027 23:52:06.169   02 Jun 2027 23:52:21.684            15.515                  Delhi           484.844
       221   02 Jun 2027 23:52:55.864   02 Jun 2027 23:53:22.299            26.435                  Delhi           826.094
       222   02 Jun 2027 23:57:20.437   02 Jun 2027 23:58:44.725            84.288                  Delhi          2634.000
       223   03 Jun 2027 01:07:14.914   03 Jun 2027 01:07:39.059            24.145                Anadyr1           754.531
       224   03 Jun 2027 01:07:56.313   03 Jun 2027 01:08:12.071            15.758                Anadyr1           492.438
       225   03 Jun 2027 01:08:55.582   03 Jun 2027 01:09:09.624            14.042                Anadyr2           438.813
       226   03 Jun 2027 01:09:09.624   03 Jun 2027 01:09:34.330            24.706                Anadyr1           772.062
       227   03 Jun 2027 01:10:01.483   03 Jun 2027 01:10:13.259            11.776                Anadyr1           368.000
       228   03 Jun 2027 01:13:25.525   03 Jun 2027 01:15:49.173           143.648               Magadan2          4489.000
       229   03 Jun 2027 01:16:10.884   03 Jun 2027 01:16:58.303            47.419              Murmansk1          1481.844
       230   03 Jun 2027 01:17:47.233   03 Jun 2027 01:19:15.444            88.211                Novosib          2756.594
       231   03 Jun 2027 01:21:17.218   03 Jun 2027 01:21:45.227            28.009                Novosib           875.281
       232   03 Jun 2027 01:26:01.573   03 Jun 2027 01:26:31.667            30.094                  Delhi           940.438
       233   03 Jun 2027 01:30:33.443   03 Jun 2027 01:31:18.089            44.646                  Delhi          1395.187
       234   03 Jun 2027 01:47:39.842   03 Jun 2027 01:48:30.115            50.273               CapeTown          1571.031
       235   03 Jun 2027 02:40:52.838   03 Jun 2027 02:43:06.343           133.505                Anadyr1          4172.031
       236   03 Jun 2027 02:44:07.265   03 Jun 2027 02:44:14.926             7.661                Anadyr1           239.406
       237   03 Jun 2027 02:45:15.404   03 Jun 2027 02:46:06.378            50.974               Magadan2          1592.938
       238   03 Jun 2027 02:49:02.664   03 Jun 2027 02:49:31.502            28.838               Magadan2           901.188
       239   03 Jun 2027 02:49:46.160   03 Jun 2027 02:50:14.249            28.089                Norilsk           877.781
       240   03 Jun 2027 02:52:03.439   03 Jun 2027 02:52:34.161            30.722              Murmansk2           960.063
       241   03 Jun 2027 02:54:09.282   03 Jun 2027 02:54:14.345             5.063              Murmansk1           158.219
       242   03 Jun 2027 02:54:21.256   03 Jun 2027 02:55:56.637            95.381                Novosib          2980.656
       243   03 Jun 2027 03:00:13.972   03 Jun 2027 03:00:46.375            32.403                Norilsk          1012.594
       244   03 Jun 2027 03:01:05.833   03 Jun 2027 03:03:03.864           118.031                 Moscow          3688.469
       245   03 Jun 2027 03:03:10.109   03 Jun 2027 03:03:40.814            30.705              Murmansk1           959.531
       246   03 Jun 2027 03:03:49.916   03 Jun 2027 03:04:23.617            33.701              Murmansk2          1053.156
       247   03 Jun 2027 03:04:33.504   03 Jun 2027 03:04:34.932             1.428              Murmansk2            44.625
       248   03 Jun 2027 03:04:51.182   03 Jun 2027 03:06:06.443            75.261                 Moscow          2351.906
       249   03 Jun 2027 03:19:15.129   03 Jun 2027 03:22:26.838           191.709               CapeTown          5990.906
       250   03 Jun 2027 04:22:40.660   03 Jun 2027 04:23:50.208            69.548               Magadan1          2173.375
       251   03 Jun 2027 04:23:52.644   03 Jun 2027 04:25:02.708            70.064                Anadyr1          2189.500
       252   03 Jun 2027 05:59:08.262   03 Jun 2027 06:00:31.421            83.159               Magadan2          2598.719
       253   03 Jun 2027 06:00:45.874   03 Jun 2027 06:01:13.134            27.260               Magadan1           851.875
       254   03 Jun 2027 06:01:20.697   03 Jun 2027 06:04:12.004           171.307                Anadyr2          5353.344
       255   03 Jun 2027 07:31:50.450   03 Jun 2027 07:32:50.171            59.721               Magadan1          1866.281
       256   03 Jun 2027 07:32:57.831   03 Jun 2027 07:32:58.842             1.011               Magadan2            31.594
       257   03 Jun 2027 07:33:09.772   03 Jun 2027 07:33:26.011            16.239                Anadyr2           507.469
       258   03 Jun 2027 07:34:13.655   03 Jun 2027 07:35:11.589            57.934                Anadyr1          1810.438
       259   03 Jun 2027 07:35:22.245   03 Jun 2027 07:36:32.530            70.285               Magadan1          2196.406
       260   03 Jun 2027 07:36:53.964   03 Jun 2027 07:37:23.999            30.035               Magadan2           938.594
       261   03 Jun 2027 07:37:40.731   03 Jun 2027 07:38:29.325            48.594                Anadyr1          1518.563
       262   03 Jun 2027 07:38:35.967   03 Jun 2027 07:38:41.862             5.895               Magadan1           184.219
       263   03 Jun 2027 07:38:50.485   03 Jun 2027 07:39:05.953            15.468                Anadyr2           483.375
       264   03 Jun 2027 07:39:05.953   03 Jun 2027 07:39:39.067            33.114                Anadyr1          1034.813
       265   03 Jun 2027 07:41:38.562   03 Jun 2027 07:41:56.638            18.076              Murmansk1           564.875
       266   03 Jun 2027 07:48:32.032   03 Jun 2027 07:49:04.554            32.522              Murmansk1          1016.312
       267   03 Jun 2027 08:15:23.574   03 Jun 2027 08:15:44.681            21.107            RioGallegos           659.594
       268   03 Jun 2027 08:20:13.300   03 Jun 2027 08:20:55.084            41.784            RioGallegos          1305.750
       269   03 Jun 2027 08:53:20.286   03 Jun 2027 08:54:07.215            46.929                Sumatra          1466.531
       270   03 Jun 2027 09:10:45.262   03 Jun 2027 09:11:29.412            44.150               Magadan1          1379.688
       271   03 Jun 2027 09:12:16.886   03 Jun 2027 09:12:47.624            30.738                Irkutsk           960.562
       272   03 Jun 2027 09:12:56.139   03 Jun 2027 09:14:04.022            67.883                Irkutsk          2121.344
       273   03 Jun 2027 09:14:15.965   03 Jun 2027 09:15:31.419            75.454                Irkutsk          2357.938
       274   03 Jun 2027 09:15:39.258   03 Jun 2027 09:15:43.207             3.949                Irkutsk           123.406
       275   03 Jun 2027 09:15:50.308   03 Jun 2027 09:16:09.430            19.122                Irkutsk           597.563
       276   03 Jun 2027 09:51:06.100   03 Jun 2027 09:52:18.592            72.492            RioGallegos          2265.375
       277   03 Jun 2027 10:25:40.984   03 Jun 2027 10:25:48.821             7.837                Sumatra           244.906
       278   03 Jun 2027 10:27:16.585   03 Jun 2027 10:28:19.078            62.493                Sumatra          1952.906
       279   03 Jun 2027 10:45:43.524   03 Jun 2027 10:46:03.789            20.265                  Delhi           633.281
       280   03 Jun 2027 10:47:54.778   03 Jun 2027 10:48:18.757            23.979                Norilsk           749.344
       281   03 Jun 2027 10:48:33.593   03 Jun 2027 10:48:48.325            14.732                Irkutsk           460.375
       282   03 Jun 2027 10:48:55.677   03 Jun 2027 10:49:11.791            16.114                Novosib           503.562
       283   03 Jun 2027 10:49:29.094   03 Jun 2027 10:49:34.863             5.769                Novosib           180.281
       284   03 Jun 2027 10:49:38.995   03 Jun 2027 10:49:49.803            10.808                Novosib           337.750
       285   03 Jun 2027 10:49:58.816   03 Jun 2027 10:50:52.281            53.465                Norilsk          1670.781
       286   03 Jun 2027 10:50:57.389   03 Jun 2027 10:51:00.057             2.668                Irkutsk            83.375
       287   03 Jun 2027 10:51:20.930   03 Jun 2027 10:51:37.156            16.226                Norilsk           507.062
       288   03 Jun 2027 10:51:41.662   03 Jun 2027 10:51:46.304             4.642                Novosib           145.062
       289   03 Jun 2027 10:52:00.553   03 Jun 2027 10:52:27.476            26.923                Norilsk           841.344
       290   03 Jun 2027 11:31:54.922   03 Jun 2027 11:32:52.667            57.745            RioGallegos          1804.531
       291   03 Jun 2027 12:10:05.271   03 Jun 2027 12:10:20.019            14.748                  Delhi           460.875
       292   03 Jun 2027 12:12:03.634   03 Jun 2027 12:12:55.430            51.796                  Delhi          1618.625
       293   03 Jun 2027 12:18:01.383   03 Jun 2027 12:18:52.421            51.038                Novosib          1594.938
       294   03 Jun 2027 12:19:37.972   03 Jun 2027 12:20:19.608            41.636                Novosib          1301.125
       295   03 Jun 2027 12:22:02.711   03 Jun 2027 12:22:23.952            21.241                Norilsk           663.781
       296   03 Jun 2027 12:23:28.856   03 Jun 2027 12:23:39.924            11.068                Norilsk           345.875
       297   03 Jun 2027 12:26:53.061   03 Jun 2027 12:27:18.391            25.330                Norilsk           791.562
       298   03 Jun 2027 13:54:16.192   03 Jun 2027 13:58:15.044           238.852                 Moscow          7464.125
       299   03 Jun 2027 13:59:15.035   03 Jun 2027 13:59:48.847            33.812              Murmansk1          1056.625
       300   03 Jun 2027 13:59:58.024   03 Jun 2027 14:00:37.661            39.637              Murmansk2          1238.656
       301   03 Jun 2027 14:02:09.785   03 Jun 2027 14:03:34.647            84.862                Norilsk          2651.938
       302   03 Jun 2027 14:06:51.490   03 Jun 2027 14:07:18.563            27.073                Norilsk           846.031
       303   03 Jun 2027 15:08:39.409   03 Jun 2027 15:11:30.085           170.676               CapeTown          5333.625
       304   03 Jun 2027 15:19:05.496   03 Jun 2027 15:19:31.848            26.352               CapeTown           823.500
       305   03 Jun 2027 15:31:54.485   03 Jun 2027 15:32:37.911            43.426                 Moscow          1357.062
       306   03 Jun 2027 15:35:27.478   03 Jun 2027 15:36:06.946            39.468              Murmansk1          1233.375
       307   03 Jun 2027 15:43:10.456   03 Jun 2027 15:44:39.282            88.826              Murmansk1          2775.812
       308   03 Jun 2027 15:48:43.926   03 Jun 2027 15:50:33.707           109.781                Anadyr1          3430.656
       309   03 Jun 2027 16:48:05.772   03 Jun 2027 16:48:40.618            34.846               CapeTown          1088.938
       310   03 Jun 2027 17:14:29.739   03 Jun 2027 17:17:08.176           158.437              Murmansk1          4951.156
       311   03 Jun 2027 17:19:08.795   03 Jun 2027 17:19:36.026            27.231              Murmansk1           850.969
       312   03 Jun 2027 17:24:19.953   03 Jun 2027 17:25:18.510            58.557                Anadyr1          1829.906
       313   03 Jun 2027 17:25:26.043   03 Jun 2027 17:25:48.968            22.925                Anadyr2           716.406
       314   03 Jun 2027 17:27:35.103   03 Jun 2027 17:29:22.232           107.129               Magadan1          3347.781
       315   03 Jun 2027 17:30:12.034   03 Jun 2027 17:30:43.237            31.203               Magadan1           975.094
       316   03 Jun 2027 19:00:15.186   03 Jun 2027 19:02:19.452           124.266                Anadyr1          3883.313
       317   03 Jun 2027 19:02:35.198   03 Jun 2027 19:05:58.257           203.059               Magadan1          6345.594
       318   03 Jun 2027 19:06:11.013   03 Jun 2027 19:06:45.378            34.365               Magadan2          1073.906
       319   03 Jun 2027 19:10:47.400   03 Jun 2027 19:10:54.330             6.930               Magadan1           216.563
       320   03 Jun 2027 19:14:25.050   03 Jun 2027 19:14:47.412            22.362               Magadan1           698.813
       321   03 Jun 2027 19:57:04.270   03 Jun 2027 19:59:11.497           127.227            RioGallegos          3975.844
       322   03 Jun 2027 20:36:05.284   03 Jun 2027 20:36:35.470            30.186                Anadyr1           943.312
       323   03 Jun 2027 20:37:44.469   03 Jun 2027 20:38:17.551            33.082                Anadyr1          1033.812
       324   03 Jun 2027 20:38:28.260   03 Jun 2027 20:39:54.036            85.776               Magadan1          2680.500
       325   03 Jun 2027 20:39:54.036   03 Jun 2027 20:40:08.826            14.790               Magadan2           462.187
       326   03 Jun 2027 20:40:12.554   03 Jun 2027 20:41:58.671           106.117                Norilsk          3316.156
       327   03 Jun 2027 20:43:22.731   03 Jun 2027 20:44:11.979            49.248                Irkutsk          1539.000
       328   03 Jun 2027 20:44:24.228   03 Jun 2027 20:45:09.882            45.654                Norilsk          1426.688
       329   03 Jun 2027 20:46:59.802   03 Jun 2027 20:47:05.742             5.940                Irkutsk           185.625
       330   03 Jun 2027 20:47:09.671   03 Jun 2027 20:48:10.217            60.546                Irkutsk          1892.062
       331   03 Jun 2027 20:49:50.872   03 Jun 2027 20:50:08.266            17.394                Irkutsk           543.563
       332   03 Jun 2027 20:58:41.646   03 Jun 2027 21:00:38.370           116.724                Sumatra          3647.625
       333   03 Jun 2027 21:01:46.280   03 Jun 2027 21:02:20.283            34.003                Sumatra          1062.594
       334   03 Jun 2027 22:14:02.705   03 Jun 2027 22:15:32.954            90.249                Norilsk          2820.281
       335   03 Jun 2027 22:15:36.579   03 Jun 2027 22:15:47.243            10.664                Norilsk           333.250
       336   03 Jun 2027 22:16:44.792   03 Jun 2027 22:16:47.268             2.476               Magadan2            77.375
       337   03 Jun 2027 22:17:42.043   03 Jun 2027 22:18:04.008            21.965               Magadan2           686.406
       338   03 Jun 2027 22:18:42.803   03 Jun 2027 22:19:48.509            65.706                Novosib          2053.312
       339   03 Jun 2027 22:25:27.821   03 Jun 2027 22:25:45.286            17.465                Novosib           545.781
       340   03 Jun 2027 22:26:05.525   03 Jun 2027 22:26:26.278            20.753                Irkutsk           648.531
       341   03 Jun 2027 22:27:38.663   03 Jun 2027 22:27:54.642            15.979                Novosib           499.344
       342   03 Jun 2027 22:29:42.620   03 Jun 2027 22:30:38.550            55.930                  Delhi          1747.813
       343   03 Jun 2027 22:31:50.046   03 Jun 2027 22:32:53.135            63.089                  Delhi          1971.531
       344   03 Jun 2027 23:45:37.823   03 Jun 2027 23:45:59.224            21.401                Anadyr1           668.781
       345   03 Jun 2027 23:45:59.224   03 Jun 2027 23:46:23.899            24.675                Anadyr2           771.094
       346   03 Jun 2027 23:47:43.013   03 Jun 2027 23:47:51.450             8.437                Anadyr1           263.656
       347   03 Jun 2027 23:47:55.791   03 Jun 2027 23:48:00.758             4.967                Anadyr1           155.219
       348   03 Jun 2027 23:49:59.342   03 Jun 2027 23:50:17.600            18.258                Norilsk           570.562
       349   03 Jun 2027 23:50:34.700   03 Jun 2027 23:51:54.917            80.217               Magadan2          2506.781
       350   03 Jun 2027 23:53:06.626   03 Jun 2027 23:56:27.982           201.356              Murmansk2          6292.375
       351   03 Jun 2027 23:57:20.174   03 Jun 2027 23:57:44.381            24.207              Murmansk2           756.469
       352   04 Jun 2027 00:01:09.622   04 Jun 2027 00:01:34.929            25.307                  Delhi           790.844
       353   04 Jun 2027 00:04:14.337   04 Jun 2027 00:04:52.064            37.727                  Delhi          1178.969
       354   04 Jun 2027 00:05:04.521   04 Jun 2027 00:06:29.838            85.317                  Delhi          2666.156
       355   04 Jun 2027 01:18:56.361   04 Jun 2027 01:19:21.763            25.402                Anadyr2           793.813
       356   04 Jun 2027 01:19:41.188   04 Jun 2027 01:20:13.321            32.133                Anadyr1          1004.156
       357   04 Jun 2027 01:20:44.510   04 Jun 2027 01:21:34.700            50.190                Anadyr2          1568.438
       358   04 Jun 2027 01:21:37.947   04 Jun 2027 01:21:42.525             4.578                Anadyr2           143.063
       359   04 Jun 2027 01:24:31.071   04 Jun 2027 01:24:46.183            15.112                Anadyr1           472.250
       360   04 Jun 2027 01:24:51.064   04 Jun 2027 01:25:16.965            25.901                Anadyr2           809.406
       361   04 Jun 2027 01:25:46.517   04 Jun 2027 01:27:17.006            90.489               Magadan2          2827.781
       362   04 Jun 2027 01:28:10.746   04 Jun 2027 01:28:59.906            49.160              Murmansk1          1536.250
       363   04 Jun 2027 01:29:51.418   04 Jun 2027 01:31:19.510            88.092                Novosib          2752.875
       364   04 Jun 2027 01:32:03.989   04 Jun 2027 01:33:03.453            59.464                 Moscow          1858.250
       365   04 Jun 2027 01:38:57.200   04 Jun 2027 01:39:12.086            14.886                  Delhi           465.187
       366   04 Jun 2027 01:44:22.277   04 Jun 2027 01:44:46.196            23.919                  Delhi           747.469
       367   04 Jun 2027 01:58:33.871   04 Jun 2027 01:58:57.404            23.533               CapeTown           735.406
       368   04 Jun 2027 02:00:36.179   04 Jun 2027 02:00:36.443             0.264               CapeTown             8.250
       369   04 Jun 2027 02:01:30.926   04 Jun 2027 02:02:13.033            42.107               CapeTown          1315.844
       370   04 Jun 2027 02:06:31.773   04 Jun 2027 02:06:32.155             0.382               CapeTown            11.937
       371   04 Jun 2027 02:52:41.892   04 Jun 2027 02:54:08.049            86.157                Anadyr2          2692.406
       372   04 Jun 2027 02:55:04.580   04 Jun 2027 02:56:01.257            56.677                Anadyr1          1771.156
       373   04 Jun 2027 02:56:44.427   04 Jun 2027 02:58:01.955            77.528               Magadan1          2422.750
       374   04 Jun 2027 03:11:38.780   04 Jun 2027 03:12:53.863            75.083              Murmansk2          2346.344
       375   04 Jun 2027 03:13:02.439   04 Jun 2027 03:13:17.447            15.008                Norilsk           469.000
       376   04 Jun 2027 03:13:18.665   04 Jun 2027 03:13:30.441            11.776              Murmansk1           368.000
       377   04 Jun 2027 03:13:49.585   04 Jun 2027 03:15:30.664           101.079                 Moscow          3158.719
       378   04 Jun 2027 03:31:12.043   04 Jun 2027 03:34:02.585           170.542               CapeTown          5329.438
       379   04 Jun 2027 04:27:56.380   04 Jun 2027 04:29:13.881            77.501                Anadyr1          2421.906
       380   04 Jun 2027 04:29:13.881   04 Jun 2027 04:29:59.269            45.388                Anadyr2          1418.375
       381   04 Jun 2027 04:34:33.352   04 Jun 2027 04:35:41.328            67.976               Magadan1          2124.250
       382   04 Jun 2027 04:35:45.907   04 Jun 2027 04:37:11.133            85.226               Magadan1          2663.312
       383   04 Jun 2027 06:12:35.342   04 Jun 2027 06:14:26.959           111.617                Anadyr2          3488.031
       384   04 Jun 2027 07:45:27.112   04 Jun 2027 07:45:55.412            28.300               Magadan1           884.375
       385   04 Jun 2027 07:46:08.557   04 Jun 2027 07:46:14.699             6.142               Magadan2           191.937
       386   04 Jun 2027 07:46:25.150   04 Jun 2027 07:47:11.218            46.068                Anadyr2          1439.625
       387   04 Jun 2027 07:47:26.168   04 Jun 2027 07:48:31.732            65.564               Magadan1          2048.875
       388   04 Jun 2027 07:48:56.935   04 Jun 2027 07:49:04.598             7.663               Magadan2           239.469
       389   04 Jun 2027 07:49:18.270   04 Jun 2027 07:50:09.401            51.131                Anadyr2          1597.844
       390   04 Jun 2027 07:50:27.808   04 Jun 2027 07:50:39.379            11.571               Magadan1           361.594
       391   04 Jun 2027 07:50:43.149   04 Jun 2027 07:51:26.401            43.252               Magadan1          1351.625
       392   04 Jun 2027 07:51:29.094   04 Jun 2027 07:51:58.936            29.842              Murmansk1           932.563
       393   04 Jun 2027 07:53:38.925   04 Jun 2027 07:53:55.735            16.810              Murmansk2           525.312
       394   04 Jun 2027 08:27:11.954   04 Jun 2027 08:27:48.093            36.139            RioGallegos          1129.344
       395   04 Jun 2027 08:28:18.345   04 Jun 2027 08:28:35.881            17.536            RioGallegos           548.000
       396   04 Jun 2027 08:33:08.587   04 Jun 2027 08:33:22.695            14.108            RioGallegos           440.875
       397   04 Jun 2027 09:04:10.892   04 Jun 2027 09:06:25.162           134.270                Sumatra          4195.938
       398   04 Jun 2027 09:24:21.024   04 Jun 2027 09:24:26.018             4.994                Irkutsk           156.063
       399   04 Jun 2027 09:24:41.085   04 Jun 2027 09:24:46.004             4.919                Novosib           153.719
       400   04 Jun 2027 09:24:48.097   04 Jun 2027 09:24:54.060             5.963                Irkutsk           186.344
       401   04 Jun 2027 09:25:25.969   04 Jun 2027 09:25:35.812             9.843               Magadan1           307.594
       402   04 Jun 2027 09:26:11.640   04 Jun 2027 09:26:14.077             2.437                Irkutsk            76.156
       403   04 Jun 2027 09:27:12.431   04 Jun 2027 09:27:28.954            16.523                Irkutsk           516.344
       404   04 Jun 2027 09:27:45.477   04 Jun 2027 09:28:11.653            26.176                Irkutsk           818.000
       405   04 Jun 2027 10:03:21.847   04 Jun 2027 10:03:27.604             5.757            RioGallegos           179.906
       406   04 Jun 2027 10:04:22.174   04 Jun 2027 10:04:50.358            28.184            RioGallegos           880.750
       407   04 Jun 2027 10:37:47.779   04 Jun 2027 10:40:02.616           134.837                Sumatra          4213.656
       408   04 Jun 2027 11:00:18.253   04 Jun 2027 11:00:32.144            13.891                Irkutsk           434.094
       409   04 Jun 2027 11:01:20.218   04 Jun 2027 11:01:27.632             7.414                Novosib           231.687
       410   04 Jun 2027 11:01:38.378   04 Jun 2027 11:01:50.985            12.607                Novosib           393.969
       411   04 Jun 2027 11:01:52.356   04 Jun 2027 11:02:04.386            12.030                Novosib           375.938
       412   04 Jun 2027 11:02:22.561   04 Jun 2027 11:02:40.350            17.789                Novosib           555.906
       413   04 Jun 2027 11:03:11.516   04 Jun 2027 11:03:35.472            23.956                Irkutsk           748.625
       414   04 Jun 2027 11:03:38.303   04 Jun 2027 11:04:01.059            22.756                Norilsk           711.125
       415   04 Jun 2027 12:22:22.218   04 Jun 2027 12:23:29.262            67.044                  Delhi          2095.125
       416   04 Jun 2027 12:24:46.540   04 Jun 2027 12:27:02.371           135.831                  Delhi          4244.719
       417   04 Jun 2027 12:30:30.238   04 Jun 2027 12:31:10.247            40.009                Novosib          1250.281
       418   04 Jun 2027 12:34:26.628   04 Jun 2027 12:35:12.715            46.087                Norilsk          1440.219
       419   04 Jun 2027 12:43:22.700   04 Jun 2027 12:43:24.740             2.040                Norilsk            63.750
       420   04 Jun 2027 12:43:58.290   04 Jun 2027 12:44:21.707            23.417                Norilsk           731.781
       421   04 Jun 2027 14:06:18.803   04 Jun 2027 14:08:33.701           134.898                 Moscow          4215.563
       422   04 Jun 2027 14:09:36.276   04 Jun 2027 14:10:25.271            48.995                 Moscow          1531.094
       423   04 Jun 2027 14:11:16.752   04 Jun 2027 14:13:10.785           114.033              Murmansk1          3563.531
       424   04 Jun 2027 14:13:27.768   04 Jun 2027 14:15:08.089           100.321              Murmansk2          3135.031
       425   04 Jun 2027 14:15:36.244   04 Jun 2027 14:16:17.966            41.722                Norilsk          1303.813
       426   04 Jun 2027 15:20:22.193   04 Jun 2027 15:23:45.716           203.523               CapeTown          6360.094
       427   04 Jun 2027 15:45:55.378   04 Jun 2027 15:46:24.329            28.951                 Moscow           904.719
       428   04 Jun 2027 15:47:16.983   04 Jun 2027 15:47:21.034             4.051              Murmansk1           126.594
       429   04 Jun 2027 15:47:27.886   04 Jun 2027 15:48:08.890            41.004              Murmansk1          1281.375
       430   04 Jun 2027 15:51:06.421   04 Jun 2027 15:51:21.268            14.847              Murmansk1           463.969
       431   04 Jun 2027 16:00:40.178   04 Jun 2027 16:02:34.298           114.120                Anadyr2          3566.250
       432   04 Jun 2027 16:03:12.194   04 Jun 2027 16:03:13.523             1.329                Anadyr1            41.531
       433   04 Jun 2027 16:04:19.088   04 Jun 2027 16:04:22.316             3.228                Anadyr1           100.875
       434   04 Jun 2027 16:04:34.402   04 Jun 2027 16:04:48.878            14.476                Anadyr2           452.375
       435   04 Jun 2027 16:05:29.863   04 Jun 2027 16:06:01.534            31.671                Anadyr1           989.719
       436   04 Jun 2027 16:55:58.975   04 Jun 2027 16:56:55.671            56.696               CapeTown          1771.750
       437   04 Jun 2027 17:27:12.656   04 Jun 2027 17:30:37.767           205.111              Murmansk1          6409.719
       438   04 Jun 2027 17:36:20.939   04 Jun 2027 17:37:11.229            50.290                Anadyr1          1571.563
       439   04 Jun 2027 17:38:13.930   04 Jun 2027 17:38:26.990            13.060                Anadyr1           408.125
       440   04 Jun 2027 17:39:22.223   04 Jun 2027 17:40:49.626            87.403               Magadan2          2731.344
       441   04 Jun 2027 17:41:11.235   04 Jun 2027 17:41:43.337            32.102               Magadan1          1003.187
       442   04 Jun 2027 17:44:44.816   04 Jun 2027 17:46:48.807           123.991               Magadan2          3874.719
       443   04 Jun 2027 19:12:16.597   04 Jun 2027 19:14:19.239           122.642                Anadyr1          3832.562
       444   04 Jun 2027 19:14:34.820   04 Jun 2027 19:16:47.973           133.153               Magadan2          4161.031
       445   04 Jun 2027 20:08:08.605   04 Jun 2027 20:10:52.139           163.534            RioGallegos          5110.437
       446   04 Jun 2027 20:13:39.102   04 Jun 2027 20:14:13.169            34.067            RioGallegos          1064.594
       447   04 Jun 2027 20:48:04.560   04 Jun 2027 20:50:05.634           121.074                Anadyr1          3783.563
       448   04 Jun 2027 20:50:13.765   04 Jun 2027 20:50:56.361            42.596                Norilsk          1331.125
       449   04 Jun 2027 20:51:32.925   04 Jun 2027 20:52:01.799            28.874               Magadan1           902.312
       450   04 Jun 2027 20:52:13.882   04 Jun 2027 20:52:46.761            32.879                Norilsk          1027.469
       451   04 Jun 2027 20:52:57.416   04 Jun 2027 20:53:44.311            46.895                Norilsk          1465.469
       452   04 Jun 2027 20:55:01.945   04 Jun 2027 20:55:35.150            33.205                Irkutsk          1037.656
       453   04 Jun 2027 20:57:29.534   04 Jun 2027 20:57:50.343            20.809                Norilsk           650.281
       454   04 Jun 2027 20:59:12.462   04 Jun 2027 21:00:11.048            58.586                Irkutsk          1830.813
       455   04 Jun 2027 21:10:40.026   04 Jun 2027 21:12:14.030            94.004                Sumatra          2937.625
       456   04 Jun 2027 21:14:13.723   04 Jun 2027 21:14:42.149            28.426                Sumatra           888.313
       457   04 Jun 2027 22:26:37.272   04 Jun 2027 22:28:39.941           122.669               Magadan2          3833.406
       458   04 Jun 2027 22:29:54.954   04 Jun 2027 22:31:10.346            75.392                Irkutsk          2356.000
       459   04 Jun 2027 22:31:24.101   04 Jun 2027 22:32:13.065            48.964                Irkutsk          1530.125
       460   04 Jun 2027 22:33:48.240   04 Jun 2027 22:33:58.389            10.149                Novosib           317.156
       461   04 Jun 2027 22:40:02.326   04 Jun 2027 22:42:08.478           126.152                  Delhi          3942.250
       462   04 Jun 2027 22:46:30.883   04 Jun 2027 22:46:47.688            16.805                  Delhi           525.156
       463   04 Jun 2027 23:57:21.075   04 Jun 2027 23:59:35.970           134.895                Anadyr1          4215.469
       464   05 Jun 2027 00:02:01.313   05 Jun 2027 00:02:19.075            17.762                Norilsk           555.063
       465   05 Jun 2027 00:02:34.138   05 Jun 2027 00:02:58.969            24.831               Magadan2           775.969
       466   05 Jun 2027 00:02:58.969   05 Jun 2027 00:03:49.544            50.575               Magadan1          1580.469
       467   05 Jun 2027 00:04:51.561   05 Jun 2027 00:08:27.982           216.421              Murmansk1          6763.156
       468   05 Jun 2027 00:16:48.142   05 Jun 2027 00:17:06.409            18.267                  Delhi           570.844
       469   05 Jun 2027 00:19:56.147   05 Jun 2027 00:19:56.330             0.183                  Delhi             5.719
       470   05 Jun 2027 00:21:32.993   05 Jun 2027 00:22:01.467            28.474                  Delhi           889.813
       471   05 Jun 2027 00:55:11.097   05 Jun 2027 00:56:11.379            60.282            RioGallegos          1883.813
       472   05 Jun 2027 01:00:26.201   05 Jun 2027 01:00:32.137             5.936            RioGallegos           185.500
       473   05 Jun 2027 01:30:38.297   05 Jun 2027 01:31:09.182            30.885                Anadyr2           965.156
       474   05 Jun 2027 01:31:20.901   05 Jun 2027 01:31:38.846            17.945                Anadyr1           560.781
       475   05 Jun 2027 01:32:14.638   05 Jun 2027 01:33:12.795            58.157                Anadyr2          1817.406
       476   05 Jun 2027 01:33:35.339   05 Jun 2027 01:34:00.754            25.415                Anadyr1           794.219
       477   05 Jun 2027 01:36:37.074   05 Jun 2027 01:37:55.820            78.746               Magadan1          2460.813
       478   05 Jun 2027 01:38:10.379   05 Jun 2027 01:38:36.537            26.158               Magadan1           817.437
       479   05 Jun 2027 01:40:00.260   05 Jun 2027 01:40:13.108            12.848               Magadan2           401.500
       480   05 Jun 2027 01:40:14.112   05 Jun 2027 01:41:01.428            47.316              Murmansk1          1478.625
       481   05 Jun 2027 01:41:13.719   05 Jun 2027 01:41:58.326            44.607              Murmansk2          1393.969
       482   05 Jun 2027 01:42:49.393   05 Jun 2027 01:43:20.622            31.229                Novosib           975.906
