uniorb/output/strategy_4/Drop/Drop_KinoSat_110603.txt

KinoSat_110603
-------------------------
    Access    *     Start Time (UTCG)     *     Stop Time (UTCG)  *   Duration (s)        *       Station  *  Data (Mbytes)
         1   01 Jun 2027 04:05:15.332   01 Jun 2027 04:09:25.399           250.067                Anadyr1          7814.594
         2   01 Jun 2027 04:47:35.529   01 Jun 2027 04:48:08.595            33.066            RioGallegos          1033.313
         3   01 Jun 2027 04:48:39.386   01 Jun 2027 04:48:55.349            15.963            RioGallegos           498.844
         4   01 Jun 2027 04:49:41.547   01 Jun 2027 04:50:43.042            61.495            RioGallegos          1921.719
         5   01 Jun 2027 04:51:55.693   01 Jun 2027 04:52:59.484            63.791            RioGallegos          1993.469
         6   01 Jun 2027 05:39:31.668   01 Jun 2027 05:39:40.690             9.022               Magadan2           281.937
         7   01 Jun 2027 05:40:10.397   01 Jun 2027 05:40:57.331            46.934                Irkutsk          1466.687
         8   01 Jun 2027 05:41:11.655   01 Jun 2027 05:42:48.371            96.716                Novosib          3022.375
         9   01 Jun 2027 05:43:00.149   01 Jun 2027 05:44:42.113           101.964               Magadan1          3186.375
        10   01 Jun 2027 05:44:42.122   01 Jun 2027 05:45:15.502            33.380                Irkutsk          1043.125
        11   01 Jun 2027 05:45:24.412   01 Jun 2027 05:46:36.279            71.867              Murmansk1          2245.844
        12   01 Jun 2027 05:46:39.872   01 Jun 2027 05:47:03.203            23.331                Norilsk           729.094
        13   01 Jun 2027 05:47:19.520   01 Jun 2027 05:47:48.434            28.914                Norilsk           903.562
        14   01 Jun 2027 05:48:41.870   01 Jun 2027 05:49:10.108            28.238              Murmansk1           882.437
        15   01 Jun 2027 05:49:13.451   01 Jun 2027 05:49:18.758             5.307                Norilsk           165.844
        16   01 Jun 2027 05:49:30.982   01 Jun 2027 05:49:58.312            27.330                Norilsk           854.062
        17   01 Jun 2027 05:51:07.191   01 Jun 2027 05:51:29.643            22.452              Murmansk1           701.625
        18   01 Jun 2027 05:51:46.143   01 Jun 2027 05:52:08.355            22.212              Murmansk1           694.125
        19   01 Jun 2027 06:19:58.616   01 Jun 2027 06:21:41.716           103.100            RioGallegos          3221.875
        20   01 Jun 2027 06:22:43.244   01 Jun 2027 06:23:15.965            32.721            RioGallegos          1022.531
        21   01 Jun 2027 06:25:02.150   01 Jun 2027 06:25:14.404            12.254            RioGallegos           382.937
        22   01 Jun 2027 06:28:32.990   01 Jun 2027 06:29:34.625            61.635            RioGallegos          1926.094
        23   01 Jun 2027 06:55:10.372   01 Jun 2027 06:56:43.757            93.385                Sumatra          2918.281
        24   01 Jun 2027 06:58:48.102   01 Jun 2027 06:59:19.172            31.070                Sumatra           970.938
        25   01 Jun 2027 07:07:16.422   01 Jun 2027 07:09:56.812           160.390                  Delhi          5012.187
        26   01 Jun 2027 07:10:18.966   01 Jun 2027 07:10:55.587            36.621                  Delhi          1144.406
        27   01 Jun 2027 07:17:00.654   01 Jun 2027 07:18:12.662            72.008                Irkutsk          2250.250
        28   01 Jun 2027 07:18:36.567   01 Jun 2027 07:18:51.370            14.803                Norilsk           462.594
        29   01 Jun 2027 07:18:52.902   01 Jun 2027 07:19:38.456            45.554                Irkutsk          1423.563
        30   01 Jun 2027 07:19:41.213   01 Jun 2027 07:21:03.425            82.212              Murmansk2          2569.125
        31   01 Jun 2027 07:21:03.425   01 Jun 2027 07:23:09.211           125.786              Murmansk1          3930.813
        32   01 Jun 2027 07:23:14.526   01 Jun 2027 07:23:32.897            18.371              Murmansk1           574.094
        33   01 Jun 2027 07:58:17.577   01 Jun 2027 07:58:35.837            18.260            RioGallegos           570.625
        34   01 Jun 2027 07:59:24.122   01 Jun 2027 08:00:12.878            48.756            RioGallegos          1523.625
        35   01 Jun 2027 08:32:33.123   01 Jun 2027 08:34:27.289           114.166                Sumatra          3567.688
        36   01 Jun 2027 08:39:06.211   01 Jun 2027 08:41:53.963           167.752                  Delhi          5242.250
        37   01 Jun 2027 08:55:46.572   01 Jun 2027 08:56:06.465            19.893                Novosib           621.656
        38   01 Jun 2027 08:56:24.667   01 Jun 2027 08:57:20.276            55.609                 Moscow          1737.781
        39   01 Jun 2027 08:57:37.105   01 Jun 2027 08:58:29.286            52.181                Norilsk          1630.656
        40   01 Jun 2027 08:58:47.899   01 Jun 2027 08:59:53.702            65.803              Murmansk1          2056.344
        41   01 Jun 2027 09:00:10.550   01 Jun 2027 09:00:13.626             3.076                Norilsk            96.125
        42   01 Jun 2027 09:00:23.609   01 Jun 2027 09:00:44.773            21.164                Norilsk           661.375
        43   01 Jun 2027 10:18:11.372   01 Jun 2027 10:20:56.952           165.580                  Delhi          5174.375
        44   01 Jun 2027 10:21:07.252   01 Jun 2027 10:21:31.636            24.384                  Delhi           762.000
        45   01 Jun 2027 10:28:24.033   01 Jun 2027 10:28:35.331            11.298                 Moscow           353.062
        46   01 Jun 2027 10:29:02.162   01 Jun 2027 10:29:10.714             8.552                Novosib           267.250
        47   01 Jun 2027 10:29:17.389   01 Jun 2027 10:32:37.929           200.540                Novosib          6266.875
        48   01 Jun 2027 10:32:42.055   01 Jun 2027 10:33:01.056            19.001                Norilsk           593.781
        49   01 Jun 2027 10:33:27.426   01 Jun 2027 10:33:51.725            24.299                Norilsk           759.344
        50   01 Jun 2027 10:34:00.918   01 Jun 2027 10:35:17.954            77.036              Murmansk2          2407.375
        51   01 Jun 2027 10:35:17.954   01 Jun 2027 10:36:30.413            72.459              Murmansk1          2264.344
        52   01 Jun 2027 11:39:37.858   01 Jun 2027 11:42:09.618           151.760               CapeTown          4742.500
        53   01 Jun 2027 12:18:23.616   01 Jun 2027 12:25:58.495           454.879                Anadyr2         14214.969
        54   01 Jun 2027 13:53:35.807   01 Jun 2027 13:54:40.957            65.150                Anadyr1          2035.937
        55   01 Jun 2027 13:56:09.596   01 Jun 2027 13:57:29.194            79.598                Anadyr1          2487.437
        56   01 Jun 2027 13:58:20.076   01 Jun 2027 14:02:05.950           225.874               Magadan1          7058.562
        57   01 Jun 2027 15:31:57.679   01 Jun 2027 15:37:30.126           332.447               Magadan2         10388.969
        58   01 Jun 2027 17:07:39.046   01 Jun 2027 17:08:50.931            71.885               Magadan2          2246.406
        59   01 Jun 2027 17:09:24.515   01 Jun 2027 17:12:35.565           191.050                Norilsk          5970.313
        60   01 Jun 2027 17:59:45.852   01 Jun 2027 18:01:43.886           118.034            RioGallegos          3688.563
        61   01 Jun 2027 18:03:09.762   01 Jun 2027 18:03:42.889            33.127            RioGallegos          1035.219
        62   01 Jun 2027 18:10:16.630   01 Jun 2027 18:10:40.248            23.618            RioGallegos           738.063
        63   01 Jun 2027 18:43:35.066   01 Jun 2027 18:44:58.005            82.939                Norilsk          2591.844
        64   01 Jun 2027 18:45:27.181   01 Jun 2027 18:45:43.711            16.530                Norilsk           516.562
        65   01 Jun 2027 18:47:21.626   01 Jun 2027 18:51:08.943           227.317                Irkutsk          7103.656
        66   01 Jun 2027 18:52:02.717   01 Jun 2027 18:55:02.783           180.066                Novosib          5627.062
        67   01 Jun 2027 19:03:54.600   01 Jun 2027 19:05:13.065            78.465                Sumatra          2452.031
        68   01 Jun 2027 19:11:43.643   01 Jun 2027 19:12:19.173            35.530                Sumatra          1110.313
        69   01 Jun 2027 20:24:09.201   01 Jun 2027 20:24:16.350             7.149                Novosib           223.406
        70   01 Jun 2027 20:25:37.227   01 Jun 2027 20:25:39.564             2.337                Novosib            73.031
        71   01 Jun 2027 20:27:03.052   01 Jun 2027 20:27:20.832            17.780                Novosib           555.625
        72   01 Jun 2027 20:27:24.706   01 Jun 2027 20:27:31.807             7.101                Novosib           221.906
        73   01 Jun 2027 20:27:52.192   01 Jun 2027 20:29:48.209           116.017                Novosib          3625.531
        74   01 Jun 2027 20:30:51.505   01 Jun 2027 20:32:18.198            86.693                  Delhi          2709.156
        75   01 Jun 2027 20:32:42.741   01 Jun 2027 20:34:45.279           122.538                  Delhi          3829.313
        76   01 Jun 2027 20:36:36.603   01 Jun 2027 20:37:00.463            23.860                  Delhi           745.625
        77   01 Jun 2027 20:38:03.084   01 Jun 2027 20:39:25.364            82.280                  Delhi          2571.250
        78   01 Jun 2027 21:57:30.866   01 Jun 2027 21:59:29.190           118.324              Murmansk2          3697.625
        79   01 Jun 2027 21:59:40.407   01 Jun 2027 22:06:30.957           410.550              Murmansk1         12829.688
        80   01 Jun 2027 22:07:28.981   01 Jun 2027 22:09:25.120           116.139                 Moscow          3629.344
        81   01 Jun 2027 23:37:24.092   01 Jun 2027 23:38:21.048            56.956                 Moscow          1779.875
        82   01 Jun 2027 23:41:08.937   01 Jun 2027 23:42:06.347            57.410                 Moscow          1794.062
        83   02 Jun 2027 00:00:51.498   02 Jun 2027 00:02:29.534            98.036               CapeTown          3063.625
        84   02 Jun 2027 00:04:48.514   02 Jun 2027 00:05:01.515            13.001               CapeTown           406.281
        85   02 Jun 2027 00:06:18.427   02 Jun 2027 00:07:03.597            45.170               CapeTown          1411.562
        86   02 Jun 2027 01:00:56.287   02 Jun 2027 01:01:00.643             4.356               Magadan1           136.125
        87   02 Jun 2027 01:03:05.413   02 Jun 2027 01:04:05.899            60.486               Magadan1          1890.188
        88   02 Jun 2027 01:09:15.190   02 Jun 2027 01:10:04.839            49.649              Murmansk1          1551.531
        89   02 Jun 2027 01:10:18.961   02 Jun 2027 01:10:20.340             1.379              Murmansk2            43.094
        90   02 Jun 2027 01:11:38.091   02 Jun 2027 01:11:50.982            12.891              Murmansk2           402.844
        91   02 Jun 2027 01:12:30.047   02 Jun 2027 01:13:34.274            64.227                 Moscow          2007.094
        92   02 Jun 2027 01:15:06.214   02 Jun 2027 01:15:43.439            37.225                 Moscow          1163.281
        93   02 Jun 2027 01:16:57.911   02 Jun 2027 01:17:12.280            14.369                 Moscow           449.031
        94   02 Jun 2027 01:17:43.897   02 Jun 2027 01:17:53.822             9.925                 Moscow           310.156
        95   02 Jun 2027 01:21:16.420   02 Jun 2027 01:21:50.132            33.712                 Moscow          1053.500
        96   02 Jun 2027 01:37:19.916   02 Jun 2027 01:37:27.520             7.604               CapeTown           237.625
        97   02 Jun 2027 01:38:56.461   02 Jun 2027 01:40:10.654            74.193               CapeTown          2318.531
        98   02 Jun 2027 02:33:04.413   02 Jun 2027 02:36:04.148           179.735               Magadan2          5616.719
        99   02 Jun 2027 02:36:32.975   02 Jun 2027 02:36:51.324            18.349               Magadan2           573.406
       100   02 Jun 2027 02:37:11.262   02 Jun 2027 02:37:26.443            15.181               Magadan2           474.406
       101   02 Jun 2027 02:39:04.981   02 Jun 2027 02:39:07.515             2.534               Magadan2            79.187
       102   02 Jun 2027 02:40:02.577   02 Jun 2027 02:40:17.305            14.728               Magadan2           460.250
       103   02 Jun 2027 02:42:17.605   02 Jun 2027 02:42:50.067            32.462                Norilsk          1014.438
       104   02 Jun 2027 02:45:06.170   02 Jun 2027 02:45:49.369            43.199              Murmansk2          1349.969
       105   02 Jun 2027 02:46:08.102   02 Jun 2027 02:46:17.699             9.597              Murmansk1           299.906
       106   02 Jun 2027 02:48:51.780   02 Jun 2027 02:49:23.143            31.363              Murmansk2           980.094
       107   02 Jun 2027 02:49:56.141   02 Jun 2027 02:50:08.869            12.728              Murmansk2           397.750
       108   02 Jun 2027 02:50:24.163   02 Jun 2027 02:50:56.365            32.202                 Moscow          1006.312
       109   02 Jun 2027 02:51:49.946   02 Jun 2027 02:52:18.692            28.746                 Moscow           898.312
       110   02 Jun 2027 03:26:12.993   02 Jun 2027 03:27:57.084           104.091            RioGallegos          3252.844
       111   02 Jun 2027 03:28:34.166   02 Jun 2027 03:29:20.781            46.615            RioGallegos          1456.719
       112   02 Jun 2027 03:30:40.302   02 Jun 2027 03:31:13.200            32.898            RioGallegos          1028.062
       113   02 Jun 2027 04:13:49.031   02 Jun 2027 04:14:19.653            30.622               Magadan2           956.937
       114   02 Jun 2027 04:14:57.702   02 Jun 2027 04:15:21.825            24.123                Anadyr1           753.844
       115   02 Jun 2027 04:15:21.825   02 Jun 2027 04:16:48.853            87.028                Anadyr2          2719.625
       116   02 Jun 2027 04:16:54.313   02 Jun 2027 04:18:51.169           116.856                Anadyr2          3651.750
       117   02 Jun 2027 04:18:54.819   02 Jun 2027 04:20:14.422            79.603                Anadyr1          2487.594
       118   02 Jun 2027 04:57:11.005   02 Jun 2027 04:59:04.716           113.711            RioGallegos          3553.469
       119   02 Jun 2027 05:52:43.136   02 Jun 2027 05:53:28.898            45.762                Irkutsk          1430.062
       120   02 Jun 2027 05:53:46.084   02 Jun 2027 05:56:27.955           161.871               Magadan2          5058.469
       121   02 Jun 2027 05:56:41.486   02 Jun 2027 05:57:19.736            38.250                Irkutsk          1195.312
       122   02 Jun 2027 05:58:03.040   02 Jun 2027 05:58:13.378            10.338                Novosib           323.062
       123   02 Jun 2027 07:09:59.542   02 Jun 2027 07:11:27.850            88.308                Sumatra          2759.625
       124   02 Jun 2027 07:30:27.327   02 Jun 2027 07:33:09.134           161.807                Irkutsk          5056.469
       125   02 Jun 2027 07:33:34.652   02 Jun 2027 07:34:00.434            25.782                Novosib           805.688
       126   02 Jun 2027 10:32:02.667   02 Jun 2027 10:34:12.393           129.726                  Delhi          4053.937
       127   02 Jun 2027 10:48:28.056   02 Jun 2027 10:48:54.974            26.918                Norilsk           841.187
       128   02 Jun 2027 12:16:25.059   02 Jun 2027 12:19:02.176           157.117              Murmansk2          4909.906
       129   02 Jun 2027 12:19:02.176   02 Jun 2027 12:20:14.732            72.556              Murmansk1          2267.375
       130   02 Jun 2027 12:21:19.585   02 Jun 2027 12:22:02.553            42.968              Murmansk2          1342.750
       131   02 Jun 2027 12:30:13.481   02 Jun 2027 12:38:41.753           508.272                Anadyr1         15883.500
       132   02 Jun 2027 14:05:35.680   02 Jun 2027 14:07:15.103            99.423                Anadyr2          3106.969
       133   02 Jun 2027 14:09:35.358   02 Jun 2027 14:15:27.532           352.174               Magadan1         11005.438
       134   02 Jun 2027 15:43:54.791   02 Jun 2027 15:47:44.704           229.913               Magadan2          7184.781
       135   02 Jun 2027 15:49:15.623   02 Jun 2027 15:49:24.167             8.544               Magadan2           267.000
       136   02 Jun 2027 15:50:31.713   02 Jun 2027 15:50:52.892            21.179               Magadan1           661.844
       137   02 Jun 2027 15:51:15.350   02 Jun 2027 15:52:33.704            78.354               Magadan1          2448.563
       138   02 Jun 2027 17:19:40.577   02 Jun 2027 17:21:18.772            98.195               Magadan2          3068.594
       139   02 Jun 2027 17:23:16.842   02 Jun 2027 17:23:50.711            33.869                Norilsk          1058.406
       140   02 Jun 2027 17:24:41.392   02 Jun 2027 17:25:21.313            39.921                Norilsk          1247.531
       141   02 Jun 2027 17:25:54.937   02 Jun 2027 17:30:38.240           283.303                Irkutsk          8853.219
       142   02 Jun 2027 18:55:13.958   02 Jun 2027 18:56:02.430            48.472                Norilsk          1514.750
       143   02 Jun 2027 19:00:13.571   02 Jun 2027 19:01:22.114            68.543                Irkutsk          2141.969
       144   02 Jun 2027 19:01:31.651   02 Jun 2027 19:08:03.915           392.264                Novosib         12258.250
       145   02 Jun 2027 19:16:02.999   02 Jun 2027 19:16:11.709             8.710                Sumatra           272.187
       146   02 Jun 2027 19:20:54.623   02 Jun 2027 19:22:30.484            95.861                Sumatra          2995.656
       147   02 Jun 2027 20:36:49.351   02 Jun 2027 20:37:34.457            45.106                Novosib          1409.562
       148   02 Jun 2027 20:39:06.845   02 Jun 2027 20:39:25.107            18.262                Novosib           570.687
       149   02 Jun 2027 20:39:39.969   02 Jun 2027 20:40:34.581            54.612                Novosib          1706.625
       150   02 Jun 2027 20:42:38.723   02 Jun 2027 20:45:07.740           149.017                  Delhi          4656.781
       151   02 Jun 2027 22:09:29.052   02 Jun 2027 22:14:58.275           329.223              Murmansk2         10288.219
       152   02 Jun 2027 22:15:01.389   02 Jun 2027 22:21:21.517           380.128                 Moscow         11879.000
       153   02 Jun 2027 22:42:27.185   02 Jun 2027 22:45:57.723           210.538               CapeTown          6579.313
       154   03 Jun 2027 00:12:38.676   03 Jun 2027 00:14:37.852           119.176               CapeTown          3724.250
       155   03 Jun 2027 01:21:16.578   03 Jun 2027 01:21:28.514            11.936              Murmansk1           373.000
       156   03 Jun 2027 01:22:07.227   03 Jun 2027 01:23:31.819            84.592              Murmansk2          2643.500
       157   03 Jun 2027 01:24:33.461   03 Jun 2027 01:25:21.377            47.916                 Moscow          1497.375
       158   03 Jun 2027 01:28:46.044   03 Jun 2027 01:28:53.336             7.292                 Moscow           227.875
       159   03 Jun 2027 01:30:42.167   03 Jun 2027 01:31:07.770            25.603                 Moscow           800.094
       160   03 Jun 2027 01:34:17.856   03 Jun 2027 01:34:48.082            30.226                 Moscow           944.563
       161   03 Jun 2027 01:49:54.157   03 Jun 2027 01:50:38.148            43.991               CapeTown          1374.719
       162   03 Jun 2027 01:55:05.337   03 Jun 2027 01:56:20.125            74.788               CapeTown          2337.125
       163   03 Jun 2027 02:44:57.717   03 Jun 2027 02:46:49.503           111.786               Magadan1          3493.313
       164   03 Jun 2027 02:47:26.041   03 Jun 2027 02:47:42.691            16.650               Magadan2           520.313
       165   03 Jun 2027 02:49:07.218   03 Jun 2027 02:49:12.189             4.971               Magadan1           155.344
       166   03 Jun 2027 02:50:31.929   03 Jun 2027 02:50:50.313            18.384               Magadan1           574.500
       167   03 Jun 2027 02:53:22.016   03 Jun 2027 02:53:22.296             0.280               Magadan1             8.750
       168   03 Jun 2027 02:53:35.320   03 Jun 2027 02:54:09.333            34.013                Norilsk          1062.906
       169   03 Jun 2027 02:55:29.326   03 Jun 2027 02:56:01.430            32.104                Norilsk          1003.250
       170   03 Jun 2027 02:57:05.620   03 Jun 2027 02:57:50.999            45.379              Murmansk2          1418.094
       171   03 Jun 2027 02:59:48.093   03 Jun 2027 02:59:50.322             2.229              Murmansk2            69.656
       172   03 Jun 2027 03:37:16.317   03 Jun 2027 03:40:13.149           176.832            RioGallegos          5526.000
       173   03 Jun 2027 03:42:18.277   03 Jun 2027 03:43:10.493            52.216            RioGallegos          1631.750
       174   03 Jun 2027 04:26:10.573   03 Jun 2027 04:28:09.158           118.585               Magadan2          3705.781
       175   03 Jun 2027 04:28:23.244   03 Jun 2027 04:30:19.746           116.502               Magadan2          3640.687
       176   03 Jun 2027 04:30:20.761   03 Jun 2027 04:32:45.477           144.716                Irkutsk          4522.375
       177   03 Jun 2027 04:33:07.168   03 Jun 2027 04:33:26.148            18.980                Novosib           593.125
       178   03 Jun 2027 05:08:53.176   03 Jun 2027 05:12:20.757           207.581            RioGallegos          6486.906
       179   03 Jun 2027 05:48:44.426   03 Jun 2027 05:50:58.331           133.905                Sumatra          4184.531
       180   03 Jun 2027 06:04:56.203   03 Jun 2027 06:05:47.043            50.840                Irkutsk          1588.750
       181   03 Jun 2027 06:06:13.672   03 Jun 2027 06:07:06.165            52.493                Novosib          1640.406
       182   03 Jun 2027 06:07:46.283   03 Jun 2027 06:08:08.162            21.879               Magadan1           683.719
       183   03 Jun 2027 06:09:11.219   03 Jun 2027 06:10:53.209           101.990                Norilsk          3187.187
       184   03 Jun 2027 07:42:58.448   03 Jun 2027 07:43:45.686            47.238                 Moscow          1476.188
       185   03 Jun 2027 07:43:55.877   03 Jun 2027 07:45:04.669            68.792                Irkutsk          2149.750
       186   03 Jun 2027 07:47:08.649   03 Jun 2027 07:47:09.326             0.677              Murmansk2            21.156
       187   03 Jun 2027 07:47:52.861   03 Jun 2027 07:48:32.032            39.171              Murmansk2          1224.094
       188   03 Jun 2027 08:24:00.950   03 Jun 2027 08:24:48.493            47.543            RioGallegos          1485.719
       189   03 Jun 2027 08:59:59.891   03 Jun 2027 09:01:28.914            89.023                Sumatra          2781.969
       190   03 Jun 2027 09:20:41.787   03 Jun 2027 09:20:49.285             7.498                Novosib           234.312
       191   03 Jun 2027 09:21:25.641   03 Jun 2027 09:22:20.503            54.862                Novosib          1714.438
       192   03 Jun 2027 10:59:31.002   03 Jun 2027 10:59:37.974             6.972                Norilsk           217.875
       193   03 Jun 2027 12:24:45.392   03 Jun 2027 12:25:21.877            36.485                 Moscow          1140.156
       194   03 Jun 2027 12:26:18.144   03 Jun 2027 12:27:03.440            45.296                 Moscow          1415.500
       195   03 Jun 2027 12:27:51.652   03 Jun 2027 12:28:43.449            51.797                 Moscow          1618.656
       196   03 Jun 2027 12:28:59.349   03 Jun 2027 12:31:22.359           143.010              Murmansk1          4469.062
       197   03 Jun 2027 12:31:22.359   03 Jun 2027 12:31:42.969            20.610              Murmansk2           644.062
       198   03 Jun 2027 12:33:17.300   03 Jun 2027 12:33:24.122             6.822              Murmansk2           213.188
       199   03 Jun 2027 12:37:17.975   03 Jun 2027 12:37:45.910            27.935              Murmansk2           872.969
       200   03 Jun 2027 12:42:06.133   03 Jun 2027 12:47:48.495           342.362                Anadyr1         10698.812
       201   03 Jun 2027 12:48:40.216   03 Jun 2027 12:51:19.820           159.604                Anadyr2          4987.625
       202   03 Jun 2027 14:17:35.923   03 Jun 2027 14:19:23.897           107.974                Anadyr1          3374.188
       203   03 Jun 2027 14:21:09.261   03 Jun 2027 14:28:05.872           416.611               Magadan2         13019.094
       204   03 Jun 2027 15:55:52.829   03 Jun 2027 15:57:18.837            86.008               Magadan2          2687.750
       205   03 Jun 2027 15:59:46.827   03 Jun 2027 15:59:56.513             9.686               Magadan1           302.688
       206   03 Jun 2027 16:00:11.495   03 Jun 2027 16:00:54.892            43.397               Magadan1          1356.156
       207   03 Jun 2027 17:29:21.291   03 Jun 2027 17:30:19.826            58.535                Anadyr2          1829.219
       208   03 Jun 2027 17:31:19.366   03 Jun 2027 17:31:24.968             5.602                Anadyr2           175.062
       209   03 Jun 2027 17:31:39.496   03 Jun 2027 17:32:03.796            24.300                Norilsk           759.375
       210   03 Jun 2027 17:32:50.137   03 Jun 2027 17:34:54.386           124.249               Magadan2          3882.781
       211   03 Jun 2027 17:35:18.256   03 Jun 2027 17:35:22.521             4.265                Norilsk           133.281
       212   03 Jun 2027 17:35:49.001   03 Jun 2027 17:37:03.065            74.064                Norilsk          2314.500
       213   03 Jun 2027 17:37:07.689   03 Jun 2027 17:43:56.540           408.851                Irkutsk         12776.594
       214   03 Jun 2027 17:53:19.557   03 Jun 2027 17:58:19.437           299.880                Sumatra          9371.250
       215   03 Jun 2027 19:13:01.729   03 Jun 2027 19:19:51.260           409.531                Novosib         12797.844
       216   03 Jun 2027 20:46:52.243   03 Jun 2027 20:47:05.246            13.003              Murmansk1           406.344
       217   03 Jun 2027 20:48:06.597   03 Jun 2027 20:49:51.465           104.868              Murmansk1          3277.125
       218   03 Jun 2027 22:21:28.069   03 Jun 2027 22:23:00.542            92.473              Murmansk2          2889.781
       219   03 Jun 2027 22:23:05.503   03 Jun 2027 22:27:21.718           256.215              Murmansk1          8006.719
       220   03 Jun 2027 22:27:54.844   03 Jun 2027 22:34:56.940           422.096                 Moscow         13190.500
       221   03 Jun 2027 22:52:49.057   03 Jun 2027 22:59:10.413           381.356               CapeTown         11917.375
       222   04 Jun 2027 01:46:15.343   04 Jun 2027 01:46:22.425             7.082                 Moscow           221.313
       223   04 Jun 2027 01:47:11.627   04 Jun 2027 01:47:25.540            13.913                 Moscow           434.781
       224   04 Jun 2027 02:02:39.809   04 Jun 2027 02:03:28.429            48.620               CapeTown          1519.375
       225   04 Jun 2027 02:06:25.458   04 Jun 2027 02:06:31.773             6.315               CapeTown           197.344
       226   04 Jun 2027 02:10:58.708   04 Jun 2027 02:11:16.895            18.187               CapeTown           568.344
       227   04 Jun 2027 02:56:53.272   04 Jun 2027 03:00:08.152           194.880               Magadan2          6090.000
       228   04 Jun 2027 03:01:09.888   04 Jun 2027 03:02:14.287            64.399               Magadan2          2012.469
       229   04 Jun 2027 03:02:22.002   04 Jun 2027 03:03:05.094            43.092                Anadyr1          1346.625
       230   04 Jun 2027 03:03:22.063   04 Jun 2027 03:08:01.678           279.615                Anadyr2          8737.969
       231   04 Jun 2027 03:08:01.678   04 Jun 2027 03:08:15.622            13.944                Anadyr1           435.750
       232   04 Jun 2027 03:08:16.002   04 Jun 2027 03:08:19.275             3.273                Anadyr1           102.281
       233   04 Jun 2027 04:38:17.940   04 Jun 2027 04:40:01.772           103.832                Irkutsk          3244.750
       234   04 Jun 2027 04:40:02.279   04 Jun 2027 04:40:37.536            35.257                Irkutsk          1101.781
       235   04 Jun 2027 04:40:54.070   04 Jun 2027 04:44:32.809           218.739                Irkutsk          6835.594
       236   04 Jun 2027 04:44:35.127   04 Jun 2027 04:44:55.926            20.799                Irkutsk           649.969
       237   04 Jun 2027 06:16:18.812   04 Jun 2027 06:16:29.285            10.473               Magadan2           327.281
       238   04 Jun 2027 06:16:30.007   04 Jun 2027 06:16:42.479            12.472               Magadan1           389.750
       239   04 Jun 2027 06:17:27.539   04 Jun 2027 06:18:27.033            59.494               Magadan2          1859.187
       240   04 Jun 2027 06:18:30.659   04 Jun 2027 06:18:33.219             2.560               Magadan1            80.000
       241   04 Jun 2027 06:19:17.851   04 Jun 2027 06:19:38.246            20.395               Magadan1           637.344
       242   04 Jun 2027 06:24:19.051   04 Jun 2027 06:24:51.396            32.345              Murmansk2          1010.781
       243   04 Jun 2027 07:55:14.254   04 Jun 2027 07:56:01.749            47.495                 Moscow          1484.219
       244   04 Jun 2027 07:57:19.934   04 Jun 2027 07:57:23.880             3.946                Norilsk           123.312
       245   04 Jun 2027 07:57:30.267   04 Jun 2027 07:57:44.715            14.448                 Moscow           451.500
       246   04 Jun 2027 07:59:22.835   04 Jun 2027 07:59:29.774             6.939                 Moscow           216.844
       247   04 Jun 2027 08:37:20.553   04 Jun 2027 08:37:52.925            32.372            RioGallegos          1011.625
       248   04 Jun 2027 08:39:31.269   04 Jun 2027 08:39:42.060            10.791            RioGallegos           337.219
       249   04 Jun 2027 09:33:17.383   04 Jun 2027 09:33:29.606            12.223                Novosib           381.969
       250   04 Jun 2027 11:12:59.002   04 Jun 2027 11:13:13.695            14.693                Norilsk           459.156
       251   04 Jun 2027 12:37:13.464   04 Jun 2027 12:37:53.442            39.978                 Moscow          1249.312
       252   04 Jun 2027 12:38:18.432   04 Jun 2027 12:39:09.702            51.270                 Moscow          1602.188
       253   04 Jun 2027 12:40:15.123   04 Jun 2027 12:42:01.059           105.936              Murmansk2          3310.500
       254   04 Jun 2027 12:42:39.071   04 Jun 2027 12:43:01.493            22.422              Murmansk1           700.687
       255   04 Jun 2027 12:43:37.710   04 Jun 2027 12:44:02.680            24.970              Murmansk1           780.313
       256   04 Jun 2027 12:44:54.333   04 Jun 2027 12:44:57.926             3.593              Murmansk1           112.281
       257   04 Jun 2027 12:45:15.558   04 Jun 2027 12:45:52.626            37.068              Murmansk2          1158.375
       258   04 Jun 2027 12:54:00.767   04 Jun 2027 12:56:21.507           140.740                Anadyr1          4398.125
       259   04 Jun 2027 12:57:39.061   04 Jun 2027 12:59:47.458           128.397                Anadyr2          4012.406
       260   04 Jun 2027 13:00:48.395   04 Jun 2027 13:02:23.907            95.512                Anadyr2          2984.750
       261   04 Jun 2027 14:19:50.356   04 Jun 2027 14:20:52.545            62.189              Murmansk2          1943.406
       262   04 Jun 2027 14:29:36.480   04 Jun 2027 14:31:10.192            93.712                Anadyr2          2928.500
       263   04 Jun 2027 14:32:33.152   04 Jun 2027 14:33:28.540            55.388                Anadyr2          1730.875
       264   04 Jun 2027 14:33:33.107   04 Jun 2027 14:39:07.472           334.365               Magadan2         10448.906
       265   04 Jun 2027 14:40:35.659   04 Jun 2027 14:41:16.536            40.877               Magadan1          1277.406
       266   04 Jun 2027 16:07:51.635   04 Jun 2027 16:09:22.666            91.031               Magadan2          2844.719
       267   04 Jun 2027 16:09:54.771   04 Jun 2027 16:11:49.124           114.353               Magadan1          3573.531
       268   04 Jun 2027 16:18:04.679   04 Jun 2027 16:18:24.815            20.136               Magadan1           629.250
       269   04 Jun 2027 17:02:17.319   04 Jun 2027 17:06:33.881           256.562            RioGallegos          8017.562
       270   04 Jun 2027 17:43:34.360   04 Jun 2027 17:44:56.490            82.130                Norilsk          2566.562
       271   04 Jun 2027 17:48:38.328   04 Jun 2027 17:55:39.561           421.233                Irkutsk         13163.531
       272   04 Jun 2027 18:03:52.909   04 Jun 2027 18:11:39.419           466.510                Sumatra         14578.437
       273   04 Jun 2027 19:26:40.411   04 Jun 2027 19:30:05.801           205.390                Novosib          6418.438
       274   04 Jun 2027 19:34:48.526   04 Jun 2027 19:38:21.531           213.005                  Delhi          6656.406
       275   04 Jun 2027 20:58:24.294   04 Jun 2027 21:03:02.537           278.243              Murmansk1          8695.094
       276   04 Jun 2027 22:35:54.120   04 Jun 2027 22:39:42.873           228.753              Murmansk2          7148.531
       277   04 Jun 2027 22:40:37.999   04 Jun 2027 22:40:51.794            13.795                 Moscow           431.094
       278   04 Jun 2027 22:41:04.540   04 Jun 2027 22:45:37.367           272.827                 Moscow          8525.844
       279   04 Jun 2027 23:03:45.186   04 Jun 2027 23:11:51.948           486.762               CapeTown         15211.312
       280   05 Jun 2027 03:15:48.196   05 Jun 2027 03:20:30.560           282.364                Anadyr1          8823.875
       281   05 Jun 2027 03:20:30.560   05 Jun 2027 03:20:47.617            17.057                Anadyr2           533.031
       282   05 Jun 2027 03:20:47.617   05 Jun 2027 03:21:54.654            67.037                Anadyr1          2094.906
       283   05 Jun 2027 04:51:55.557   05 Jun 2027 04:56:05.917           250.360                Irkutsk          7823.750
       284   05 Jun 2027 04:56:22.517   05 Jun 2027 04:57:25.368            62.851               Magadan1          1964.094
       285   05 Jun 2027 06:28:12.068   05 Jun 2027 06:28:16.386             4.318               Magadan1           134.938
       286   05 Jun 2027 06:28:30.644   05 Jun 2027 06:28:41.178            10.534               Magadan2           329.188
       287   05 Jun 2027 06:28:41.178   05 Jun 2027 06:28:44.345             3.167               Magadan1            98.969
       288   05 Jun 2027 06:29:14.804   05 Jun 2027 06:30:16.313            61.509               Magadan2          1922.156
       289   05 Jun 2027 06:35:51.993   05 Jun 2027 06:35:58.328             6.335              Murmansk1           197.969
       290   05 Jun 2027 08:11:26.485   05 Jun 2027 08:11:52.610            26.125              Murmansk2           816.406
       291   05 Jun 2027 09:33:11.884   05 Jun 2027 09:33:58.693            46.809                  Delhi          1462.781
       292   05 Jun 2027 09:40:36.527   05 Jun 2027 09:40:41.794             5.267                Novosib           164.594
       293   05 Jun 2027 09:45:33.094   05 Jun 2027 09:45:35.016             1.922                Novosib            60.063
       294   05 Jun 2027 11:23:54.617   05 Jun 2027 11:24:10.252            15.635                Norilsk           488.594
       295   05 Jun 2027 12:49:46.872   05 Jun 2027 12:50:09.520            22.648                 Moscow           707.750
       296   05 Jun 2027 12:50:57.759   05 Jun 2027 12:51:15.364            17.605                 Moscow           550.156
       297   05 Jun 2027 12:51:50.286   05 Jun 2027 12:52:37.551            47.265                 Moscow          1477.031
       298   05 Jun 2027 12:53:00.683   05 Jun 2027 12:53:20.274            19.591                 Moscow           612.219
       299   05 Jun 2027 12:53:30.357   05 Jun 2027 12:53:36.886             6.529              Murmansk2           204.031
       300   05 Jun 2027 12:54:19.386   05 Jun 2027 12:55:01.678            42.292              Murmansk1          1321.625
       301   05 Jun 2027 12:55:57.771   05 Jun 2027 12:56:55.835            58.064              Murmansk1          1814.500
       302   05 Jun 2027 13:00:34.966   05 Jun 2027 13:00:53.969            19.003              Murmansk2           593.844
       303   05 Jun 2027 13:00:53.969   05 Jun 2027 13:01:53.392            59.423              Murmansk1          1856.969
       304   05 Jun 2027 13:05:56.864   05 Jun 2027 13:11:29.122           332.258                Anadyr2         10383.063
       305   05 Jun 2027 13:14:06.843   05 Jun 2027 13:14:38.324            31.481                Anadyr1           983.781
       306   05 Jun 2027 14:32:54.099   05 Jun 2027 14:33:23.960            29.861              Murmansk2           933.156
       307   05 Jun 2027 14:35:08.032   05 Jun 2027 14:35:24.473            16.441              Murmansk1           513.781
       308   05 Jun 2027 14:41:37.283   05 Jun 2027 14:43:52.374           135.091                Anadyr1          4221.594
       309   05 Jun 2027 14:44:13.881   05 Jun 2027 14:44:36.074            22.193                Anadyr1           693.531
       310   05 Jun 2027 14:44:38.560   05 Jun 2027 14:53:57.859           559.299               Magadan2         17478.094
       311   05 Jun 2027 16:19:51.095   05 Jun 2027 16:20:43.558            52.463               Magadan2          1639.469
       312   05 Jun 2027 16:23:34.359   05 Jun 2027 16:24:01.881            27.522               Magadan2           860.062
       313   05 Jun 2027 16:24:08.182   05 Jun 2027 16:24:13.081             4.899               Magadan2           153.094
       314   05 Jun 2027 17:13:23.453   05 Jun 2027 17:19:58.590           395.137            RioGallegos         12348.031
       315   05 Jun 2027 17:57:10.379   05 Jun 2027 17:57:58.618            48.239                Norilsk          1507.469
       316   05 Jun 2027 18:00:17.735   05 Jun 2027 18:08:02.978           465.243                Irkutsk         14538.844
       317   05 Jun 2027 18:14:58.411   05 Jun 2027 18:23:26.228           507.817                Sumatra         15869.281
       318   05 Jun 2027 19:39:45.879   05 Jun 2027 19:39:50.385             4.506                Novosib           140.812
       319   05 Jun 2027 19:45:14.694   05 Jun 2027 19:52:09.047           414.353                  Delhi         12948.531
       320   05 Jun 2027 21:10:09.001   05 Jun 2027 21:15:58.907           349.906              Murmansk1         10934.563
       321   05 Jun 2027 22:48:51.519   05 Jun 2027 22:49:26.913            35.394              Murmansk2          1106.062
       322   05 Jun 2027 22:52:30.172   05 Jun 2027 22:55:02.861           152.689              Murmansk2          4771.531
       323   05 Jun 2027 23:17:29.281   05 Jun 2027 23:22:35.788           306.507               CapeTown          9578.344
       324   06 Jun 2027 02:00:46.599   06 Jun 2027 02:01:40.215            53.616                 Moscow          1675.500
       325   06 Jun 2027 02:02:20.459   06 Jun 2027 02:02:27.500             7.041                 Moscow           220.031
       326   06 Jun 2027 02:03:12.050   06 Jun 2027 02:04:48.736            96.686                 Moscow          3021.437
       327   06 Jun 2027 02:29:29.107   06 Jun 2027 02:30:14.347            45.240               CapeTown          1413.750
       328   06 Jun 2027 03:20:56.935   06 Jun 2027 03:21:29.676            32.741               Magadan1          1023.156
       329   06 Jun 2027 03:27:21.120   06 Jun 2027 03:27:30.934             9.814                Anadyr1           306.688
       330   06 Jun 2027 03:27:43.514   06 Jun 2027 03:30:05.342           141.828               Magadan2          4432.125
       331   06 Jun 2027 03:30:05.342   06 Jun 2027 03:30:27.882            22.540               Magadan1           704.375
       332   06 Jun 2027 03:30:38.391   06 Jun 2027 03:30:49.561            11.170               Magadan1           349.063
       333   06 Jun 2027 03:31:02.937   06 Jun 2027 03:33:52.641           169.704                Anadyr1          5303.250
       334   06 Jun 2027 04:16:18.980   06 Jun 2027 04:17:34.798            75.818            RioGallegos          2369.312
       335   06 Jun 2027 05:04:30.476   06 Jun 2027 05:07:42.372           191.896                Irkutsk          5996.750
       336   06 Jun 2027 05:08:12.764   06 Jun 2027 05:08:24.919            12.155               Magadan1           379.844
       337   06 Jun 2027 05:08:28.760   06 Jun 2027 05:08:53.279            24.519                Irkutsk           766.219
       338   06 Jun 2027 05:08:59.933   06 Jun 2027 05:09:02.851             2.918               Magadan1            91.187
       339   06 Jun 2027 06:48:24.014   06 Jun 2027 06:48:25.683             1.669              Murmansk2            52.156
       340   06 Jun 2027 08:01:07.203   06 Jun 2027 08:01:23.483            16.280                Sumatra           508.750
       341   06 Jun 2027 08:22:03.233   06 Jun 2027 08:22:05.546             2.313                Norilsk            72.281
       342   06 Jun 2027 09:44:29.696   06 Jun 2027 09:46:13.812           104.116                  Delhi          3253.625
       343   06 Jun 2027 09:57:15.467   06 Jun 2027 09:57:18.254             2.787                Novosib            87.094
       344   06 Jun 2027 09:57:36.090   06 Jun 2027 09:58:01.565            25.475                Novosib           796.094
       345   06 Jun 2027 11:37:16.960   06 Jun 2027 11:37:28.893            11.933                Norilsk           372.906
       346   06 Jun 2027 13:02:26.698   06 Jun 2027 13:03:20.482            53.784                 Moscow          1680.750
       347   06 Jun 2027 13:04:25.842   06 Jun 2027 13:05:08.510            42.668                 Moscow          1333.375
       348   06 Jun 2027 13:05:27.337   06 Jun 2027 13:07:02.169            94.832              Murmansk1          2963.500
       349   06 Jun 2027 13:07:02.169   06 Jun 2027 13:07:15.270            13.101              Murmansk2           409.406
       350   06 Jun 2027 13:08:57.443   06 Jun 2027 13:09:30.141            32.698              Murmansk1          1021.813
       351   06 Jun 2027 13:09:31.167   06 Jun 2027 13:10:12.209            41.042              Murmansk2          1282.562
       352   06 Jun 2027 13:14:38.353   06 Jun 2027 13:14:54.467            16.114              Murmansk2           503.562
       353   06 Jun 2027 13:17:54.095   06 Jun 2027 13:21:41.375           227.280                Anadyr1          7102.500
       354   06 Jun 2027 13:23:02.011   06 Jun 2027 13:23:23.205            21.194                Anadyr1           662.313
       355   06 Jun 2027 13:24:28.738   06 Jun 2027 13:25:55.167            86.429                Anadyr2          2700.906
       356   06 Jun 2027 14:45:22.094   06 Jun 2027 14:46:45.616            83.522              Murmansk1          2610.062
       357   06 Jun 2027 14:53:38.284   06 Jun 2027 14:54:49.678            71.394                Anadyr2          2231.063
       358   06 Jun 2027 14:55:06.088   06 Jun 2027 14:56:10.367            64.279                Anadyr1          2008.719
       359   06 Jun 2027 14:56:28.954   06 Jun 2027 14:59:54.814           205.860               Magadan1          6433.125
       360   06 Jun 2027 14:59:58.043   06 Jun 2027 15:02:26.843           148.800               Magadan2          4650.000
       361   06 Jun 2027 15:02:47.790   06 Jun 2027 15:06:33.253           225.463               Magadan2          7045.719
       362   06 Jun 2027 16:31:51.107   06 Jun 2027 16:32:27.628            36.521               Magadan2          1141.281
       363   06 Jun 2027 16:40:47.995   06 Jun 2027 16:41:25.993            37.998               Magadan2          1187.438
       364   06 Jun 2027 17:24:51.253   06 Jun 2027 17:32:07.528           436.275            RioGallegos         13633.594
       365   06 Jun 2027 18:09:37.417   06 Jun 2027 18:11:23.395           105.978                Norilsk          3311.813
       366   06 Jun 2027 18:12:02.571   06 Jun 2027 18:13:18.088            75.517                Irkutsk          2359.906
       367   06 Jun 2027 18:15:14.504   06 Jun 2027 18:18:07.413           172.909                Irkutsk          5403.406
       368   06 Jun 2027 18:27:30.558   06 Jun 2027 18:29:29.878           119.320                Sumatra          3728.750
       369   06 Jun 2027 18:29:51.710   06 Jun 2027 18:33:36.552           224.842                Sumatra          7026.313
       370   06 Jun 2027 19:49:08.873   06 Jun 2027 19:49:43.075            34.202                Novosib          1068.813
       371   06 Jun 2027 19:56:23.528   06 Jun 2027 20:05:11.906           528.378                  Delhi         16511.812
       372   06 Jun 2027 21:21:59.276   06 Jun 2027 21:23:00.475            61.199              Murmansk1          1912.469
       373   06 Jun 2027 21:23:23.400   06 Jun 2027 21:28:47.640           324.240              Murmansk2         10132.500
       374   06 Jun 2027 23:03:18.771   06 Jun 2027 23:03:34.426            15.655                 Moscow           489.219
       375   06 Jun 2027 23:05:40.630   06 Jun 2027 23:07:03.691            83.061              Murmansk1          2595.656
       376   06 Jun 2027 23:26:18.372   06 Jun 2027 23:26:51.371            32.999               CapeTown          1031.219
       377   06 Jun 2027 23:29:01.025   06 Jun 2027 23:33:24.556           263.531               CapeTown          8235.344
       378   07 Jun 2027 01:04:21.833   07 Jun 2027 01:04:35.340            13.507               CapeTown           422.094
       379   07 Jun 2027 01:57:51.922   07 Jun 2027 02:00:11.609           139.687               Magadan1          4365.219
       380   07 Jun 2027 02:03:23.837   07 Jun 2027 02:03:51.029            27.192               Magadan1           849.750
       381   07 Jun 2027 02:09:20.463   07 Jun 2027 02:10:28.616            68.153              Murmansk2          2129.781
       382   07 Jun 2027 02:10:56.788   07 Jun 2027 02:11:31.433            34.645              Murmansk1          1082.656
       383   07 Jun 2027 02:12:52.004   07 Jun 2027 02:13:42.070            50.066                 Moscow          1564.562
       384   07 Jun 2027 02:18:00.210   07 Jun 2027 02:18:01.270             1.060                 Moscow            33.125
       385   07 Jun 2027 02:18:28.569   07 Jun 2027 02:19:12.131            43.562                 Moscow          1361.313
       386   07 Jun 2027 03:36:55.680   07 Jun 2027 03:37:01.407             5.727               Magadan2           178.969
       387   07 Jun 2027 03:37:05.887   07 Jun 2027 03:37:09.846             3.959               Magadan2           123.719
       388   07 Jun 2027 03:37:12.963   07 Jun 2027 03:38:56.868           103.905                Anadyr2          3247.031
       389   07 Jun 2027 03:39:36.192   07 Jun 2027 03:40:15.474            39.282               Magadan2          1227.563
       390   07 Jun 2027 03:40:25.929   07 Jun 2027 03:41:30.168            64.239                Anadyr1          2007.469
       391   07 Jun 2027 03:41:30.168   07 Jun 2027 03:43:03.779            93.611                Anadyr2          2925.344
       392   07 Jun 2027 03:43:08.053   07 Jun 2027 03:44:38.252            90.199                Anadyr2          2818.719
       393   07 Jun 2027 04:27:01.920   07 Jun 2027 04:27:41.625            39.705            RioGallegos          1240.781
       394   07 Jun 2027 04:27:42.420   07 Jun 2027 04:27:45.843             3.423            RioGallegos           106.969
       395   07 Jun 2027 05:16:22.700   07 Jun 2027 05:17:37.597            74.897                Irkutsk          2340.531
       396   07 Jun 2027 05:18:28.398   07 Jun 2027 05:18:55.789            27.391                Irkutsk           855.969
       397   07 Jun 2027 05:19:38.486   07 Jun 2027 05:19:58.030            19.544               Magadan1           610.750
       398   07 Jun 2027 05:20:23.484   07 Jun 2027 05:20:53.805            30.321                Irkutsk           947.531
       399   07 Jun 2027 05:20:55.270   07 Jun 2027 05:21:19.372            24.102                Irkutsk           753.187
       400   07 Jun 2027 06:57:17.040   07 Jun 2027 06:57:18.215             1.175                Norilsk            36.719
       401   07 Jun 2027 06:57:52.852   07 Jun 2027 06:58:10.327            17.475                Norilsk           546.094
       402   07 Jun 2027 06:58:23.503   07 Jun 2027 06:58:57.273            33.770                Novosib          1055.313
       403   07 Jun 2027 08:30:03.201   07 Jun 2027 08:30:15.953            12.752              Murmansk1           398.500
       404   07 Jun 2027 08:30:26.824   07 Jun 2027 08:30:40.931            14.107              Murmansk1           440.844
       405   07 Jun 2027 08:30:46.772   07 Jun 2027 08:30:47.707             0.935              Murmansk1            29.219
       406   07 Jun 2027 08:33:07.271   07 Jun 2027 08:33:16.900             9.629                Norilsk           300.906
       407   07 Jun 2027 09:55:22.716   07 Jun 2027 09:56:54.565            91.849                  Delhi          2870.281
       408   07 Jun 2027 09:58:01.495   07 Jun 2027 09:59:25.895            84.400                  Delhi          2637.500
       409   07 Jun 2027 10:06:01.502   07 Jun 2027 10:06:09.518             8.016                Novosib           250.500
       410   07 Jun 2027 10:09:34.169   07 Jun 2027 10:09:38.580             4.411                Novosib           137.844
       411   07 Jun 2027 12:52:05.601   07 Jun 2027 12:53:32.054            86.453               CapeTown          2701.656
       412   07 Jun 2027 13:15:39.108   07 Jun 2027 13:15:45.100             5.992                 Moscow           187.250
       413   07 Jun 2027 13:16:16.814   07 Jun 2027 13:17:01.992            45.178                 Moscow          1411.812
       414   07 Jun 2027 13:17:21.694   07 Jun 2027 13:20:51.278           209.584              Murmansk2          6549.500
       415   07 Jun 2027 13:29:52.215   07 Jun 2027 13:31:29.656            97.441                Anadyr1          3045.031
       416   07 Jun 2027 13:32:06.236   07 Jun 2027 13:35:36.227           209.991                Anadyr2          6562.219
       417   07 Jun 2027 13:37:03.470   07 Jun 2027 13:38:27.945            84.475                Anadyr2          2639.844
       418   07 Jun 2027 14:59:17.690   07 Jun 2027 15:00:48.984            91.294              Murmansk2          2852.937
       419   07 Jun 2027 15:05:39.425   07 Jun 2027 15:06:49.464            70.039                Anadyr1          2188.719
       420   07 Jun 2027 15:08:05.155   07 Jun 2027 15:08:33.437            28.282                Anadyr2           883.812
       421   07 Jun 2027 15:09:05.216   07 Jun 2027 15:10:58.730           113.514               Magadan1          3547.312
       422   07 Jun 2027 15:11:54.407   07 Jun 2027 15:14:03.171           128.764               Magadan2          4023.875
       423   07 Jun 2027 15:16:21.654   07 Jun 2027 15:19:03.711           162.057               Magadan1          5064.281
       424   07 Jun 2027 16:43:51.588   07 Jun 2027 16:44:07.555            15.967               Magadan2           498.969
       425   07 Jun 2027 16:46:09.037   07 Jun 2027 16:46:28.197            19.160               Magadan2           598.750
       426   07 Jun 2027 16:47:07.920   07 Jun 2027 16:47:56.736            48.816               Magadan2          1525.500
       427   07 Jun 2027 16:48:16.004   07 Jun 2027 16:49:57.549           101.545               Magadan2          3173.281
       428   07 Jun 2027 17:36:28.943   07 Jun 2027 17:42:58.067           389.124            RioGallegos         12160.125
       429   07 Jun 2027 18:20:37.238   07 Jun 2027 18:22:42.148           124.910                Norilsk          3903.438
       430   07 Jun 2027 18:23:51.184   07 Jun 2027 18:25:50.938           119.754                Irkutsk          3742.312
       431   07 Jun 2027 18:27:16.812   07 Jun 2027 18:27:28.974            12.162                Irkutsk           380.063
       432   07 Jun 2027 18:37:51.929   07 Jun 2027 18:41:31.470           219.541                Sumatra          6860.656
       433   07 Jun 2027 18:42:26.928   07 Jun 2027 18:44:34.667           127.739                Sumatra          3991.844
       434   07 Jun 2027 19:59:31.788   07 Jun 2027 20:00:56.449            84.661                Novosib          2645.656
       435   07 Jun 2027 20:01:48.960   07 Jun 2027 20:03:11.661            82.701                Novosib          2584.406
       436   07 Jun 2027 20:07:48.845   07 Jun 2027 20:14:58.068           429.223                  Delhi         13413.219
       437   07 Jun 2027 21:33:52.781   07 Jun 2027 21:41:31.070           458.289              Murmansk2         14321.531
       438   07 Jun 2027 23:18:36.836   07 Jun 2027 23:19:01.574            24.738              Murmansk2           773.063
       439   07 Jun 2027 23:37:47.917   07 Jun 2027 23:41:10.816           202.899               CapeTown          6340.594
       440   07 Jun 2027 23:43:18.875   07 Jun 2027 23:44:31.756            72.881               CapeTown          2277.531
       441   08 Jun 2027 00:51:14.657   08 Jun 2027 00:51:47.513            32.856                 Moscow          1026.750
       442   08 Jun 2027 00:52:45.235   08 Jun 2027 00:53:02.050            16.815                 Moscow           525.469
       443   08 Jun 2027 00:57:23.271   08 Jun 2027 00:57:48.385            25.114                 Moscow           784.813
       444   08 Jun 2027 01:12:50.323   08 Jun 2027 01:13:55.669            65.346               CapeTown          2042.063
       445   08 Jun 2027 01:15:33.376   08 Jun 2027 01:16:25.151            51.775               CapeTown          1617.969
       446   08 Jun 2027 02:09:38.443   08 Jun 2027 02:09:49.369            10.926                Anadyr2           341.438
       447   08 Jun 2027 02:10:40.727   08 Jun 2027 02:12:24.239           103.512               Magadan1          3234.750
       448   08 Jun 2027 02:13:31.104   08 Jun 2027 02:13:32.962             1.858               Magadan1            58.063
       449   08 Jun 2027 02:14:40.184   08 Jun 2027 02:14:53.526            13.342               Magadan2           416.937
       450   08 Jun 2027 02:16:41.761   08 Jun 2027 02:17:22.469            40.708               Magadan2          1272.125
       451   08 Jun 2027 02:21:11.054   08 Jun 2027 02:21:23.875            12.821                Norilsk           400.656
       452   08 Jun 2027 02:21:41.047   08 Jun 2027 02:22:02.727            21.680              Murmansk1           677.500
       453   08 Jun 2027 02:22:45.980   08 Jun 2027 02:23:38.006            52.026              Murmansk1          1625.813
       454   08 Jun 2027 02:23:46.886   08 Jun 2027 02:24:00.393            13.507              Murmansk2           422.094
       455   08 Jun 2027 02:24:57.994   08 Jun 2027 02:25:42.615            44.621                 Moscow          1394.406
       456   08 Jun 2027 02:27:20.907   08 Jun 2027 02:28:25.867            64.960                 Moscow          2030.000
       457   08 Jun 2027 03:49:01.025   08 Jun 2027 03:49:14.261            13.236                Anadyr2           413.625
       458   08 Jun 2027 03:49:36.206   08 Jun 2027 03:51:10.687            94.481                Anadyr1          2952.531
       459   08 Jun 2027 03:52:03.819   08 Jun 2027 03:52:17.066            13.247               Magadan1           413.969
       460   08 Jun 2027 03:52:17.066   08 Jun 2027 03:52:57.801            40.735               Magadan2          1272.969
       461   08 Jun 2027 03:52:57.801   08 Jun 2027 03:54:28.468            90.667               Magadan1          2833.344
       462   08 Jun 2027 03:54:28.468   08 Jun 2027 03:56:02.696            94.228               Magadan2          2944.625
       463   08 Jun 2027 03:56:52.038   08 Jun 2027 03:57:14.495            22.457                Anadyr1           701.781
       464   08 Jun 2027 04:37:09.972   08 Jun 2027 04:38:45.378            95.406            RioGallegos          2981.437
       465   08 Jun 2027 04:39:57.896   08 Jun 2027 04:40:43.280            45.384            RioGallegos          1418.250
       466   08 Jun 2027 05:30:05.352   08 Jun 2027 05:32:29.141           143.789               Magadan1          4493.406
       467   08 Jun 2027 05:32:29.141   08 Jun 2027 05:33:07.105            37.964               Magadan2          1186.375
       468   08 Jun 2027 07:06:25.242   08 Jun 2027 07:07:18.945            53.703              Murmansk2          1678.219
       469   08 Jun 2027 07:09:18.793   08 Jun 2027 07:09:32.913            14.120                Norilsk           441.250
       470   08 Jun 2027 07:50:45.195   08 Jun 2027 07:51:36.015            50.820            RioGallegos          1588.125
       471   08 Jun 2027 08:26:56.644   08 Jun 2027 08:27:12.878            16.234                Sumatra           507.313
       472   08 Jun 2027 08:28:30.647   08 Jun 2027 08:29:44.544            73.897                Sumatra          2309.281
       473   08 Jun 2027 08:42:15.654   08 Jun 2027 08:42:16.047             0.393              Murmansk1            12.281
       474   08 Jun 2027 08:42:28.158   08 Jun 2027 08:42:34.840             6.682              Murmansk1           208.813
       475   08 Jun 2027 08:42:45.015   08 Jun 2027 08:42:52.761             7.746              Murmansk1           242.063
       476   08 Jun 2027 08:45:29.895   08 Jun 2027 08:45:55.450            25.555                Novosib           798.594
       477   08 Jun 2027 10:05:22.832   08 Jun 2027 10:08:37.459           194.627                  Delhi          6082.094
       478   08 Jun 2027 10:21:23.344   08 Jun 2027 10:21:24.148             0.804                Novosib            25.125
       479   08 Jun 2027 10:23:34.514   08 Jun 2027 10:23:41.141             6.627                Norilsk           207.094
       480   08 Jun 2027 12:06:52.432   08 Jun 2027 12:10:39.330           226.898                Anadyr2          7090.562
       481   08 Jun 2027 12:12:14.408   08 Jun 2027 12:13:23.862            69.454                Anadyr1          2170.437
       482   08 Jun 2027 13:29:48.676   08 Jun 2027 13:31:03.943            75.267              Murmansk1          2352.094
