uniorb/output/strategy_4/Drop/Drop_KinoSat_111904.txt

KinoSat_111904
-------------------------
    Access    *     Start Time (UTCG)     *     Stop Time (UTCG)  *   Duration (s)        *       Station  *  Data (Mbytes)
         1   01 Jun 2027 03:11:17.700   01 Jun 2027 03:11:50.304            32.604               Magadan1          1018.875
         2   01 Jun 2027 03:12:36.341   01 Jun 2027 03:14:07.679            91.338                Irkutsk          2854.313
         3   01 Jun 2027 03:14:08.060   01 Jun 2027 03:14:25.796            17.736                Novosib           554.250
         4   01 Jun 2027 03:14:39.544   01 Jun 2027 03:19:01.956           262.412                Irkutsk          8200.375
         5   01 Jun 2027 04:00:01.085   01 Jun 2027 04:00:47.598            46.513            RioGallegos          1453.531
         6   01 Jun 2027 04:03:08.146   01 Jun 2027 04:03:35.308            27.162            RioGallegos           848.813
         7   01 Jun 2027 04:50:13.539   01 Jun 2027 04:50:17.395             3.856              Murmansk2           120.500
         8   01 Jun 2027 04:50:30.644   01 Jun 2027 04:53:11.514           160.870                Novosib          5027.187
         9   01 Jun 2027 04:53:18.369   01 Jun 2027 04:54:34.886            76.517                Novosib          2391.156
        10   01 Jun 2027 04:54:56.023   01 Jun 2027 04:56:06.413            70.390                Novosib          2199.688
        11   01 Jun 2027 04:56:50.487   01 Jun 2027 05:00:48.626           238.139                  Delhi          7441.844
        12   01 Jun 2027 06:29:42.744   01 Jun 2027 06:31:18.823            96.079              Murmansk1          3002.469
        13   01 Jun 2027 06:32:28.157   01 Jun 2027 06:32:40.537            12.380              Murmansk1           386.875
        14   01 Jun 2027 06:33:12.659   01 Jun 2027 06:33:25.740            13.081              Murmansk1           408.781
        15   01 Jun 2027 06:47:45.232   01 Jun 2027 06:50:35.290           170.058               CapeTown          5314.312
        16   01 Jun 2027 07:51:35.482   01 Jun 2027 07:52:32.162            56.680                Anadyr1          1771.250
        17   01 Jun 2027 07:52:50.104   01 Jun 2027 07:53:24.212            34.108               Magadan1          1065.875
        18   01 Jun 2027 07:53:29.721   01 Jun 2027 07:57:20.410           230.689                Anadyr1          7209.031
        19   01 Jun 2027 09:28:33.025   01 Jun 2027 09:33:03.087           270.062                Anadyr2          8439.438
        20   01 Jun 2027 11:02:29.235   01 Jun 2027 11:07:31.222           301.987               Magadan1          9437.094
        21   01 Jun 2027 13:59:27.447   01 Jun 2027 13:59:57.078            29.631                Sumatra           925.969
        22   01 Jun 2027 15:39:38.701   01 Jun 2027 15:44:31.823           293.122                  Delhi          9160.062
        23   01 Jun 2027 15:48:02.659   01 Jun 2027 15:50:12.622           129.963                Novosib          4061.344
        24   01 Jun 2027 15:50:39.671   01 Jun 2027 15:54:11.919           212.248                Novosib          6632.750
        25   01 Jun 2027 17:36:19.625   01 Jun 2027 17:36:20.790             1.165                Norilsk            36.406
        26   01 Jun 2027 19:03:27.047   01 Jun 2027 19:06:36.917           189.870                 Moscow          5933.437
        27   01 Jun 2027 20:17:13.935   01 Jun 2027 20:17:47.068            33.133               CapeTown          1035.406
        28   01 Jun 2027 20:45:07.188   01 Jun 2027 20:50:22.052           314.864              Murmansk1          9839.500
        29   01 Jun 2027 22:31:01.263   01 Jun 2027 22:31:50.976            49.713               Magadan2          1553.531
        30   01 Jun 2027 23:23:40.406   01 Jun 2027 23:25:31.936           111.530            RioGallegos          3485.313
        31   01 Jun 2027 23:25:58.753   01 Jun 2027 23:26:03.917             5.164            RioGallegos           161.375
        32   02 Jun 2027 00:04:29.379   02 Jun 2027 00:05:38.853            69.474                Anadyr1          2171.063
        33   02 Jun 2027 00:06:34.962   02 Jun 2027 00:10:06.568           211.606                Norilsk          6612.688
        34   02 Jun 2027 00:10:07.500   02 Jun 2027 00:10:43.302            35.802               Magadan1          1118.812
        35   02 Jun 2027 00:11:01.538   02 Jun 2027 00:12:17.053            75.515                Irkutsk          2359.844
        36   02 Jun 2027 00:25:07.265   02 Jun 2027 00:28:14.869           187.604                Sumatra          5862.625
        37   02 Jun 2027 00:58:28.292   02 Jun 2027 00:59:26.844            58.552            RioGallegos          1829.750
        38   02 Jun 2027 01:39:29.909   02 Jun 2027 01:39:38.931             9.022                Anadyr1           281.937
        39   02 Jun 2027 01:39:50.285   02 Jun 2027 01:40:48.746            58.461                Anadyr2          1826.906
        40   02 Jun 2027 01:41:26.001   02 Jun 2027 01:41:40.058            14.057                Anadyr1           439.281
        41   02 Jun 2027 01:41:40.058   02 Jun 2027 01:41:51.001            10.943                Anadyr2           341.969
        42   02 Jun 2027 01:42:29.618   02 Jun 2027 01:44:00.472            90.854                Norilsk          2839.188
        43   02 Jun 2027 01:44:11.133   02 Jun 2027 01:44:22.288            11.155                Norilsk           348.594
        44   02 Jun 2027 01:45:09.142   02 Jun 2027 01:45:59.830            50.688               Magadan2          1584.000
        45   02 Jun 2027 01:46:22.240   02 Jun 2027 01:48:43.734           141.494                Irkutsk          4421.687
        46   02 Jun 2027 01:49:57.023   02 Jun 2027 01:50:16.512            19.489                Irkutsk           609.031
        47   02 Jun 2027 01:55:04.041   02 Jun 2027 01:55:30.969            26.928                  Delhi           841.500
        48   02 Jun 2027 02:00:55.672   02 Jun 2027 02:04:50.050           234.378                Sumatra          7324.312
        49   02 Jun 2027 03:23:16.193   02 Jun 2027 03:23:19.058             2.865               Magadan1            89.531
        50   02 Jun 2027 03:24:03.861   02 Jun 2027 03:24:09.904             6.043                Norilsk           188.844
        51   02 Jun 2027 03:24:36.375   02 Jun 2027 03:25:46.513            70.138                Irkutsk          2191.813
        52   02 Jun 2027 03:26:13.077   02 Jun 2027 03:27:42.613            89.536              Murmansk2          2798.000
        53   02 Jun 2027 03:27:54.604   02 Jun 2027 03:32:35.806           281.202                Irkutsk          8787.562
        54   02 Jun 2027 04:12:38.968   02 Jun 2027 04:13:09.830            30.862            RioGallegos           964.438
        55   02 Jun 2027 04:13:53.354   02 Jun 2027 04:16:13.791           140.437            RioGallegos          4388.656
        56   02 Jun 2027 05:04:06.325   02 Jun 2027 05:04:54.187            47.862                Novosib          1495.688
        57   02 Jun 2027 05:05:14.717   02 Jun 2027 05:09:00.784           226.067                Novosib          7064.594
        58   02 Jun 2027 06:42:15.638   02 Jun 2027 06:43:15.213            59.575              Murmansk1          1861.719
        59   02 Jun 2027 06:44:37.898   02 Jun 2027 06:44:45.501             7.603                 Moscow           237.594
        60   02 Jun 2027 06:47:24.958   02 Jun 2027 06:48:34.778            69.820                 Moscow          2181.875
        61   02 Jun 2027 07:01:35.849   02 Jun 2027 07:02:46.082            70.233               CapeTown          2194.781
        62   02 Jun 2027 07:04:41.088   02 Jun 2027 07:09:44.943           303.855               CapeTown          9495.469
        63   02 Jun 2027 08:03:36.399   02 Jun 2027 08:09:21.812           345.413                Anadyr1         10794.156
        64   02 Jun 2027 09:40:24.061   02 Jun 2027 09:40:43.961            19.900               Magadan2           621.875
        65   02 Jun 2027 09:41:04.130   02 Jun 2027 09:41:47.833            43.703               Magadan1          1365.719
        66   02 Jun 2027 09:42:53.695   02 Jun 2027 09:43:37.437            43.742               Magadan1          1366.937
        67   02 Jun 2027 09:43:45.493   02 Jun 2027 09:45:00.011            74.518                Anadyr1          2328.688
        68   02 Jun 2027 11:10:17.014   02 Jun 2027 11:10:46.625            29.611               Magadan1           925.344
        69   02 Jun 2027 11:14:17.996   02 Jun 2027 11:16:45.056           147.060               Magadan2          4595.625
        70   02 Jun 2027 11:17:11.482   02 Jun 2027 11:18:21.756            70.274               Magadan2          2196.063
        71   02 Jun 2027 11:18:21.756   02 Jun 2027 11:20:07.613           105.857               Magadan1          3308.031
        72   02 Jun 2027 11:20:18.848   02 Jun 2027 11:20:33.021            14.173                Irkutsk           442.906
        73   02 Jun 2027 11:20:42.099   02 Jun 2027 11:21:38.472            56.373                Norilsk          1761.656
        74   02 Jun 2027 11:55:22.574   02 Jun 2027 11:56:37.610            75.036            RioGallegos          2344.875
        75   02 Jun 2027 12:30:55.703   02 Jun 2027 12:31:28.861            33.158                Sumatra          1036.188
        76   02 Jun 2027 12:43:51.417   02 Jun 2027 12:47:05.572           194.155                Irkutsk          6067.344
        77   02 Jun 2027 13:32:57.255   02 Jun 2027 13:34:29.555            92.300            RioGallegos          2884.375
        78   02 Jun 2027 13:37:15.111   02 Jun 2027 13:37:51.553            36.442            RioGallegos          1138.813
        79   02 Jun 2027 14:07:10.690   02 Jun 2027 14:12:10.850           300.160                Sumatra          9380.000
        80   02 Jun 2027 14:22:38.848   02 Jun 2027 14:24:47.652           128.804                Irkutsk          4025.125
        81   02 Jun 2027 14:26:42.019   02 Jun 2027 14:27:11.213            29.194                Irkutsk           912.312
        82   02 Jun 2027 15:52:21.336   02 Jun 2027 15:56:56.732           275.396                  Delhi          8606.125
        83   02 Jun 2027 16:00:50.663   02 Jun 2027 16:02:01.410            70.747                Novosib          2210.844
        84   02 Jun 2027 16:04:11.763   02 Jun 2027 16:04:45.863            34.100                Norilsk          1065.625
        85   02 Jun 2027 16:09:01.809   02 Jun 2027 16:09:42.206            40.397                Norilsk          1262.406
        86   02 Jun 2027 17:35:08.919   02 Jun 2027 17:35:12.581             3.662                 Moscow           114.438
        87   02 Jun 2027 17:35:44.634   02 Jun 2027 17:38:02.374           137.740                 Moscow          4304.375
        88   02 Jun 2027 17:41:15.894   02 Jun 2027 17:41:57.399            41.505              Murmansk1          1297.031
        89   02 Jun 2027 17:46:58.453   02 Jun 2027 17:47:29.957            31.504                Norilsk           984.500
        90   02 Jun 2027 17:54:00.891   02 Jun 2027 17:54:27.649            26.758                Anadyr1           836.188
        91   02 Jun 2027 17:55:52.825   02 Jun 2027 17:56:01.651             8.826                Anadyr1           275.813
        92   02 Jun 2027 17:56:14.661   02 Jun 2027 17:56:50.272            35.611                Anadyr1          1112.844
        93   02 Jun 2027 18:48:23.056   02 Jun 2027 18:50:23.402           120.346               CapeTown          3760.813
        94   02 Jun 2027 19:15:06.853   02 Jun 2027 19:19:16.920           250.067                 Moscow          7814.594
        95   02 Jun 2027 19:21:20.589   02 Jun 2027 19:21:21.999             1.410              Murmansk2            44.062
        96   02 Jun 2027 19:22:00.876   02 Jun 2027 19:22:37.708            36.832              Murmansk2          1151.000
        97   02 Jun 2027 19:37:50.386   02 Jun 2027 19:38:09.429            19.043                Anadyr1           595.094
        98   02 Jun 2027 19:38:34.152   02 Jun 2027 19:38:58.784            24.632                Anadyr1           769.750
        99   02 Jun 2027 19:39:23.987   02 Jun 2027 19:39:28.663             4.676                Anadyr1           146.125
       100   02 Jun 2027 19:39:39.057   02 Jun 2027 19:40:16.451            37.394                Anadyr1          1168.563
       101   02 Jun 2027 20:25:14.160   02 Jun 2027 20:27:17.386           123.226               CapeTown          3850.813
       102   02 Jun 2027 20:28:50.432   02 Jun 2027 20:30:22.518            92.086               CapeTown          2877.688
       103   02 Jun 2027 20:58:10.373   02 Jun 2027 21:02:02.622           232.249              Murmansk1          7257.781
       104   02 Jun 2027 21:15:27.910   02 Jun 2027 21:16:01.128            33.218               Magadan1          1038.063
       105   02 Jun 2027 22:40:46.848   02 Jun 2027 22:46:01.384           314.536                Anadyr2          9829.250
       106   02 Jun 2027 22:46:07.549   02 Jun 2027 22:48:18.975           131.426               Magadan1          4107.063
       107   02 Jun 2027 22:54:05.033   02 Jun 2027 22:54:26.631            21.598               Magadan1           674.938
       108   02 Jun 2027 23:35:23.751   02 Jun 2027 23:38:08.371           164.620            RioGallegos          5144.375
       109   03 Jun 2027 00:16:27.339   03 Jun 2027 00:17:54.842            87.503                Anadyr2          2734.469
       110   03 Jun 2027 00:18:35.263   03 Jun 2027 00:20:12.162            96.899                Norilsk          3028.094
       111   03 Jun 2027 00:20:43.806   03 Jun 2027 00:22:10.846            87.040               Magadan1          2720.000
       112   03 Jun 2027 00:22:10.846   03 Jun 2027 00:23:19.905            69.059               Magadan2          2158.094
       113   03 Jun 2027 00:23:38.597   03 Jun 2027 00:24:17.909            39.312                Irkutsk          1228.500
       114   03 Jun 2027 00:24:41.539   03 Jun 2027 00:25:09.775            28.236                Irkutsk           882.375
       115   03 Jun 2027 00:25:38.771   03 Jun 2027 00:25:58.904            20.133                Novosib           629.156
       116   03 Jun 2027 00:26:19.834   03 Jun 2027 00:26:45.264            25.430                Novosib           794.687
       117   03 Jun 2027 00:33:50.516   03 Jun 2027 00:33:53.518             3.002                Irkutsk            93.812
       118   03 Jun 2027 00:36:46.090   03 Jun 2027 00:38:39.297           113.207                Sumatra          3537.719
       119   03 Jun 2027 00:48:34.504   03 Jun 2027 00:48:48.826            14.322                Sumatra           447.562
       120   03 Jun 2027 01:10:57.833   03 Jun 2027 01:11:31.177            33.344            RioGallegos          1042.000
       121   03 Jun 2027 01:16:11.750   03 Jun 2027 01:16:32.297            20.547            RioGallegos           642.094
       122   03 Jun 2027 01:19:16.861   03 Jun 2027 01:20:04.252            47.391            RioGallegos          1480.969
       123   03 Jun 2027 01:51:19.433   03 Jun 2027 01:51:58.830            39.397                Anadyr1          1231.156
       124   03 Jun 2027 01:52:28.122   03 Jun 2027 01:52:48.566            20.444                Anadyr1           638.875
       125   03 Jun 2027 01:52:48.566   03 Jun 2027 01:53:31.632            43.066                Anadyr2          1345.812
       126   03 Jun 2027 01:54:52.384   03 Jun 2027 01:55:59.731            67.347                Norilsk          2104.594
       127   03 Jun 2027 01:56:55.726   03 Jun 2027 01:57:42.928            47.202               Magadan2          1475.063
       128   03 Jun 2027 01:58:24.564   03 Jun 2027 01:59:57.163            92.599                Irkutsk          2893.719
       129   03 Jun 2027 02:01:39.805   03 Jun 2027 02:01:55.548            15.743                Irkutsk           491.969
       130   03 Jun 2027 02:02:00.138   03 Jun 2027 02:02:26.895            26.757                Irkutsk           836.156
       131   03 Jun 2027 02:06:37.841   03 Jun 2027 02:06:56.159            18.318                  Delhi           572.437
       132   03 Jun 2027 02:09:37.208   03 Jun 2027 02:09:45.670             8.462                  Delhi           264.437
       133   03 Jun 2027 02:11:36.742   03 Jun 2027 02:11:42.779             6.037                  Delhi           188.656
       134   03 Jun 2027 02:12:26.252   03 Jun 2027 02:13:14.424            48.172                  Delhi          1505.375
       135   03 Jun 2027 02:13:28.566   03 Jun 2027 02:15:41.514           132.948                Sumatra          4154.625
       136   03 Jun 2027 02:46:48.487   03 Jun 2027 02:47:10.286            21.799            RioGallegos           681.219
       137   03 Jun 2027 02:48:13.126   03 Jun 2027 02:49:48.175            95.049            RioGallegos          2970.281
       138   03 Jun 2027 03:34:37.067   03 Jun 2027 03:34:49.690            12.623               Magadan1           394.469
       139   03 Jun 2027 03:37:52.884   03 Jun 2027 03:38:15.084            22.200                Novosib           693.750
       140   03 Jun 2027 03:38:41.944   03 Jun 2027 03:39:52.204            70.260                Norilsk          2195.625
       141   03 Jun 2027 03:39:55.272   03 Jun 2027 03:43:45.337           230.065                Irkutsk          7189.531
       142   03 Jun 2027 03:43:56.173   03 Jun 2027 03:45:20.373            84.200                Novosib          2631.250
       143   03 Jun 2027 03:46:16.834   03 Jun 2027 03:47:26.240            69.406                  Delhi          2168.938
       144   03 Jun 2027 05:16:12.066   03 Jun 2027 05:16:15.630             3.564                Novosib           111.375
       145   03 Jun 2027 05:17:08.884   03 Jun 2027 05:17:28.614            19.730                 Moscow           616.562
       146   03 Jun 2027 05:17:44.705   03 Jun 2027 05:20:10.287           145.582                Novosib          4549.437
       147   03 Jun 2027 05:20:20.378   03 Jun 2027 05:20:34.802            14.424                Novosib           450.750
       148   03 Jun 2027 05:21:22.109   03 Jun 2027 05:21:37.250            15.141                 Moscow           473.156
       149   03 Jun 2027 05:36:39.885   03 Jun 2027 05:37:45.714            65.829               CapeTown          2057.156
       150   03 Jun 2027 05:42:47.959   03 Jun 2027 05:43:12.712            24.753               CapeTown           773.531
       151   03 Jun 2027 05:47:00.132   03 Jun 2027 05:47:20.842            20.710               CapeTown           647.188
       152   03 Jun 2027 06:54:12.210   03 Jun 2027 06:54:14.339             2.129              Murmansk1            66.531
       153   03 Jun 2027 06:54:15.880   03 Jun 2027 06:55:10.945            55.065              Murmansk1          1720.781
       154   03 Jun 2027 07:12:14.977   03 Jun 2027 07:12:58.312            43.335               CapeTown          1354.219
       155   03 Jun 2027 07:14:38.322   03 Jun 2027 07:17:18.611           160.289               CapeTown          5009.031
       156   03 Jun 2027 08:15:19.560   03 Jun 2027 08:15:49.492            29.932               Magadan1           935.375
       157   03 Jun 2027 08:16:57.093   03 Jun 2027 08:17:50.795            53.702                Anadyr1          1678.188
       158   03 Jun 2027 08:18:35.705   03 Jun 2027 08:19:00.332            24.627                Anadyr1           769.594
       159   03 Jun 2027 09:03:30.760   03 Jun 2027 09:04:03.777            33.017            RioGallegos          1031.781
       160   03 Jun 2027 09:51:11.631   03 Jun 2027 09:52:14.796            63.165               Magadan1          1973.906
       161   03 Jun 2027 09:52:19.416   03 Jun 2027 09:53:04.337            44.921                Anadyr2          1403.781
       162   03 Jun 2027 09:53:04.938   03 Jun 2027 09:53:05.836             0.898               Magadan2            28.063
       163   03 Jun 2027 09:53:57.952   03 Jun 2027 09:54:51.119            53.167               Magadan1          1661.469
       164   03 Jun 2027 10:33:03.550   03 Jun 2027 10:33:19.768            16.218            RioGallegos           506.813
       165   03 Jun 2027 11:22:53.203   03 Jun 2027 11:24:55.529           122.326               Magadan2          3822.687
       166   03 Jun 2027 11:26:02.451   03 Jun 2027 11:27:35.688            93.237               Magadan2          2913.656
       167   03 Jun 2027 11:28:23.539   03 Jun 2027 11:28:39.538            15.999               Magadan1           499.969
       168   03 Jun 2027 11:28:39.538   03 Jun 2027 11:31:54.879           195.341               Magadan2          6104.406
       169   03 Jun 2027 11:32:14.487   03 Jun 2027 11:32:38.915            24.428                Irkutsk           763.375
       170   03 Jun 2027 11:32:58.456   03 Jun 2027 11:33:39.933            41.477                Norilsk          1296.156
       171   03 Jun 2027 12:07:23.507   03 Jun 2027 12:08:11.907            48.400            RioGallegos          1512.500
       172   03 Jun 2027 12:42:38.256   03 Jun 2027 12:43:24.111            45.855                Sumatra          1432.969
       173   03 Jun 2027 12:50:10.864   03 Jun 2027 12:50:11.640             0.776                Sumatra            24.250
       174   03 Jun 2027 12:55:59.587   03 Jun 2027 12:59:05.503           185.916                Irkutsk          5809.875
       175   03 Jun 2027 13:00:44.094   03 Jun 2027 13:01:49.875            65.781                Norilsk          2055.656
       176   03 Jun 2027 13:45:33.313   03 Jun 2027 13:48:50.996           197.683            RioGallegos          6177.594
       177   03 Jun 2027 14:19:49.945   03 Jun 2027 14:24:31.826           281.881                Sumatra          8808.781
       178   03 Jun 2027 14:36:30.620   03 Jun 2027 14:38:15.154           104.534                Irkutsk          3266.687
       179   03 Jun 2027 14:39:58.169   03 Jun 2027 14:42:58.713           180.544                Irkutsk          5642.000
       180   03 Jun 2027 16:05:20.750   03 Jun 2027 16:09:30.567           249.817                  Delhi          7806.781
       181   03 Jun 2027 16:13:50.307   03 Jun 2027 16:17:55.925           245.618                Novosib          7675.563
       182   03 Jun 2027 16:19:34.003   03 Jun 2027 16:20:16.893            42.890                Novosib          1340.313
       183   03 Jun 2027 19:01:07.745   03 Jun 2027 19:02:58.319           110.574               CapeTown          3455.438
       184   03 Jun 2027 19:28:21.754   03 Jun 2027 19:32:05.094           223.340                 Moscow          6979.375
       185   03 Jun 2027 19:32:39.787   03 Jun 2027 19:33:13.847            34.060                 Moscow          1064.375
       186   03 Jun 2027 19:33:19.080   03 Jun 2027 19:34:32.659            73.579              Murmansk2          2299.344
       187   03 Jun 2027 20:37:43.074   03 Jun 2027 20:41:05.283           202.209               CapeTown          6319.031
       188   03 Jun 2027 20:42:40.261   03 Jun 2027 20:44:38.072           117.811               CapeTown          3681.594
       189   03 Jun 2027 21:11:42.578   03 Jun 2027 21:13:16.225            93.647              Murmansk1          2926.469
       190   03 Jun 2027 21:25:44.007   03 Jun 2027 21:25:55.976            11.969               Magadan2           374.031
       191   03 Jun 2027 21:26:52.406   03 Jun 2027 21:27:28.068            35.662               Magadan1          1114.438
       192   03 Jun 2027 22:52:47.976   03 Jun 2027 22:56:36.395           228.419                Anadyr1          7138.094
       193   03 Jun 2027 22:56:37.298   03 Jun 2027 22:57:57.727            80.429                Anadyr2          2513.406
       194   03 Jun 2027 22:58:08.590   03 Jun 2027 23:00:13.430           124.840               Magadan1          3901.250
       195   03 Jun 2027 23:04:28.378   03 Jun 2027 23:04:41.741            13.363               Magadan2           417.594
       196   03 Jun 2027 23:05:51.637   03 Jun 2027 23:06:28.015            36.378               Magadan2          1136.812
       197   03 Jun 2027 23:47:11.463   03 Jun 2027 23:50:13.713           182.250            RioGallegos          5695.313
       198   03 Jun 2027 23:51:31.747   03 Jun 2027 23:51:39.988             8.241            RioGallegos           257.531
       199   03 Jun 2027 23:52:09.347   03 Jun 2027 23:52:30.170            20.823            RioGallegos           650.719
       200   03 Jun 2027 23:53:15.486   03 Jun 2027 23:53:19.113             3.627            RioGallegos           113.344
       201   04 Jun 2027 00:28:24.548   04 Jun 2027 00:29:19.457            54.909                Anadyr2          1715.906
       202   04 Jun 2027 00:30:12.307   04 Jun 2027 00:30:55.601            43.294                Anadyr1          1352.937
       203   04 Jun 2027 00:30:57.206   04 Jun 2027 00:32:27.531            90.325                Norilsk          2822.656
       204   04 Jun 2027 00:33:02.146   04 Jun 2027 00:34:42.105            99.959               Magadan2          3123.719
       205   04 Jun 2027 00:34:46.905   04 Jun 2027 00:36:09.167            82.262                Irkutsk          2570.687
       206   04 Jun 2027 00:36:35.627   04 Jun 2027 00:37:18.897            43.270                Novosib          1352.187
       207   04 Jun 2027 00:38:59.794   04 Jun 2027 00:41:15.788           135.994                Novosib          4249.812
       208   04 Jun 2027 00:58:43.345   04 Jun 2027 01:01:00.363           137.018                Sumatra          4281.813
       209   04 Jun 2027 02:03:45.794   04 Jun 2027 02:04:42.574            56.780                Anadyr2          1774.375
       210   04 Jun 2027 02:06:34.476   04 Jun 2027 02:07:39.492            65.016                Norilsk          2031.750
       211   04 Jun 2027 02:07:54.331   04 Jun 2027 02:08:00.368             6.037                Norilsk           188.656
       212   04 Jun 2027 02:08:06.394   04 Jun 2027 02:08:11.452             5.058               Magadan1           158.062
       213   04 Jun 2027 02:08:57.170   04 Jun 2027 02:09:25.440            28.270               Magadan2           883.437
       214   04 Jun 2027 02:10:27.685   04 Jun 2027 02:13:35.980           188.295                Irkutsk          5884.219
       215   04 Jun 2027 02:20:36.416   04 Jun 2027 02:21:41.819            65.403                  Delhi          2043.844
       216   04 Jun 2027 02:26:15.904   04 Jun 2027 02:30:45.533           269.629                Sumatra          8425.906
       217   04 Jun 2027 03:49:12.970   04 Jun 2027 03:50:53.909           100.939                Irkutsk          3154.344
       218   04 Jun 2027 03:51:42.163   04 Jun 2027 03:52:03.497            21.334                Norilsk           666.688
       219   04 Jun 2027 03:52:25.665   04 Jun 2027 03:53:13.169            47.504                Norilsk          1484.500
       220   04 Jun 2027 03:53:25.390   04 Jun 2027 03:54:15.491            50.101                Novosib          1565.656
       221   04 Jun 2027 03:55:04.054   04 Jun 2027 03:56:04.245            60.191                Irkutsk          1880.969
       222   04 Jun 2027 03:58:45.155   04 Jun 2027 03:58:56.115            10.960                Novosib           342.500
       223   04 Jun 2027 04:00:27.526   04 Jun 2027 04:03:43.911           196.385                  Delhi          6137.031
       224   04 Jun 2027 05:27:42.429   04 Jun 2027 05:28:23.459            41.030                 Moscow          1282.188
       225   04 Jun 2027 05:28:58.518   04 Jun 2027 05:29:08.855            10.337                 Moscow           323.031
       226   04 Jun 2027 05:29:20.992   04 Jun 2027 05:29:35.780            14.788                 Moscow           462.125
       227   04 Jun 2027 05:29:39.068   04 Jun 2027 05:32:05.969           146.901                Novosib          4590.656
       228   04 Jun 2027 05:32:21.957   04 Jun 2027 05:33:26.817            64.860                 Moscow          2026.875
       229   04 Jun 2027 05:48:20.668   04 Jun 2027 05:49:06.245            45.577               CapeTown          1424.281
       230   04 Jun 2027 05:49:19.694   04 Jun 2027 05:49:57.564            37.870               CapeTown          1183.437
       231   04 Jun 2027 06:51:42.937   04 Jun 2027 06:51:48.884             5.947               Magadan1           185.844
       232   04 Jun 2027 06:52:05.669   04 Jun 2027 06:53:26.166            80.497                Anadyr2          2515.531
       233   04 Jun 2027 07:03:59.523   04 Jun 2027 07:04:08.954             9.431                Norilsk           294.719
       234   04 Jun 2027 07:06:09.363   04 Jun 2027 07:06:16.313             6.950              Murmansk1           217.188
       235   04 Jun 2027 07:06:58.788   04 Jun 2027 07:07:31.855            33.067                 Moscow          1033.344
       236   04 Jun 2027 07:11:35.204   04 Jun 2027 07:11:48.670            13.466                 Moscow           420.812
       237   04 Jun 2027 07:24:39.675   04 Jun 2027 07:26:36.012           116.337               CapeTown          3635.531
       238   04 Jun 2027 07:29:20.095   04 Jun 2027 07:29:43.886            23.791               CapeTown           743.469
       239   04 Jun 2027 08:25:34.798   04 Jun 2027 08:25:47.905            13.107                Anadyr1           409.594
       240   04 Jun 2027 08:25:54.870   04 Jun 2027 08:26:13.861            18.991               Magadan2           593.469
       241   04 Jun 2027 08:26:25.910   04 Jun 2027 08:27:37.109            71.199                Anadyr1          2224.969
       242   04 Jun 2027 08:27:51.701   04 Jun 2027 08:29:01.625            69.924               Magadan2          2185.125
       243   04 Jun 2027 08:29:06.628   04 Jun 2027 08:30:00.843            54.215               Magadan1          1694.219
       244   04 Jun 2027 08:30:17.219   04 Jun 2027 08:30:50.804            33.585                Anadyr2          1049.531
       245   04 Jun 2027 09:13:58.475   04 Jun 2027 09:14:18.465            19.990            RioGallegos           624.688
       246   04 Jun 2027 10:02:44.492   04 Jun 2027 10:04:50.309           125.817                Anadyr2          3931.781
       247   04 Jun 2027 10:05:07.158   04 Jun 2027 10:05:33.211            26.053               Magadan1           814.156
       248   04 Jun 2027 10:05:53.174   04 Jun 2027 10:06:10.660            17.486               Magadan1           546.438
       249   04 Jun 2027 10:06:12.220   04 Jun 2027 10:06:20.498             8.278                Anadyr2           258.688
       250   04 Jun 2027 10:06:46.186   04 Jun 2027 10:08:59.222           133.036               Magadan2          4157.375
       251   04 Jun 2027 11:35:35.406   04 Jun 2027 11:37:39.932           124.526               Magadan2          3891.437
       252   04 Jun 2027 11:37:39.932   04 Jun 2027 11:44:00.949           381.017               Magadan1         11906.781
       253   04 Jun 2027 11:44:44.494   04 Jun 2027 11:45:11.790            27.296                Norilsk           853.000
       254   04 Jun 2027 12:19:27.860   04 Jun 2027 12:20:15.075            47.215            RioGallegos          1475.469
       255   04 Jun 2027 12:22:42.352   04 Jun 2027 12:23:10.836            28.484            RioGallegos           890.125
       256   04 Jun 2027 12:54:27.452   04 Jun 2027 12:57:23.420           175.968                Sumatra          5499.000
       257   04 Jun 2027 13:11:04.343   04 Jun 2027 13:12:44.824           100.481                Irkutsk          3140.031
       258   04 Jun 2027 13:58:17.342   04 Jun 2027 14:00:14.928           117.586            RioGallegos          3674.563
       259   04 Jun 2027 14:03:44.042   04 Jun 2027 14:04:59.940            75.898            RioGallegos          2371.812
       260   04 Jun 2027 14:32:48.328   04 Jun 2027 14:37:01.830           253.502                Sumatra          7921.938
       261   04 Jun 2027 14:48:41.090   04 Jun 2027 14:54:20.780           339.690                Irkutsk         10615.313
       262   04 Jun 2027 16:18:55.794   04 Jun 2027 16:23:20.957           265.163                  Delhi          8286.344
       263   04 Jun 2027 16:27:11.515   04 Jun 2027 16:31:30.769           259.254                Novosib          8101.688
       264   04 Jun 2027 19:12:22.016   04 Jun 2027 19:15:21.445           179.429               CapeTown          5607.156
       265   04 Jun 2027 19:41:52.539   04 Jun 2027 19:42:37.210            44.671              Murmansk2          1395.969
       266   04 Jun 2027 19:42:38.908   04 Jun 2027 19:44:45.204           126.296              Murmansk1          3946.750
       267   04 Jun 2027 19:45:08.803   04 Jun 2027 19:47:13.007           124.204              Murmansk1          3881.375
       268   04 Jun 2027 19:48:45.381   04 Jun 2027 19:48:48.752             3.371              Murmansk2           105.344
       269   04 Jun 2027 20:50:23.863   04 Jun 2027 20:56:58.126           394.263               CapeTown         12320.719
       270   04 Jun 2027 21:33:29.900   04 Jun 2027 21:33:57.637            27.737               Magadan2           866.781
       271   04 Jun 2027 21:35:45.415   04 Jun 2027 21:35:46.875             1.460               Magadan1            45.625
       272   04 Jun 2027 21:39:27.222   04 Jun 2027 21:39:45.064            17.842               Magadan1           557.562
       273   04 Jun 2027 21:39:55.802   04 Jun 2027 21:39:59.029             3.227               Magadan1           100.844
       274   04 Jun 2027 21:40:09.199   04 Jun 2027 21:40:26.289            17.090               Magadan2           534.062
       275   04 Jun 2027 21:42:21.526   04 Jun 2027 21:43:19.635            58.109               Magadan2          1815.906
       276   04 Jun 2027 23:04:48.822   04 Jun 2027 23:08:29.149           220.327                Anadyr1          6885.219
       277   04 Jun 2027 23:08:29.149   04 Jun 2027 23:09:36.344            67.195                Anadyr2          2099.844
       278   04 Jun 2027 23:09:36.849   04 Jun 2027 23:10:23.693            46.844               Magadan2          1463.875
       279   04 Jun 2027 23:10:23.693   04 Jun 2027 23:11:06.932            43.239               Magadan1          1351.219
       280   04 Jun 2027 23:12:10.117   04 Jun 2027 23:12:20.615            10.498               Magadan2           328.063
       281   04 Jun 2027 23:13:24.499   04 Jun 2027 23:14:00.339            35.840               Magadan2          1120.000
       282   04 Jun 2027 23:14:27.280   04 Jun 2027 23:15:22.036            54.756                Irkutsk          1711.125
       283   04 Jun 2027 23:59:02.375   05 Jun 2027 00:02:19.993           197.618            RioGallegos          6175.562
       284   05 Jun 2027 00:09:28.670   05 Jun 2027 00:09:44.622            15.952            RioGallegos           498.500
       285   05 Jun 2027 00:40:20.910   05 Jun 2027 00:41:01.493            40.583                Anadyr2          1268.219
       286   05 Jun 2027 00:41:27.718   05 Jun 2027 00:41:49.631            21.913                Anadyr2           684.781
       287   05 Jun 2027 00:42:37.390   05 Jun 2027 00:44:29.811           112.421                Norilsk          3513.156
       288   05 Jun 2027 00:44:38.054   05 Jun 2027 00:46:18.625           100.571               Magadan2          3142.844
       289   05 Jun 2027 00:46:42.581   05 Jun 2027 00:47:32.695            50.114                Irkutsk          1566.063
       290   05 Jun 2027 00:47:52.885   05 Jun 2027 00:48:22.179            29.294                Irkutsk           915.437
       291   05 Jun 2027 00:49:27.404   05 Jun 2027 00:50:30.306            62.902                Novosib          1965.687
       292   05 Jun 2027 01:00:24.319   05 Jun 2027 01:03:27.762           183.443                Sumatra          5732.594
       293   05 Jun 2027 01:41:17.228   05 Jun 2027 01:41:49.225            31.997            RioGallegos           999.906
       294   05 Jun 2027 01:44:09.754   05 Jun 2027 01:44:20.466            10.712            RioGallegos           334.750
       295   05 Jun 2027 01:46:30.522   05 Jun 2027 01:46:56.508            25.986            RioGallegos           812.062
       296   05 Jun 2027 02:15:44.493   05 Jun 2027 02:16:01.546            17.053                Anadyr2           532.906
       297   05 Jun 2027 02:16:53.784   05 Jun 2027 02:17:26.269            32.485                Anadyr1          1015.156
       298   05 Jun 2027 02:18:36.944   05 Jun 2027 02:19:33.275            56.331                Norilsk          1760.344
       299   05 Jun 2027 02:19:47.724   05 Jun 2027 02:20:13.987            26.263               Magadan2           820.719
       300   05 Jun 2027 02:22:25.012   05 Jun 2027 02:22:29.970             4.958                Norilsk           154.938
       301   05 Jun 2027 02:22:31.595   05 Jun 2027 02:24:55.238           143.643                Irkutsk          4488.844
       302   05 Jun 2027 02:27:54.294   05 Jun 2027 02:28:08.494            14.200                Irkutsk           443.750
       303   05 Jun 2027 02:30:05.922   05 Jun 2027 02:30:12.490             6.568                  Delhi           205.250
       304   05 Jun 2027 02:31:00.541   05 Jun 2027 02:31:04.943             4.402                  Delhi           137.563
       305   05 Jun 2027 02:31:51.691   05 Jun 2027 02:32:30.194            38.503                  Delhi          1203.219
       306   05 Jun 2027 02:33:38.788   05 Jun 2027 02:34:19.979            41.191                  Delhi          1287.219
       307   05 Jun 2027 02:39:31.385   05 Jun 2027 02:43:21.258           229.873                Sumatra          7183.531
       308   05 Jun 2027 03:14:42.065   05 Jun 2027 03:15:31.666            49.601            RioGallegos          1550.031
       309   05 Jun 2027 04:02:28.184   05 Jun 2027 04:07:27.425           299.241                Irkutsk          9351.281
       310   05 Jun 2027 04:09:43.354   05 Jun 2027 04:10:05.381            22.027                Novosib           688.344
       311   05 Jun 2027 04:10:42.094   05 Jun 2027 04:14:10.953           208.859                  Delhi          6526.844
       312   05 Jun 2027 05:40:11.864   05 Jun 2027 05:40:36.794            24.930                Norilsk           779.062
       313   05 Jun 2027 05:41:25.145   05 Jun 2027 05:43:34.162           129.017                Novosib          4031.781
       314   05 Jun 2027 05:43:49.283   05 Jun 2027 05:44:09.883            20.600                 Moscow           643.750
       315   05 Jun 2027 05:47:01.828   05 Jun 2027 05:47:12.499            10.671                 Moscow           333.469
       316   05 Jun 2027 05:47:59.783   05 Jun 2027 05:48:42.924            43.141                 Moscow          1348.156
       317   05 Jun 2027 06:00:07.000   05 Jun 2027 06:00:42.869            35.869               CapeTown          1120.906
       318   05 Jun 2027 06:01:04.358   05 Jun 2027 06:02:22.503            78.145               CapeTown          2442.031
       319   05 Jun 2027 07:03:16.262   05 Jun 2027 07:03:19.707             3.445               Magadan2           107.656
       320   05 Jun 2027 07:03:37.532   05 Jun 2027 07:03:47.138             9.606                Anadyr1           300.187
       321   05 Jun 2027 07:03:47.138   05 Jun 2027 07:04:28.623            41.485                Anadyr2          1296.406
       322   05 Jun 2027 07:04:39.780   05 Jun 2027 07:04:42.054             2.274               Magadan2            71.063
       323   05 Jun 2027 07:04:44.595   05 Jun 2027 07:05:01.445            16.850               Magadan1           526.563
       324   05 Jun 2027 07:05:26.430   05 Jun 2027 07:05:35.387             8.957                Anadyr2           279.906
       325   05 Jun 2027 07:06:10.511   05 Jun 2027 07:06:42.510            31.999                Anadyr2           999.969
       326   05 Jun 2027 07:16:10.843   05 Jun 2027 07:16:36.512            25.669                Norilsk           802.156
       327   05 Jun 2027 07:19:01.690   05 Jun 2027 07:19:57.172            55.482                 Moscow          1733.813
       328   05 Jun 2027 07:37:12.629   05 Jun 2027 07:40:41.542           208.913               CapeTown          6528.531
       329   05 Jun 2027 08:37:48.626   05 Jun 2027 08:38:37.298            48.672                Anadyr1          1521.000
       330   05 Jun 2027 08:39:24.361   05 Jun 2027 08:39:56.456            32.095               Magadan2          1002.969
       331   05 Jun 2027 08:40:40.992   05 Jun 2027 08:42:47.003           126.011                Anadyr2          3937.844
       332   05 Jun 2027 10:12:37.479   05 Jun 2027 10:13:09.956            32.477               Magadan1          1014.906
       333   05 Jun 2027 10:13:13.069   05 Jun 2027 10:14:01.120            48.051               Magadan1          1501.594
       334   05 Jun 2027 10:14:21.978   05 Jun 2027 10:17:25.051           183.073                Anadyr2          5721.031
       335   05 Jun 2027 10:17:42.869   05 Jun 2027 10:18:04.074            21.205               Magadan2           662.656
       336   05 Jun 2027 10:18:26.414   05 Jun 2027 10:18:51.873            25.459               Magadan2           795.594
       337   05 Jun 2027 10:19:19.150   05 Jun 2027 10:19:54.968            35.818                Irkutsk          1119.312
       338   05 Jun 2027 10:23:25.435   05 Jun 2027 10:23:32.991             7.556                Norilsk           236.125
       339   05 Jun 2027 10:56:23.237   05 Jun 2027 10:57:21.465            58.228            RioGallegos          1819.625
       340   05 Jun 2027 11:00:38.165   05 Jun 2027 11:01:21.773            43.608            RioGallegos          1362.750
       341   05 Jun 2027 11:48:25.335   05 Jun 2027 11:48:44.496            19.161               Magadan2           598.781
       342   05 Jun 2027 11:48:44.496   05 Jun 2027 11:52:45.471           240.975               Magadan1          7530.469
       343   05 Jun 2027 11:53:44.863   05 Jun 2027 11:54:54.154            69.291                Irkutsk          2165.344
       344   05 Jun 2027 11:55:02.808   05 Jun 2027 11:55:45.971            43.163                Irkutsk          1348.844
       345   05 Jun 2027 11:55:59.977   05 Jun 2027 11:56:20.595            20.618                Irkutsk           644.313
       346   05 Jun 2027 11:56:30.125   05 Jun 2027 11:57:11.227            41.102                Norilsk          1284.437
       347   05 Jun 2027 12:31:35.757   05 Jun 2027 12:32:24.076            48.319            RioGallegos          1509.969
       348   05 Jun 2027 12:34:42.233   05 Jun 2027 12:35:40.604            58.371            RioGallegos          1824.094
       349   05 Jun 2027 12:41:47.416   05 Jun 2027 12:44:15.554           148.138            RioGallegos          4629.312
       350   05 Jun 2027 13:18:14.865   05 Jun 2027 13:19:06.450            51.585                Sumatra          1612.031
       351   05 Jun 2027 13:20:29.718   05 Jun 2027 13:22:43.009           133.291                Irkutsk          4165.344
       352   05 Jun 2027 14:11:12.345   05 Jun 2027 14:14:27.654           195.309            RioGallegos          6103.406
       353   05 Jun 2027 14:46:39.578   05 Jun 2027 14:49:45.933           186.355                Sumatra          5823.594
       354   05 Jun 2027 15:02:33.280   05 Jun 2027 15:05:03.115           149.835                Irkutsk          4682.344
       355   05 Jun 2027 16:34:59.420   05 Jun 2027 16:36:17.222            77.802                 Moscow          2431.313
       356   05 Jun 2027 16:39:50.442   05 Jun 2027 16:40:11.422            20.980              Murmansk1           655.625
       357   05 Jun 2027 16:42:01.512   05 Jun 2027 16:43:37.109            95.597                Norilsk          2987.406
       358   05 Jun 2027 16:45:44.285   05 Jun 2027 16:47:44.972           120.687                Norilsk          3771.469
       359   05 Jun 2027 17:49:47.150   05 Jun 2027 17:50:17.424            30.274               CapeTown           946.063
       360   05 Jun 2027 17:53:33.980   05 Jun 2027 17:54:07.338            33.358               CapeTown          1042.438
       361   05 Jun 2027 17:59:01.726   05 Jun 2027 17:59:13.564            11.838               CapeTown           369.937
       362   05 Jun 2027 18:12:06.104   05 Jun 2027 18:12:32.839            26.735                 Moscow           835.469
       363   05 Jun 2027 18:13:48.697   05 Jun 2027 18:17:10.934           202.237                 Moscow          6319.906
       364   05 Jun 2027 18:21:35.715   05 Jun 2027 18:23:06.908            91.193              Murmansk1          2849.781
       365   05 Jun 2027 18:38:22.815   05 Jun 2027 18:38:26.623             3.808                Anadyr1           119.000
       366   05 Jun 2027 19:24:25.717   05 Jun 2027 19:26:37.864           132.147               CapeTown          4129.594
       367   05 Jun 2027 19:35:28.844   05 Jun 2027 19:36:09.071            40.227               CapeTown          1257.094
       368   05 Jun 2027 19:54:27.771   05 Jun 2027 19:55:31.644            63.873              Murmansk1          1996.031
       369   05 Jun 2027 19:56:46.165   05 Jun 2027 20:03:05.824           379.659              Murmansk2         11864.344
       370   05 Jun 2027 21:03:32.667   05 Jun 2027 21:07:25.063           232.396               CapeTown          7262.375
       371   05 Jun 2027 21:43:08.582   05 Jun 2027 21:43:52.543            43.961                Anadyr2          1373.781
       372   05 Jun 2027 21:44:40.675   05 Jun 2027 21:44:53.552            12.877               Magadan2           402.406
       373   05 Jun 2027 21:45:41.388   05 Jun 2027 21:47:13.547            92.159               Magadan2          2879.969
       374   05 Jun 2027 23:16:49.338   05 Jun 2027 23:20:35.685           226.347                Anadyr2          7073.344
       375   05 Jun 2027 23:20:53.732   05 Jun 2027 23:22:14.529            80.797                Anadyr1          2524.906
       376   05 Jun 2027 23:22:21.306   05 Jun 2027 23:23:24.574            63.268               Magadan2          1977.125
       377   05 Jun 2027 23:23:24.574   05 Jun 2027 23:23:28.015             3.441               Magadan1           107.531
       378   05 Jun 2027 23:23:38.962   05 Jun 2027 23:24:14.569            35.607                Norilsk          1112.719
       379   05 Jun 2027 23:24:35.570   05 Jun 2027 23:24:41.134             5.564                Irkutsk           173.875
       380   05 Jun 2027 23:25:35.312   05 Jun 2027 23:26:05.836            30.524                Irkutsk           953.875
       381   05 Jun 2027 23:26:46.597   05 Jun 2027 23:27:24.308            37.711                Irkutsk          1178.469
       382   05 Jun 2027 23:28:15.548   05 Jun 2027 23:29:22.386            66.838                Irkutsk          2088.687
       383   05 Jun 2027 23:41:09.163   05 Jun 2027 23:41:58.950            49.787                Sumatra          1555.844
       384   05 Jun 2027 23:43:46.347   05 Jun 2027 23:44:35.840            49.493                Sumatra          1546.656
       385   06 Jun 2027 00:10:55.744   06 Jun 2027 00:11:55.870            60.126            RioGallegos          1878.937
       386   06 Jun 2027 00:16:52.247   06 Jun 2027 00:17:30.515            38.268            RioGallegos          1195.875
       387   06 Jun 2027 00:22:25.475   06 Jun 2027 00:22:46.868            21.393            RioGallegos           668.531
       388   06 Jun 2027 00:52:16.323   06 Jun 2027 00:52:56.590            40.267                Anadyr1          1258.344
       389   06 Jun 2027 00:53:48.007   06 Jun 2027 00:54:33.049            45.042                Anadyr1          1407.563
       390   06 Jun 2027 00:54:39.006   06 Jun 2027 00:55:00.118            21.112                Norilsk           659.750
       391   06 Jun 2027 00:55:10.624   06 Jun 2027 00:56:32.114            81.490                Norilsk          2546.563
       392   06 Jun 2027 00:56:41.195   06 Jun 2027 00:56:59.829            18.634               Magadan2           582.313
       393   06 Jun 2027 00:57:46.759   06 Jun 2027 00:58:10.060            23.301               Magadan1           728.156
       394   06 Jun 2027 00:58:39.783   06 Jun 2027 01:00:27.027           107.244                Irkutsk          3351.375
       395   06 Jun 2027 01:01:32.794   06 Jun 2027 01:01:39.410             6.616                Novosib           206.750
       396   06 Jun 2027 01:03:07.003   06 Jun 2027 01:03:36.980            29.977                Novosib           936.781
       397   06 Jun 2027 01:09:45.339   06 Jun 2027 01:11:12.857            87.518                Irkutsk          2734.937
       398   06 Jun 2027 01:14:57.746   06 Jun 2027 01:15:32.045            34.299                Sumatra          1071.844
       399   06 Jun 2027 01:21:03.718   06 Jun 2027 01:21:14.781            11.063                Sumatra           345.719
       400   06 Jun 2027 01:46:36.300   06 Jun 2027 01:46:47.822            11.522            RioGallegos           360.062
       401   06 Jun 2027 01:48:58.353   06 Jun 2027 01:49:18.292            19.939            RioGallegos           623.094
       402   06 Jun 2027 01:51:22.670   06 Jun 2027 01:52:00.842            38.172            RioGallegos          1192.875
       403   06 Jun 2027 01:54:41.701   06 Jun 2027 01:55:19.010            37.309            RioGallegos          1165.906
       404   06 Jun 2027 02:27:43.734   06 Jun 2027 02:29:02.077            78.343                Anadyr2          2448.219
       405   06 Jun 2027 02:30:39.389   06 Jun 2027 02:31:35.147            55.758                Norilsk          1742.438
       406   06 Jun 2027 02:32:06.782   06 Jun 2027 02:32:26.753            19.971                Norilsk           624.094
       407   06 Jun 2027 02:34:11.730   06 Jun 2027 02:35:06.741            55.011              Murmansk1          1719.094
       408   06 Jun 2027 02:35:49.053   06 Jun 2027 02:36:20.297            31.244                Novosib           976.375
       409   06 Jun 2027 02:36:34.220   06 Jun 2027 02:36:48.079            13.859                Novosib           433.094
       410   06 Jun 2027 02:37:18.978   06 Jun 2027 02:38:38.205            79.227                Irkutsk          2475.844
       411   06 Jun 2027 02:41:57.334   06 Jun 2027 02:42:54.632            57.298                  Delhi          1790.563
       412   06 Jun 2027 02:53:55.689   06 Jun 2027 02:54:31.123            35.434                  Delhi          1107.312
       413   06 Jun 2027 03:23:21.333   06 Jun 2027 03:24:21.678            60.345            RioGallegos          1885.781
       414   06 Jun 2027 03:26:16.962   06 Jun 2027 03:26:19.908             2.946            RioGallegos            92.062
       415   06 Jun 2027 03:27:22.767   06 Jun 2027 03:27:53.145            30.378            RioGallegos           949.313
       416   06 Jun 2027 03:29:28.498   06 Jun 2027 03:30:47.474            78.976            RioGallegos          2468.000
       417   06 Jun 2027 04:14:29.360   06 Jun 2027 04:16:06.744            97.384                Novosib          3043.250
       418   06 Jun 2027 04:16:23.119   06 Jun 2027 04:18:45.653           142.534                Irkutsk          4454.187
       419   06 Jun 2027 04:19:22.232   06 Jun 2027 04:25:53.269           391.037                  Delhi         12219.906
       420   06 Jun 2027 05:51:51.339   06 Jun 2027 05:52:31.393            40.054                Novosib          1251.687
       421   06 Jun 2027 05:53:39.424   06 Jun 2027 05:54:59.200            79.776                Novosib          2493.000
       422   06 Jun 2027 05:55:09.813   06 Jun 2027 05:55:40.796            30.983                 Moscow           968.219
       423   06 Jun 2027 05:55:55.132   06 Jun 2027 05:57:07.964            72.832                 Moscow          2276.000
       424   06 Jun 2027 05:57:35.868   06 Jun 2027 05:58:01.117            25.249                 Moscow           789.031
       425   06 Jun 2027 05:59:11.482   06 Jun 2027 05:59:31.204            19.722                 Moscow           616.312
       426   06 Jun 2027 06:11:58.559   06 Jun 2027 06:14:50.873           172.314               CapeTown          5384.813
       427   06 Jun 2027 07:15:06.039   06 Jun 2027 07:15:22.954            16.915               Magadan2           528.594
       428   06 Jun 2027 07:15:31.919   06 Jun 2027 07:15:48.841            16.922                Anadyr2           528.813
       429   06 Jun 2027 07:15:48.841   06 Jun 2027 07:16:10.973            22.132                Anadyr1           691.625
       430   06 Jun 2027 07:16:30.559   06 Jun 2027 07:16:37.047             6.488               Magadan1           202.750
       431   06 Jun 2027 07:16:39.259   06 Jun 2027 07:17:26.227            46.968                Anadyr2          1467.750
       432   06 Jun 2027 07:18:49.375   06 Jun 2027 07:19:14.435            25.060               Magadan2           783.125
       433   06 Jun 2027 07:30:05.277   06 Jun 2027 07:30:19.843            14.566              Murmansk2           455.187
       434   06 Jun 2027 07:31:04.089   06 Jun 2027 07:31:22.880            18.791                 Moscow           587.219
       435   06 Jun 2027 07:49:56.370   06 Jun 2027 07:54:29.763           273.393               CapeTown          8543.531
       436   06 Jun 2027 08:50:13.809   06 Jun 2027 08:50:26.385            12.576               Magadan2           393.000
       437   06 Jun 2027 08:50:48.426   06 Jun 2027 08:51:26.204            37.778               Magadan2          1180.562
       438   06 Jun 2027 08:51:35.701   06 Jun 2027 08:52:20.855            45.154                Anadyr2          1411.062
       439   06 Jun 2027 08:52:27.582   06 Jun 2027 08:53:32.531            64.949                Anadyr2          2029.656
       440   06 Jun 2027 08:53:32.531   06 Jun 2027 08:54:08.401            35.870                Anadyr1          1120.938
       441   06 Jun 2027 08:54:50.845   06 Jun 2027 08:55:28.801            37.956                Anadyr2          1186.125
       442   06 Jun 2027 09:36:06.774   06 Jun 2027 09:36:15.354             8.580            RioGallegos           268.125
       443   06 Jun 2027 09:36:27.774   06 Jun 2027 09:36:44.421            16.647            RioGallegos           520.219
       444   06 Jun 2027 09:38:17.157   06 Jun 2027 09:38:22.925             5.768            RioGallegos           180.250
       445   06 Jun 2027 10:24:25.994   06 Jun 2027 10:25:38.098            72.104               Magadan1          2253.250
       446   06 Jun 2027 10:25:55.613   06 Jun 2027 10:26:12.211            16.598               Magadan1           518.688
       447   06 Jun 2027 10:27:05.100   06 Jun 2027 10:29:08.422           123.322               Magadan1          3853.813
       448   06 Jun 2027 10:30:35.044   06 Jun 2027 10:30:45.428            10.384               Magadan1           324.500
       449   06 Jun 2027 10:30:45.428   06 Jun 2027 10:32:09.619            84.191               Magadan2          2630.969
       450   06 Jun 2027 10:32:18.545   06 Jun 2027 10:32:19.846             1.301                Norilsk            40.656
       451   06 Jun 2027 10:33:06.259   06 Jun 2027 10:33:46.424            40.165                Norilsk          1255.156
       452   06 Jun 2027 11:08:08.124   06 Jun 2027 11:08:26.612            18.488            RioGallegos           577.750
       453   06 Jun 2027 11:08:54.235   06 Jun 2027 11:09:27.440            33.205            RioGallegos          1037.656
       454   06 Jun 2027 11:46:11.522   06 Jun 2027 11:47:19.679            68.157                Sumatra          2129.906
       455   06 Jun 2027 12:01:26.542   06 Jun 2027 12:07:17.895           351.353               Magadan1         10979.781
       456   06 Jun 2027 13:37:44.098   06 Jun 2027 13:37:57.921            13.823                Irkutsk           431.969
       457   06 Jun 2027 13:38:27.031   06 Jun 2027 13:39:23.641            56.610                Irkutsk          1769.063
       458   06 Jun 2027 13:41:34.102   06 Jun 2027 13:42:40.110            66.008                Irkutsk          2062.750
       459   06 Jun 2027 14:24:25.639   06 Jun 2027 14:28:12.078           226.439            RioGallegos          7076.219
       460   06 Jun 2027 15:12:33.684   06 Jun 2027 15:13:05.312            31.628                  Delhi           988.375
       461   06 Jun 2027 15:15:44.789   06 Jun 2027 15:15:48.754             3.965                Novosib           123.906
       462   06 Jun 2027 15:18:38.280   06 Jun 2027 15:19:22.482            44.202                Norilsk          1381.313
       463   06 Jun 2027 15:19:32.721   06 Jun 2027 15:20:03.701            30.980                Norilsk           968.125
       464   06 Jun 2027 15:20:40.689   06 Jun 2027 15:21:35.631            54.942                Novosib          1716.937
       465   06 Jun 2027 16:46:59.019   06 Jun 2027 16:48:16.402            77.383                 Moscow          2418.219
       466   06 Jun 2027 16:49:07.743   06 Jun 2027 16:49:43.315            35.572                 Moscow          1111.625
       467   06 Jun 2027 16:51:52.086   06 Jun 2027 16:52:00.613             8.527                 Moscow           266.469
       468   06 Jun 2027 16:52:44.985   06 Jun 2027 16:54:07.567            82.582                 Moscow          2580.688
       469   06 Jun 2027 16:54:44.972   06 Jun 2027 17:00:43.831           358.859                Norilsk         11214.344
       470   06 Jun 2027 18:24:33.698   06 Jun 2027 18:25:31.631            57.933                 Moscow          1810.406
       471   06 Jun 2027 18:27:37.474   06 Jun 2027 18:27:47.911            10.437              Murmansk1           326.156
       472   06 Jun 2027 18:29:11.057   06 Jun 2027 18:29:53.296            42.239                 Moscow          1319.969
       473   06 Jun 2027 18:32:02.926   06 Jun 2027 18:33:03.432            60.506                 Moscow          1890.812
       474   06 Jun 2027 18:47:54.884   06 Jun 2027 18:48:21.576            26.692                Anadyr2           834.125
       475   06 Jun 2027 19:36:32.256   06 Jun 2027 19:38:50.608           138.352               CapeTown          4323.500
       476   06 Jun 2027 19:44:55.354   06 Jun 2027 19:45:18.530            23.176               CapeTown           724.250
       477   06 Jun 2027 20:07:06.387   06 Jun 2027 20:08:37.566            91.179              Murmansk2          2849.344
       478   06 Jun 2027 20:08:47.364   06 Jun 2027 20:12:47.679           240.315              Murmansk1          7509.844
       479   06 Jun 2027 20:13:25.708   06 Jun 2027 20:15:02.742            97.034              Murmansk2          3032.313
       480   06 Jun 2027 21:52:58.309   06 Jun 2027 21:56:05.730           187.421                Anadyr2          5856.906
       481   06 Jun 2027 21:56:08.954   06 Jun 2027 21:58:42.328           153.374               Magadan1          4792.937
       482   06 Jun 2027 21:58:42.328   06 Jun 2027 21:59:21.031            38.703               Magadan2          1209.469
