uniorb/output/strategy_4/Drop/Drop_KinoSat_111204.txt

KinoSat_111204
-------------------------
    Access    *     Start Time (UTCG)     *     Stop Time (UTCG)  *   Duration (s)        *       Station  *  Data (Mbytes)
         1   01 Jun 2027 03:44:03.912   01 Jun 2027 03:44:46.906            42.994              Murmansk2          1343.562
         2   01 Jun 2027 03:45:07.387   01 Jun 2027 03:48:04.921           177.534              Murmansk2          5547.938
         3   01 Jun 2027 03:48:31.055   01 Jun 2027 03:48:49.736            18.681                 Moscow           583.781
         4   01 Jun 2027 03:49:09.215   01 Jun 2027 03:49:41.255            32.040                 Moscow          1001.250
         5   01 Jun 2027 04:02:28.493   01 Jun 2027 04:03:26.008            57.515               CapeTown          1797.344
         6   01 Jun 2027 04:05:38.464   01 Jun 2027 04:07:07.007            88.543               CapeTown          2766.969
         7   01 Jun 2027 05:06:09.064   01 Jun 2027 05:10:00.197           231.133                Anadyr2          7222.906
         8   01 Jun 2027 05:10:00.899   01 Jun 2027 05:10:29.353            28.454               Magadan2           889.187
         9   01 Jun 2027 05:10:43.198   01 Jun 2027 05:11:34.294            51.096               Magadan2          1596.750
        10   01 Jun 2027 06:43:13.593   01 Jun 2027 06:47:27.745           254.152                Anadyr2          7942.250
        11   01 Jun 2027 07:24:10.229   01 Jun 2027 07:24:15.721             5.492            RioGallegos           171.625
        12   01 Jun 2027 07:26:02.421   01 Jun 2027 07:26:58.401            55.980            RioGallegos          1749.375
        13   01 Jun 2027 08:19:04.481   01 Jun 2027 08:20:50.722           106.241                Norilsk          3320.031
        14   01 Jun 2027 08:20:58.491   01 Jun 2027 08:23:07.206           128.715                Irkutsk          4022.344
        15   01 Jun 2027 08:26:48.172   01 Jun 2027 08:27:22.248            34.076              Murmansk2          1064.875
        16   01 Jun 2027 08:57:57.736   01 Jun 2027 08:59:49.504           111.768            RioGallegos          3492.750
        17   01 Jun 2027 09:00:34.923   01 Jun 2027 09:01:10.371            35.448            RioGallegos          1107.750
        18   01 Jun 2027 09:33:36.856   01 Jun 2027 09:35:18.025           101.169                Sumatra          3161.531
        19   01 Jun 2027 09:54:18.374   01 Jun 2027 09:54:45.637            27.263                Irkutsk           851.969
        20   01 Jun 2027 09:56:04.574   01 Jun 2027 09:59:12.263           187.689                Irkutsk          5865.281
        21   01 Jun 2027 10:35:24.473   01 Jun 2027 10:36:10.329            45.856            RioGallegos          1433.000
        22   01 Jun 2027 10:43:10.156   01 Jun 2027 10:44:00.015            49.859            RioGallegos          1558.094
        23   01 Jun 2027 11:09:36.835   01 Jun 2027 11:10:49.190            72.355                Sumatra          2261.094
        24   01 Jun 2027 11:30:51.051   01 Jun 2027 11:31:22.737            31.686                Irkutsk           990.187
        25   01 Jun 2027 11:31:33.044   01 Jun 2027 11:31:44.147            11.103                Irkutsk           346.969
        26   01 Jun 2027 11:33:23.757   01 Jun 2027 11:34:01.472            37.715                Irkutsk          1178.594
        27   01 Jun 2027 11:34:16.759   01 Jun 2027 11:36:40.669           143.910                Novosib          4497.188
        28   01 Jun 2027 12:54:43.885   01 Jun 2027 12:59:13.708           269.823                  Delhi          8431.969
        29   01 Jun 2027 13:00:14.172   01 Jun 2027 13:00:52.232            38.060                  Delhi          1189.375
        30   01 Jun 2027 13:01:54.805   01 Jun 2027 13:02:32.770            37.965                 Moscow          1186.406
        31   01 Jun 2027 13:04:06.986   01 Jun 2027 13:04:43.704            36.718                Novosib          1147.438
        32   01 Jun 2027 13:04:49.686   01 Jun 2027 13:05:20.323            30.637                Novosib           957.406
        33   01 Jun 2027 13:05:58.638   01 Jun 2027 13:08:21.098           142.460                Novosib          4451.875
        34   01 Jun 2027 13:08:56.610   01 Jun 2027 13:09:50.847            54.237              Murmansk2          1694.906
        35   01 Jun 2027 13:10:18.315   01 Jun 2027 13:10:42.643            24.328                Norilsk           760.250
        36   01 Jun 2027 13:11:06.808   01 Jun 2027 13:11:43.129            36.321                Norilsk          1135.031
        37   01 Jun 2027 14:37:40.624   01 Jun 2027 14:39:25.283           104.659                 Moscow          3270.594
        38   01 Jun 2027 14:41:10.741   01 Jun 2027 14:42:52.361           101.620              Murmansk1          3175.625
        39   01 Jun 2027 14:44:11.787   01 Jun 2027 14:46:12.935           121.148              Murmansk1          3785.875
        40   01 Jun 2027 14:48:03.074   01 Jun 2027 14:48:42.143            39.069              Murmansk1          1220.906
        41   01 Jun 2027 14:49:07.892   01 Jun 2027 14:50:17.119            69.227                Norilsk          2163.344
        42   01 Jun 2027 14:56:44.889   01 Jun 2027 14:57:47.106            62.217                Anadyr2          1944.281
        43   01 Jun 2027 14:57:47.106   01 Jun 2027 14:58:21.304            34.198                Anadyr1          1068.687
        44   01 Jun 2027 14:59:44.658   01 Jun 2027 15:00:01.184            16.526                Anadyr1           516.438
        45   01 Jun 2027 15:01:41.052   01 Jun 2027 15:02:43.142            62.090                Anadyr1          1940.313
        46   01 Jun 2027 15:50:59.332   01 Jun 2027 15:51:35.961            36.629               CapeTown          1144.656
        47   01 Jun 2027 16:17:27.545   01 Jun 2027 16:17:46.680            19.135                 Moscow           597.969
        48   01 Jun 2027 16:19:19.704   01 Jun 2027 16:19:44.556            24.852              Murmansk2           776.625
        49   01 Jun 2027 16:19:59.104   01 Jun 2027 16:21:16.443            77.339              Murmansk1          2416.844
        50   01 Jun 2027 16:21:36.034   01 Jun 2027 16:21:56.808            20.774                 Moscow           649.188
        51   01 Jun 2027 16:22:24.747   01 Jun 2027 16:22:42.229            17.482              Murmansk2           546.313
        52   01 Jun 2027 16:23:52.716   01 Jun 2027 16:24:16.849            24.133              Murmansk2           754.156
        53   01 Jun 2027 16:31:36.215   01 Jun 2027 16:33:38.368           122.153                Anadyr1          3817.281
        54   01 Jun 2027 16:33:47.091   01 Jun 2027 16:33:54.439             7.348                Anadyr2           229.625
        55   01 Jun 2027 17:27:41.277   01 Jun 2027 17:28:56.285            75.008               CapeTown          2344.000
        56   01 Jun 2027 17:30:25.776   01 Jun 2027 17:31:02.972            37.196               CapeTown          1162.375
        57   01 Jun 2027 18:00:33.039   01 Jun 2027 18:04:20.020           226.981              Murmansk2          7093.156
        58   01 Jun 2027 18:07:25.273   01 Jun 2027 18:08:09.280            44.007                Anadyr1          1375.219
        59   01 Jun 2027 18:08:39.325   01 Jun 2027 18:10:00.520            81.195                Anadyr2          2537.344
        60   01 Jun 2027 18:10:03.338   01 Jun 2027 18:10:33.681            30.343               Magadan2           948.219
        61   01 Jun 2027 18:11:06.574   01 Jun 2027 18:11:34.917            28.343               Magadan1           885.719
        62   01 Jun 2027 18:11:34.917   01 Jun 2027 18:12:49.750            74.833               Magadan2          2338.531
        63   01 Jun 2027 19:43:20.632   01 Jun 2027 19:45:24.026           123.394                Anadyr1          3856.062
        64   01 Jun 2027 19:45:37.226   01 Jun 2027 19:49:28.836           231.610               Magadan2          7237.813
        65   01 Jun 2027 19:49:28.836   01 Jun 2027 19:50:17.677            48.841               Magadan1          1526.281
        66   01 Jun 2027 19:50:25.142   01 Jun 2027 19:50:32.011             6.869               Magadan1           214.656
        67   01 Jun 2027 19:50:45.726   01 Jun 2027 19:50:58.213            12.487               Magadan1           390.219
        68   01 Jun 2027 19:52:44.866   01 Jun 2027 19:52:49.396             4.530               Magadan2           141.562
        69   01 Jun 2027 19:53:17.585   01 Jun 2027 19:53:44.323            26.738               Magadan2           835.562
        70   01 Jun 2027 20:38:04.403   01 Jun 2027 20:40:52.585           168.182            RioGallegos          5255.687
        71   01 Jun 2027 20:41:23.373   01 Jun 2027 20:41:49.309            25.936            RioGallegos           810.500
        72   01 Jun 2027 20:42:27.364   01 Jun 2027 20:42:29.174             1.810            RioGallegos            56.563
        73   01 Jun 2027 20:42:46.986   01 Jun 2027 20:42:51.143             4.157            RioGallegos           129.906
        74   01 Jun 2027 20:47:17.296   01 Jun 2027 20:47:27.507            10.211            RioGallegos           319.094
        75   01 Jun 2027 21:19:01.172   01 Jun 2027 21:19:40.420            39.248                Anadyr1          1226.500
        76   01 Jun 2027 21:21:12.023   01 Jun 2027 21:22:02.962            50.939                Norilsk          1591.844
        77   01 Jun 2027 21:22:13.862   01 Jun 2027 21:23:32.823            78.961               Magadan1          2467.531
        78   01 Jun 2027 21:23:32.823   01 Jun 2027 21:23:56.158            23.335               Magadan2           729.219
        79   01 Jun 2027 21:24:30.028   01 Jun 2027 21:25:02.424            32.396               Magadan1          1012.375
        80   01 Jun 2027 21:25:31.178   01 Jun 2027 21:27:11.244           100.066                Irkutsk          3127.063
        81   01 Jun 2027 21:29:13.349   01 Jun 2027 21:30:04.705            51.356                Novosib          1604.875
        82   01 Jun 2027 21:31:06.014   01 Jun 2027 21:31:18.585            12.571                Irkutsk           392.844
        83   01 Jun 2027 21:34:33.097   01 Jun 2027 21:34:59.721            26.624                Irkutsk           832.000
        84   01 Jun 2027 21:40:02.954   01 Jun 2027 21:42:44.729           161.775                Sumatra          5055.469
        85   01 Jun 2027 22:53:54.895   01 Jun 2027 22:56:17.092           142.197                Anadyr2          4443.656
        86   01 Jun 2027 22:56:30.974   01 Jun 2027 22:56:42.235            11.261                Anadyr2           351.906
        87   01 Jun 2027 22:57:06.985   01 Jun 2027 22:57:58.432            51.447                Norilsk          1607.719
        88   01 Jun 2027 22:59:05.049   01 Jun 2027 22:59:13.711             8.662               Magadan1           270.687
        89   01 Jun 2027 22:59:13.711   01 Jun 2027 22:59:47.852            34.141               Magadan2          1066.906
        90   01 Jun 2027 23:00:58.532   01 Jun 2027 23:01:58.776            60.244                Irkutsk          1882.625
        91   01 Jun 2027 23:02:12.863   01 Jun 2027 23:03:03.915            51.052                Novosib          1595.375
        92   01 Jun 2027 23:03:56.399   01 Jun 2027 23:03:56.981             0.582                Novosib            18.187
        93   01 Jun 2027 23:06:21.839   01 Jun 2027 23:06:24.341             2.502                Novosib            78.187
        94   01 Jun 2027 23:07:31.201   01 Jun 2027 23:07:41.882            10.681                Novosib           333.781
        95   01 Jun 2027 23:09:19.958   01 Jun 2027 23:11:06.395           106.437                  Delhi          3326.156
        96   01 Jun 2027 23:14:55.056   01 Jun 2027 23:14:59.021             3.965                  Delhi           123.906
        97   01 Jun 2027 23:16:53.995   01 Jun 2027 23:18:37.189           103.194                  Delhi          3224.812
        98   02 Jun 2027 00:27:35.666   02 Jun 2027 00:27:47.092            11.426                Anadyr2           357.062
        99   02 Jun 2027 00:28:37.340   02 Jun 2027 00:30:02.334            84.994                Anadyr1          2656.062
       100   02 Jun 2027 00:33:06.905   02 Jun 2027 00:33:57.316            50.411                Norilsk          1575.344
       101   02 Jun 2027 00:34:09.222   02 Jun 2027 00:34:43.256            34.034               Magadan1          1063.562
       102   02 Jun 2027 00:34:54.646   02 Jun 2027 00:35:07.788            13.142                Norilsk           410.688
       103   02 Jun 2027 00:35:19.835   02 Jun 2027 00:35:37.192            17.357               Magadan1           542.406
       104   02 Jun 2027 00:36:09.049   02 Jun 2027 00:37:28.258            79.209              Murmansk2          2475.281
       105   02 Jun 2027 00:37:34.806   02 Jun 2027 00:38:28.763            53.957                Novosib          1686.156
       106   02 Jun 2027 00:41:10.126   02 Jun 2027 00:42:48.829            98.703                 Moscow          3084.469
       107   02 Jun 2027 00:43:13.477   02 Jun 2027 00:43:31.810            18.333                 Moscow           572.906
       108   02 Jun 2027 00:54:04.469   02 Jun 2027 00:54:37.389            32.920                  Delhi          1028.750
       109   02 Jun 2027 00:55:59.693   02 Jun 2027 00:55:59.952             0.259                  Delhi             8.094
       110   02 Jun 2027 01:27:59.027   02 Jun 2027 01:28:53.965            54.938            RioGallegos          1716.812
       111   02 Jun 2027 01:29:26.170   02 Jun 2027 01:29:38.031            11.861            RioGallegos           370.656
       112   02 Jun 2027 02:00:56.119   02 Jun 2027 02:03:19.821           143.702                Anadyr1          4490.687
       113   02 Jun 2027 02:06:20.513   02 Jun 2027 02:07:58.676            98.163               Magadan2          3067.594
       114   02 Jun 2027 02:10:25.693   02 Jun 2027 02:10:48.783            23.090               Magadan2           721.562
       115   02 Jun 2027 02:11:14.683   02 Jun 2027 02:12:06.495            51.812              Murmansk2          1619.125
       116   02 Jun 2027 02:13:11.589   02 Jun 2027 02:14:03.809            52.220                Novosib          1631.875
       117   02 Jun 2027 02:14:41.326   02 Jun 2027 02:15:00.202            18.876                 Moscow           589.875
       118   02 Jun 2027 02:16:11.450   02 Jun 2027 02:16:23.419            11.969                Novosib           374.031
       119   02 Jun 2027 02:16:42.277   02 Jun 2027 02:17:16.391            34.114                Novosib          1066.062
       120   02 Jun 2027 02:24:13.316   02 Jun 2027 02:24:41.467            28.151                 Moscow           879.719
       121   02 Jun 2027 02:39:20.511   02 Jun 2027 02:39:45.068            24.557               CapeTown           767.406
       122   02 Jun 2027 02:41:54.931   02 Jun 2027 02:42:25.944            31.013               CapeTown           969.156
       123   02 Jun 2027 02:46:07.114   02 Jun 2027 02:46:23.547            16.433               CapeTown           513.531
       124   02 Jun 2027 02:50:28.910   02 Jun 2027 02:50:51.049            22.139               CapeTown           691.844
       125   02 Jun 2027 03:56:12.226   02 Jun 2027 03:57:40.125            87.899              Murmansk2          2746.844
       126   02 Jun 2027 03:58:39.918   02 Jun 2027 03:59:08.962            29.044              Murmansk1           907.625
       127   02 Jun 2027 04:02:03.069   02 Jun 2027 04:03:05.397            62.328                 Moscow          1947.750
       128   02 Jun 2027 05:17:47.365   02 Jun 2027 05:18:30.890            43.525                Anadyr2          1360.156
       129   02 Jun 2027 05:18:43.599   02 Jun 2027 05:19:39.423            55.824               Magadan2          1744.500
       130   02 Jun 2027 05:19:46.339   02 Jun 2027 05:21:45.737           119.398               Magadan2          3731.187
       131   02 Jun 2027 05:21:59.178   02 Jun 2027 05:23:30.558            91.380                Anadyr1          2855.625
       132   02 Jun 2027 05:23:30.558   02 Jun 2027 05:23:56.749            26.191                Anadyr2           818.469
       133   02 Jun 2027 06:55:58.635   02 Jun 2027 06:56:39.265            40.630                Irkutsk          1269.687
       134   02 Jun 2027 06:57:30.329   02 Jun 2027 06:57:52.166            21.837               Magadan2           682.406
       135   02 Jun 2027 06:58:09.345   02 Jun 2027 06:58:16.840             7.495                Anadyr1           234.219
       136   02 Jun 2027 08:31:04.473   02 Jun 2027 08:31:22.439            17.966               Magadan1           561.438
       137   02 Jun 2027 08:31:51.798   02 Jun 2027 08:32:34.640            42.842                Irkutsk          1338.812
       138   02 Jun 2027 08:32:36.042   02 Jun 2027 08:34:48.619           132.577               Magadan1          4143.031
       139   02 Jun 2027 10:06:56.665   02 Jun 2027 10:07:04.813             8.148                Novosib           254.625
       140   02 Jun 2027 10:07:11.298   02 Jun 2027 10:07:16.064             4.766                Norilsk           148.938
       141   02 Jun 2027 10:07:16.932   02 Jun 2027 10:07:33.236            16.304                Norilsk           509.500
       142   02 Jun 2027 10:07:41.972   02 Jun 2027 10:07:59.943            17.971                Novosib           561.594
       143   02 Jun 2027 10:08:12.274   02 Jun 2027 10:08:42.291            30.017                Norilsk           938.031
       144   02 Jun 2027 10:08:51.463   02 Jun 2027 10:09:05.976            14.513                Norilsk           453.531
       145   02 Jun 2027 10:09:16.701   02 Jun 2027 10:09:34.622            17.921                Novosib           560.031
       146   02 Jun 2027 10:09:44.260   02 Jun 2027 10:10:03.875            19.615                Irkutsk           612.969
       147   02 Jun 2027 10:10:22.143   02 Jun 2027 10:11:13.442            51.299                Irkutsk          1603.094
       148   02 Jun 2027 10:47:58.451   02 Jun 2027 10:48:24.584            26.133            RioGallegos           816.656
       149   02 Jun 2027 11:22:11.880   02 Jun 2027 11:22:33.615            21.735                Sumatra           679.219
       150   02 Jun 2027 11:25:55.834   02 Jun 2027 11:27:11.369            75.535                Sumatra          2360.469
       151   02 Jun 2027 11:43:15.158   02 Jun 2027 11:43:33.771            18.613                Novosib           581.656
       152   02 Jun 2027 11:43:50.386   02 Jun 2027 11:44:57.548            67.162                Novosib          2098.812
       153   02 Jun 2027 11:45:03.678   02 Jun 2027 11:45:46.571            42.893                Novosib          1340.406
       154   02 Jun 2027 11:45:58.432   02 Jun 2027 11:46:19.735            21.303                Novosib           665.719
       155   02 Jun 2027 11:46:27.165   02 Jun 2027 11:46:36.222             9.057                Novosib           283.031
       156   02 Jun 2027 11:46:41.917   02 Jun 2027 11:46:44.250             2.333                Norilsk            72.906
       157   02 Jun 2027 13:07:37.544   02 Jun 2027 13:12:09.333           271.789                  Delhi          8493.406
       158   02 Jun 2027 13:16:43.858   02 Jun 2027 13:17:23.823            39.965                Novosib          1248.906
       159   02 Jun 2027 13:19:12.487   02 Jun 2027 13:20:12.204            59.717                Norilsk          1866.156
       160   02 Jun 2027 13:22:15.936   02 Jun 2027 13:22:44.895            28.959                Norilsk           904.969
       161   02 Jun 2027 13:24:23.768   02 Jun 2027 13:24:43.862            20.094                Norilsk           627.937
       162   02 Jun 2027 14:30:09.025   02 Jun 2027 14:32:04.588           115.563               CapeTown          3611.344
       163   02 Jun 2027 14:33:41.038   02 Jun 2027 14:35:08.234            87.196               CapeTown          2724.875
       164   02 Jun 2027 14:53:21.824   02 Jun 2027 14:56:13.628           171.804              Murmansk1          5368.875
       165   02 Jun 2027 15:08:28.128   02 Jun 2027 15:09:51.028            82.900                Anadyr2          2590.625
       166   02 Jun 2027 15:10:50.156   02 Jun 2027 15:11:52.553            62.397                Anadyr1          1949.906
       167   02 Jun 2027 15:13:25.916   02 Jun 2027 15:14:49.028            83.112                Anadyr1          2597.250
       168   02 Jun 2027 16:30:36.720   02 Jun 2027 16:31:30.762            54.042                 Moscow          1688.813
       169   02 Jun 2027 16:31:48.136   02 Jun 2027 16:32:31.968            43.832              Murmansk2          1369.750
       170   02 Jun 2027 16:33:31.364   02 Jun 2027 16:34:13.108            41.744              Murmansk2          1304.500
       171   02 Jun 2027 16:43:35.571   02 Jun 2027 16:45:34.296           118.725                Anadyr2          3710.156
       172   02 Jun 2027 16:45:37.035   02 Jun 2027 16:45:39.682             2.647                Anadyr2            82.719
       173   02 Jun 2027 16:48:57.101   02 Jun 2027 16:50:53.820           116.719               Magadan2          3647.469
       174   02 Jun 2027 16:50:55.228   02 Jun 2027 16:51:09.929            14.701               Magadan1           459.406
       175   02 Jun 2027 17:46:35.698   02 Jun 2027 17:46:46.503            10.805               CapeTown           337.656
       176   02 Jun 2027 18:13:57.515   02 Jun 2027 18:15:57.159           119.644              Murmansk2          3738.875
       177   02 Jun 2027 18:19:26.759   02 Jun 2027 18:21:34.706           127.947                Anadyr2          3998.344
       178   02 Jun 2027 18:21:45.008   02 Jun 2027 18:22:16.859            31.851                Anadyr1           995.344
       179   02 Jun 2027 18:22:47.563   02 Jun 2027 18:22:57.150             9.587                Anadyr1           299.594
       180   02 Jun 2027 18:23:16.681   02 Jun 2027 18:25:33.532           136.851               Magadan2          4276.594
       181   02 Jun 2027 19:55:21.452   02 Jun 2027 19:59:09.026           227.574                Anadyr1          7111.688
       182   02 Jun 2027 19:59:11.673   02 Jun 2027 20:00:35.475            83.802               Magadan1          2618.813
       183   02 Jun 2027 20:00:35.475   02 Jun 2027 20:01:32.416            56.941               Magadan2          1779.406
       184   02 Jun 2027 20:01:34.853   02 Jun 2027 20:02:09.465            34.612                Norilsk          1081.625
       185   02 Jun 2027 20:10:16.829   02 Jun 2027 20:10:33.192            16.363               Magadan1           511.344
       186   02 Jun 2027 20:49:50.580   02 Jun 2027 20:52:49.774           179.194            RioGallegos          5599.813
       187   02 Jun 2027 20:59:01.904   02 Jun 2027 20:59:16.534            14.630            RioGallegos           457.187
       188   02 Jun 2027 21:30:58.242   02 Jun 2027 21:33:14.660           136.418                Anadyr2          4263.063
       189   02 Jun 2027 21:33:22.076   02 Jun 2027 21:35:21.530           119.454                Norilsk          3732.937
       190   02 Jun 2027 21:37:24.002   02 Jun 2027 21:37:50.237            26.235                Irkutsk           819.844
       191   02 Jun 2027 21:39:00.603   02 Jun 2027 21:39:17.566            16.963                Irkutsk           530.094
       192   02 Jun 2027 21:39:27.632   02 Jun 2027 21:39:53.944            26.312                Novosib           822.250
       193   02 Jun 2027 21:40:30.817   02 Jun 2027 21:41:07.254            36.437                Novosib          1138.656
       194   02 Jun 2027 21:41:43.718   02 Jun 2027 21:42:11.813            28.095                Novosib           877.969
       195   02 Jun 2027 21:51:10.050   02 Jun 2027 21:52:00.420            50.370                Sumatra          1574.063
       196   02 Jun 2027 21:58:57.514   02 Jun 2027 22:00:36.261            98.747                Sumatra          3085.844
       197   02 Jun 2027 23:06:55.846   02 Jun 2027 23:07:27.009            31.163                Anadyr2           973.844
       198   02 Jun 2027 23:07:53.564   02 Jun 2027 23:08:30.809            37.245                Anadyr1          1163.906
       199   02 Jun 2027 23:09:09.048   02 Jun 2027 23:09:32.996            23.948                Norilsk           748.375
       200   02 Jun 2027 23:09:47.293   02 Jun 2027 23:10:40.970            53.677               Magadan1          1677.406
       201   02 Jun 2027 23:11:12.842   02 Jun 2027 23:11:26.023            13.181               Magadan1           411.906
       202   02 Jun 2027 23:11:37.761   02 Jun 2027 23:11:46.104             8.343               Magadan2           260.719
       203   02 Jun 2027 23:12:54.562   02 Jun 2027 23:13:21.243            26.681               Magadan1           833.781
       204   02 Jun 2027 23:13:27.861   02 Jun 2027 23:14:03.877            36.016                Irkutsk          1125.500
       205   02 Jun 2027 23:14:24.674   02 Jun 2027 23:15:08.191            43.517                Novosib          1359.906
       206   02 Jun 2027 23:15:31.202   02 Jun 2027 23:15:44.086            12.884                Novosib           402.625
       207   02 Jun 2027 23:18:35.779   02 Jun 2027 23:19:07.282            31.503                Novosib           984.469
       208   02 Jun 2027 23:20:59.032   02 Jun 2027 23:21:35.448            36.416                  Delhi          1138.000
       209   02 Jun 2027 23:21:40.587   02 Jun 2027 23:22:31.718            51.131                  Delhi          1597.844
       210   02 Jun 2027 23:28:03.714   02 Jun 2027 23:30:21.143           137.429                  Delhi          4294.656
       211   03 Jun 2027 00:40:31.940   03 Jun 2027 00:40:51.378            19.438                Anadyr1           607.437
       212   03 Jun 2027 00:42:03.194   03 Jun 2027 00:42:31.083            27.889                Anadyr2           871.531
       213   03 Jun 2027 00:45:01.902   03 Jun 2027 00:45:06.419             4.517                Anadyr1           141.156
       214   03 Jun 2027 00:45:08.440   03 Jun 2027 00:45:26.058            17.618                Norilsk           550.563
       215   03 Jun 2027 00:45:43.521   03 Jun 2027 00:46:35.062            51.541               Magadan1          1610.656
       216   03 Jun 2027 00:46:35.062   03 Jun 2027 00:47:05.341            30.279               Magadan2           946.219
       217   03 Jun 2027 00:47:22.104   03 Jun 2027 00:47:40.037            17.933               Magadan2           560.406
       218   03 Jun 2027 00:48:10.719   03 Jun 2027 00:50:55.497           164.778              Murmansk1          5149.313
       219   03 Jun 2027 00:52:25.409   03 Jun 2027 00:52:56.097            30.688                 Moscow           959.000
       220   03 Jun 2027 00:54:40.304   03 Jun 2027 00:55:11.165            30.861                 Moscow           964.406
       221   03 Jun 2027 01:03:17.952   03 Jun 2027 01:04:16.300            58.348                  Delhi          1823.375
       222   03 Jun 2027 02:12:40.988   03 Jun 2027 02:15:20.553           159.565                Anadyr1          4986.406
       223   03 Jun 2027 02:17:48.453   03 Jun 2027 02:19:17.320            88.867               Magadan1          2777.094
       224   03 Jun 2027 02:20:56.288   03 Jun 2027 02:20:59.834             3.546                Norilsk           110.813
       225   03 Jun 2027 02:23:16.130   03 Jun 2027 02:24:00.117            43.987              Murmansk1          1374.594
       226   03 Jun 2027 02:24:06.183   03 Jun 2027 02:25:19.870            73.687              Murmansk1          2302.719
       227   03 Jun 2027 02:25:29.214   03 Jun 2027 02:25:38.113             8.899                Novosib           278.094
       228   03 Jun 2027 02:26:02.128   03 Jun 2027 02:27:14.031            71.903                Novosib          2246.969
       229   03 Jun 2027 02:50:59.679   03 Jun 2027 02:51:45.942            46.263               CapeTown          1445.719
       230   03 Jun 2027 02:57:26.077   03 Jun 2027 02:57:26.555             0.478               CapeTown            14.938
       231   03 Jun 2027 02:58:12.292   03 Jun 2027 02:58:22.146             9.854               CapeTown           307.938
       232   03 Jun 2027 03:00:47.680   03 Jun 2027 03:01:19.110            31.430               CapeTown           982.188
       233   03 Jun 2027 03:52:55.102   03 Jun 2027 03:53:09.658            14.556                Anadyr2           454.875
       234   03 Jun 2027 03:54:16.981   03 Jun 2027 03:55:49.392            92.411               Magadan2          2887.844
       235   03 Jun 2027 03:56:10.626   03 Jun 2027 03:57:07.827            57.201               Magadan2          1787.531
       236   03 Jun 2027 05:29:07.280   03 Jun 2027 05:34:47.139           339.859                Anadyr1         10620.594
       237   03 Jun 2027 05:34:47.139   03 Jun 2027 05:35:00.535            13.396                Anadyr2           418.625
       238   03 Jun 2027 07:06:07.733   03 Jun 2027 07:06:10.413             2.680               Magadan1            83.750
       239   03 Jun 2027 07:06:27.683   03 Jun 2027 07:07:04.253            36.570                Anadyr2          1142.813
       240   03 Jun 2027 07:07:04.253   03 Jun 2027 07:07:30.433            26.180                Anadyr1           818.125
       241   03 Jun 2027 07:07:48.850   03 Jun 2027 07:08:03.692            14.842               Magadan1           463.812
       242   03 Jun 2027 07:08:10.295   03 Jun 2027 07:08:41.651            31.356               Magadan2           979.875
       243   03 Jun 2027 07:09:15.220   03 Jun 2027 07:10:09.446            54.226                Anadyr2          1694.563
       244   03 Jun 2027 08:40:48.148   03 Jun 2027 08:42:03.935            75.787               Magadan2          2368.344
       245   03 Jun 2027 08:42:47.716   03 Jun 2027 08:43:01.606            13.890               Magadan2           434.062
       246   03 Jun 2027 08:43:16.620   03 Jun 2027 08:44:04.235            47.615               Magadan2          1487.969
       247   03 Jun 2027 08:44:07.859   03 Jun 2027 08:44:41.787            33.928               Magadan1          1060.250
       248   03 Jun 2027 08:44:57.869   03 Jun 2027 08:45:09.791            11.922                Irkutsk           372.563
       249   03 Jun 2027 08:45:32.788   03 Jun 2027 08:45:57.584            24.796                Irkutsk           774.875
       250   03 Jun 2027 08:46:28.322   03 Jun 2027 08:46:51.968            23.646                Irkutsk           738.937
       251   03 Jun 2027 08:48:06.883   03 Jun 2027 08:48:28.347            21.464                Novosib           670.750
       252   03 Jun 2027 09:22:00.807   03 Jun 2027 09:22:11.412            10.605            RioGallegos           331.406
       253   03 Jun 2027 09:22:17.130   03 Jun 2027 09:23:09.823            52.693            RioGallegos          1646.656
       254   03 Jun 2027 09:57:04.440   03 Jun 2027 09:57:54.552            50.112                Sumatra          1566.000
       255   03 Jun 2027 09:59:54.968   03 Jun 2027 10:00:11.593            16.625                Sumatra           519.531
       256   03 Jun 2027 10:10:29.428   03 Jun 2027 10:11:16.845            47.417                  Delhi          1481.781
       257   03 Jun 2027 10:19:06.887   03 Jun 2027 10:19:18.080            11.193                Novosib           349.781
       258   03 Jun 2027 10:19:30.670   03 Jun 2027 10:20:18.738            48.068                Irkutsk          1502.125
       259   03 Jun 2027 10:20:46.100   03 Jun 2027 10:21:24.848            38.748                Irkutsk          1210.875
       260   03 Jun 2027 10:21:32.462   03 Jun 2027 10:21:37.512             5.050                Novosib           157.812
       261   03 Jun 2027 10:21:41.965   03 Jun 2027 10:22:50.213            68.248                Novosib          2132.750
       262   03 Jun 2027 10:23:00.277   03 Jun 2027 10:24:12.256            71.979                Novosib          2249.344
       263   03 Jun 2027 11:00:39.881   03 Jun 2027 11:00:43.025             3.144            RioGallegos            98.250
       264   03 Jun 2027 11:35:02.933   03 Jun 2027 11:37:07.721           124.788                Sumatra          3899.625
       265   03 Jun 2027 11:56:22.017   03 Jun 2027 11:56:27.036             5.019                 Moscow           156.844
       266   03 Jun 2027 11:56:46.728   03 Jun 2027 11:56:56.998            10.270                Norilsk           320.937
       267   03 Jun 2027 11:57:08.363   03 Jun 2027 11:57:26.149            17.786                Norilsk           555.813
       268   03 Jun 2027 11:57:28.237   03 Jun 2027 11:57:55.083            26.846                Norilsk           838.938
       269   03 Jun 2027 11:58:08.843   03 Jun 2027 11:58:16.088             7.245                Novosib           226.406
       270   03 Jun 2027 11:58:23.422   03 Jun 2027 11:58:24.974             1.552                Novosib            48.500
       271   03 Jun 2027 11:58:32.397   03 Jun 2027 11:58:46.234            13.837                Norilsk           432.406
       272   03 Jun 2027 12:00:42.191   03 Jun 2027 12:01:13.708            31.517                Norilsk           984.906
       273   03 Jun 2027 12:02:05.791   03 Jun 2027 12:02:20.205            14.414                Norilsk           450.437
       274   03 Jun 2027 12:02:25.738   03 Jun 2027 12:02:32.108             6.370                Norilsk           199.062
       275   03 Jun 2027 13:20:58.568   03 Jun 2027 13:24:23.311           204.743                  Delhi          6398.219
       276   03 Jun 2027 13:29:23.803   03 Jun 2027 13:31:08.948           105.145                Novosib          3285.781
       277   03 Jun 2027 13:31:46.785   03 Jun 2027 13:33:06.128            79.343                Novosib          2479.469
       278   03 Jun 2027 14:41:09.443   03 Jun 2027 14:42:22.007            72.564               CapeTown          2267.625
       279   03 Jun 2027 14:44:40.117   03 Jun 2027 14:45:04.116            23.999               CapeTown           749.969
       280   03 Jun 2027 14:45:24.942   03 Jun 2027 14:45:29.345             4.403               CapeTown           137.594
       281   03 Jun 2027 15:02:12.254   03 Jun 2027 15:03:02.259            50.005                 Moscow          1562.656
       282   03 Jun 2027 15:05:01.346   03 Jun 2027 15:05:31.915            30.569                 Moscow           955.281
       283   03 Jun 2027 15:05:34.798   03 Jun 2027 15:06:24.362            49.564              Murmansk1          1548.875
       284   03 Jun 2027 15:08:36.439   03 Jun 2027 15:08:38.886             2.447              Murmansk1            76.469
       285   03 Jun 2027 15:08:40.267   03 Jun 2027 15:09:00.827            20.560              Murmansk2           642.500
       286   03 Jun 2027 15:10:35.907   03 Jun 2027 15:11:05.333            29.426              Murmansk2           919.562
       287   03 Jun 2027 15:14:17.638   03 Jun 2027 15:14:49.330            31.692              Murmansk1           990.375
       288   03 Jun 2027 15:17:13.358   03 Jun 2027 15:17:51.207            37.849              Murmansk2          1182.781
       289   03 Jun 2027 15:20:16.621   03 Jun 2027 15:21:50.219            93.598                Anadyr1          2924.937
       290   03 Jun 2027 15:22:48.142   03 Jun 2027 15:23:35.489            47.347                Anadyr2          1479.594
       291   03 Jun 2027 16:19:18.169   03 Jun 2027 16:19:31.988            13.819               CapeTown           431.844
       292   03 Jun 2027 16:21:43.678   03 Jun 2027 16:23:16.102            92.424               CapeTown          2888.250
       293   03 Jun 2027 16:44:19.308   03 Jun 2027 16:45:10.063            50.755              Murmansk2          1586.094
       294   03 Jun 2027 16:46:14.402   03 Jun 2027 16:46:28.555            14.153              Murmansk2           442.281
       295   03 Jun 2027 16:47:48.054   03 Jun 2027 16:48:20.905            32.851              Murmansk2          1026.594
       296   03 Jun 2027 16:49:57.776   03 Jun 2027 16:50:01.161             3.385              Murmansk2           105.781
       297   03 Jun 2027 16:51:13.505   03 Jun 2027 16:51:22.103             8.598              Murmansk2           268.687
       298   03 Jun 2027 16:52:05.907   03 Jun 2027 16:52:44.573            38.666              Murmansk2          1208.312
       299   03 Jun 2027 16:55:35.440   03 Jun 2027 16:56:53.728            78.288                Anadyr2          2446.500
       300   03 Jun 2027 16:57:20.286   03 Jun 2027 16:57:47.447            27.161                Anadyr2           848.781
       301   03 Jun 2027 16:59:50.482   03 Jun 2027 17:01:45.038           114.556               Magadan1          3579.875
       302   03 Jun 2027 18:31:28.285   03 Jun 2027 18:35:18.849           230.564                Anadyr2          7205.125
       303   03 Jun 2027 18:35:39.724   03 Jun 2027 18:36:30.826            51.102                Anadyr1          1596.937
       304   03 Jun 2027 18:36:46.286   03 Jun 2027 18:37:16.316            30.030                Anadyr1           938.438
       305   03 Jun 2027 18:37:24.705   03 Jun 2027 18:38:57.270            92.565               Magadan1          2892.656
       306   03 Jun 2027 18:44:13.745   03 Jun 2027 18:44:44.042            30.297               Magadan1           946.781
       307   03 Jun 2027 20:07:22.013   03 Jun 2027 20:09:27.025           125.012                Anadyr2          3906.625
       308   03 Jun 2027 20:09:39.325   03 Jun 2027 20:11:08.669            89.344                Anadyr1          2792.000
       309   03 Jun 2027 20:11:23.435   03 Jun 2027 20:13:09.858           106.423               Magadan1          3325.719
       310   03 Jun 2027 20:13:35.207   03 Jun 2027 20:14:25.845            50.638                Norilsk          1582.438
       311   03 Jun 2027 20:16:18.123   03 Jun 2027 20:16:26.245             8.122               Magadan2           253.813
       312   03 Jun 2027 20:16:30.024   03 Jun 2027 20:18:24.622           114.598                Irkutsk          3581.187
       313   03 Jun 2027 20:19:17.288   03 Jun 2027 20:19:28.578            11.290                Irkutsk           352.812
       314   03 Jun 2027 21:01:40.234   03 Jun 2027 21:02:25.293            45.059            RioGallegos          1408.094
       315   03 Jun 2027 21:03:15.397   03 Jun 2027 21:04:36.661            81.264            RioGallegos          2539.500
       316   03 Jun 2027 21:11:43.418   03 Jun 2027 21:11:57.917            14.499            RioGallegos           453.094
       317   03 Jun 2027 21:44:30.705   03 Jun 2027 21:44:35.062             4.357                Anadyr2           136.156
       318   03 Jun 2027 21:45:04.853   03 Jun 2027 21:45:13.734             8.881                Anadyr2           277.531
       319   03 Jun 2027 21:45:35.926   03 Jun 2027 21:45:39.842             3.916                Anadyr2           122.375
       320   03 Jun 2027 21:45:44.185   03 Jun 2027 21:47:41.857           117.672               Magadan1          3677.250
       321   03 Jun 2027 21:48:00.532   03 Jun 2027 21:48:00.600             0.068               Magadan2             2.125
       322   03 Jun 2027 21:48:28.560   03 Jun 2027 21:49:03.217            34.657                Norilsk          1083.031
       323   03 Jun 2027 21:49:04.022   03 Jun 2027 21:49:24.799            20.777                Norilsk           649.281
       324   03 Jun 2027 21:49:31.536   03 Jun 2027 21:50:09.330            37.794                Irkutsk          1181.063
       325   03 Jun 2027 21:50:48.043   03 Jun 2027 21:51:26.975            38.932                Novosib          1216.625
       326   03 Jun 2027 21:51:42.661   03 Jun 2027 21:52:25.534            42.873                Novosib          1339.781
       327   03 Jun 2027 21:53:44.530   03 Jun 2027 21:54:24.191            39.661                Novosib          1239.406
       328   03 Jun 2027 22:03:47.086   03 Jun 2027 22:04:44.037            56.951                Sumatra          1779.719
       329   03 Jun 2027 22:11:28.707   03 Jun 2027 22:12:31.205            62.498                Sumatra          1953.062
       330   03 Jun 2027 23:17:30.304   03 Jun 2027 23:18:57.082            86.778                Anadyr2          2711.813
       331   03 Jun 2027 23:19:09.176   03 Jun 2027 23:19:25.206            16.030                Anadyr1           500.938
       332   03 Jun 2027 23:20:06.844   03 Jun 2027 23:20:14.413             7.569                Anadyr2           236.531
       333   03 Jun 2027 23:21:11.136   03 Jun 2027 23:21:32.848            21.712                Norilsk           678.500
       334   03 Jun 2027 23:21:49.170   03 Jun 2027 23:23:00.214            71.044               Magadan2          2220.125
       335   03 Jun 2027 23:23:00.214   03 Jun 2027 23:23:15.597            15.383               Magadan1           480.719
       336   03 Jun 2027 23:24:21.871   03 Jun 2027 23:24:47.009            25.138               Magadan2           785.562
       337   03 Jun 2027 23:24:49.665   03 Jun 2027 23:25:37.161            47.496               Magadan2          1484.250
       338   03 Jun 2027 23:26:28.079   03 Jun 2027 23:27:27.661            59.582                Novosib          1861.937
       339   03 Jun 2027 23:32:44.084   03 Jun 2027 23:33:40.496            56.412                  Delhi          1762.875
       340   03 Jun 2027 23:34:58.264   03 Jun 2027 23:35:56.835            58.571                  Delhi          1830.344
       341   03 Jun 2027 23:43:11.107   03 Jun 2027 23:44:29.580            78.473                  Delhi          2452.281
       342   04 Jun 2027 00:50:57.846   04 Jun 2027 00:50:58.874             1.028                Anadyr1            32.125
       343   04 Jun 2027 00:51:06.648   04 Jun 2027 00:51:26.938            20.290                Anadyr2           634.063
       344   04 Jun 2027 00:51:57.513   04 Jun 2027 00:52:28.231            30.718                Anadyr2           959.938
       345   04 Jun 2027 00:52:50.877   04 Jun 2027 00:53:17.016            26.139                Anadyr2           816.844
       346   04 Jun 2027 00:56:37.898   04 Jun 2027 00:56:47.468             9.570                Anadyr1           299.063
       347   04 Jun 2027 00:57:06.045   04 Jun 2027 00:59:22.634           136.589               Magadan1          4268.406
       348   04 Jun 2027 00:59:28.908   04 Jun 2027 01:01:30.639           121.731              Murmansk2          3804.094
       349   04 Jun 2027 01:03:53.805   04 Jun 2027 01:03:57.040             3.235                Novosib           101.094
       350   04 Jun 2027 01:03:58.041   04 Jun 2027 01:04:23.535            25.494                 Moscow           796.687
       351   04 Jun 2027 01:07:21.620   04 Jun 2027 01:07:29.474             7.854                 Moscow           245.438
       352   04 Jun 2027 01:08:50.680   04 Jun 2027 01:10:38.746           108.066                 Moscow          3377.063
       353   04 Jun 2027 02:24:26.973   04 Jun 2027 02:26:24.070           117.097                Anadyr1          3659.281
       354   04 Jun 2027 02:27:04.775   04 Jun 2027 02:27:22.276            17.501                Anadyr1           546.906
       355   04 Jun 2027 02:29:07.849   04 Jun 2027 02:29:26.341            18.492                Anadyr1           577.875
       356   04 Jun 2027 02:29:48.575   04 Jun 2027 02:31:19.659            91.084               Magadan1          2846.375
       357   04 Jun 2027 02:34:31.788   04 Jun 2027 02:34:37.977             6.189                Norilsk           193.406
       358   04 Jun 2027 02:35:05.789   04 Jun 2027 02:35:22.981            17.192                Norilsk           537.250
       359   04 Jun 2027 02:35:53.424   04 Jun 2027 02:35:55.246             1.822              Murmansk2            56.938
       360   04 Jun 2027 02:36:08.304   04 Jun 2027 02:37:28.775            80.471              Murmansk2          2514.719
       361   04 Jun 2027 02:37:50.563   04 Jun 2027 02:39:09.058            78.495                Novosib          2452.969
       362   04 Jun 2027 02:44:47.128   04 Jun 2027 02:44:55.003             7.875                Novosib           246.094
       363   04 Jun 2027 02:50:22.950   04 Jun 2027 02:51:14.155            51.205                 Moscow          1600.156
       364   04 Jun 2027 03:09:29.117   04 Jun 2027 03:10:19.245            50.128               CapeTown          1566.500
       365   04 Jun 2027 04:06:11.488   04 Jun 2027 04:09:17.937           186.449               Magadan1          5826.531
       366   04 Jun 2027 04:10:44.551   04 Jun 2027 04:11:58.706            74.155                Anadyr1          2317.344
       367   04 Jun 2027 05:42:26.256   04 Jun 2027 05:43:51.846            85.590               Magadan1          2674.688
       368   04 Jun 2027 05:43:51.846   04 Jun 2027 05:47:41.568           229.722               Magadan2          7178.813
       369   04 Jun 2027 07:16:13.484   04 Jun 2027 07:16:40.796            27.312                Anadyr1           853.500
       370   04 Jun 2027 07:17:10.224   04 Jun 2027 07:17:23.460            13.236                Irkutsk           413.625
       371   04 Jun 2027 07:17:41.339   04 Jun 2027 07:17:54.710            13.371               Magadan1           417.844
       372   04 Jun 2027 07:18:10.342   04 Jun 2027 07:18:36.103            25.761               Magadan2           805.031
       373   04 Jun 2027 07:18:37.928   04 Jun 2027 07:19:49.404            71.476               Magadan1          2233.625
       374   04 Jun 2027 07:20:04.559   04 Jun 2027 07:20:23.409            18.850                Anadyr1           589.063
       375   04 Jun 2027 07:20:30.440   04 Jun 2027 07:21:22.082            51.642                Novosib          1613.812
       376   04 Jun 2027 07:21:26.723   04 Jun 2027 07:22:56.589            89.866                Anadyr1          2808.313
       377   04 Jun 2027 08:54:03.729   04 Jun 2027 08:54:53.793            50.064               Magadan1          1564.500
       378   04 Jun 2027 08:55:08.804   04 Jun 2027 08:55:24.433            15.629               Magadan2           488.406
       379   04 Jun 2027 08:55:39.570   04 Jun 2027 08:56:09.576            30.006               Magadan1           937.688
       380   04 Jun 2027 08:56:20.888   04 Jun 2027 08:56:39.963            19.075                Irkutsk           596.094
       381   04 Jun 2027 08:56:41.603   04 Jun 2027 08:57:03.618            22.015                Novosib           687.969
       382   04 Jun 2027 08:57:08.582   04 Jun 2027 08:57:33.348            24.766                Irkutsk           773.937
       383   04 Jun 2027 08:57:38.395   04 Jun 2027 08:57:41.199             2.804               Magadan1            87.625
       384   04 Jun 2027 08:57:41.199   04 Jun 2027 08:57:56.308            15.109               Magadan2           472.156
       385   04 Jun 2027 08:58:23.458   04 Jun 2027 08:58:41.612            18.154                Irkutsk           567.312
       386   04 Jun 2027 08:59:20.866   04 Jun 2027 08:59:21.764             0.898                Irkutsk            28.062
       387   04 Jun 2027 09:00:58.602   04 Jun 2027 09:01:09.169            10.567              Murmansk1           330.219
       388   04 Jun 2027 09:34:07.476   04 Jun 2027 09:35:18.080            70.604            RioGallegos          2206.375
       389   04 Jun 2027 10:08:57.680   04 Jun 2027 10:09:37.914            40.234                Sumatra          1257.313
       390   04 Jun 2027 10:12:03.422   04 Jun 2027 10:12:11.524             8.102                Sumatra           253.187
       391   04 Jun 2027 10:22:02.591   04 Jun 2027 10:22:47.968            45.377                  Delhi          1418.031
       392   04 Jun 2027 10:22:54.075   04 Jun 2027 10:23:38.712            44.637                  Delhi          1394.906
       393   04 Jun 2027 10:31:30.117   04 Jun 2027 10:31:32.996             2.879                Irkutsk            89.969
       394   04 Jun 2027 10:32:32.404   04 Jun 2027 10:32:40.737             8.333                Irkutsk           260.406
       395   04 Jun 2027 10:32:45.410   04 Jun 2027 10:32:59.843            14.433                Irkutsk           451.031
       396   04 Jun 2027 10:33:08.620   04 Jun 2027 10:33:38.507            29.887                Irkutsk           933.969
       397   04 Jun 2027 10:34:06.971   04 Jun 2027 10:34:12.283             5.312                Irkutsk           166.000
       398   04 Jun 2027 10:34:49.233   04 Jun 2027 10:34:56.082             6.849                Novosib           214.031
       399   04 Jun 2027 10:35:00.005   04 Jun 2027 10:36:18.787            78.782                Novosib          2461.938
       400   04 Jun 2027 11:17:21.187   04 Jun 2027 11:18:04.260            43.073            RioGallegos          1346.031
       401   04 Jun 2027 11:48:28.795   04 Jun 2027 11:49:02.004            33.209                Sumatra          1037.781
       402   04 Jun 2027 11:55:59.180   04 Jun 2027 11:56:18.147            18.967                  Delhi           592.719
       403   04 Jun 2027 12:04:31.362   04 Jun 2027 12:04:33.938             2.576                Irkutsk            80.500
       404   04 Jun 2027 12:06:04.905   04 Jun 2027 12:06:47.038            42.133                Irkutsk          1316.656
       405   04 Jun 2027 12:14:26.048   04 Jun 2027 12:14:39.575            13.527                Norilsk           422.719
       406   04 Jun 2027 12:14:40.716   04 Jun 2027 12:15:16.368            35.652                Norilsk          1114.125
       407   04 Jun 2027 13:37:34.065   04 Jun 2027 13:38:39.508            65.443                 Moscow          2045.094
       408   04 Jun 2027 13:41:10.908   04 Jun 2027 13:41:54.379            43.471              Murmansk2          1358.469
       409   04 Jun 2027 13:43:09.445   04 Jun 2027 13:43:21.358            11.913              Murmansk1           372.281
       410   04 Jun 2027 13:44:26.625   04 Jun 2027 13:46:49.128           142.503                Norilsk          4453.219
       411   04 Jun 2027 13:48:23.815   04 Jun 2027 13:48:48.676            24.861                Norilsk           776.906
       412   04 Jun 2027 13:49:14.776   04 Jun 2027 13:50:07.121            52.345                Norilsk          1635.781
       413   04 Jun 2027 14:52:31.312   04 Jun 2027 14:53:10.006            38.694               CapeTown          1209.188
       414   04 Jun 2027 14:55:23.269   04 Jun 2027 14:55:24.669             1.400               CapeTown            43.750
       415   04 Jun 2027 14:56:17.509   04 Jun 2027 14:57:12.233            54.724               CapeTown          1710.125
       416   04 Jun 2027 14:58:01.010   04 Jun 2027 14:58:52.320            51.310               CapeTown          1603.437
       417   04 Jun 2027 15:14:33.839   04 Jun 2027 15:14:40.579             6.740                 Moscow           210.625
       418   04 Jun 2027 15:15:04.004   04 Jun 2027 15:15:07.142             3.138                 Moscow            98.062
       419   04 Jun 2027 15:17:49.713   04 Jun 2027 15:18:25.057            35.344              Murmansk2          1104.500
       420   04 Jun 2027 15:18:44.877   04 Jun 2027 15:19:10.299            25.422              Murmansk2           794.437
       421   04 Jun 2027 15:21:02.313   04 Jun 2027 15:22:18.650            76.337              Murmansk2          2385.531
       422   04 Jun 2027 15:28:09.170   04 Jun 2027 15:28:18.409             9.239              Murmansk2           288.719
       423   04 Jun 2027 15:32:08.413   04 Jun 2027 15:34:44.371           155.958                Anadyr1          4873.687
       424   04 Jun 2027 15:39:50.163   04 Jun 2027 15:40:04.714            14.551                Anadyr2           454.719
       425   04 Jun 2027 15:40:27.039   04 Jun 2027 15:40:38.956            11.917                Anadyr2           372.406
       426   04 Jun 2027 16:36:17.970   04 Jun 2027 16:36:36.694            18.724               CapeTown           585.125
       427   04 Jun 2027 16:37:11.862   04 Jun 2027 16:38:10.438            58.576               CapeTown          1830.500
       428   04 Jun 2027 16:56:53.464   04 Jun 2027 16:58:07.929            74.465              Murmansk1          2327.031
       429   04 Jun 2027 16:58:30.625   04 Jun 2027 16:59:15.175            44.550              Murmansk2          1392.187
       430   04 Jun 2027 17:04:07.384   04 Jun 2027 17:04:49.787            42.403              Murmansk2          1325.094
       431   04 Jun 2027 17:07:35.725   04 Jun 2027 17:08:50.912            75.187                Anadyr1          2349.594
       432   04 Jun 2027 17:11:18.672   04 Jun 2027 17:12:50.379            91.707               Magadan2          2865.844
       433   04 Jun 2027 18:43:29.817   04 Jun 2027 18:47:40.298           250.481                Anadyr1          7827.531
       434   04 Jun 2027 18:47:53.999   04 Jun 2027 18:50:08.847           134.848               Magadan2          4214.000
       435   04 Jun 2027 18:54:20.181   04 Jun 2027 18:54:23.163             2.982               Magadan1            93.187
       436   04 Jun 2027 18:54:59.843   04 Jun 2027 18:55:06.657             6.814               Magadan1           212.938
       437   04 Jun 2027 18:55:28.936   04 Jun 2027 18:55:50.458            21.522               Magadan1           672.563
       438   04 Jun 2027 18:56:49.102   04 Jun 2027 18:57:46.700            57.598               Magadan1          1799.937
       439   04 Jun 2027 20:19:22.263   04 Jun 2027 20:21:28.339           126.076                Anadyr2          3939.875
       440   04 Jun 2027 20:21:41.042   04 Jun 2027 20:23:27.680           106.638                Norilsk          3332.438
       441   04 Jun 2027 20:23:51.979   04 Jun 2027 20:24:54.299            62.320               Magadan1          1947.500
       442   04 Jun 2027 20:25:39.935   04 Jun 2027 20:26:06.951            27.016               Magadan1           844.250
       443   04 Jun 2027 20:27:23.971   04 Jun 2027 20:27:42.858            18.887               Magadan1           590.219
       444   04 Jun 2027 20:28:25.534   04 Jun 2027 20:28:28.319             2.785               Magadan2            87.031
       445   04 Jun 2027 20:28:54.394   04 Jun 2027 20:29:31.679            37.285               Magadan2          1165.156
       446   04 Jun 2027 20:29:52.903   04 Jun 2027 20:30:04.319            11.416                Irkutsk           356.750
       447   04 Jun 2027 20:30:20.478   04 Jun 2027 20:30:52.563            32.085                Irkutsk          1002.656
       448   04 Jun 2027 20:31:27.056   04 Jun 2027 20:33:21.465           114.409                Irkutsk          3575.281
       449   04 Jun 2027 20:44:36.814   04 Jun 2027 20:45:18.247            41.433                Sumatra          1294.781
       450   04 Jun 2027 20:47:00.876   04 Jun 2027 20:47:05.588             4.712                Sumatra           147.250
       451   04 Jun 2027 21:54:49.879   04 Jun 2027 21:57:05.859           135.980                Anadyr1          4249.375
       452   04 Jun 2027 21:57:14.065   04 Jun 2027 21:57:43.061            28.996                Norilsk           906.125
       453   04 Jun 2027 21:58:16.954   04 Jun 2027 21:58:27.797            10.843                Norilsk           338.844
       454   04 Jun 2027 21:58:59.364   04 Jun 2027 21:59:18.793            19.429               Magadan2           607.156
       455   04 Jun 2027 21:59:25.049   04 Jun 2027 22:00:02.230            37.181               Magadan2          1161.906
       456   04 Jun 2027 22:01:15.170   04 Jun 2027 22:02:28.393            73.223                Irkutsk          2288.219
       457   04 Jun 2027 22:03:28.739   04 Jun 2027 22:04:04.996            36.257                Novosib          1133.031
       458   04 Jun 2027 22:14:56.440   04 Jun 2027 22:15:51.003            54.563                Sumatra          1705.094
       459   04 Jun 2027 22:17:38.569   04 Jun 2027 22:17:56.736            18.167                Sumatra           567.719
       460   04 Jun 2027 22:19:49.312   04 Jun 2027 22:20:55.958            66.646                Sumatra          2082.687
       461   04 Jun 2027 23:29:16.114   04 Jun 2027 23:30:58.197           102.083                Anadyr2          3190.094
       462   04 Jun 2027 23:33:13.222   04 Jun 2027 23:33:33.327            20.105                Norilsk           628.281
       463   04 Jun 2027 23:33:50.572   04 Jun 2027 23:35:15.859            85.287               Magadan1          2665.219
       464   04 Jun 2027 23:37:05.600   04 Jun 2027 23:38:28.570            82.970                Novosib          2592.813
       465   04 Jun 2027 23:39:30.856   04 Jun 2027 23:40:02.500            31.644                Novosib           988.875
       466   04 Jun 2027 23:43:19.726   04 Jun 2027 23:44:09.360            49.634                Novosib          1551.063
       467   04 Jun 2027 23:44:33.891   04 Jun 2027 23:45:35.106            61.215                  Delhi          1912.969
       468   04 Jun 2027 23:48:48.687   04 Jun 2027 23:50:42.870           114.183                  Delhi          3568.219
       469   05 Jun 2027 01:02:38.912   05 Jun 2027 01:02:50.798            11.886                Anadyr2           371.438
       470   05 Jun 2027 01:02:55.618   05 Jun 2027 01:03:28.026            32.408                Anadyr1          1012.750
       471   05 Jun 2027 01:04:50.780   05 Jun 2027 01:05:13.580            22.800                Anadyr1           712.500
       472   05 Jun 2027 01:07:45.591   05 Jun 2027 01:08:24.500            38.909                Anadyr2          1215.906
       473   05 Jun 2027 01:08:49.745   05 Jun 2027 01:09:36.839            47.094               Magadan2          1471.687
       474   05 Jun 2027 01:09:36.839   05 Jun 2027 01:09:55.858            19.019               Magadan1           594.344
       475   05 Jun 2027 01:10:42.069   05 Jun 2027 01:11:13.819            31.750                Norilsk           992.188
       476   05 Jun 2027 01:11:27.826   05 Jun 2027 01:13:28.067           120.241              Murmansk1          3757.531
       477   05 Jun 2027 01:15:39.009   05 Jun 2027 01:16:46.601            67.592                 Moscow          2112.250
       478   05 Jun 2027 01:21:08.508   05 Jun 2027 01:21:24.603            16.095                  Delhi           502.969
       479   05 Jun 2027 01:24:04.689   05 Jun 2027 01:24:37.415            32.726                  Delhi          1022.687
       480   05 Jun 2027 01:43:29.725   05 Jun 2027 01:44:43.792            74.067               CapeTown          2314.594
       481   05 Jun 2027 02:36:14.168   05 Jun 2027 02:38:23.229           129.061                Anadyr2          4033.156
       482   05 Jun 2027 02:40:44.345   05 Jun 2027 02:41:50.406            66.061               Magadan2          2064.406
