uniorb/output/strategy_4/Drop/Drop_KinoSat_111705.txt

KinoSat_111705
-------------------------
    Access    *     Start Time (UTCG)     *     Stop Time (UTCG)  *   Duration (s)        *       Station  *  Data (Mbytes)
         1   01 Jun 2027 03:10:34.036   01 Jun 2027 03:11:18.661            44.625              Murmansk1          1394.531
         2   01 Jun 2027 03:11:22.595   01 Jun 2027 03:11:58.720            36.125              Murmansk1          1128.906
         3   01 Jun 2027 03:12:02.781   01 Jun 2027 03:14:08.060           125.279                Novosib          3914.969
         4   01 Jun 2027 03:14:25.796   01 Jun 2027 03:15:21.896            56.100                Novosib          1753.125
         5   01 Jun 2027 03:16:18.133   01 Jun 2027 03:16:54.183            36.050                  Delhi          1126.562
         6   01 Jun 2027 03:18:35.848   01 Jun 2027 03:18:42.236             6.388                Novosib           199.625
         7   01 Jun 2027 03:20:03.806   01 Jun 2027 03:20:50.098            46.292                  Delhi          1446.625
         8   01 Jun 2027 04:49:45.213   01 Jun 2027 04:50:30.644            45.431                Novosib          1419.719
         9   01 Jun 2027 04:50:40.111   01 Jun 2027 04:54:11.507           211.396              Murmansk1          6606.125
        10   01 Jun 2027 04:54:20.563   01 Jun 2027 04:55:02.198            41.635              Murmansk1          1301.094
        11   01 Jun 2027 04:55:22.892   01 Jun 2027 04:57:32.891           129.999                 Moscow          4062.469
        12   01 Jun 2027 05:10:03.241   01 Jun 2027 05:10:35.853            32.612               CapeTown          1019.125
        13   01 Jun 2027 05:10:53.422   01 Jun 2027 05:11:57.106            63.684               CapeTown          1990.125
        14   01 Jun 2027 06:13:58.128   01 Jun 2027 06:14:32.247            34.119               Magadan2          1066.219
        15   01 Jun 2027 06:14:58.854   01 Jun 2027 06:16:49.682           110.828               Magadan1          3463.375
        16   01 Jun 2027 06:17:00.072   01 Jun 2027 06:17:48.633            48.561               Magadan1          1517.531
        17   01 Jun 2027 06:18:54.318   01 Jun 2027 06:18:58.770             4.452               Magadan2           139.125
        18   01 Jun 2027 06:25:28.257   01 Jun 2027 06:29:12.255           223.998              Murmansk1          6999.937
        19   01 Jun 2027 07:49:28.354   01 Jun 2027 07:51:35.482           127.128                Anadyr2          3972.750
        20   01 Jun 2027 07:51:52.422   01 Jun 2027 07:53:45.997           113.575               Magadan2          3549.219
        21   01 Jun 2027 07:54:12.671   01 Jun 2027 07:55:21.117            68.446                Anadyr1          2138.938
        22   01 Jun 2027 09:23:03.984   01 Jun 2027 09:23:22.257            18.273               Magadan1           571.031
        23   01 Jun 2027 09:23:36.582   01 Jun 2027 09:23:52.975            16.393                Irkutsk           512.281
        24   01 Jun 2027 09:24:19.271   01 Jun 2027 09:25:26.894            67.623                Anadyr1          2113.219
        25   01 Jun 2027 09:25:26.894   01 Jun 2027 09:27:09.830           102.936                Anadyr2          3216.750
        26   01 Jun 2027 09:27:09.830   01 Jun 2027 09:28:33.025            83.195                Anadyr1          2599.844
        27   01 Jun 2027 09:29:15.626   01 Jun 2027 09:30:35.692            80.066                Anadyr1          2502.062
        28   01 Jun 2027 11:02:24.070   01 Jun 2027 11:02:28.892             4.822                Irkutsk           150.688
        29   01 Jun 2027 11:02:29.235   01 Jun 2027 11:05:38.326           189.091               Magadan1          5909.094
        30   01 Jun 2027 11:06:18.656   01 Jun 2027 11:07:53.941            95.285                Norilsk          2977.656
        31   01 Jun 2027 11:07:57.876   01 Jun 2027 11:07:59.115             1.239                Novosib            38.719
        32   01 Jun 2027 11:08:29.984   01 Jun 2027 11:09:36.818            66.834                Norilsk          2088.562
        33   01 Jun 2027 11:41:33.509   01 Jun 2027 11:42:34.297            60.788            RioGallegos          1899.625
        34   01 Jun 2027 11:43:24.962   01 Jun 2027 11:44:39.092            74.130            RioGallegos          2316.563
        35   01 Jun 2027 12:16:19.540   01 Jun 2027 12:16:47.318            27.778                Sumatra           868.063
        36   01 Jun 2027 12:17:33.083   01 Jun 2027 12:19:17.198           104.115                Sumatra          3253.594
        37   01 Jun 2027 12:28:11.366   01 Jun 2027 12:28:34.511            23.145                Sumatra           723.281
        38   01 Jun 2027 12:30:25.403   01 Jun 2027 12:33:18.739           173.336                Irkutsk          5416.750
        39   01 Jun 2027 12:34:51.163   01 Jun 2027 12:35:51.976            60.813                Norilsk          1900.406
        40   01 Jun 2027 12:38:06.829   01 Jun 2027 12:39:06.239            59.410                Norilsk          1856.563
        41   01 Jun 2027 13:21:14.259   01 Jun 2027 13:28:03.402           409.143            RioGallegos         12785.719
        42   01 Jun 2027 13:56:51.180   01 Jun 2027 13:59:27.447           156.267                Sumatra          4883.344
        43   01 Jun 2027 14:12:46.663   01 Jun 2027 14:14:45.954           119.291                Irkutsk          3727.844
        44   01 Jun 2027 15:48:20.810   01 Jun 2027 15:49:38.609            77.799              Murmansk1          2431.219
        45   01 Jun 2027 15:52:02.114   01 Jun 2027 15:53:18.500            76.386                Norilsk          2387.063
        46   01 Jun 2027 15:54:43.412   01 Jun 2027 15:55:44.864            61.452                Norilsk          1920.375
        47   01 Jun 2027 15:56:30.283   01 Jun 2027 15:57:35.301            65.018                Norilsk          2031.813
        48   01 Jun 2027 16:59:42.577   01 Jun 2027 17:00:04.923            22.346               CapeTown           698.313
        49   01 Jun 2027 17:02:39.412   01 Jun 2027 17:02:46.683             7.271               CapeTown           227.219
        50   01 Jun 2027 17:22:05.041   01 Jun 2027 17:22:57.215            52.174                 Moscow          1630.437
        51   01 Jun 2027 17:23:41.515   01 Jun 2027 17:26:02.949           141.434                 Moscow          4419.812
        52   01 Jun 2027 17:26:57.675   01 Jun 2027 17:27:41.349            43.674              Murmansk1          1364.812
        53   01 Jun 2027 17:29:16.703   01 Jun 2027 17:29:45.572            28.869              Murmansk2           902.156
        54   01 Jun 2027 17:30:43.576   01 Jun 2027 17:31:27.198            43.622              Murmansk2          1363.187
        55   01 Jun 2027 17:32:31.862   01 Jun 2027 17:32:34.022             2.160                 Moscow            67.500
        56   01 Jun 2027 17:33:28.322   01 Jun 2027 17:34:06.827            38.505              Murmansk2          1203.281
        57   01 Jun 2027 17:44:24.477   01 Jun 2027 17:44:27.643             3.166                Anadyr1            98.937
        58   01 Jun 2027 17:45:07.619   01 Jun 2027 17:45:29.294            21.675                Anadyr1           677.344
        59   01 Jun 2027 17:45:48.620   01 Jun 2027 17:46:13.038            24.418                Anadyr1           763.062
        60   01 Jun 2027 18:34:23.016   01 Jun 2027 18:36:28.110           125.094               CapeTown          3909.187
        61   01 Jun 2027 18:37:29.300   01 Jun 2027 18:37:37.424             8.124               CapeTown           253.875
        62   01 Jun 2027 18:40:43.961   01 Jun 2027 18:42:29.126           105.165               CapeTown          3286.406
        63   01 Jun 2027 19:04:27.857   01 Jun 2027 19:05:14.311            46.454              Murmansk2          1451.688
        64   01 Jun 2027 19:05:33.061   01 Jun 2027 19:13:01.980           448.919              Murmansk1         14028.719
        65   01 Jun 2027 20:13:35.692   01 Jun 2027 20:17:13.935           218.243               CapeTown          6820.094
        66   01 Jun 2027 20:53:51.357   01 Jun 2027 20:54:20.256            28.899               Magadan1           903.094
        67   01 Jun 2027 20:57:23.687   01 Jun 2027 20:58:06.854            43.167               Magadan2          1348.969
        68   01 Jun 2027 22:26:46.070   01 Jun 2027 22:31:36.165           290.095                Anadyr2          9065.469
        69   01 Jun 2027 22:31:49.202   01 Jun 2027 22:32:24.250            35.048                Anadyr2          1095.250
        70   01 Jun 2027 22:32:27.493   01 Jun 2027 22:34:17.056           109.563               Magadan2          3423.844
        71   01 Jun 2027 22:34:30.886   01 Jun 2027 22:35:26.363            55.477                Irkutsk          1733.656
        72   01 Jun 2027 22:35:40.154   01 Jun 2027 22:36:41.199            61.045                Irkutsk          1907.656
        73   01 Jun 2027 22:50:56.538   01 Jun 2027 22:53:30.610           154.072                Sumatra          4814.750
        74   01 Jun 2027 23:28:42.352   01 Jun 2027 23:29:03.114            20.762            RioGallegos           648.813
        75   01 Jun 2027 23:31:22.576   01 Jun 2027 23:31:51.114            28.538            RioGallegos           891.812
        76   01 Jun 2027 23:32:47.604   01 Jun 2027 23:32:48.817             1.213            RioGallegos            37.906
        77   02 Jun 2027 00:02:12.454   02 Jun 2027 00:03:41.370            88.916                Anadyr1          2778.625
        78   02 Jun 2027 00:04:36.476   02 Jun 2027 00:06:19.476           103.000                Norilsk          3218.750
        79   02 Jun 2027 00:06:30.287   02 Jun 2027 00:06:36.611             6.324               Magadan2           197.625
        80   02 Jun 2027 00:06:47.619   02 Jun 2027 00:06:57.121             9.502               Magadan2           296.937
        81   02 Jun 2027 00:08:36.774   02 Jun 2027 00:10:19.512           102.738                Irkutsk          3210.563
        82   02 Jun 2027 00:11:23.965   02 Jun 2027 00:12:42.680            78.715                Novosib          2459.844
        83   02 Jun 2027 00:15:50.500   02 Jun 2027 00:16:05.802            15.302                Novosib           478.188
        84   02 Jun 2027 00:17:04.118   02 Jun 2027 00:18:14.567            70.449                Novosib          2201.531
        85   02 Jun 2027 00:26:36.020   02 Jun 2027 00:28:14.869            98.849                Sumatra          3089.031
        86   02 Jun 2027 01:02:46.606   02 Jun 2027 01:03:12.808            26.202            RioGallegos           818.813
        87   02 Jun 2027 01:04:23.559   02 Jun 2027 01:04:28.489             4.930            RioGallegos           154.062
        88   02 Jun 2027 01:05:35.211   02 Jun 2027 01:05:57.340            22.129            RioGallegos           691.531
        89   02 Jun 2027 01:08:02.888   02 Jun 2027 01:08:26.759            23.871            RioGallegos           745.969
        90   02 Jun 2027 01:36:35.451   02 Jun 2027 01:36:51.022            15.571                Anadyr1           486.594
        91   02 Jun 2027 01:37:31.358   02 Jun 2027 01:38:07.876            36.518                Anadyr1          1141.187
        92   02 Jun 2027 01:38:24.479   02 Jun 2027 01:38:42.675            18.196                Anadyr2           568.625
        93   02 Jun 2027 01:38:56.370   02 Jun 2027 01:39:12.712            16.342                Anadyr1           510.688
        94   02 Jun 2027 01:40:36.645   02 Jun 2027 01:41:59.763            83.118                Norilsk          2597.438
        95   02 Jun 2027 01:42:05.488   02 Jun 2027 01:42:27.673            22.185                Norilsk           693.281
        96   02 Jun 2027 01:44:08.416   02 Jun 2027 01:44:38.209            29.793              Murmansk1           931.031
        97   02 Jun 2027 01:44:53.923   02 Jun 2027 01:44:57.627             3.704                Norilsk           115.750
        98   02 Jun 2027 01:45:00.237   02 Jun 2027 01:45:37.885            37.648                Novosib          1176.500
        99   02 Jun 2027 01:45:51.313   02 Jun 2027 01:46:59.164            67.851                Novosib          2120.344
       100   02 Jun 2027 01:48:15.571   02 Jun 2027 01:49:05.499            49.928                Novosib          1560.250
       101   02 Jun 2027 01:52:44.390   02 Jun 2027 01:53:37.028            52.638                  Delhi          1644.937
       102   02 Jun 2027 02:01:24.380   02 Jun 2027 02:02:05.107            40.727                  Delhi          1272.719
       103   02 Jun 2027 02:33:18.716   02 Jun 2027 02:34:22.238            63.522            RioGallegos          1985.063
       104   02 Jun 2027 02:35:27.329   02 Jun 2027 02:35:51.965            24.636            RioGallegos           769.875
       105   02 Jun 2027 02:36:16.871   02 Jun 2027 02:37:42.713            85.842            RioGallegos          2682.563
       106   02 Jun 2027 03:23:44.882   02 Jun 2027 03:23:52.563             7.681              Murmansk1           240.031
       107   02 Jun 2027 03:24:09.861   02 Jun 2027 03:24:56.182            46.321                Novosib          1447.531
       108   02 Jun 2027 03:25:06.457   02 Jun 2027 03:26:54.756           108.299              Murmansk1          3384.344
       109   02 Jun 2027 03:26:54.756   02 Jun 2027 03:27:06.213            11.457              Murmansk2           358.031
       110   02 Jun 2027 03:27:22.111   02 Jun 2027 03:29:22.178           120.067                Norilsk          3752.094
       111   02 Jun 2027 03:29:29.086   02 Jun 2027 03:30:40.868            71.782                 Moscow          2243.187
       112   02 Jun 2027 03:30:51.234   02 Jun 2027 03:31:53.209            61.975                Novosib          1936.719
       113   02 Jun 2027 03:32:41.448   02 Jun 2027 03:34:02.458            81.010                  Delhi          2531.562
       114   02 Jun 2027 05:02:38.459   02 Jun 2027 05:03:02.109            23.650                Novosib           739.062
       115   02 Jun 2027 05:05:28.995   02 Jun 2027 05:09:17.886           228.891                 Moscow          7152.844
       116   02 Jun 2027 05:21:55.115   02 Jun 2027 05:25:37.934           222.819               CapeTown          6963.094
       117   02 Jun 2027 05:31:13.188   02 Jun 2027 05:31:26.545            13.357               CapeTown           417.406
       118   02 Jun 2027 05:31:51.509   02 Jun 2027 05:32:16.989            25.480               CapeTown           796.250
       119   02 Jun 2027 06:18:33.625   02 Jun 2027 06:20:53.411           139.786                Anadyr1          4368.312
       120   02 Jun 2027 06:20:53.411   02 Jun 2027 06:21:22.060            28.649                Anadyr2           895.281
       121   02 Jun 2027 06:21:25.164   02 Jun 2027 06:22:29.377            64.213               Magadan2          2006.656
       122   02 Jun 2027 06:25:01.793   02 Jun 2027 06:25:17.836            16.043                Anadyr2           501.344
       123   02 Jun 2027 06:25:17.836   02 Jun 2027 06:28:09.797           171.961                Anadyr1          5373.781
       124   02 Jun 2027 06:30:31.324   02 Jun 2027 06:31:02.018            30.694               Magadan2           959.188
       125   02 Jun 2027 08:02:47.427   02 Jun 2027 08:05:17.325           149.898               Magadan2          4684.313
       126   02 Jun 2027 08:05:17.325   02 Jun 2027 08:07:07.253           109.928               Magadan1          3435.250
       127   02 Jun 2027 09:34:14.762   02 Jun 2027 09:35:23.629            68.867               Magadan2          2152.094
       128   02 Jun 2027 09:35:28.733   02 Jun 2027 09:36:19.152            50.419               Magadan2          1575.594
       129   02 Jun 2027 09:36:56.802   02 Jun 2027 09:37:08.898            12.096               Magadan1           378.000
       130   02 Jun 2027 09:37:44.255   02 Jun 2027 09:39:12.111            87.856               Magadan2          2745.500
       131   02 Jun 2027 09:39:51.976   02 Jun 2027 09:40:18.459            26.483                Anadyr1           827.594
       132   02 Jun 2027 09:40:24.061   02 Jun 2027 09:40:43.961            19.900               Magadan2           621.875
       133   02 Jun 2027 09:40:43.961   02 Jun 2027 09:41:04.130            20.169               Magadan1           630.281
       134   02 Jun 2027 09:41:10.115   02 Jun 2027 09:41:14.924             4.809                Anadyr1           150.281
       135   02 Jun 2027 09:41:33.605   02 Jun 2027 09:42:00.932            27.327                Irkutsk           853.969
       136   02 Jun 2027 09:42:08.231   02 Jun 2027 09:42:10.643             2.412                Norilsk            75.375
       137   02 Jun 2027 09:42:12.664   02 Jun 2027 09:42:24.733            12.069                Norilsk           377.156
       138   02 Jun 2027 09:46:15.205   02 Jun 2027 09:46:23.456             8.251                Norilsk           257.844
       139   02 Jun 2027 10:18:04.061   02 Jun 2027 10:18:42.645            38.584            RioGallegos          1205.750
       140   02 Jun 2027 10:22:09.202   02 Jun 2027 10:22:25.862            16.660            RioGallegos           520.625
       141   02 Jun 2027 10:26:03.875   02 Jun 2027 10:26:18.313            14.438            RioGallegos           451.188
       142   02 Jun 2027 10:56:02.300   02 Jun 2027 10:57:10.216            67.916                Sumatra          2122.375
       143   02 Jun 2027 11:11:29.144   02 Jun 2027 11:15:07.864           218.720               Magadan1          6835.000
       144   02 Jun 2027 11:15:36.161   02 Jun 2027 11:16:22.450            46.289                Irkutsk          1446.531
       145   02 Jun 2027 11:16:31.904   02 Jun 2027 11:16:55.965            24.061                Norilsk           751.906
       146   02 Jun 2027 11:17:06.586   02 Jun 2027 11:17:16.736            10.150                Novosib           317.188
       147   02 Jun 2027 11:17:29.011   02 Jun 2027 11:17:40.280            11.269                Irkutsk           352.156
       148   02 Jun 2027 11:17:43.140   02 Jun 2027 11:17:57.193            14.053                Norilsk           439.156
       149   02 Jun 2027 11:18:13.054   02 Jun 2027 11:18:34.627            21.573                Novosib           674.156
       150   02 Jun 2027 11:18:48.480   02 Jun 2027 11:19:58.208            69.728                Novosib          2179.000
       151   02 Jun 2027 11:54:04.954   02 Jun 2027 11:54:08.932             3.978            RioGallegos           124.313
       152   02 Jun 2027 11:54:39.417   02 Jun 2027 11:55:22.574            43.157            RioGallegos          1348.656
       153   02 Jun 2027 12:28:20.736   02 Jun 2027 12:28:30.984            10.248                Sumatra           320.250
       154   02 Jun 2027 12:30:24.485   02 Jun 2027 12:30:55.703            31.218                Sumatra           975.562
       155   02 Jun 2027 12:40:54.710   02 Jun 2027 12:41:28.033            33.323                  Delhi          1041.344
       156   02 Jun 2027 12:42:45.502   02 Jun 2027 12:43:51.417            65.915                Irkutsk          2059.844
       157   02 Jun 2027 12:44:27.839   02 Jun 2027 12:45:29.276            61.437                Novosib          1919.906
       158   02 Jun 2027 12:46:58.356   02 Jun 2027 12:47:50.237            51.881                Norilsk          1621.281
       159   02 Jun 2027 12:52:03.316   02 Jun 2027 12:52:22.456            19.140                Norilsk           598.125
       160   02 Jun 2027 13:34:29.555   02 Jun 2027 13:37:15.111           165.556            RioGallegos          5173.625
       161   02 Jun 2027 14:15:35.790   02 Jun 2027 14:17:18.251           102.461                  Delhi          3201.906
       162   02 Jun 2027 14:20:39.968   02 Jun 2027 14:20:55.869            15.901                Novosib           496.906
       163   02 Jun 2027 14:24:32.378   02 Jun 2027 14:25:38.767            66.389                Novosib          2074.656
       164   02 Jun 2027 14:26:09.652   02 Jun 2027 14:27:41.628            91.976                Norilsk          2874.250
       165   02 Jun 2027 14:33:36.805   02 Jun 2027 14:33:42.857             6.052                Norilsk           189.125
       166   02 Jun 2027 15:56:56.028   02 Jun 2027 16:00:14.968           198.940                 Moscow          6216.875
       167   02 Jun 2027 16:00:24.193   02 Jun 2027 16:03:22.835           178.642              Murmansk1          5582.563
       168   02 Jun 2027 16:04:45.863   02 Jun 2027 16:07:42.218           176.355                Norilsk          5511.094
       169   02 Jun 2027 16:09:42.206   02 Jun 2027 16:10:33.911            51.705                Norilsk          1615.781
       170   02 Jun 2027 17:34:32.896   02 Jun 2027 17:35:08.919            36.023                 Moscow          1125.719
       171   02 Jun 2027 17:37:35.880   02 Jun 2027 17:38:23.712            47.832              Murmansk2          1494.750
       172   02 Jun 2027 17:39:52.796   02 Jun 2027 17:41:15.894            83.098              Murmansk1          2596.813
       173   02 Jun 2027 17:51:22.442   02 Jun 2027 17:52:07.825            45.383                Anadyr1          1418.219
       174   02 Jun 2027 17:56:14.661   02 Jun 2027 17:56:28.589            13.928                Anadyr1           435.250
       175   02 Jun 2027 17:57:51.333   02 Jun 2027 17:57:55.454             4.121                Anadyr2           128.781
       176   02 Jun 2027 17:59:30.143   02 Jun 2027 17:59:30.828             0.685                Anadyr1            21.406
       177   02 Jun 2027 17:59:50.474   02 Jun 2027 18:00:25.154            34.680                Anadyr1          1083.750
       178   02 Jun 2027 18:46:29.627   02 Jun 2027 18:47:39.102            69.475               CapeTown          2171.094
       179   02 Jun 2027 18:54:49.640   02 Jun 2027 18:55:13.144            23.504               CapeTown           734.500
       180   02 Jun 2027 18:55:21.881   02 Jun 2027 18:56:11.282            49.401               CapeTown          1543.781
       181   02 Jun 2027 19:17:06.691   02 Jun 2027 19:21:17.545           250.854              Murmansk2          7839.188
       182   02 Jun 2027 19:22:00.876   02 Jun 2027 19:22:37.708            36.832              Murmansk2          1151.000
       183   02 Jun 2027 19:32:04.227   02 Jun 2027 19:32:33.754            29.527               Magadan2           922.719
       184   02 Jun 2027 19:36:34.799   02 Jun 2027 19:37:15.855            41.056               Magadan1          1283.000
       185   02 Jun 2027 21:02:55.274   02 Jun 2027 21:06:32.992           217.718                Anadyr2          6803.687
       186   02 Jun 2027 21:06:41.137   02 Jun 2027 21:06:50.678             9.541               Magadan2           298.156
       187   02 Jun 2027 21:07:04.802   02 Jun 2027 21:07:11.964             7.162                Anadyr2           223.812
       188   02 Jun 2027 21:07:21.456   02 Jun 2027 21:08:06.035            44.579                Anadyr2          1393.094
       189   02 Jun 2027 21:08:19.641   02 Jun 2027 21:10:05.591           105.950               Magadan1          3310.938
       190   02 Jun 2027 21:13:46.859   02 Jun 2027 21:13:57.672            10.813               Magadan1           337.906
       191   02 Jun 2027 21:14:08.028   02 Jun 2027 21:15:23.495            75.467               Magadan1          2358.344
       192   02 Jun 2027 21:59:41.988   02 Jun 2027 22:01:48.545           126.557            RioGallegos          3954.906
       193   02 Jun 2027 22:38:46.077   02 Jun 2027 22:40:28.554           102.477                Anadyr2          3202.406
       194   02 Jun 2027 22:40:45.517   02 Jun 2027 22:40:46.848             1.331                Anadyr2            41.594
       195   02 Jun 2027 22:40:54.397   02 Jun 2027 22:42:33.730            99.333                Norilsk          3104.156
       196   02 Jun 2027 22:43:05.570   02 Jun 2027 22:43:16.944            11.374                Norilsk           355.438
       197   02 Jun 2027 22:44:00.821   02 Jun 2027 22:44:22.352            21.531               Magadan1           672.844
       198   02 Jun 2027 22:44:44.277   02 Jun 2027 22:44:50.724             6.447               Magadan2           201.469
       199   02 Jun 2027 22:46:01.348   02 Jun 2027 22:47:24.891            83.543                Irkutsk          2610.719
       200   02 Jun 2027 22:49:30.726   02 Jun 2027 22:50:03.230            32.504                Irkutsk          1015.750
       201   02 Jun 2027 23:01:22.988   02 Jun 2027 23:03:12.600           109.612                Sumatra          3425.375
       202   02 Jun 2027 23:06:11.557   02 Jun 2027 23:06:51.308            39.751                Sumatra          1242.219
       203   02 Jun 2027 23:08:52.230   02 Jun 2027 23:08:55.762             3.532                Sumatra           110.375
       204   03 Jun 2027 00:14:06.671   03 Jun 2027 00:15:49.553           102.882                Anadyr1          3215.063
       205   03 Jun 2027 00:16:05.261   03 Jun 2027 00:16:27.339            22.078                Anadyr2           689.938
       206   03 Jun 2027 00:16:38.257   03 Jun 2027 00:17:29.949            51.692                Norilsk          1615.375
       207   03 Jun 2027 00:17:48.374   03 Jun 2027 00:18:13.022            24.648                Norilsk           770.250
       208   03 Jun 2027 00:18:31.986   03 Jun 2027 00:19:05.426            33.440               Magadan2          1045.000
       209   03 Jun 2027 00:19:07.999   03 Jun 2027 00:19:38.257            30.258               Magadan1           945.563
       210   03 Jun 2027 00:20:09.444   03 Jun 2027 00:20:43.806            34.362               Magadan1          1073.812
       211   03 Jun 2027 00:21:21.574   03 Jun 2027 00:21:59.752            38.178                Novosib          1193.062
       212   03 Jun 2027 00:23:18.376   03 Jun 2027 00:24:26.164            67.788                Novosib          2118.375
       213   03 Jun 2027 00:27:07.230   03 Jun 2027 00:27:26.505            19.275                Novosib           602.344
       214   03 Jun 2027 00:30:06.375   03 Jun 2027 00:30:33.958            27.583                Novosib           861.969
       215   03 Jun 2027 00:32:23.717   03 Jun 2027 00:33:16.648            52.931                  Delhi          1654.094
       216   03 Jun 2027 00:40:41.242   03 Jun 2027 00:43:11.920           150.678                Sumatra          4708.687
       217   03 Jun 2027 01:48:19.791   03 Jun 2027 01:48:46.146            26.355                Anadyr2           823.594
       218   03 Jun 2027 01:50:07.533   03 Jun 2027 01:50:47.618            40.085                Anadyr1          1252.656
       219   03 Jun 2027 01:50:51.944   03 Jun 2027 01:51:00.733             8.789                Anadyr1           274.656
       220   03 Jun 2027 01:52:38.949   03 Jun 2027 01:54:16.562            97.613                Norilsk          3050.406
       221   03 Jun 2027 01:55:42.679   03 Jun 2027 01:56:36.952            54.273              Murmansk1          1696.031
       222   03 Jun 2027 01:56:38.855   03 Jun 2027 01:58:21.636           102.781                Irkutsk          3211.906
       223   03 Jun 2027 02:02:26.895   03 Jun 2027 02:03:31.110            64.215                Irkutsk          2006.719
       224   03 Jun 2027 02:12:26.252   03 Jun 2027 02:13:14.424            48.172                  Delhi          1505.375
       225   03 Jun 2027 02:45:34.041   03 Jun 2027 02:48:13.126           159.085            RioGallegos          4971.406
       226   03 Jun 2027 02:49:48.175   03 Jun 2027 02:50:11.707            23.532            RioGallegos           735.375
       227   03 Jun 2027 03:37:52.884   03 Jun 2027 03:38:49.915            57.031                Novosib          1782.219
       228   03 Jun 2027 03:39:10.527   03 Jun 2027 03:39:51.786            41.259                Irkutsk          1289.344
       229   03 Jun 2027 03:39:58.652   03 Jun 2027 03:43:07.751           189.099                Novosib          5909.344
       230   03 Jun 2027 03:44:30.928   03 Jun 2027 03:47:26.240           175.312                  Delhi          5478.500
       231   03 Jun 2027 05:13:57.905   03 Jun 2027 05:14:15.714            17.809                Novosib           556.531
       232   03 Jun 2027 05:14:47.246   03 Jun 2027 05:16:12.066            84.820                Novosib          2650.625
       233   03 Jun 2027 05:17:01.484   03 Jun 2027 05:17:08.884             7.400                 Moscow           231.250
       234   03 Jun 2027 05:18:23.863   03 Jun 2027 05:19:31.265            67.402                 Moscow          2106.313
       235   03 Jun 2027 05:33:52.034   03 Jun 2027 05:36:39.885           167.851               CapeTown          5245.344
       236   03 Jun 2027 06:36:56.696   03 Jun 2027 06:37:40.469            43.773                Anadyr1          1367.906
       237   03 Jun 2027 06:37:42.015   03 Jun 2027 06:38:33.444            51.429                Anadyr2          1607.156
       238   03 Jun 2027 06:38:39.140   03 Jun 2027 06:39:43.492            64.352                Anadyr1          2011.000
       239   03 Jun 2027 07:12:58.312   03 Jun 2027 07:14:38.322           100.010               CapeTown          3125.312
       240   03 Jun 2027 08:12:41.143   03 Jun 2027 08:12:55.640            14.497                Anadyr1           453.031
       241   03 Jun 2027 08:13:06.682   03 Jun 2027 08:13:19.358            12.676               Magadan2           396.125
       242   03 Jun 2027 08:13:25.325   03 Jun 2027 08:13:57.387            32.062                Anadyr1          1001.937
       243   03 Jun 2027 08:14:01.240   03 Jun 2027 08:14:44.797            43.557               Magadan2          1361.156
       244   03 Jun 2027 08:15:19.560   03 Jun 2027 08:15:19.838             0.278               Magadan1             8.688
       245   03 Jun 2027 08:15:19.838   03 Jun 2027 08:15:49.492            29.654               Magadan2           926.687
       246   03 Jun 2027 08:16:57.093   03 Jun 2027 08:17:28.551            31.458                Anadyr1           983.062
       247   03 Jun 2027 08:18:35.705   03 Jun 2027 08:19:20.335            44.630                Anadyr1          1394.687
       248   03 Jun 2027 09:04:52.765   03 Jun 2027 09:05:23.926            31.161            RioGallegos           973.781
       249   03 Jun 2027 09:48:52.216   03 Jun 2027 09:49:47.254            55.038               Magadan2          1719.937
       250   03 Jun 2027 09:51:11.631   03 Jun 2027 09:52:14.796            63.165               Magadan1          1973.906
       251   03 Jun 2027 09:53:04.938   03 Jun 2027 09:53:05.836             0.898               Magadan1            28.063
       252   03 Jun 2027 09:53:05.836   03 Jun 2027 09:53:06.653             0.817               Magadan2            25.531
       253   03 Jun 2027 09:53:26.072   03 Jun 2027 09:53:33.525             7.453                Irkutsk           232.906
       254   03 Jun 2027 09:53:57.952   03 Jun 2027 09:54:51.119            53.167               Magadan2          1661.469
       255   03 Jun 2027 10:29:52.412   03 Jun 2027 10:30:25.568            33.156            RioGallegos          1036.125
       256   03 Jun 2027 11:06:51.859   03 Jun 2027 11:08:48.928           117.069                Sumatra          3658.406
       257   03 Jun 2027 11:24:56.158   03 Jun 2027 11:25:01.600             5.442                Irkutsk           170.063
       258   03 Jun 2027 11:26:02.451   03 Jun 2027 11:28:23.539           141.088               Magadan1          4409.000
       259   03 Jun 2027 11:28:41.481   03 Jun 2027 11:29:25.323            43.842                Irkutsk          1370.063
       260   03 Jun 2027 11:29:29.850   03 Jun 2027 11:29:47.122            17.272                Novosib           539.750
       261   03 Jun 2027 11:29:58.802   03 Jun 2027 11:30:22.458            23.656                Norilsk           739.250
       262   03 Jun 2027 11:30:24.417   03 Jun 2027 11:31:40.539            76.122                Norilsk          2378.813
       263   03 Jun 2027 12:06:01.163   03 Jun 2027 12:06:43.661            42.498            RioGallegos          1328.062
       264   03 Jun 2027 12:40:27.678   03 Jun 2027 12:41:01.835            34.157                Sumatra          1067.406
       265   03 Jun 2027 12:48:48.231   03 Jun 2027 12:48:57.586             9.355                Sumatra           292.344
       266   03 Jun 2027 12:50:10.864   03 Jun 2027 12:50:11.640             0.776                Sumatra            24.250
       267   03 Jun 2027 12:55:10.256   03 Jun 2027 12:56:48.604            98.348                Irkutsk          3073.375
       268   03 Jun 2027 12:57:25.562   03 Jun 2027 12:58:08.387            42.825                Novosib          1338.281
       269   03 Jun 2027 12:59:05.503   03 Jun 2027 13:00:06.935            61.432                Irkutsk          1919.750
       270   03 Jun 2027 13:11:24.469   03 Jun 2027 13:11:47.551            23.082                Norilsk           721.312
       271   03 Jun 2027 14:25:01.721   03 Jun 2027 14:25:25.275            23.554                  Delhi           736.062
       272   03 Jun 2027 14:26:32.400   03 Jun 2027 14:29:41.719           189.319                  Delhi          5916.219
       273   03 Jun 2027 14:33:08.876   03 Jun 2027 14:33:55.917            47.041                Novosib          1470.031
       274   03 Jun 2027 14:36:31.605   03 Jun 2027 14:38:14.880           103.275                Novosib          3227.344
       275   03 Jun 2027 14:39:39.323   03 Jun 2027 14:40:06.345            27.022                Norilsk           844.438
       276   03 Jun 2027 14:40:52.232   03 Jun 2027 14:41:55.847            63.615                Norilsk          1987.969
       277   03 Jun 2027 16:08:58.705   03 Jun 2027 16:11:58.594           179.889                 Moscow          5621.531
       278   03 Jun 2027 16:12:29.189   03 Jun 2027 16:13:22.680            53.491              Murmansk2          1671.594
       279   03 Jun 2027 16:17:34.370   03 Jun 2027 16:23:04.345           329.975                Norilsk         10311.719
       280   03 Jun 2027 17:47:06.022   03 Jun 2027 17:48:28.494            82.472                 Moscow          2577.250
       281   03 Jun 2027 17:49:55.911   03 Jun 2027 17:51:44.781           108.870              Murmansk1          3402.187
       282   03 Jun 2027 18:03:19.022   03 Jun 2027 18:04:00.767            41.745                Anadyr2          1304.531
       283   03 Jun 2027 18:04:45.338   03 Jun 2027 18:04:49.872             4.534                Anadyr2           141.688
       284   03 Jun 2027 18:07:45.781   03 Jun 2027 18:08:06.099            20.318                Anadyr2           634.937
       285   03 Jun 2027 18:09:38.688   03 Jun 2027 18:09:52.113            13.425                Anadyr2           419.531
       286   03 Jun 2027 18:11:59.405   03 Jun 2027 18:12:06.342             6.937                Anadyr2           216.781
       287   03 Jun 2027 18:58:39.261   03 Jun 2027 19:00:21.097           101.836               CapeTown          3182.375
       288   03 Jun 2027 19:07:16.770   03 Jun 2027 19:07:50.407            33.637               CapeTown          1051.156
       289   03 Jun 2027 19:29:49.499   03 Jun 2027 19:35:35.380           345.881              Murmansk1         10808.781
       290   03 Jun 2027 21:14:56.958   03 Jun 2027 21:18:42.308           225.350                Anadyr1          7042.187
       291   03 Jun 2027 21:18:59.691   03 Jun 2027 21:21:42.041           162.350               Magadan1          5073.438
       292   03 Jun 2027 21:22:02.819   03 Jun 2027 21:22:26.920            24.101               Magadan1           753.156
       293   03 Jun 2027 21:23:18.632   03 Jun 2027 21:23:55.553            36.921               Magadan1          1153.781
       294   03 Jun 2027 21:25:44.007   03 Jun 2027 21:25:55.976            11.969               Magadan1           374.031
       295   03 Jun 2027 21:26:00.416   03 Jun 2027 21:26:52.406            51.990               Magadan1          1624.687
       296   03 Jun 2027 22:10:46.970   03 Jun 2027 22:12:49.725           122.755            RioGallegos          3836.094
       297   03 Jun 2027 22:15:56.079   03 Jun 2027 22:16:41.685            45.606            RioGallegos          1425.188
       298   03 Jun 2027 22:50:45.631   03 Jun 2027 22:51:48.964            63.333                Anadyr2          1979.156
       299   03 Jun 2027 22:51:50.240   03 Jun 2027 22:51:55.002             4.762                Anadyr2           148.812
       300   03 Jun 2027 22:52:12.687   03 Jun 2027 22:52:47.976            35.289                Anadyr1          1102.781
       301   03 Jun 2027 22:52:51.783   03 Jun 2027 22:53:15.426            23.643                Norilsk           738.844
       302   03 Jun 2027 22:53:19.407   03 Jun 2027 22:53:43.766            24.359                Norilsk           761.219
       303   03 Jun 2027 22:54:22.202   03 Jun 2027 22:54:58.803            36.601               Magadan2          1143.781
       304   03 Jun 2027 22:55:31.680   03 Jun 2027 22:56:02.118            30.438               Magadan1           951.188
       305   03 Jun 2027 22:56:27.475   03 Jun 2027 22:57:22.449            54.974               Magadan2          1717.938
       306   03 Jun 2027 22:57:40.868   03 Jun 2027 22:58:22.928            42.060                Irkutsk          1314.375
       307   03 Jun 2027 23:03:00.758   03 Jun 2027 23:04:06.100            65.342                Irkutsk          2041.937
       308   03 Jun 2027 23:12:26.247   03 Jun 2027 23:12:26.818             0.571                Sumatra            17.844
       309   03 Jun 2027 23:14:20.507   03 Jun 2027 23:14:31.949            11.442                Sumatra           357.563
       310   03 Jun 2027 23:15:15.536   03 Jun 2027 23:16:10.278            54.742                Sumatra          1710.688
       311   03 Jun 2027 23:50:40.538   03 Jun 2027 23:51:31.747            51.209            RioGallegos          1600.281
       312   04 Jun 2027 00:25:59.756   04 Jun 2027 00:26:16.876            17.120                Anadyr1           535.000
       313   04 Jun 2027 00:26:18.161   04 Jun 2027 00:27:59.936           101.775                Anadyr2          3180.469
       314   04 Jun 2027 00:28:40.242   04 Jun 2027 00:29:45.785            65.543                Norilsk          2048.219
       315   04 Jun 2027 00:30:08.482   04 Jun 2027 00:30:35.308            26.826               Magadan2           838.312
       316   04 Jun 2027 00:31:06.278   04 Jun 2027 00:31:41.044            34.766               Magadan2          1086.437
       317   04 Jun 2027 00:32:34.851   04 Jun 2027 00:33:35.515            60.664                Irkutsk          1895.750
       318   04 Jun 2027 00:33:42.283   04 Jun 2027 00:34:33.605            51.322                Novosib          1603.813
       319   04 Jun 2027 00:35:26.028   04 Jun 2027 00:36:07.004            40.976                Novosib          1280.500
       320   04 Jun 2027 00:38:16.621   04 Jun 2027 00:38:29.958            13.337                Irkutsk           416.781
       321   04 Jun 2027 00:38:35.733   04 Jun 2027 00:38:52.054            16.321                Novosib           510.031
       322   04 Jun 2027 00:42:42.178   04 Jun 2027 00:43:52.894            70.716                  Delhi          2209.875
       323   04 Jun 2027 00:52:17.456   04 Jun 2027 00:54:19.743           122.287                Sumatra          3821.469
       324   04 Jun 2027 02:00:03.120   04 Jun 2027 02:01:13.667            70.547                Anadyr2          2204.594
       325   04 Jun 2027 02:02:06.671   04 Jun 2027 02:02:40.110            33.439                Anadyr2          1044.969
       326   04 Jun 2027 02:04:41.188   04 Jun 2027 02:05:58.218            77.030                Norilsk          2407.187
       327   04 Jun 2027 02:06:58.283   04 Jun 2027 02:07:45.035            46.752               Magadan2          1461.000
       328   04 Jun 2027 02:08:21.772   04 Jun 2027 02:08:44.001            22.229              Murmansk2           694.656
       329   04 Jun 2027 02:08:45.118   04 Jun 2027 02:10:21.097            95.979                Irkutsk          2999.344
       330   04 Jun 2027 02:13:35.980   04 Jun 2027 02:14:47.603            71.623                Irkutsk          2238.219
       331   04 Jun 2027 02:22:33.350   04 Jun 2027 02:24:06.108            92.758                  Delhi          2898.687
       332   04 Jun 2027 02:57:53.217   04 Jun 2027 02:59:51.402           118.185            RioGallegos          3693.281
       333   04 Jun 2027 03:00:12.619   04 Jun 2027 03:01:28.753            76.134            RioGallegos          2379.187
       334   04 Jun 2027 03:50:11.978   04 Jun 2027 03:50:53.909            41.931                Irkutsk          1310.344
       335   04 Jun 2027 03:51:26.011   04 Jun 2027 03:52:25.212            59.201              Murmansk2          1850.031
       336   04 Jun 2027 03:52:25.665   04 Jun 2027 03:53:13.169            47.504                Norilsk          1484.500
       337   04 Jun 2027 03:53:25.390   04 Jun 2027 03:54:15.491            50.101                Novosib          1565.656
       338   04 Jun 2027 03:54:31.947   04 Jun 2027 03:55:49.098            77.151                Novosib          2410.969
       339   04 Jun 2027 03:56:14.634   04 Jun 2027 03:58:52.618           157.984                  Delhi          4937.000
       340   04 Jun 2027 05:25:24.038   04 Jun 2027 05:25:48.714            24.676                Novosib           771.125
       341   04 Jun 2027 05:26:57.271   04 Jun 2027 05:27:33.036            35.765                Novosib          1117.656
       342   04 Jun 2027 05:27:57.569   04 Jun 2027 05:28:11.969            14.400              Murmansk1           450.000
       343   04 Jun 2027 05:30:49.086   04 Jun 2027 05:31:01.392            12.306                 Moscow           384.562
       344   04 Jun 2027 05:31:35.693   04 Jun 2027 05:31:41.587             5.894                 Moscow           184.187
       345   04 Jun 2027 05:45:53.992   04 Jun 2027 05:48:20.668           146.676               CapeTown          4583.625
       346   04 Jun 2027 06:48:49.660   04 Jun 2027 06:50:25.989            96.329                Anadyr1          3010.281
       347   04 Jun 2027 06:50:27.296   04 Jun 2027 06:50:54.144            26.848                Anadyr1           839.000
       348   04 Jun 2027 06:51:45.338   04 Jun 2027 06:52:05.669            20.331                Anadyr2           635.344
       349   04 Jun 2027 06:53:26.166   04 Jun 2027 06:53:33.538             7.372                Anadyr1           230.375
       350   04 Jun 2027 06:54:48.101   04 Jun 2027 06:55:05.825            17.724                Anadyr1           553.875
       351   04 Jun 2027 07:26:36.012   04 Jun 2027 07:29:20.095           164.083               CapeTown          5127.594
       352   04 Jun 2027 08:25:20.366   04 Jun 2027 08:25:21.908             1.542               Magadan1            48.188
       353   04 Jun 2027 08:25:22.402   04 Jun 2027 08:25:24.018             1.616                Anadyr2            50.500
       354   04 Jun 2027 08:25:24.018   04 Jun 2027 08:25:34.798            10.780                Anadyr1           336.875
       355   04 Jun 2027 08:25:47.905   04 Jun 2027 08:26:25.910            38.005                Anadyr2          1187.656
       356   04 Jun 2027 08:26:33.292   04 Jun 2027 08:26:41.038             7.746               Magadan2           242.063
       357   04 Jun 2027 08:26:43.402   04 Jun 2027 08:27:22.232            38.830               Magadan2          1213.438
       358   04 Jun 2027 08:27:37.109   04 Jun 2027 08:28:50.380            73.271                Anadyr1          2289.719
       359   04 Jun 2027 09:57:37.636   04 Jun 2027 09:59:25.035           107.399               Magadan2          3356.219
       360   04 Jun 2027 10:00:31.041   04 Jun 2027 10:00:45.948            14.907               Magadan2           465.844
       361   04 Jun 2027 10:00:51.765   04 Jun 2027 10:01:36.356            44.591               Magadan2          1393.469
       362   04 Jun 2027 10:01:52.836   04 Jun 2027 10:03:10.411            77.575               Magadan2          2424.219
       363   04 Jun 2027 10:03:58.796   04 Jun 2027 10:04:07.199             8.403                Norilsk           262.594
       364   04 Jun 2027 10:04:40.070   04 Jun 2027 10:05:46.659            66.589                Norilsk          2080.906
       365   04 Jun 2027 10:05:53.174   04 Jun 2027 10:06:10.660            17.486               Magadan1           546.438
       366   04 Jun 2027 10:06:41.267   04 Jun 2027 10:06:44.055             2.788                Norilsk            87.125
       367   04 Jun 2027 10:06:46.186   04 Jun 2027 10:06:47.372             1.186               Magadan2            37.062
       368   04 Jun 2027 10:07:03.998   04 Jun 2027 10:07:05.107             1.109                Norilsk            34.656
       369   04 Jun 2027 10:41:43.994   04 Jun 2027 10:42:44.989            60.995            RioGallegos          1906.094
       370   04 Jun 2027 10:43:49.467   04 Jun 2027 10:44:41.683            52.216            RioGallegos          1631.750
       371   04 Jun 2027 11:21:56.504   04 Jun 2027 11:22:19.615            23.111                Sumatra           722.219
       372   04 Jun 2027 11:37:01.862   04 Jun 2027 11:37:29.694            27.832                Irkutsk           869.750
       373   04 Jun 2027 11:38:38.968   04 Jun 2027 11:39:55.126            76.158                Norilsk          2379.938
       374   04 Jun 2027 11:40:13.323   04 Jun 2027 11:40:48.099            34.776                Norilsk          1086.750
       375   04 Jun 2027 11:40:53.061   04 Jun 2027 11:41:39.317            46.256                Norilsk          1445.500
       376   04 Jun 2027 11:41:46.823   04 Jun 2027 11:42:00.594            13.771                Norilsk           430.344
       377   04 Jun 2027 11:42:03.632   04 Jun 2027 11:42:29.546            25.914                Norilsk           809.813
       378   04 Jun 2027 11:42:32.578   04 Jun 2027 11:42:53.306            20.728                Irkutsk           647.750
       379   04 Jun 2027 12:18:21.330   04 Jun 2027 12:18:47.026            25.696            RioGallegos           803.000
       380   04 Jun 2027 12:20:15.075   04 Jun 2027 12:20:30.375            15.300            RioGallegos           478.125
       381   04 Jun 2027 12:22:42.352   04 Jun 2027 12:23:10.836            28.484            RioGallegos           890.125
       382   04 Jun 2027 12:52:40.783   04 Jun 2027 12:52:51.627            10.844                Sumatra           338.875
       383   04 Jun 2027 12:54:27.452   04 Jun 2027 12:57:23.420           175.968                Sumatra          5499.000
       384   04 Jun 2027 13:07:40.315   04 Jun 2027 13:08:11.380            31.065                Irkutsk           970.781
       385   04 Jun 2027 13:11:04.343   04 Jun 2027 13:11:50.625            46.282                Irkutsk          1446.313
       386   04 Jun 2027 13:18:25.255   04 Jun 2027 13:19:33.900            68.645                Norilsk          2145.156
       387   04 Jun 2027 14:37:25.907   04 Jun 2027 14:39:01.484            95.577                  Delhi          2986.781
       388   04 Jun 2027 14:41:44.353   04 Jun 2027 14:42:40.821            56.468                  Delhi          1764.625
       389   04 Jun 2027 14:45:43.232   04 Jun 2027 14:47:18.414            95.182                Novosib          2974.437
       390   04 Jun 2027 14:48:29.848   04 Jun 2027 14:49:11.947            42.099                Novosib          1315.594
       391   04 Jun 2027 14:49:31.519   04 Jun 2027 14:50:14.896            43.377                Norilsk          1355.531
       392   04 Jun 2027 14:51:35.453   04 Jun 2027 14:52:08.667            33.214                Norilsk          1037.938
       393   04 Jun 2027 14:53:56.190   04 Jun 2027 14:54:40.460            44.270                Norilsk          1383.437
       394   04 Jun 2027 14:57:11.917   04 Jun 2027 14:57:34.575            22.658                Norilsk           708.062
       395   04 Jun 2027 16:21:04.408   04 Jun 2027 16:24:27.632           203.224                 Moscow          6350.750
       396   04 Jun 2027 16:24:35.857   04 Jun 2027 16:25:19.182            43.325              Murmansk1          1353.906
       397   04 Jun 2027 16:29:29.427   04 Jun 2027 16:29:43.186            13.759              Murmansk1           429.969
       398   04 Jun 2027 16:30:29.591   04 Jun 2027 16:34:54.177           264.586                Norilsk          8268.313
       399   04 Jun 2027 17:59:45.430   04 Jun 2027 18:04:35.424           289.994                 Moscow          9062.313
       400   04 Jun 2027 18:15:53.879   04 Jun 2027 18:16:01.087             7.208                Anadyr1           225.250
       401   04 Jun 2027 18:16:17.783   04 Jun 2027 18:16:36.292            18.509                Anadyr2           578.406
       402   04 Jun 2027 18:24:59.127   04 Jun 2027 18:25:14.135            15.008                Anadyr2           469.000
       403   04 Jun 2027 19:10:52.307   04 Jun 2027 19:12:22.016            89.709               CapeTown          2803.406
       404   04 Jun 2027 19:15:21.445   04 Jun 2027 19:15:22.905             1.460               CapeTown            45.625
       405   04 Jun 2027 19:18:05.559   04 Jun 2027 19:19:06.567            61.008               CapeTown          1906.500
       406   04 Jun 2027 19:42:37.210   04 Jun 2027 19:48:45.381           368.171              Murmansk2         11505.344
       407   04 Jun 2027 21:26:58.534   04 Jun 2027 21:31:10.639           252.105                Anadyr1          7878.281
       408   04 Jun 2027 21:31:14.086   04 Jun 2027 21:33:57.637           163.551               Magadan1          5110.969
       409   04 Jun 2027 21:33:57.637   04 Jun 2027 21:34:07.692            10.055               Magadan2           314.219
       410   04 Jun 2027 21:35:45.415   04 Jun 2027 21:35:46.875             1.460               Magadan1            45.625
       411   04 Jun 2027 21:38:22.704   04 Jun 2027 21:39:27.222            64.518               Magadan2          2016.188
       412   04 Jun 2027 22:22:14.672   04 Jun 2027 22:24:12.758           118.086            RioGallegos          3690.188
       413   04 Jun 2027 22:24:36.798   04 Jun 2027 22:25:09.234            32.436            RioGallegos          1013.625
       414   04 Jun 2027 22:28:14.363   04 Jun 2027 22:28:34.382            20.019            RioGallegos           625.594
       415   04 Jun 2027 23:02:44.666   04 Jun 2027 23:03:50.363            65.697                Anadyr2          2053.031
       416   04 Jun 2027 23:03:55.908   04 Jun 2027 23:04:48.822            52.914                Anadyr1          1653.563
       417   04 Jun 2027 23:04:50.422   04 Jun 2027 23:06:11.469            81.047                Norilsk          2532.719
       418   04 Jun 2027 23:06:28.534   04 Jun 2027 23:06:31.669             3.135               Magadan2            97.969
       419   04 Jun 2027 23:06:41.553   04 Jun 2027 23:07:00.919            19.366               Magadan2           605.188
       420   04 Jun 2027 23:07:40.054   04 Jun 2027 23:07:55.838            15.784               Magadan2           493.250
       421   04 Jun 2027 23:08:14.902   04 Jun 2027 23:08:50.363            35.461               Magadan2          1108.156
       422   04 Jun 2027 23:09:25.960   04 Jun 2027 23:09:35.325             9.365                Irkutsk           292.656
       423   04 Jun 2027 23:11:30.324   04 Jun 2027 23:13:27.433           117.109                Irkutsk          3659.656
       424   04 Jun 2027 23:23:46.583   04 Jun 2027 23:24:11.681            25.098                Sumatra           784.312
       425   04 Jun 2027 23:28:43.597   04 Jun 2027 23:29:06.260            22.663                Sumatra           708.219
       426   04 Jun 2027 23:29:59.252   04 Jun 2027 23:30:21.665            22.413                Sumatra           700.406
       427   04 Jun 2027 23:32:45.370   04 Jun 2027 23:32:57.520            12.150                Sumatra           379.687
       428   05 Jun 2027 00:02:19.993   05 Jun 2027 00:02:36.619            16.626            RioGallegos           519.562
       429   05 Jun 2027 00:04:12.316   05 Jun 2027 00:04:23.544            11.228            RioGallegos           350.875
       430   05 Jun 2027 00:08:03.264   05 Jun 2027 00:08:31.176            27.912            RioGallegos           872.250
       431   05 Jun 2027 00:37:51.621   05 Jun 2027 00:38:00.899             9.278                Anadyr1           289.937
       432   05 Jun 2027 00:38:01.350   05 Jun 2027 00:38:19.359            18.009                Anadyr2           562.781
       433   05 Jun 2027 00:38:58.872   05 Jun 2027 00:40:02.773            63.901                Anadyr1          1996.906
       434   05 Jun 2027 00:40:15.470   05 Jun 2027 00:40:30.818            15.348                Anadyr1           479.625
       435   05 Jun 2027 00:40:42.380   05 Jun 2027 00:40:53.896            11.516                Norilsk           359.875
       436   05 Jun 2027 00:41:06.698   05 Jun 2027 00:42:25.974            79.276                Norilsk          2477.375
       437   05 Jun 2027 00:42:34.313   05 Jun 2027 00:43:02.114            27.801               Magadan1           868.781
       438   05 Jun 2027 00:43:42.611   05 Jun 2027 00:44:05.271            22.660               Magadan2           708.125
       439   05 Jun 2027 00:44:35.441   05 Jun 2027 00:46:42.581           127.140                Irkutsk          3973.125
       440   05 Jun 2027 00:47:45.192   05 Jun 2027 00:48:02.548            17.356                Novosib           542.375
       441   05 Jun 2027 00:50:59.008   05 Jun 2027 00:50:59.664             0.656                Novosib            20.500
       442   05 Jun 2027 00:53:49.505   05 Jun 2027 00:56:24.501           154.996                  Delhi          4843.625
       443   05 Jun 2027 01:34:42.813   05 Jun 2027 01:35:05.552            22.739            RioGallegos           710.594
       444   05 Jun 2027 01:36:48.588   05 Jun 2027 01:37:37.995            49.407            RioGallegos          1543.969
       445   05 Jun 2027 01:43:49.797   05 Jun 2027 01:44:09.754            19.957            RioGallegos           623.656
       446   05 Jun 2027 02:12:50.107   05 Jun 2027 02:12:59.063             8.956                Anadyr2           279.875
       447   05 Jun 2027 02:13:40.390   05 Jun 2027 02:14:05.167            24.777                Anadyr1           774.281
       448   05 Jun 2027 02:14:33.766   05 Jun 2027 02:14:40.974             7.208                Anadyr2           225.250
       449   05 Jun 2027 02:16:01.546   05 Jun 2027 02:16:53.784            52.238                Anadyr2          1632.437
       450   05 Jun 2027 02:17:10.111   05 Jun 2027 02:17:53.630            43.519                Norilsk          1359.969
       451   05 Jun 2027 02:17:57.738   05 Jun 2027 02:18:36.944            39.206                Norilsk          1225.188
       452   05 Jun 2027 02:19:19.750   05 Jun 2027 02:19:23.543             3.793              Murmansk1           118.531
       453   05 Jun 2027 02:19:27.578   05 Jun 2027 02:19:44.039            16.461              Murmansk2           514.406
       454   05 Jun 2027 02:20:18.017   05 Jun 2027 02:20:43.015            24.998              Murmansk1           781.187
       455   05 Jun 2027 02:20:52.296   05 Jun 2027 02:21:51.499            59.203                Irkutsk          1850.094
       456   05 Jun 2027 02:21:53.193   05 Jun 2027 02:22:25.554            32.361                Irkutsk          1011.281
       457   05 Jun 2027 02:27:33.708   05 Jun 2027 02:27:37.827             4.119                Novosib           128.719
       458   05 Jun 2027 02:27:50.812   05 Jun 2027 02:30:05.922           135.110                  Delhi          4222.188
       459   05 Jun 2027 03:10:18.932   05 Jun 2027 03:12:15.432           116.500            RioGallegos          3640.625
       460   05 Jun 2027 03:13:09.444   05 Jun 2027 03:13:44.261            34.817            RioGallegos          1088.031
       461   05 Jun 2027 03:14:42.065   05 Jun 2027 03:15:29.678            47.613            RioGallegos          1487.906
       462   05 Jun 2027 04:01:20.058   05 Jun 2027 04:02:24.096            64.038                Novosib          2001.188
       463   05 Jun 2027 04:02:47.727   05 Jun 2027 04:04:04.399            76.672                Norilsk          2396.000
       464   05 Jun 2027 04:04:26.537   05 Jun 2027 04:04:40.860            14.323              Murmansk1           447.594
       465   05 Jun 2027 04:04:40.860   05 Jun 2027 04:05:56.031            75.171              Murmansk2          2349.094
       466   05 Jun 2027 04:06:07.751   05 Jun 2027 04:06:10.964             3.213              Murmansk2           100.406
       467   05 Jun 2027 04:06:21.459   05 Jun 2027 04:07:35.341            73.882                Novosib          2308.813
       468   05 Jun 2027 04:07:48.462   05 Jun 2027 04:10:42.094           173.632                  Delhi          5426.000
       469   05 Jun 2027 05:42:39.542   05 Jun 2027 05:43:07.118            27.576                 Moscow           861.750
       470   05 Jun 2027 05:43:37.973   05 Jun 2027 05:43:49.283            11.310                 Moscow           353.438
       471   05 Jun 2027 05:58:01.143   05 Jun 2027 06:00:07.000           125.857               CapeTown          3933.031
       472   05 Jun 2027 06:06:56.169   05 Jun 2027 06:07:23.875            27.706               CapeTown           865.813
       473   05 Jun 2027 07:00:39.913   05 Jun 2027 07:01:44.403            64.490                Anadyr2          2015.312
       474   05 Jun 2027 07:01:58.217   05 Jun 2027 07:02:07.870             9.653               Magadan1           301.656
       475   05 Jun 2027 07:02:22.841   05 Jun 2027 07:02:35.091            12.250                Anadyr2           382.813
       476   05 Jun 2027 07:03:05.312   05 Jun 2027 07:03:16.262            10.950               Magadan2           342.187
       477   05 Jun 2027 07:03:37.532   05 Jun 2027 07:03:47.138             9.606                Anadyr2           300.187
       478   05 Jun 2027 07:03:53.485   05 Jun 2027 07:04:38.119            44.634               Magadan2          1394.813
       479   05 Jun 2027 07:20:26.866   05 Jun 2027 07:20:41.395            14.529                 Moscow           454.031
       480   05 Jun 2027 08:37:09.085   05 Jun 2027 08:37:18.174             9.089                Anadyr1           284.031
       481   05 Jun 2027 08:37:20.921   05 Jun 2027 08:37:51.741            30.820               Magadan2           963.125
       482   05 Jun 2027 08:37:57.017   05 Jun 2027 08:38:37.298            40.281                Anadyr1          1258.781
