uniorb/output/strategy_4/Drop/Drop_KinoSat_111008.txt

KinoSat_111008
-------------------------
    Access    *     Start Time (UTCG)     *     Stop Time (UTCG)  *   Duration (s)        *       Station  *  Data (Mbytes)
         1   01 Jun 2027 03:00:38.155   01 Jun 2027 03:01:28.763            50.608                Anadyr1          1581.500
         2   01 Jun 2027 03:01:28.763   01 Jun 2027 03:02:40.007            71.244                Anadyr2          2226.375
         3   01 Jun 2027 03:11:58.720   01 Jun 2027 03:12:10.684            11.964              Murmansk1           373.875
         4   01 Jun 2027 03:12:13.803   01 Jun 2027 03:12:48.451            34.648                Norilsk          1082.750
         5   01 Jun 2027 03:12:53.762   01 Jun 2027 03:13:15.174            21.412                 Moscow           669.125
         6   01 Jun 2027 03:13:30.123   01 Jun 2027 03:15:36.266           126.143              Murmansk2          3941.969
         7   01 Jun 2027 03:15:46.102   01 Jun 2027 03:15:56.727            10.625              Murmansk2           332.031
         8   01 Jun 2027 03:18:32.837   01 Jun 2027 03:19:37.018            64.181                 Moscow          2005.656
         9   01 Jun 2027 03:32:47.829   01 Jun 2027 03:33:29.735            41.906               CapeTown          1309.562
        10   01 Jun 2027 04:34:25.139   01 Jun 2027 04:36:01.518            96.379                Anadyr1          3011.844
        11   01 Jun 2027 04:36:10.886   01 Jun 2027 04:36:29.467            18.581               Magadan2           580.656
        12   01 Jun 2027 04:36:29.467   01 Jun 2027 04:37:01.722            32.255               Magadan1          1007.969
        13   01 Jun 2027 04:37:04.579   01 Jun 2027 04:37:23.983            19.404                Norilsk           606.375
        14   01 Jun 2027 04:37:24.342   01 Jun 2027 04:38:39.359            75.017                Anadyr1          2344.281
        15   01 Jun 2027 04:38:39.359   01 Jun 2027 04:38:42.255             2.896                Anadyr2            90.500
        16   01 Jun 2027 04:39:22.195   01 Jun 2027 04:41:05.519           103.324                Anadyr1          3228.875
        17   01 Jun 2027 06:11:57.484   01 Jun 2027 06:13:22.381            84.897                Irkutsk          2653.031
        18   01 Jun 2027 06:13:38.934   01 Jun 2027 06:16:07.617           148.683                Anadyr2          4646.344
        19   01 Jun 2027 06:16:49.682   01 Jun 2027 06:16:53.063             3.381               Magadan1           105.656
        20   01 Jun 2027 06:52:44.009   01 Jun 2027 06:54:03.373            79.364            RioGallegos          2480.125
        21   01 Jun 2027 07:45:43.349   01 Jun 2027 07:45:57.120            13.771               Magadan2           430.344
        22   01 Jun 2027 07:47:08.315   01 Jun 2027 07:47:19.574            11.259               Magadan2           351.844
        23   01 Jun 2027 07:47:50.914   01 Jun 2027 07:48:16.008            25.094               Magadan2           784.187
        24   01 Jun 2027 07:48:19.588   01 Jun 2027 07:49:17.523            57.935                Novosib          1810.469
        25   01 Jun 2027 07:49:35.263   01 Jun 2027 07:50:30.397            55.134                Novosib          1722.937
        26   01 Jun 2027 07:50:31.349   01 Jun 2027 07:52:37.222           125.873                Irkutsk          3933.531
        27   01 Jun 2027 07:55:03.663   01 Jun 2027 07:56:01.720            58.057                Norilsk          1814.281
        28   01 Jun 2027 07:56:08.859   01 Jun 2027 07:56:16.256             7.397                Norilsk           231.156
        29   01 Jun 2027 08:28:25.978   01 Jun 2027 08:28:46.572            20.594            RioGallegos           643.563
        30   01 Jun 2027 08:32:22.906   01 Jun 2027 08:32:24.513             1.607            RioGallegos            50.219
        31   01 Jun 2027 09:02:25.946   01 Jun 2027 09:04:54.291           148.345                Sumatra          4635.781
        32   01 Jun 2027 09:06:13.800   01 Jun 2027 09:06:14.670             0.870                Sumatra            27.188
        33   01 Jun 2027 09:14:09.111   01 Jun 2027 09:15:58.157           109.046                  Delhi          3407.688
        34   01 Jun 2027 09:25:20.941   01 Jun 2027 09:28:38.941           198.000                Novosib          6187.500
        35   01 Jun 2027 09:28:59.212   01 Jun 2027 09:29:47.312            48.100                 Moscow          1503.125
        36   01 Jun 2027 10:06:18.959   01 Jun 2027 10:07:08.443            49.484            RioGallegos          1546.375
        37   01 Jun 2027 10:42:59.914   01 Jun 2027 10:44:42.973           103.059                Sumatra          3220.594
        38   01 Jun 2027 10:49:38.135   01 Jun 2027 10:50:10.018            31.883                  Delhi           996.344
        39   01 Jun 2027 11:02:44.592   01 Jun 2027 11:02:50.213             5.621              Murmansk1           175.656
        40   01 Jun 2027 11:02:52.085   01 Jun 2027 11:03:04.229            12.144              Murmansk1           379.500
        41   01 Jun 2027 11:03:04.229   01 Jun 2027 11:03:28.736            24.507              Murmansk2           765.844
        42   01 Jun 2027 11:03:33.471   01 Jun 2027 11:05:56.512           143.041                Novosib          4470.031
        43   01 Jun 2027 11:06:10.246   01 Jun 2027 11:06:33.547            23.301                 Moscow           728.156
        44   01 Jun 2027 11:07:53.941   01 Jun 2027 11:08:00.318             6.377                Norilsk           199.281
        45   01 Jun 2027 12:26:04.453   01 Jun 2027 12:29:15.384           190.931                  Delhi          5966.594
        46   01 Jun 2027 12:31:49.132   01 Jun 2027 12:32:35.190            46.058                 Moscow          1439.312
        47   01 Jun 2027 12:33:28.755   01 Jun 2027 12:34:08.440            39.685                 Moscow          1240.156
        48   01 Jun 2027 12:34:15.911   01 Jun 2027 12:37:33.334           197.423              Murmansk2          6169.469
        49   01 Jun 2027 12:37:36.923   01 Jun 2027 12:37:59.596            22.673              Murmansk1           708.531
        50   01 Jun 2027 12:41:36.706   01 Jun 2027 12:41:54.232            17.526                Norilsk           547.688
        51   01 Jun 2027 12:42:24.981   01 Jun 2027 12:42:50.189            25.208                Norilsk           787.750
        52   01 Jun 2027 13:46:36.745   01 Jun 2027 13:49:08.991           152.246               CapeTown          4757.688
        53   01 Jun 2027 14:07:29.628   01 Jun 2027 14:08:37.328            67.700                 Moscow          2115.625
        54   01 Jun 2027 14:10:52.962   01 Jun 2027 14:13:34.988           162.026              Murmansk2          5063.313
        55   01 Jun 2027 14:13:34.988   01 Jun 2027 14:15:24.074           109.086              Murmansk1          3408.937
        56   01 Jun 2027 14:25:38.738   01 Jun 2027 14:27:40.277           121.539                Anadyr2          3798.094
        57   01 Jun 2027 14:27:58.398   01 Jun 2027 14:29:16.101            77.703                Anadyr1          2428.219
        58   01 Jun 2027 15:49:35.090   01 Jun 2027 15:50:38.740            63.650              Murmansk2          1989.062
        59   01 Jun 2027 15:53:15.797   01 Jun 2027 15:54:08.668            52.871              Murmansk2          1652.219
        60   01 Jun 2027 16:00:55.654   01 Jun 2027 16:03:31.951           156.297                Anadyr1          4884.281
        61   01 Jun 2027 16:05:17.944   01 Jun 2027 16:07:26.397           128.453               Magadan1          4014.156
        62   01 Jun 2027 16:07:26.397   01 Jun 2027 16:09:20.948           114.551               Magadan2          3579.719
        63   01 Jun 2027 17:36:48.052   01 Jun 2027 17:39:25.743           157.691                Anadyr2          4927.844
        64   01 Jun 2027 17:39:27.328   01 Jun 2027 17:40:29.030            61.702                Anadyr1          1928.188
        65   01 Jun 2027 17:40:37.333   01 Jun 2027 17:41:37.953            60.620               Magadan1          1894.375
        66   01 Jun 2027 17:43:26.995   01 Jun 2027 17:45:26.082           119.087               Magadan2          3721.469
        67   01 Jun 2027 19:12:41.732   01 Jun 2027 19:14:34.573           112.841                Anadyr1          3526.281
        68   01 Jun 2027 19:14:51.165   01 Jun 2027 19:14:59.821             8.656                Anadyr2           270.500
        69   01 Jun 2027 19:14:59.825   01 Jun 2027 19:18:18.738           198.913               Magadan2          6216.031
        70   01 Jun 2027 19:19:37.431   01 Jun 2027 19:19:55.200            17.769               Magadan1           555.281
        71   01 Jun 2027 19:21:33.768   01 Jun 2027 19:21:39.773             6.005               Magadan1           187.656
        72   01 Jun 2027 19:21:58.187   01 Jun 2027 19:22:04.266             6.079               Magadan1           189.969
        73   01 Jun 2027 19:22:09.003   01 Jun 2027 19:23:52.138           103.135                Irkutsk          3222.969
        74   01 Jun 2027 20:07:01.843   01 Jun 2027 20:09:09.671           127.828            RioGallegos          3994.625
        75   01 Jun 2027 20:48:14.658   01 Jun 2027 20:48:48.468            33.810                Anadyr1          1056.563
        76   01 Jun 2027 20:51:03.477   01 Jun 2027 20:52:48.825           105.348               Magadan2          3292.125
        77   01 Jun 2027 20:53:14.841   01 Jun 2027 20:54:00.359            45.518                Norilsk          1422.437
        78   01 Jun 2027 20:54:39.629   01 Jun 2027 20:56:11.688            92.059                Irkutsk          2876.844
        79   01 Jun 2027 20:56:13.395   01 Jun 2027 20:57:57.474           104.079                Novosib          3252.469
        80   01 Jun 2027 20:58:49.989   01 Jun 2027 20:59:28.550            38.561                Novosib          1205.031
        81   01 Jun 2027 21:08:21.383   01 Jun 2027 21:11:18.613           177.230                Sumatra          5538.438
        82   01 Jun 2027 22:24:04.037   01 Jun 2027 22:24:50.235            46.198                Anadyr1          1443.688
        83   01 Jun 2027 22:26:30.975   01 Jun 2027 22:26:47.460            16.485                Norilsk           515.156
        84   01 Jun 2027 22:27:08.197   01 Jun 2027 22:28:36.598            88.401               Magadan2          2762.531
        85   01 Jun 2027 22:28:36.598   01 Jun 2027 22:29:13.161            36.563               Magadan1          1142.594
        86   01 Jun 2027 22:29:34.505   01 Jun 2027 22:30:01.249            26.744               Magadan1           835.750
        87   01 Jun 2027 22:30:23.658   01 Jun 2027 22:31:05.250            41.592                Irkutsk          1299.750
        88   01 Jun 2027 22:31:14.495   01 Jun 2027 22:31:46.559            32.064                Novosib          1002.000
        89   01 Jun 2027 22:32:07.246   01 Jun 2027 22:32:24.458            17.212                Novosib           537.875
        90   01 Jun 2027 22:32:43.216   01 Jun 2027 22:33:06.286            23.070                Novosib           720.937
        91   01 Jun 2027 22:38:06.058   01 Jun 2027 22:40:14.927           128.869                  Delhi          4027.156
        92   01 Jun 2027 23:56:20.146   01 Jun 2027 23:56:27.759             7.613                Anadyr2           237.906
        93   01 Jun 2027 23:57:18.375   01 Jun 2027 23:57:44.025            25.650                Anadyr1           801.563
        94   01 Jun 2027 23:58:41.047   01 Jun 2027 23:59:17.689            36.642                Anadyr1          1145.062
        95   02 Jun 2027 00:02:26.373   02 Jun 2027 00:03:12.431            46.058               Magadan2          1439.313
        96   02 Jun 2027 00:03:16.911   02 Jun 2027 00:04:15.130            58.219               Magadan1          1819.344
        97   02 Jun 2027 00:04:49.663   02 Jun 2027 00:09:19.071           269.408              Murmansk2          8419.000
        98   02 Jun 2027 00:09:22.010   02 Jun 2027 00:09:42.559            20.549                 Moscow           642.156
        99   02 Jun 2027 00:10:16.774   02 Jun 2027 00:11:13.551            56.777                 Moscow          1774.281
       100   02 Jun 2027 01:29:48.696   02 Jun 2027 01:29:52.898             4.202                Anadyr1           131.312
       101   02 Jun 2027 01:31:15.232   02 Jun 2027 01:31:44.332            29.100                Anadyr2           909.375
       102   02 Jun 2027 01:31:56.495   02 Jun 2027 01:32:09.071            12.576                Anadyr1           393.000
       103   02 Jun 2027 01:32:28.592   02 Jun 2027 01:32:50.490            21.898                Anadyr1           684.313
       104   02 Jun 2027 01:33:12.322   02 Jun 2027 01:33:17.904             5.582                Anadyr2           174.437
       105   02 Jun 2027 01:34:39.995   02 Jun 2027 01:36:04.509            84.514               Magadan1          2641.063
       106   02 Jun 2027 01:36:38.813   02 Jun 2027 01:37:11.156            32.343               Magadan2          1010.719
       107   02 Jun 2027 01:37:52.141   02 Jun 2027 01:38:24.996            32.855               Magadan1          1026.719
       108   02 Jun 2027 01:40:37.684   02 Jun 2027 01:43:19.820           162.136              Murmansk2          5066.750
       109   02 Jun 2027 01:51:50.456   02 Jun 2027 01:52:03.044            12.588                 Moscow           393.375
       110   02 Jun 2027 02:08:06.223   02 Jun 2027 02:09:21.422            75.199               CapeTown          2349.969
       111   02 Jun 2027 02:10:48.296   02 Jun 2027 02:11:26.683            38.387               CapeTown          1199.594
       112   02 Jun 2027 03:05:53.667   02 Jun 2027 03:06:17.498            23.831                Anadyr1           744.719
       113   02 Jun 2027 03:06:38.322   02 Jun 2027 03:06:51.331            13.009               Magadan1           406.531
       114   02 Jun 2027 03:11:04.252   02 Jun 2027 03:12:13.297            69.045               Magadan1          2157.656
       115   02 Jun 2027 03:12:20.795   02 Jun 2027 03:13:02.670            41.875               Magadan2          1308.594
       116   02 Jun 2027 03:13:16.318   02 Jun 2027 03:13:59.619            43.301                Anadyr1          1353.156
       117   02 Jun 2027 03:14:39.108   02 Jun 2027 03:15:28.659            49.551                Anadyr1          1548.469
       118   02 Jun 2027 03:25:35.505   02 Jun 2027 03:25:44.735             9.230              Murmansk2           288.437
       119   02 Jun 2027 04:47:04.273   02 Jun 2027 04:47:37.336            33.063                Anadyr1          1033.219
       120   02 Jun 2027 04:47:58.251   02 Jun 2027 04:48:33.218            34.967               Magadan2          1092.719
       121   02 Jun 2027 04:48:33.218   02 Jun 2027 04:49:51.558            78.340               Magadan1          2448.125
       122   02 Jun 2027 04:50:11.043   02 Jun 2027 04:53:01.297           170.254               Magadan1          5320.438
       123   02 Jun 2027 06:23:21.995   02 Jun 2027 06:25:02.988           100.993                Irkutsk          3156.031
       124   02 Jun 2027 06:26:10.411   02 Jun 2027 06:27:24.695            74.284                Irkutsk          2321.375
       125   02 Jun 2027 06:27:30.023   02 Jun 2027 06:28:52.195            82.172               Magadan1          2567.875
       126   02 Jun 2027 08:00:15.857   02 Jun 2027 08:03:42.213           206.356               Magadan1          6448.625
       127   02 Jun 2027 08:04:35.534   02 Jun 2027 08:05:08.021            32.487              Murmansk1          1015.219
       128   02 Jun 2027 08:09:02.619   02 Jun 2027 08:09:21.727            19.108              Murmansk1           597.125
       129   02 Jun 2027 08:39:26.289   02 Jun 2027 08:40:31.997            65.708            RioGallegos          2053.375
       130   02 Jun 2027 08:41:20.033   02 Jun 2027 08:42:13.390            53.357            RioGallegos          1667.406
       131   02 Jun 2027 08:42:36.171   02 Jun 2027 08:42:49.640            13.469            RioGallegos           420.906
       132   02 Jun 2027 08:45:11.564   02 Jun 2027 08:45:59.985            48.421            RioGallegos          1513.156
       133   02 Jun 2027 09:14:18.278   02 Jun 2027 09:15:09.873            51.595                Sumatra          1612.344
       134   02 Jun 2027 09:16:14.366   02 Jun 2027 09:17:22.552            68.186                Sumatra          2130.813
       135   02 Jun 2027 09:17:47.466   02 Jun 2027 09:18:21.336            33.870                Sumatra          1058.437
       136   02 Jun 2027 09:34:51.637   02 Jun 2027 09:35:27.520            35.883                Irkutsk          1121.344
       137   02 Jun 2027 09:35:30.740   02 Jun 2027 09:35:48.170            17.430                Irkutsk           544.688
       138   02 Jun 2027 09:36:43.434   02 Jun 2027 09:37:47.161            63.727                Irkutsk          1991.469
       139   02 Jun 2027 09:38:00.353   02 Jun 2027 09:38:02.691             2.338                Irkutsk            73.063
       140   02 Jun 2027 09:38:05.559   02 Jun 2027 09:38:22.094            16.535                Irkutsk           516.719
       141   02 Jun 2027 09:38:42.527   02 Jun 2027 09:38:53.403            10.876                Irkutsk           339.875
       142   02 Jun 2027 09:38:58.142   02 Jun 2027 09:39:02.540             4.398                Novosib           137.438
       143   02 Jun 2027 09:39:13.435   02 Jun 2027 09:39:38.365            24.930                Irkutsk           779.063
       144   02 Jun 2027 09:39:58.660   02 Jun 2027 09:40:07.557             8.897              Murmansk1           278.031
       145   02 Jun 2027 09:40:08.191   02 Jun 2027 09:40:38.349            30.158                Novosib           942.438
       146   02 Jun 2027 10:18:43.502   02 Jun 2027 10:19:01.504            18.002            RioGallegos           562.562
       147   02 Jun 2027 10:20:06.009   02 Jun 2027 10:20:38.685            32.676            RioGallegos          1021.125
       148   02 Jun 2027 10:53:31.893   02 Jun 2027 10:54:08.919            37.026                Sumatra          1157.062
       149   02 Jun 2027 10:54:47.721   02 Jun 2027 10:56:02.300            74.579                Sumatra          2330.594
       150   02 Jun 2027 11:12:24.889   02 Jun 2027 11:12:53.478            28.589                Novosib           893.406
       151   02 Jun 2027 11:14:09.402   02 Jun 2027 11:14:21.743            12.341                Novosib           385.656
       152   02 Jun 2027 11:14:29.107   02 Jun 2027 11:15:23.794            54.687                Novosib          1708.969
       153   02 Jun 2027 11:15:51.686   02 Jun 2027 11:16:01.996            10.310                Norilsk           322.187
       154   02 Jun 2027 11:16:04.874   02 Jun 2027 11:16:12.284             7.410                Novosib           231.562
       155   02 Jun 2027 12:42:54.412   02 Jun 2027 12:43:55.155            60.743                 Moscow          1898.219
       156   02 Jun 2027 12:45:38.367   02 Jun 2027 12:46:28.071            49.704                 Moscow          1553.250
       157   02 Jun 2027 12:47:02.359   02 Jun 2027 12:48:43.514           101.155              Murmansk2          3161.094
       158   02 Jun 2027 12:48:44.843   02 Jun 2027 12:50:14.599            89.756                Novosib          2804.875
       159   02 Jun 2027 12:51:03.902   02 Jun 2027 12:51:33.061            29.159                Norilsk           911.219
       160   02 Jun 2027 12:52:03.316   02 Jun 2027 12:52:22.456            19.140                Norilsk           598.125
       161   02 Jun 2027 13:57:56.318   02 Jun 2027 13:59:01.084            64.766               CapeTown          2023.938
       162   02 Jun 2027 13:59:40.362   02 Jun 2027 14:00:52.460            72.098               CapeTown          2253.062
       163   02 Jun 2027 14:03:35.835   02 Jun 2027 14:04:29.767            53.932               CapeTown          1685.375
       164   02 Jun 2027 14:20:01.136   02 Jun 2027 14:20:43.503            42.367                 Moscow          1323.969
       165   02 Jun 2027 14:23:07.533   02 Jun 2027 14:24:50.551           103.018              Murmansk2          3219.313
       166   02 Jun 2027 14:25:36.610   02 Jun 2027 14:26:05.871            29.261              Murmansk2           914.406
       167   02 Jun 2027 14:27:25.911   02 Jun 2027 14:27:32.150             6.239              Murmansk1           194.969
       168   02 Jun 2027 14:37:29.973   02 Jun 2027 14:40:28.454           178.481                Anadyr1          5577.531
       169   02 Jun 2027 14:43:15.810   02 Jun 2027 14:43:31.045            15.235                Anadyr1           476.094
       170   02 Jun 2027 15:32:37.303   02 Jun 2027 15:34:25.785           108.482               CapeTown          3390.062
       171   02 Jun 2027 16:02:08.754   02 Jun 2027 16:03:22.835            74.081              Murmansk1          2315.031
       172   02 Jun 2027 16:12:55.791   02 Jun 2027 16:15:17.302           141.511                Anadyr1          4422.219
       173   02 Jun 2027 16:16:43.216   02 Jun 2027 16:17:59.110            75.894               Magadan2          2371.687
       174   02 Jun 2027 16:19:10.416   02 Jun 2027 16:20:12.908            62.492               Magadan1          1952.875
       175   02 Jun 2027 16:21:23.665   02 Jun 2027 16:22:09.198            45.533               Magadan1          1422.906
       176   02 Jun 2027 16:23:01.223   02 Jun 2027 16:23:13.369            12.146               Magadan1           379.563
       177   02 Jun 2027 17:48:49.498   02 Jun 2027 17:51:25.967           156.469                Anadyr2          4889.656
       178   02 Jun 2027 17:51:29.584   02 Jun 2027 17:55:13.508           223.924               Magadan1          6997.625
       179   02 Jun 2027 19:24:41.936   02 Jun 2027 19:26:35.845           113.909                Anadyr1          3559.656
       180   02 Jun 2027 19:26:45.999   02 Jun 2027 19:28:36.031           110.032                Anadyr2          3438.500
       181   02 Jun 2027 19:28:43.583   02 Jun 2027 19:29:02.722            19.139               Magadan1           598.094
       182   02 Jun 2027 19:29:18.505   02 Jun 2027 19:30:46.444            87.939                Norilsk          2748.094
       183   02 Jun 2027 19:32:52.545   02 Jun 2027 19:33:36.744            44.199                Irkutsk          1381.219
       184   02 Jun 2027 19:34:49.211   02 Jun 2027 19:35:32.141            42.930                Irkutsk          1341.562
       185   02 Jun 2027 19:36:42.061   02 Jun 2027 19:37:27.268            45.207                Irkutsk          1412.719
       186   02 Jun 2027 19:37:29.191   02 Jun 2027 19:38:33.209            64.018                Irkutsk          2000.563
       187   02 Jun 2027 19:51:01.029   02 Jun 2027 19:51:22.733            21.704                Sumatra           678.250
       188   02 Jun 2027 21:02:12.107   02 Jun 2027 21:02:20.757             8.650                Anadyr2           270.313
       189   02 Jun 2027 21:02:34.185   02 Jun 2027 21:04:29.482           115.297                Norilsk          3603.031
       190   02 Jun 2027 21:04:40.477   02 Jun 2027 21:05:52.710            72.233               Magadan1          2257.281
       191   02 Jun 2027 21:06:56.459   02 Jun 2027 21:08:12.953            76.494                Irkutsk          2390.437
       192   02 Jun 2027 21:08:36.862   02 Jun 2027 21:11:02.279           145.417                Novosib          4544.281
       193   02 Jun 2027 21:20:16.597   02 Jun 2027 21:21:30.808            74.211                Sumatra          2319.094
       194   02 Jun 2027 21:28:37.551   02 Jun 2027 21:28:53.285            15.734                Sumatra           491.687
       195   02 Jun 2027 21:29:38.849   02 Jun 2027 21:29:51.272            12.423                Sumatra           388.219
       196   02 Jun 2027 22:38:32.965   02 Jun 2027 22:38:39.388             6.423                Norilsk           200.719
       197   02 Jun 2027 22:39:09.531   02 Jun 2027 22:40:09.263            59.732               Magadan2          1866.625
       198   02 Jun 2027 22:42:13.155   02 Jun 2027 22:42:26.733            13.578               Magadan1           424.313
       199   02 Jun 2027 22:42:27.457   02 Jun 2027 22:43:30.236            62.779                Irkutsk          1961.844
       200   02 Jun 2027 22:44:06.813   02 Jun 2027 22:44:58.109            51.296                Novosib          1603.000
       201   02 Jun 2027 22:47:24.891   02 Jun 2027 22:47:30.932             6.041                Irkutsk           188.781
       202   02 Jun 2027 22:47:56.415   02 Jun 2027 22:48:13.366            16.951                Novosib           529.719
       203   02 Jun 2027 22:49:23.829   02 Jun 2027 22:49:30.985             7.156                Novosib           223.625
       204   02 Jun 2027 22:49:38.123   02 Jun 2027 22:50:09.544            31.421                Novosib           981.906
       205   02 Jun 2027 22:51:10.999   02 Jun 2027 22:53:09.733           118.734                  Delhi          3710.438
       206   02 Jun 2027 22:57:37.888   02 Jun 2027 22:59:07.145            89.257                  Delhi          2789.281
       207   03 Jun 2027 00:08:01.193   03 Jun 2027 00:08:15.369            14.176                Anadyr1           443.000
       208   03 Jun 2027 00:09:45.238   03 Jun 2027 00:10:29.942            44.704                Anadyr1          1397.000
       209   03 Jun 2027 00:14:10.657   03 Jun 2027 00:15:00.004            49.347               Magadan2          1542.094
       210   03 Jun 2027 00:15:00.004   03 Jun 2027 00:15:18.696            18.692               Magadan1           584.125
       211   03 Jun 2027 00:15:39.807   03 Jun 2027 00:15:43.566             3.759                Norilsk           117.469
       212   03 Jun 2027 00:15:45.967   03 Jun 2027 00:15:48.614             2.647                Norilsk            82.719
       213   03 Jun 2027 00:16:01.500   03 Jun 2027 00:16:40.408            38.908               Magadan1          1215.875
       214   03 Jun 2027 00:16:48.340   03 Jun 2027 00:18:58.403           130.063              Murmansk2          4064.469
       215   03 Jun 2027 00:19:23.233   03 Jun 2027 00:21:15.163           111.930              Murmansk1          3497.813
       216   03 Jun 2027 00:21:36.577   03 Jun 2027 00:21:44.840             8.263                 Moscow           258.219
       217   03 Jun 2027 00:22:40.383   03 Jun 2027 00:22:52.654            12.271                 Moscow           383.469
       218   03 Jun 2027 00:25:26.610   03 Jun 2027 00:25:41.164            14.554                 Moscow           454.812
       219   03 Jun 2027 00:25:49.991   03 Jun 2027 00:26:23.540            33.549                 Moscow          1048.406
       220   03 Jun 2027 00:49:03.108   03 Jun 2027 00:50:09.661            66.553               CapeTown          2079.781
       221   03 Jun 2027 00:51:54.686   03 Jun 2027 00:52:43.499            48.813               CapeTown          1525.406
       222   03 Jun 2027 01:44:11.207   03 Jun 2027 01:44:43.563            32.356                Anadyr2          1011.125
       223   03 Jun 2027 01:46:08.114   03 Jun 2027 01:47:43.004            94.890               Magadan2          2965.313
       224   03 Jun 2027 01:48:24.785   03 Jun 2027 01:49:03.705            38.920               Magadan1          1216.250
       225   03 Jun 2027 01:52:39.297   03 Jun 2027 01:54:16.945            97.648              Murmansk1          3051.500
       226   03 Jun 2027 01:54:16.945   03 Jun 2027 01:54:29.761            12.816              Murmansk2           400.500
       227   03 Jun 2027 01:55:26.874   03 Jun 2027 01:55:37.477            10.603                Novosib           331.344
       228   03 Jun 2027 01:55:55.753   03 Jun 2027 01:57:35.233            99.480                 Moscow          3108.750
       229   03 Jun 2027 02:19:55.410   03 Jun 2027 02:21:00.495            65.085               CapeTown          2033.906
       230   03 Jun 2027 03:17:04.317   03 Jun 2027 03:17:54.440            50.123                Anadyr1          1566.344
       231   03 Jun 2027 03:23:07.510   03 Jun 2027 03:24:34.845            87.335               Magadan2          2729.219
       232   03 Jun 2027 03:24:34.845   03 Jun 2027 03:28:58.629           263.784               Magadan1          8243.250
       233   03 Jun 2027 04:59:48.858   03 Jun 2027 05:00:58.762            69.904                Anadyr1          2184.500
       234   03 Jun 2027 05:01:10.390   03 Jun 2027 05:02:59.107           108.717               Magadan2          3397.406
       235   03 Jun 2027 05:03:14.458   03 Jun 2027 05:03:25.269            10.811                Anadyr1           337.844
       236   03 Jun 2027 05:03:28.027   03 Jun 2027 05:03:46.393            18.366                Anadyr1           573.938
       237   03 Jun 2027 05:04:08.119   03 Jun 2027 05:04:30.149            22.030                Anadyr1           688.438
       238   03 Jun 2027 06:32:53.265   03 Jun 2027 06:33:28.406            35.141               Magadan2          1098.156
       239   03 Jun 2027 06:33:34.507   03 Jun 2027 06:34:02.255            27.748               Magadan2           867.125
       240   03 Jun 2027 06:34:32.368   03 Jun 2027 06:35:32.764            60.396                Anadyr2          1887.375
       241   03 Jun 2027 06:35:43.134   03 Jun 2027 06:37:02.435            79.301               Magadan1          2478.156
       242   03 Jun 2027 06:37:17.973   03 Jun 2027 06:38:10.818            52.845               Magadan2          1651.406
       243   03 Jun 2027 06:38:22.656   03 Jun 2027 06:38:39.412            16.756                Novosib           523.625
       244   03 Jun 2027 06:38:49.109   03 Jun 2027 06:39:02.692            13.583               Magadan1           424.469
       245   03 Jun 2027 06:39:06.126   03 Jun 2027 06:39:13.098             6.972               Magadan2           217.875
       246   03 Jun 2027 06:39:13.548   03 Jun 2027 06:40:13.976            60.428                Anadyr1          1888.375
       247   03 Jun 2027 06:40:29.642   03 Jun 2027 06:40:48.874            19.232              Murmansk1           601.000
       248   03 Jun 2027 06:41:16.953   03 Jun 2027 06:42:01.240            44.287              Murmansk1          1383.969
       249   03 Jun 2027 08:09:33.403   03 Jun 2027 08:10:01.762            28.359               Magadan1           886.219
       250   03 Jun 2027 08:11:07.673   03 Jun 2027 08:11:25.817            18.144               Magadan2           567.000
       251   03 Jun 2027 08:12:44.845   03 Jun 2027 08:13:29.728            44.883                Irkutsk          1402.594
       252   03 Jun 2027 08:14:44.797   03 Jun 2027 08:15:19.560            34.763               Magadan1          1086.344
       253   03 Jun 2027 08:15:39.825   03 Jun 2027 08:16:41.302            61.477                Novosib          1921.156
       254   03 Jun 2027 08:51:36.000   03 Jun 2027 08:52:29.755            53.755            RioGallegos          1679.844
       255   03 Jun 2027 08:53:05.582   03 Jun 2027 08:53:15.380             9.798            RioGallegos           306.187
       256   03 Jun 2027 08:55:44.186   03 Jun 2027 08:56:01.003            16.817            RioGallegos           525.531
       257   03 Jun 2027 09:26:16.303   03 Jun 2027 09:26:43.068            26.765                Sumatra           836.406
       258   03 Jun 2027 09:26:57.059   03 Jun 2027 09:28:04.100            67.041                Sumatra          2095.031
       259   03 Jun 2027 09:47:05.426   03 Jun 2027 09:47:28.005            22.579                Irkutsk           705.594
       260   03 Jun 2027 09:48:55.029   03 Jun 2027 09:49:45.039            50.010                Irkutsk          1562.812
       261   03 Jun 2027 09:50:07.399   03 Jun 2027 09:50:15.162             7.763                Irkutsk           242.594
       262   03 Jun 2027 09:50:16.504   03 Jun 2027 09:50:23.839             7.335                Irkutsk           229.219
       263   03 Jun 2027 09:50:38.026   03 Jun 2027 09:50:49.368            11.342                Novosib           354.437
       264   03 Jun 2027 09:50:52.643   03 Jun 2027 09:50:56.316             3.673                Novosib           114.781
       265   03 Jun 2027 09:51:01.452   03 Jun 2027 09:51:18.429            16.977                Irkutsk           530.531
       266   03 Jun 2027 09:51:30.286   03 Jun 2027 09:52:04.361            34.075                Novosib          1064.844
       267   03 Jun 2027 09:52:36.895   03 Jun 2027 09:53:19.656            42.761                Novosib          1336.281
       268   03 Jun 2027 10:31:47.709   03 Jun 2027 10:32:43.890            56.181            RioGallegos          1755.656
       269   03 Jun 2027 11:10:35.423   03 Jun 2027 11:10:40.627             5.204                  Delhi           162.625
       270   03 Jun 2027 11:11:02.733   03 Jun 2027 11:11:10.770             8.037                  Delhi           251.156
       271   03 Jun 2027 11:13:35.078   03 Jun 2027 11:15:01.567            86.489                  Delhi          2702.781
       272   03 Jun 2027 11:24:27.590   03 Jun 2027 11:24:55.496            27.906                Novosib           872.062
       273   03 Jun 2027 11:26:07.384   03 Jun 2027 11:26:26.486            19.102                Novosib           596.937
       274   03 Jun 2027 11:26:37.249   03 Jun 2027 11:27:29.322            52.073                Norilsk          1627.281
       275   03 Jun 2027 11:27:36.104   03 Jun 2027 11:27:53.718            17.614                Norilsk           550.437
       276   03 Jun 2027 11:28:02.889   03 Jun 2027 11:28:12.988            10.099                Norilsk           315.594
       277   03 Jun 2027 11:28:54.684   03 Jun 2027 11:29:45.039            50.355                Norilsk          1573.594
       278   03 Jun 2027 12:56:00.602   03 Jun 2027 12:56:33.153            32.551                 Moscow          1017.219
       279   03 Jun 2027 12:57:15.977   03 Jun 2027 12:57:52.017            36.040                 Moscow          1126.250
       280   03 Jun 2027 12:58:04.365   03 Jun 2027 12:58:51.857            47.492                 Moscow          1484.125
       281   03 Jun 2027 12:59:03.363   03 Jun 2027 12:59:34.973            31.610              Murmansk1           987.813
       282   03 Jun 2027 12:59:45.038   03 Jun 2027 13:00:09.976            24.938              Murmansk2           779.312
       283   03 Jun 2027 13:01:39.897   03 Jun 2027 13:01:56.972            17.075              Murmansk2           533.594
       284   03 Jun 2027 13:02:18.542   03 Jun 2027 13:02:29.125            10.583              Murmansk2           330.719
       285   03 Jun 2027 13:03:16.784   03 Jun 2027 13:04:05.326            48.542                Norilsk          1516.937
       286   03 Jun 2027 13:04:43.903   03 Jun 2027 13:05:35.552            51.649                Norilsk          1614.031
       287   03 Jun 2027 14:09:28.025   03 Jun 2027 14:09:30.687             2.662               CapeTown            83.187
       288   03 Jun 2027 14:10:40.718   03 Jun 2027 14:12:40.654           119.936               CapeTown          3748.000
       289   03 Jun 2027 14:32:15.798   03 Jun 2027 14:32:52.829            37.031                 Moscow          1157.219
       290   03 Jun 2027 14:35:24.116   03 Jun 2027 14:35:34.051             9.935              Murmansk1           310.469
       291   03 Jun 2027 14:35:39.429   03 Jun 2027 14:36:47.792            68.363              Murmansk2          2136.344
       292   03 Jun 2027 14:43:35.596   03 Jun 2027 14:44:04.444            28.848              Murmansk2           901.500
       293   03 Jun 2027 14:49:23.622   03 Jun 2027 14:51:40.474           136.852                Anadyr1          4276.625
       294   03 Jun 2027 14:53:07.262   03 Jun 2027 14:53:09.763             2.501                Anadyr2            78.156
       295   03 Jun 2027 14:54:06.287   03 Jun 2027 14:54:26.274            19.987                Anadyr1           624.594
       296   03 Jun 2027 14:55:17.090   03 Jun 2027 14:57:03.175           106.085                Anadyr1          3315.156
       297   03 Jun 2027 16:14:45.669   03 Jun 2027 16:15:09.203            23.534              Murmansk2           735.437
       298   03 Jun 2027 16:15:23.518   03 Jun 2027 16:15:46.219            22.701              Murmansk2           709.406
       299   03 Jun 2027 16:15:46.219   03 Jun 2027 16:17:04.096            77.877              Murmansk1          2433.656
       300   03 Jun 2027 16:24:56.275   03 Jun 2027 16:25:51.254            54.979                Anadyr1          1718.094
       301   03 Jun 2027 16:26:01.414   03 Jun 2027 16:26:59.696            58.282                Anadyr2          1821.312
       302   03 Jun 2027 16:27:23.973   03 Jun 2027 16:27:34.651            10.678                Anadyr2           333.688
       303   03 Jun 2027 16:27:46.239   03 Jun 2027 16:28:25.726            39.487                Anadyr2          1233.969
       304   03 Jun 2027 16:28:36.146   03 Jun 2027 16:29:57.230            81.084               Magadan1          2533.875
       305   03 Jun 2027 16:31:04.607   03 Jun 2027 16:31:44.114            39.507               Magadan2          1234.594
       306   03 Jun 2027 16:31:49.997   03 Jun 2027 16:32:16.988            26.991               Magadan1           843.469
       307   03 Jun 2027 16:33:26.396   03 Jun 2027 16:34:09.307            42.911               Magadan1          1340.969
       308   03 Jun 2027 18:00:50.918   03 Jun 2027 18:03:47.923           177.005                Anadyr2          5531.406
       309   03 Jun 2027 18:04:00.767   03 Jun 2027 18:04:05.326             4.559                Anadyr2           142.469
       310   03 Jun 2027 18:04:05.691   03 Jun 2027 18:05:47.066           101.375               Magadan2          3167.969
       311   03 Jun 2027 18:11:02.915   03 Jun 2027 18:11:24.260            21.345               Magadan1           667.031
       312   03 Jun 2027 18:12:46.983   03 Jun 2027 18:13:17.999            31.016               Magadan1           969.250
       313   03 Jun 2027 18:58:52.553   03 Jun 2027 19:00:04.941            72.388            RioGallegos          2262.125
       314   03 Jun 2027 19:36:41.787   03 Jun 2027 19:38:36.959           115.172                Anadyr1          3599.125
       315   03 Jun 2027 19:38:41.762   03 Jun 2027 19:39:00.645            18.883                Anadyr2           590.094
       316   03 Jun 2027 19:39:03.554   03 Jun 2027 19:40:53.544           109.990               Magadan2          3437.188
       317   03 Jun 2027 19:41:19.555   03 Jun 2027 19:42:44.631            85.076                Norilsk          2658.625
       318   03 Jun 2027 19:44:14.495   03 Jun 2027 19:47:17.400           182.905                Irkutsk          5715.781
       319   03 Jun 2027 19:47:29.708   03 Jun 2027 19:48:05.250            35.542                Irkutsk          1110.688
       320   03 Jun 2027 19:49:00.934   03 Jun 2027 19:49:29.528            28.594                Irkutsk           893.562
       321   03 Jun 2027 19:49:41.216   03 Jun 2027 19:50:53.955            72.739                Irkutsk          2273.094
       322   03 Jun 2027 20:00:00.027   03 Jun 2027 20:01:33.409            93.382                Sumatra          2918.188
       323   03 Jun 2027 20:05:53.743   03 Jun 2027 20:06:16.565            22.822                Sumatra           713.188
       324   03 Jun 2027 21:15:35.395   03 Jun 2027 21:15:45.293             9.898                Norilsk           309.313
       325   03 Jun 2027 21:15:54.777   03 Jun 2027 21:16:27.047            32.270                Norilsk          1008.438
       326   03 Jun 2027 21:18:33.147   03 Jun 2027 21:20:11.059            97.912                Irkutsk          3059.750
       327   03 Jun 2027 21:21:03.266   03 Jun 2027 21:22:19.173            75.907                Novosib          2372.094
       328   03 Jun 2027 21:25:14.292   03 Jun 2027 21:25:49.543            35.251                Novosib          1101.594
       329   03 Jun 2027 21:32:17.414   03 Jun 2027 21:32:29.568            12.154                Sumatra           379.813
       330   03 Jun 2027 21:36:37.629   03 Jun 2027 21:38:03.387            85.758                Sumatra          2679.938
       331   03 Jun 2027 22:50:34.938   03 Jun 2027 22:50:57.643            22.705                Norilsk           709.531
       332   03 Jun 2027 22:51:10.227   03 Jun 2027 22:52:09.686            59.459               Magadan2          1858.094
       333   03 Jun 2027 22:53:57.272   03 Jun 2027 22:57:22.250           204.978              Murmansk1          6405.563
       334   03 Jun 2027 23:01:48.341   03 Jun 2027 23:02:50.938            62.597                  Delhi          1956.156
       335   03 Jun 2027 23:04:48.226   03 Jun 2027 23:05:42.964            54.738                  Delhi          1710.563
       336   03 Jun 2027 23:05:51.896   03 Jun 2027 23:07:06.789            74.893                  Delhi          2340.406
       337   04 Jun 2027 00:19:42.451   04 Jun 2027 00:19:58.828            16.377                Anadyr2           511.781
       338   04 Jun 2027 00:22:31.079   04 Jun 2027 00:22:49.976            18.897                Anadyr2           590.531
       339   04 Jun 2027 00:25:23.820   04 Jun 2027 00:25:30.531             6.711                Anadyr1           209.719
       340   04 Jun 2027 00:25:45.050   04 Jun 2027 00:25:59.625            14.575                Anadyr1           455.469
       341   04 Jun 2027 00:26:24.352   04 Jun 2027 00:27:17.479            53.127               Magadan1          1660.219
       342   04 Jun 2027 00:27:22.983   04 Jun 2027 00:28:34.051            71.068               Magadan2          2220.875
       343   04 Jun 2027 00:28:47.757   04 Jun 2027 00:30:52.592           124.835              Murmansk2          3901.094
       344   04 Jun 2027 00:31:24.819   04 Jun 2027 00:32:44.412            79.593              Murmansk1          2487.281
       345   04 Jun 2027 00:32:47.205   04 Jun 2027 00:33:06.074            18.869                 Moscow           589.656
       346   04 Jun 2027 00:33:42.549   04 Jun 2027 00:34:29.100            46.551                 Moscow          1454.719
       347   04 Jun 2027 00:59:42.651   04 Jun 2027 01:01:31.976           109.325               CapeTown          3416.406
       348   04 Jun 2027 01:53:23.988   04 Jun 2027 01:53:43.083            19.095                Anadyr2           596.719
       349   04 Jun 2027 01:54:56.296   04 Jun 2027 01:55:01.545             5.249                Anadyr1           164.031
       350   04 Jun 2027 01:55:57.287   04 Jun 2027 01:56:37.755            40.468                Anadyr2          1264.625
       351   04 Jun 2027 01:57:36.784   04 Jun 2027 01:58:57.383            80.599               Magadan1          2518.719
       352   04 Jun 2027 01:58:57.383   04 Jun 2027 01:59:07.787            10.404               Magadan2           325.125
       353   04 Jun 2027 01:59:21.674   04 Jun 2027 02:00:04.842            43.168               Magadan2          1349.000
       354   04 Jun 2027 02:04:40.999   04 Jun 2027 02:04:41.347             0.348              Murmansk1            10.875
       355   04 Jun 2027 02:04:56.157   04 Jun 2027 02:05:16.188            20.031              Murmansk2           625.969
       356   04 Jun 2027 02:05:41.353   04 Jun 2027 02:06:31.237            49.884              Murmansk2          1558.875
       357   04 Jun 2027 02:06:57.175   04 Jun 2027 02:07:28.573            31.398              Murmansk2           981.188
       358   04 Jun 2027 02:07:37.272   04 Jun 2027 02:08:10.114            32.842                Novosib          1026.313
       359   04 Jun 2027 02:12:06.313   04 Jun 2027 02:12:10.022             3.709                 Moscow           115.906
       360   04 Jun 2027 02:13:40.090   04 Jun 2027 02:13:53.730            13.640                 Moscow           426.250
       361   04 Jun 2027 02:16:35.183   04 Jun 2027 02:16:44.240             9.057                 Moscow           283.031
       362   04 Jun 2027 02:19:31.122   04 Jun 2027 02:19:54.425            23.303                 Moscow           728.219
       363   04 Jun 2027 02:31:49.624   04 Jun 2027 02:32:27.780            38.156               CapeTown          1192.375
       364   04 Jun 2027 02:36:15.386   04 Jun 2027 02:36:48.379            32.993               CapeTown          1031.031
       365   04 Jun 2027 03:29:02.624   04 Jun 2027 03:29:55.446            52.822                Anadyr2          1650.687
       366   04 Jun 2027 03:34:35.899   04 Jun 2027 03:35:08.609            32.710               Magadan2          1022.188
       367   04 Jun 2027 03:35:09.061   04 Jun 2027 03:35:13.050             3.989               Magadan2           124.656
       368   04 Jun 2027 03:35:27.771   04 Jun 2027 03:35:41.657            13.886               Magadan2           433.938
       369   04 Jun 2027 03:35:46.338   04 Jun 2027 03:38:35.211           168.873                Anadyr2          5277.281
       370   04 Jun 2027 03:38:35.211   04 Jun 2027 03:41:27.551           172.340                Anadyr1          5385.625
       371   04 Jun 2027 05:14:13.076   04 Jun 2027 05:16:13.609           120.533                Anadyr1          3766.656
       372   04 Jun 2027 06:45:31.614   04 Jun 2027 06:46:02.331            30.717               Magadan2           959.906
       373   04 Jun 2027 06:46:13.732   04 Jun 2027 06:46:41.961            28.229                Anadyr2           882.156
       374   04 Jun 2027 06:46:59.106   04 Jun 2027 06:47:01.294             2.188               Magadan1            68.375
       375   04 Jun 2027 06:47:18.271   04 Jun 2027 06:47:20.910             2.639               Magadan1            82.469
       376   04 Jun 2027 06:47:32.735   04 Jun 2027 06:48:24.549            51.814                Anadyr1          1619.187
       377   04 Jun 2027 06:48:27.966   04 Jun 2027 06:49:01.981            34.015               Magadan2          1062.969
       378   04 Jun 2027 06:49:20.934   04 Jun 2027 06:49:52.515            31.581               Magadan2           986.906
       379   04 Jun 2027 06:50:03.386   04 Jun 2027 06:50:38.339            34.953               Magadan1          1092.281
       380   04 Jun 2027 06:50:51.972   04 Jun 2027 06:51:04.181            12.209               Magadan2           381.531
       381   04 Jun 2027 06:51:12.052   04 Jun 2027 06:51:45.338            33.286                Anadyr2          1040.187
       382   04 Jun 2027 06:52:14.973   04 Jun 2027 06:52:23.421             8.448                Novosib           264.000
       383   04 Jun 2027 06:52:24.056   04 Jun 2027 06:52:35.374            11.318              Murmansk1           353.687
       384   04 Jun 2027 06:52:38.305   04 Jun 2027 06:53:04.072            25.767              Murmansk1           805.219
       385   04 Jun 2027 08:05:20.727   04 Jun 2027 08:06:31.471            70.744                Sumatra          2210.750
       386   04 Jun 2027 08:22:08.026   04 Jun 2027 08:23:06.324            58.298               Magadan1          1821.812
       387   04 Jun 2027 08:25:21.908   04 Jun 2027 08:25:54.870            32.962               Magadan2          1030.062
       388   04 Jun 2027 08:25:59.704   04 Jun 2027 08:26:30.561            30.857                Novosib           964.281
       389   04 Jun 2027 08:27:09.323   04 Jun 2027 08:27:15.372             6.049                Irkutsk           189.031
       390   04 Jun 2027 08:27:26.295   04 Jun 2027 08:27:39.741            13.446                Novosib           420.187
       391   04 Jun 2027 08:27:48.677   04 Jun 2027 08:28:20.752            32.075                Novosib          1002.344
       392   04 Jun 2027 08:28:46.801   04 Jun 2027 08:29:40.890            54.089                Novosib          1690.281
       393   04 Jun 2027 09:03:49.531   04 Jun 2027 09:04:16.946            27.415            RioGallegos           856.719
       394   04 Jun 2027 09:38:19.933   04 Jun 2027 09:38:36.202            16.269                Sumatra           508.406
       395   04 Jun 2027 09:41:23.751   04 Jun 2027 09:42:49.258            85.507                Sumatra          2672.094
       396   04 Jun 2027 09:58:46.573   04 Jun 2027 09:58:59.534            12.961                Irkutsk           405.031
       397   04 Jun 2027 10:00:40.484   04 Jun 2027 10:00:59.624            19.140                Novosib           598.125
       398   04 Jun 2027 10:01:55.193   04 Jun 2027 10:01:57.845             2.652                Novosib            82.875
       399   04 Jun 2027 10:02:27.497   04 Jun 2027 10:02:28.778             1.281                Irkutsk            40.031
       400   04 Jun 2027 10:02:30.326   04 Jun 2027 10:02:38.332             8.006                Norilsk           250.187
       401   04 Jun 2027 10:02:39.510   04 Jun 2027 10:02:55.753            16.243                Novosib           507.594
       402   04 Jun 2027 10:03:04.531   04 Jun 2027 10:03:26.862            22.331                Irkutsk           697.844
       403   04 Jun 2027 10:03:32.229   04 Jun 2027 10:04:09.277            37.048                Novosib          1157.750
       404   04 Jun 2027 10:04:22.705   04 Jun 2027 10:04:40.070            17.365                Norilsk           542.656
       405   04 Jun 2027 10:46:23.085   04 Jun 2027 10:47:49.229            86.144            RioGallegos          2692.000
       406   04 Jun 2027 11:22:48.877   04 Jun 2027 11:24:17.609            88.732                  Delhi          2772.875
       407   04 Jun 2027 11:37:00.499   04 Jun 2027 11:38:04.231            63.732                Novosib          1991.625
       408   04 Jun 2027 11:38:27.771   04 Jun 2027 11:38:38.968            11.197                Norilsk           349.906
       409   04 Jun 2027 11:38:58.931   04 Jun 2027 11:39:08.949            10.018                Novosib           313.062
       410   04 Jun 2027 11:39:55.830   04 Jun 2027 11:39:58.162             2.332                Norilsk            72.875
       411   04 Jun 2027 11:40:03.392   04 Jun 2027 11:40:13.323             9.931                Norilsk           310.344
       412   04 Jun 2027 11:40:14.274   04 Jun 2027 11:40:18.628             4.354                Novosib           136.062
       413   04 Jun 2027 13:09:05.306   04 Jun 2027 13:09:18.635            13.329                 Moscow           416.531
       414   04 Jun 2027 13:09:54.295   04 Jun 2027 13:11:06.664            72.369                 Moscow          2261.531
       415   04 Jun 2027 13:11:15.301   04 Jun 2027 13:11:45.641            30.340              Murmansk2           948.125
       416   04 Jun 2027 13:11:45.641   04 Jun 2027 13:12:11.630            25.989              Murmansk1           812.156
       417   04 Jun 2027 13:13:41.537   04 Jun 2027 13:14:06.723            25.186              Murmansk2           787.063
       418   04 Jun 2027 13:15:09.246   04 Jun 2027 13:18:01.105           171.859                Norilsk          5370.594
       419   04 Jun 2027 13:18:25.255   04 Jun 2027 13:19:17.142            51.887                Norilsk          1621.469
       420   04 Jun 2027 14:28:28.130   04 Jun 2027 14:29:09.876            41.746               CapeTown          1304.563
       421   04 Jun 2027 14:31:41.314   04 Jun 2027 14:32:24.431            43.117               CapeTown          1347.406
       422   04 Jun 2027 14:44:45.910   04 Jun 2027 14:45:05.480            19.570                 Moscow           611.563
       423   04 Jun 2027 14:47:42.783   04 Jun 2027 14:48:34.015            51.232              Murmansk1          1601.000
       424   04 Jun 2027 14:49:39.441   04 Jun 2027 14:50:04.192            24.751              Murmansk1           773.469
       425   04 Jun 2027 14:52:03.951   04 Jun 2027 14:52:54.683            50.732              Murmansk1          1585.375
       426   04 Jun 2027 15:01:19.009   04 Jun 2027 15:03:41.065           142.056                Anadyr1          4439.250
       427   04 Jun 2027 15:08:48.466   04 Jun 2027 15:09:07.532            19.066                Anadyr2           595.812
       428   04 Jun 2027 15:56:29.987   04 Jun 2027 15:58:13.745           103.758               CapeTown          3242.438
       429   04 Jun 2027 16:27:26.311   04 Jun 2027 16:29:43.186           136.875              Murmansk2          4277.344
       430   04 Jun 2027 16:32:01.124   04 Jun 2027 16:33:13.860            72.736              Murmansk1          2273.000
       431   04 Jun 2027 16:36:57.035   04 Jun 2027 16:37:41.171            44.136                Anadyr1          1379.250
       432   04 Jun 2027 16:37:58.741   04 Jun 2027 16:38:39.890            41.149                Anadyr2          1285.906
       433   04 Jun 2027 16:40:05.741   04 Jun 2027 16:42:45.309           159.568               Magadan2          4986.500
       434   04 Jun 2027 16:45:29.110   04 Jun 2027 16:46:09.878            40.768               Magadan2          1274.000
       435   04 Jun 2027 18:12:52.283   04 Jun 2027 18:15:48.493           176.210                Anadyr1          5506.563
       436   04 Jun 2027 18:15:53.879   04 Jun 2027 18:16:01.087             7.208                Anadyr1           225.250
       437   04 Jun 2027 18:16:17.783   04 Jun 2027 18:16:36.292            18.509                Anadyr1           578.406
       438   04 Jun 2027 18:16:44.352   04 Jun 2027 18:18:05.666            81.314               Magadan1          2541.063
       439   04 Jun 2027 18:21:06.108   04 Jun 2027 18:21:29.033            22.925               Magadan2           716.406
       440   04 Jun 2027 18:22:10.029   04 Jun 2027 18:22:24.477            14.448               Magadan2           451.500
       441   04 Jun 2027 18:23:42.309   04 Jun 2027 18:24:34.491            52.182               Magadan2          1630.688
       442   04 Jun 2027 19:09:11.346   04 Jun 2027 19:11:43.297           151.951            RioGallegos          4748.469
       443   04 Jun 2027 19:13:59.037   04 Jun 2027 19:14:32.735            33.698            RioGallegos          1053.063
       444   04 Jun 2027 19:48:41.222   04 Jun 2027 19:48:57.233            16.011                Anadyr1           500.344
       445   04 Jun 2027 19:50:52.492   04 Jun 2027 19:54:06.926           194.434                Norilsk          6076.062
       446   04 Jun 2027 19:55:49.319   04 Jun 2027 19:57:16.348            87.029                Irkutsk          2719.656
       447   04 Jun 2027 19:57:50.318   04 Jun 2027 19:59:06.338            76.020                Irkutsk          2375.625
       448   04 Jun 2027 20:00:07.795   04 Jun 2027 20:01:06.795            59.000                Irkutsk          1843.750
       449   04 Jun 2027 20:01:58.626   04 Jun 2027 20:02:25.366            26.740                Irkutsk           835.625
       450   04 Jun 2027 20:10:49.531   04 Jun 2027 20:13:06.214           136.683                Sumatra          4271.344
       451   04 Jun 2027 20:17:30.320   04 Jun 2027 20:19:01.490            91.170                Sumatra          2849.062
       452   04 Jun 2027 21:31:13.931   04 Jun 2027 21:32:13.091            59.160                Novosib          1848.750
       453   04 Jun 2027 21:32:53.120   04 Jun 2027 21:33:22.957            29.837                Novosib           932.406
       454   04 Jun 2027 21:41:21.877   04 Jun 2027 21:43:02.555           100.678                  Delhi          3146.188
       455   04 Jun 2027 21:44:51.521   04 Jun 2027 21:46:11.575            80.054                  Delhi          2501.688
       456   04 Jun 2027 23:02:11.775   04 Jun 2027 23:02:24.094            12.319                Anadyr1           384.969
       457   04 Jun 2027 23:02:36.855   04 Jun 2027 23:02:41.014             4.159                Norilsk           129.969
       458   04 Jun 2027 23:02:54.320   04 Jun 2027 23:04:12.746            78.426                Norilsk          2450.813
       459   04 Jun 2027 23:04:31.063   04 Jun 2027 23:04:47.422            16.359               Magadan1           511.219
       460   04 Jun 2027 23:04:57.057   04 Jun 2027 23:05:03.154             6.097               Magadan1           190.531
       461   04 Jun 2027 23:05:36.477   04 Jun 2027 23:09:08.423           211.946              Murmansk1          6623.313
       462   04 Jun 2027 23:13:45.173   04 Jun 2027 23:13:52.710             7.537                  Delhi           235.531
       463   04 Jun 2027 23:14:40.174   04 Jun 2027 23:16:55.718           135.544                  Delhi          4235.750
       464   05 Jun 2027 00:31:24.101   05 Jun 2027 00:31:41.430            17.329                Anadyr1           541.531
       465   05 Jun 2027 00:33:06.912   05 Jun 2027 00:33:21.204            14.292                Anadyr2           446.625
       466   05 Jun 2027 00:33:21.204   05 Jun 2027 00:33:47.857            26.653                Anadyr1           832.906
       467   05 Jun 2027 00:34:12.155   05 Jun 2027 00:34:30.877            18.722                Anadyr2           585.062
       468   05 Jun 2027 00:37:26.431   05 Jun 2027 00:39:29.888           123.457               Magadan2          3858.031
       469   05 Jun 2027 00:40:47.754   05 Jun 2027 00:45:03.755           256.001              Murmansk2          8000.031
       470   05 Jun 2027 00:45:50.883   05 Jun 2027 00:46:02.844            11.961                 Moscow           373.781
       471   05 Jun 2027 00:50:08.193   05 Jun 2027 00:50:32.919            24.726                 Moscow           772.687
       472   05 Jun 2027 01:12:02.997   05 Jun 2027 01:13:02.048            59.051               CapeTown          1845.344
       473   05 Jun 2027 01:14:21.174   05 Jun 2027 01:14:29.249             8.075               CapeTown           252.344
       474   05 Jun 2027 01:17:50.015   05 Jun 2027 01:18:25.355            35.340               CapeTown          1104.375
       475   05 Jun 2027 02:05:13.673   05 Jun 2027 02:05:24.615            10.942                Anadyr2           341.937
       476   05 Jun 2027 02:06:11.081   05 Jun 2027 02:07:11.241            60.160                Anadyr2          1880.000
       477   05 Jun 2027 02:09:06.292   05 Jun 2027 02:10:25.439            79.147               Magadan1          2473.344
       478   05 Jun 2027 02:12:52.340   05 Jun 2027 02:13:03.504            11.164               Magadan1           348.875
       479   05 Jun 2027 02:16:04.153   05 Jun 2027 02:16:13.301             9.148                Norilsk           285.875
       480   05 Jun 2027 02:16:42.755   05 Jun 2027 02:18:24.365           101.610              Murmansk1          3175.313
       481   05 Jun 2027 02:19:12.711   05 Jun 2027 02:19:51.845            39.134                Novosib          1222.937
       482   05 Jun 2027 02:19:55.915   05 Jun 2027 02:21:19.085            83.170                 Moscow          2599.062
