uniorb/output/strategy_4/Drop/Drop_KinoSat_110604.txt

KinoSat_110604
-------------------------
    Access    *     Start Time (UTCG)     *     Stop Time (UTCG)  *   Duration (s)        *       Station  *  Data (Mbytes)
         1   01 Jun 2027 03:55:41.456   01 Jun 2027 03:59:02.396           200.940                Anadyr1          6279.375
         2   01 Jun 2027 05:30:45.352   01 Jun 2027 05:30:54.886             9.534               Magadan1           297.938
         3   01 Jun 2027 05:31:14.728   01 Jun 2027 05:34:46.938           212.210                Novosib          6631.562
         4   01 Jun 2027 05:35:00.801   01 Jun 2027 05:35:34.365            33.564                Norilsk          1048.875
         5   01 Jun 2027 05:36:08.742   01 Jun 2027 05:36:56.489            47.747                Norilsk          1492.094
         6   01 Jun 2027 05:37:49.907   01 Jun 2027 05:38:43.675            53.768                Norilsk          1680.250
         7   01 Jun 2027 05:39:26.831   01 Jun 2027 05:39:54.926            28.095                Norilsk           877.969
         8   01 Jun 2027 06:10:22.738   01 Jun 2027 06:13:40.639           197.901            RioGallegos          6184.406
         9   01 Jun 2027 06:14:34.960   01 Jun 2027 06:15:02.630            27.670            RioGallegos           864.688
        10   01 Jun 2027 06:45:48.354   01 Jun 2027 06:49:41.854           233.500                Sumatra          7296.875
        11   01 Jun 2027 06:58:59.379   01 Jun 2027 07:00:17.182            77.803                  Delhi          2431.344
        12   01 Jun 2027 07:02:50.535   01 Jun 2027 07:02:58.043             7.508                  Delhi           234.625
        13   01 Jun 2027 07:06:17.479   01 Jun 2027 07:07:21.406            63.927                Irkutsk          1997.719
        14   01 Jun 2027 07:08:12.849   01 Jun 2027 07:08:24.031            11.182                Norilsk           349.438
        15   01 Jun 2027 07:08:27.017   01 Jun 2027 07:10:28.778           121.761              Murmansk1          3805.031
        16   01 Jun 2027 07:10:28.778   01 Jun 2027 07:10:50.011            21.233              Murmansk2           663.531
        17   01 Jun 2027 07:11:12.544   01 Jun 2027 07:12:56.290           103.746                Novosib          3242.062
        18   01 Jun 2027 07:13:15.034   01 Jun 2027 07:14:00.887            45.853              Murmansk2          1432.906
        19   01 Jun 2027 07:48:56.697   01 Jun 2027 07:49:05.200             8.503            RioGallegos           265.719
        20   01 Jun 2027 07:50:39.836   01 Jun 2027 07:51:56.499            76.663            RioGallegos          2395.719
        21   01 Jun 2027 08:23:08.228   01 Jun 2027 08:23:53.902            45.674                Sumatra          1427.312
        22   01 Jun 2027 08:29:35.492   01 Jun 2027 08:32:39.147           183.655                  Delhi          5739.219
        23   01 Jun 2027 08:45:22.554   01 Jun 2027 08:45:56.269            33.715              Murmansk1          1053.594
        24   01 Jun 2027 08:45:56.269   01 Jun 2027 08:47:06.629            70.360              Murmansk2          2198.750
        25   01 Jun 2027 08:47:31.457   01 Jun 2027 08:48:04.505            33.048                Norilsk          1032.750
        26   01 Jun 2027 08:48:14.549   01 Jun 2027 08:49:04.753            50.204                Novosib          1568.875
        27   01 Jun 2027 08:49:59.408   01 Jun 2027 08:50:16.989            17.581                 Moscow           549.406
        28   01 Jun 2027 10:10:56.615   01 Jun 2027 10:11:32.344            35.729                  Delhi          1116.531
        29   01 Jun 2027 10:20:59.696   01 Jun 2027 10:23:29.932           150.236                Novosib          4694.875
        30   01 Jun 2027 10:23:35.729   01 Jun 2027 10:24:24.652            48.923              Murmansk1          1528.844
        31   01 Jun 2027 10:25:11.204   01 Jun 2027 10:26:04.866            53.662                 Moscow          1676.938
        32   01 Jun 2027 11:31:05.157   01 Jun 2027 11:32:51.566           106.409               CapeTown          3325.281
        33   01 Jun 2027 12:09:00.111   01 Jun 2027 12:15:32.425           392.314                Anadyr2         12259.812
        34   01 Jun 2027 15:22:26.264   01 Jun 2027 15:24:35.612           129.348               Magadan1          4042.125
        35   01 Jun 2027 15:27:57.711   01 Jun 2027 15:28:01.745             4.034               Magadan2           126.063
        36   01 Jun 2027 17:01:40.400   01 Jun 2027 17:02:09.550            29.150                Norilsk           910.937
        37   01 Jun 2027 17:10:02.387   01 Jun 2027 17:10:07.083             4.696               Magadan2           146.750
        38   01 Jun 2027 17:10:07.083   01 Jun 2027 17:10:58.633            51.550               Magadan1          1610.938
        39   01 Jun 2027 17:50:20.839   01 Jun 2027 17:52:03.020           102.181            RioGallegos          3193.156
        40   01 Jun 2027 17:53:33.161   01 Jun 2027 17:56:26.467           173.306            RioGallegos          5415.813
        41   01 Jun 2027 18:34:59.926   01 Jun 2027 18:39:00.912           240.986                Norilsk          7530.812
        42   01 Jun 2027 18:39:34.524   01 Jun 2027 18:41:31.309           116.785                Irkutsk          3649.531
        43   01 Jun 2027 18:41:33.544   01 Jun 2027 18:44:19.299           165.755                Novosib          5179.844
        44   01 Jun 2027 18:53:15.236   01 Jun 2027 18:55:34.726           139.490                Sumatra          4359.062
        45   01 Jun 2027 20:13:36.917   01 Jun 2027 20:14:01.950            25.033                Novosib           782.281
        46   01 Jun 2027 20:20:21.747   01 Jun 2027 20:20:57.644            35.897                Novosib          1121.781
        47   01 Jun 2027 20:21:30.920   01 Jun 2027 20:25:13.386           222.466                  Delhi          6952.063
        48   01 Jun 2027 20:26:11.453   01 Jun 2027 20:28:00.815           109.362                  Delhi          3417.562
        49   01 Jun 2027 21:47:58.557   01 Jun 2027 21:56:28.139           509.582              Murmansk2         15924.437
        50   01 Jun 2027 21:57:59.552   01 Jun 2027 21:58:58.637            59.085                 Moscow          1846.406
        51   01 Jun 2027 23:27:04.981   01 Jun 2027 23:29:33.479           148.498                 Moscow          4640.562
        52   01 Jun 2027 23:31:48.045   01 Jun 2027 23:32:36.307            48.262                 Moscow          1508.187
        53   01 Jun 2027 23:51:31.014   01 Jun 2027 23:53:16.874           105.860               CapeTown          3308.125
        54   01 Jun 2027 23:54:21.136   01 Jun 2027 23:55:14.717            53.581               CapeTown          1674.406
        55   01 Jun 2027 23:56:11.122   01 Jun 2027 23:56:21.299            10.177               CapeTown           318.031
        56   02 Jun 2027 00:02:46.770   02 Jun 2027 00:03:24.556            37.786               CapeTown          1180.813
        57   02 Jun 2027 00:56:16.900   02 Jun 2027 00:56:34.047            17.147               Magadan2           535.844
        58   02 Jun 2027 00:57:39.403   02 Jun 2027 00:58:26.363            46.960               Magadan2          1467.500
        59   02 Jun 2027 00:59:39.466   02 Jun 2027 01:00:44.499            65.033              Murmansk1          2032.281
        60   02 Jun 2027 01:00:53.403   02 Jun 2027 01:02:07.736            74.333              Murmansk2          2322.906
        61   02 Jun 2027 01:02:53.121   02 Jun 2027 01:03:09.588            16.467                 Moscow           514.594
        62   02 Jun 2027 01:07:09.037   02 Jun 2027 01:07:25.161            16.124                 Moscow           503.875
        63   02 Jun 2027 01:11:27.174   02 Jun 2027 01:12:10.373            43.199                 Moscow          1349.969
        64   02 Jun 2027 01:27:24.251   02 Jun 2027 01:29:05.230           100.979               CapeTown          3155.594
        65   02 Jun 2027 02:23:36.806   02 Jun 2027 02:26:08.047           151.241               Magadan2          4726.281
        66   02 Jun 2027 02:26:47.952   02 Jun 2027 02:27:14.981            27.029               Magadan1           844.656
        67   02 Jun 2027 02:27:39.546   02 Jun 2027 02:28:26.377            46.831               Magadan1          1463.469
        68   02 Jun 2027 02:35:31.809   02 Jun 2027 02:36:42.267            70.458              Murmansk2          2201.812
        69   02 Jun 2027 02:37:58.321   02 Jun 2027 02:38:21.392            23.071              Murmansk1           720.969
        70   02 Jun 2027 02:39:16.828   02 Jun 2027 02:40:45.807            88.979                 Moscow          2780.594
        71   02 Jun 2027 02:48:24.274   02 Jun 2027 02:48:32.858             8.584                 Moscow           268.250
        72   02 Jun 2027 03:17:35.748   02 Jun 2027 03:19:22.867           107.119            RioGallegos          3347.469
        73   02 Jun 2027 03:20:06.479   02 Jun 2027 03:21:07.598            61.119            RioGallegos          1909.969
        74   02 Jun 2027 04:06:03.306   02 Jun 2027 04:06:09.465             6.159               Magadan1           192.469
        75   02 Jun 2027 04:06:09.887   02 Jun 2027 04:06:38.208            28.321                Anadyr2           885.031
        76   02 Jun 2027 04:06:38.230   02 Jun 2027 04:08:40.500           122.270               Magadan1          3820.937
        77   02 Jun 2027 04:09:01.684   02 Jun 2027 04:10:37.843            96.159               Magadan1          3004.969
        78   02 Jun 2027 04:11:03.810   02 Jun 2027 04:11:49.503            45.693                Anadyr1          1427.906
        79   02 Jun 2027 04:49:34.120   02 Jun 2027 04:50:35.829            61.709            RioGallegos          1928.406
        80   02 Jun 2027 04:50:45.203   02 Jun 2027 04:51:18.439            33.236            RioGallegos          1038.625
        81   02 Jun 2027 04:53:42.211   02 Jun 2027 04:54:04.587            22.376            RioGallegos           699.250
        82   02 Jun 2027 04:56:18.549   02 Jun 2027 04:57:11.005            52.456            RioGallegos          1639.250
        83   02 Jun 2027 05:43:17.848   02 Jun 2027 05:47:05.065           227.217               Magadan1          7100.531
        84   02 Jun 2027 05:47:07.538   02 Jun 2027 05:47:41.882            34.344                Irkutsk          1073.250
        85   02 Jun 2027 07:00:16.372   02 Jun 2027 07:01:45.905            89.533                Sumatra          2797.906
        86   02 Jun 2027 07:11:15.245   02 Jun 2027 07:13:42.527           147.282                  Delhi          4602.563
        87   02 Jun 2027 07:19:26.276   02 Jun 2027 07:20:39.119            72.843                Irkutsk          2276.344
        88   02 Jun 2027 07:21:12.972   02 Jun 2027 07:21:33.356            20.384                Irkutsk           637.000
        89   02 Jun 2027 07:21:57.218   02 Jun 2027 07:22:50.560            53.342                Irkutsk          1666.938
        90   02 Jun 2027 07:24:33.885   02 Jun 2027 07:25:15.154            41.269                Novosib          1289.656
        91   02 Jun 2027 08:04:52.909   02 Jun 2027 08:05:00.466             7.557            RioGallegos           236.156
        92   02 Jun 2027 08:35:08.995   02 Jun 2027 08:36:47.323            98.328                Sumatra          3072.750
        93   02 Jun 2027 08:42:56.354   02 Jun 2027 08:43:23.267            26.913                Sumatra           841.031
        94   02 Jun 2027 08:59:00.678   02 Jun 2027 09:01:02.159           121.481                Novosib          3796.281
        95   02 Jun 2027 10:23:40.404   02 Jun 2027 10:24:03.799            23.395                  Delhi           731.094
        96   02 Jun 2027 10:35:35.269   02 Jun 2027 10:35:53.145            17.876                Norilsk           558.625
        97   02 Jun 2027 10:37:06.990   02 Jun 2027 10:37:42.644            35.654              Murmansk1          1114.187
        98   02 Jun 2027 12:05:55.944   02 Jun 2027 12:06:25.245            29.301              Murmansk2           915.656
        99   02 Jun 2027 12:06:41.629   02 Jun 2027 12:07:03.258            21.629              Murmansk1           675.906
       100   02 Jun 2027 12:07:59.082   02 Jun 2027 12:08:15.008            15.926              Murmansk2           497.687
       101   02 Jun 2027 12:09:39.914   02 Jun 2027 12:09:53.405            13.491              Murmansk1           421.594
       102   02 Jun 2027 12:10:20.823   02 Jun 2027 12:10:51.310            30.487              Murmansk2           952.719
       103   02 Jun 2027 12:11:16.462   02 Jun 2027 12:11:53.842            37.380              Murmansk1          1168.125
       104   02 Jun 2027 12:12:23.686   02 Jun 2027 12:12:53.852            30.166              Murmansk1           942.687
       105   02 Jun 2027 12:13:11.102   02 Jun 2027 12:13:19.900             8.798              Murmansk1           274.938
       106   02 Jun 2027 12:15:15.290   02 Jun 2027 12:15:23.026             7.736              Murmansk1           241.750
       107   02 Jun 2027 12:20:46.763   02 Jun 2027 12:28:33.145           466.382                Anadyr2         14574.437
       108   02 Jun 2027 13:56:01.216   02 Jun 2027 13:57:13.663            72.447                Anadyr2          2263.969
       109   02 Jun 2027 13:57:13.663   02 Jun 2027 13:57:25.598            11.935                Anadyr1           372.969
       110   02 Jun 2027 13:58:04.927   02 Jun 2027 13:58:36.018            31.091                Anadyr2           971.594
       111   02 Jun 2027 13:59:54.748   02 Jun 2027 13:59:56.392             1.644                Anadyr2            51.375
       112   02 Jun 2027 14:00:22.608   02 Jun 2027 14:01:24.117            61.509                Anadyr2          1922.156
       113   02 Jun 2027 14:02:13.161   02 Jun 2027 14:04:50.851           157.690               Magadan2          4927.812
       114   02 Jun 2027 15:31:53.063   02 Jun 2027 15:33:27.109            94.046                Anadyr1          2938.937
       115   02 Jun 2027 15:34:22.478   02 Jun 2027 15:36:06.565           104.087               Magadan1          3252.719
       116   02 Jun 2027 15:36:06.565   02 Jun 2027 15:37:38.375            91.810               Magadan2          2869.063
       117   02 Jun 2027 15:38:08.617   02 Jun 2027 15:38:37.068            28.451               Magadan1           889.094
       118   02 Jun 2027 15:40:32.747   02 Jun 2027 15:41:22.167            49.420               Magadan1          1544.375
       119   02 Jun 2027 15:45:32.105   02 Jun 2027 15:46:06.870            34.765               Magadan1          1086.406
       120   02 Jun 2027 17:07:46.698   02 Jun 2027 17:08:11.551            24.853                Anadyr1           776.656
       121   02 Jun 2027 17:08:34.727   02 Jun 2027 17:08:55.761            21.034                Anadyr2           657.313
       122   02 Jun 2027 17:10:04.796   02 Jun 2027 17:11:16.222            71.426               Magadan2          2232.063
       123   02 Jun 2027 17:11:55.578   02 Jun 2027 17:12:21.740            26.162               Magadan2           817.562
       124   02 Jun 2027 17:12:46.331   02 Jun 2027 17:13:07.714            21.383               Magadan2           668.219
       125   02 Jun 2027 17:13:52.119   02 Jun 2027 17:15:00.977            68.858                Norilsk          2151.813
       126   02 Jun 2027 17:17:54.272   02 Jun 2027 17:19:02.714            68.442                Irkutsk          2138.813
       127   02 Jun 2027 18:02:09.243   02 Jun 2027 18:04:10.585           121.342            RioGallegos          3791.937
       128   02 Jun 2027 18:05:35.842   02 Jun 2027 18:05:49.167            13.325            RioGallegos           416.406
       129   02 Jun 2027 18:11:36.607   02 Jun 2027 18:12:38.541            61.934            RioGallegos          1935.438
       130   02 Jun 2027 18:45:38.856   02 Jun 2027 18:46:06.230            27.374                Norilsk           855.437
       131   02 Jun 2027 18:49:40.196   02 Jun 2027 18:50:59.777            79.581                Norilsk          2486.906
       132   02 Jun 2027 18:51:25.920   02 Jun 2027 18:57:42.461           376.541                Novosib         11766.906
       133   02 Jun 2027 19:04:20.411   02 Jun 2027 19:04:52.362            31.951                Sumatra           998.469
       134   02 Jun 2027 19:06:07.501   02 Jun 2027 19:07:24.002            76.501                Sumatra          2390.656
       135   02 Jun 2027 19:14:02.306   02 Jun 2027 19:14:57.935            55.629                Sumatra          1738.406
       136   02 Jun 2027 20:27:24.652   02 Jun 2027 20:28:02.357            37.705                Novosib          1178.281
       137   02 Jun 2027 20:29:58.876   02 Jun 2027 20:32:11.378           132.502                Novosib          4140.688
       138   02 Jun 2027 20:33:14.012   02 Jun 2027 20:37:10.424           236.412                  Delhi          7387.875
       139   02 Jun 2027 21:59:55.887   02 Jun 2027 22:09:03.226           547.339              Murmansk2         17104.344
       140   02 Jun 2027 22:09:52.348   02 Jun 2027 22:12:01.072           128.724                 Moscow          4022.625
       141   02 Jun 2027 23:40:54.414   02 Jun 2027 23:41:30.723            36.309                 Moscow          1134.656
       142   03 Jun 2027 00:03:13.965   03 Jun 2027 00:05:51.994           158.029               CapeTown          4938.406
       143   03 Jun 2027 00:07:14.289   03 Jun 2027 00:07:15.288             0.999               CapeTown            31.219
       144   03 Jun 2027 00:12:20.340   03 Jun 2027 00:12:38.676            18.336               CapeTown           573.000
       145   03 Jun 2027 00:15:12.954   03 Jun 2027 00:15:33.125            20.171               CapeTown           630.344
       146   03 Jun 2027 01:11:40.940   03 Jun 2027 01:12:29.908            48.968              Murmansk2          1530.250
       147   03 Jun 2027 01:12:42.118   03 Jun 2027 01:12:46.167             4.049              Murmansk1           126.531
       148   03 Jun 2027 01:13:59.332   03 Jun 2027 01:15:02.381            63.049              Murmansk2          1970.281
       149   03 Jun 2027 01:15:17.842   03 Jun 2027 01:17:24.607           126.765                 Moscow          3961.406
       150   03 Jun 2027 01:39:51.520   03 Jun 2027 01:39:52.741             1.221               CapeTown            38.156
       151   03 Jun 2027 01:40:11.301   03 Jun 2027 01:41:18.690            67.389               CapeTown          2105.906
       152   03 Jun 2027 01:48:30.115   03 Jun 2027 01:49:06.338            36.223               CapeTown          1131.969
       153   03 Jun 2027 02:35:28.352   03 Jun 2027 02:37:51.315           142.963               Magadan1          4467.594
       154   03 Jun 2027 02:40:55.401   03 Jun 2027 02:41:14.401            19.000               Magadan2           593.750
       155   03 Jun 2027 02:44:00.298   03 Jun 2027 02:44:13.915            13.617                Norilsk           425.531
       156   03 Jun 2027 02:45:14.463   03 Jun 2027 02:45:16.908             2.445                Norilsk            76.406
       157   03 Jun 2027 02:45:44.785   03 Jun 2027 02:45:55.711            10.926                Norilsk           341.438
       158   03 Jun 2027 02:47:31.550   03 Jun 2027 02:48:15.287            43.737              Murmansk2          1366.781
       159   03 Jun 2027 02:48:31.110   03 Jun 2027 02:49:22.155            51.045              Murmansk1          1595.156
       160   03 Jun 2027 02:51:24.465   03 Jun 2027 02:52:15.852            51.387                 Moscow          1605.844
       161   03 Jun 2027 02:56:19.323   03 Jun 2027 02:56:28.971             9.648                 Moscow           301.500
       162   03 Jun 2027 02:59:37.508   03 Jun 2027 03:00:00.849            23.341                 Moscow           729.406
       163   03 Jun 2027 03:28:26.060   03 Jun 2027 03:30:14.472           108.412            RioGallegos          3387.875
       164   03 Jun 2027 03:31:02.159   03 Jun 2027 03:31:40.916            38.757            RioGallegos          1211.156
       165   03 Jun 2027 04:16:08.084   03 Jun 2027 04:16:49.751            41.667               Magadan1          1302.094
       166   03 Jun 2027 04:17:23.409   03 Jun 2027 04:21:44.345           260.936                Anadyr1          8154.250
       167   03 Jun 2027 04:21:46.623   03 Jun 2027 04:22:55.766            69.143                Anadyr2          2160.719
       168   03 Jun 2027 04:59:32.621   03 Jun 2027 05:01:31.923           119.302            RioGallegos          3728.187
       169   03 Jun 2027 05:02:46.813   03 Jun 2027 05:03:08.538            21.725            RioGallegos           678.906
       170   03 Jun 2027 05:54:43.221   03 Jun 2027 05:54:51.657             8.436               Magadan1           263.625
       171   03 Jun 2027 05:55:01.031   03 Jun 2027 05:55:23.138            22.107               Magadan2           690.844
       172   03 Jun 2027 05:55:57.184   03 Jun 2027 05:59:45.966           228.782                Irkutsk          7149.437
       173   03 Jun 2027 05:59:46.985   03 Jun 2027 06:00:09.657            22.672                Norilsk           708.500
       174   03 Jun 2027 06:00:14.014   03 Jun 2027 06:00:39.498            25.484                Novosib           796.375
       175   03 Jun 2027 07:33:29.106   03 Jun 2027 07:34:22.751            53.645                 Moscow          1676.406
       176   03 Jun 2027 07:35:01.871   03 Jun 2027 07:35:23.865            21.994                Irkutsk           687.312
       177   03 Jun 2027 07:36:24.784   03 Jun 2027 07:36:43.357            18.573                Norilsk           580.406
       178   03 Jun 2027 08:14:19.742   03 Jun 2027 08:15:23.574            63.832            RioGallegos          1994.750
       179   03 Jun 2027 08:48:18.627   03 Jun 2027 08:49:24.547            65.920                Sumatra          2060.000
       180   03 Jun 2027 09:11:03.158   03 Jun 2027 09:11:47.684            44.526                Novosib          1391.437
       181   03 Jun 2027 10:35:14.885   03 Jun 2027 10:36:08.551            53.666                  Delhi          1677.063
       182   03 Jun 2027 10:36:10.931   03 Jun 2027 10:36:47.733            36.802                  Delhi          1150.063
       183   03 Jun 2027 10:49:30.145   03 Jun 2027 10:49:41.046            10.901                Norilsk           340.656
       184   03 Jun 2027 12:19:59.122   03 Jun 2027 12:23:17.514           198.392              Murmansk2          6199.750
       185   03 Jun 2027 12:23:31.187   03 Jun 2027 12:23:32.459             1.272              Murmansk2            39.750
       186   03 Jun 2027 12:23:44.729   03 Jun 2027 12:24:27.369            42.640              Murmansk1          1332.500
       187   03 Jun 2027 12:32:37.278   03 Jun 2027 12:38:26.378           349.100                Anadyr2         10909.375
       188   03 Jun 2027 12:38:56.922   03 Jun 2027 12:41:15.261           138.339                Anadyr1          4323.094
       189   03 Jun 2027 14:08:01.162   03 Jun 2027 14:09:21.615            80.453                Anadyr2          2514.156
       190   03 Jun 2027 14:11:18.708   03 Jun 2027 14:11:54.841            36.133                Anadyr1          1129.156
       191   03 Jun 2027 14:12:23.505   03 Jun 2027 14:13:57.918            94.413                Anadyr1          2950.406
       192   03 Jun 2027 14:14:15.000   03 Jun 2027 14:18:06.277           231.277               Magadan2          7227.406
       193   03 Jun 2027 15:46:19.788   03 Jun 2027 15:48:36.270           136.482               Magadan2          4265.062
       194   03 Jun 2027 15:48:50.471   03 Jun 2027 15:50:10.584            80.113               Magadan2          2503.531
       195   03 Jun 2027 15:50:57.003   03 Jun 2027 15:53:02.902           125.899               Magadan1          3934.344
       196   03 Jun 2027 17:21:56.036   03 Jun 2027 17:22:49.225            53.189                Anadyr1          1662.156
       197   03 Jun 2027 17:23:14.094   03 Jun 2027 17:24:38.813            84.719                Norilsk          2647.469
       198   03 Jun 2027 17:26:15.741   03 Jun 2027 17:27:11.398            55.657                Norilsk          1739.281
       199   03 Jun 2027 17:28:08.433   03 Jun 2027 17:33:22.175           313.742                Irkutsk          9804.438
       200   03 Jun 2027 19:01:41.706   03 Jun 2027 19:02:49.269            67.563                Irkutsk          2111.344
       201   03 Jun 2027 19:02:56.674   03 Jun 2027 19:10:14.919           438.245                Novosib         13695.156
       202   03 Jun 2027 19:23:24.084   03 Jun 2027 19:24:56.107            92.023                Sumatra          2875.719
       203   03 Jun 2027 20:39:59.027   03 Jun 2027 20:40:23.317            24.290                Novosib           759.063
       204   03 Jun 2027 20:41:33.136   03 Jun 2027 20:42:07.249            34.113                Novosib          1066.031
       205   03 Jun 2027 20:45:02.170   03 Jun 2027 20:47:36.888           154.718                  Delhi          4834.938
       206   03 Jun 2027 20:54:05.305   03 Jun 2027 20:54:30.300            24.995                  Delhi           781.094
       207   03 Jun 2027 20:55:26.083   03 Jun 2027 20:56:13.884            47.801                  Delhi          1493.781
       208   03 Jun 2027 22:11:54.262   03 Jun 2027 22:13:34.362           100.100              Murmansk1          3128.125
       209   03 Jun 2027 22:14:14.262   03 Jun 2027 22:17:28.645           194.383              Murmansk2          6074.469
       210   03 Jun 2027 22:19:01.947   03 Jun 2027 22:22:39.469           217.522                 Moscow          6797.563
       211   03 Jun 2027 22:44:27.336   03 Jun 2027 22:48:43.129           255.793               CapeTown          7993.531
       212   04 Jun 2027 00:01:35.537   04 Jun 2027 00:02:53.413            77.876                 Moscow          2433.625
       213   04 Jun 2027 00:15:02.179   04 Jun 2027 00:17:01.064           118.885               CapeTown          3715.156
       214   04 Jun 2027 01:20:09.913   04 Jun 2027 01:20:32.391            22.478               Magadan2           702.437
       215   04 Jun 2027 01:20:58.442   04 Jun 2027 01:22:06.509            68.067               Magadan1          2127.094
       216   04 Jun 2027 01:23:42.305   04 Jun 2027 01:23:48.032             5.727              Murmansk1           178.969
       217   04 Jun 2027 01:25:55.888   04 Jun 2027 01:26:59.491            63.603              Murmansk2          1987.594
       218   04 Jun 2027 01:26:59.671   04 Jun 2027 01:27:53.381            53.710                 Moscow          1678.438
       219   04 Jun 2027 01:31:34.878   04 Jun 2027 01:31:50.823            15.945                 Moscow           498.281
       220   04 Jun 2027 01:35:37.849   04 Jun 2027 01:36:02.243            24.394                 Moscow           762.312
       221   04 Jun 2027 01:38:26.265   04 Jun 2027 01:39:01.701            35.436                 Moscow          1107.375
       222   04 Jun 2027 01:52:59.173   04 Jun 2027 01:54:08.000            68.827               CapeTown          2150.844
       223   04 Jun 2027 02:47:22.101   04 Jun 2027 02:49:33.286           131.185               Magadan2          4099.531
       224   04 Jun 2027 02:49:51.505   04 Jun 2027 02:50:06.964            15.459               Magadan1           483.094
       225   04 Jun 2027 02:50:32.115   04 Jun 2027 02:50:57.815            25.700               Magadan1           803.125
       226   04 Jun 2027 02:53:50.110   04 Jun 2027 02:54:16.441            26.331               Magadan2           822.844
       227   04 Jun 2027 02:55:06.751   04 Jun 2027 02:55:11.234             4.483                Norilsk           140.094
       228   04 Jun 2027 02:56:01.089   04 Jun 2027 02:56:33.209            32.120                Norilsk          1003.750
       229   04 Jun 2027 02:59:30.928   04 Jun 2027 03:00:16.947            46.019              Murmansk2          1438.094
       230   04 Jun 2027 03:39:31.601   04 Jun 2027 03:42:46.976           195.375            RioGallegos          6105.469
       231   04 Jun 2027 04:28:32.713   04 Jun 2027 04:28:58.389            25.676               Magadan2           802.375
       232   04 Jun 2027 04:29:04.397   04 Jun 2027 04:30:07.208            62.811               Magadan1          1962.844
       233   04 Jun 2027 04:30:08.301   04 Jun 2027 04:30:18.005             9.704                Irkutsk           303.250
       234   04 Jun 2027 04:30:33.708   04 Jun 2027 04:32:45.077           131.369               Magadan1          4105.281
       235   04 Jun 2027 04:32:53.822   04 Jun 2027 04:33:16.389            22.567                Novosib           705.219
       236   04 Jun 2027 04:33:33.219   04 Jun 2027 04:33:49.158            15.939               Magadan2           498.094
       237   04 Jun 2027 04:34:15.646   04 Jun 2027 04:35:13.185            57.539                Irkutsk          1798.094
       238   04 Jun 2027 04:35:25.561   04 Jun 2027 04:35:29.900             4.339                Anadyr1           135.594
       239   04 Jun 2027 04:35:41.328   04 Jun 2027 04:35:55.893            14.565               Magadan2           455.156
       240   04 Jun 2027 04:36:15.531   04 Jun 2027 04:40:02.809           227.278              Murmansk1          7102.438
       241   04 Jun 2027 04:40:02.809   04 Jun 2027 04:40:23.143            20.334              Murmansk2           635.438
       242   04 Jun 2027 05:11:15.444   04 Jun 2027 05:15:01.698           226.254            RioGallegos          7070.437
       243   04 Jun 2027 06:06:37.911   04 Jun 2027 06:07:47.321            69.410                Novosib          2169.062
       244   04 Jun 2027 06:08:03.156   04 Jun 2027 06:08:30.229            27.073                Novosib           846.031
       245   04 Jun 2027 06:08:50.627   04 Jun 2027 06:09:34.168            43.541                Novosib          1360.656
       246   04 Jun 2027 06:10:05.999   04 Jun 2027 06:10:28.648            22.649               Magadan2           707.781
       247   04 Jun 2027 06:11:36.913   04 Jun 2027 06:11:54.249            17.336                Norilsk           541.750
       248   04 Jun 2027 07:45:24.255   04 Jun 2027 07:46:05.130            40.875                 Moscow          1277.344
       249   04 Jun 2027 07:46:30.869   04 Jun 2027 07:47:06.665            35.796                 Moscow          1118.625
       250   04 Jun 2027 07:49:56.830   04 Jun 2027 07:50:19.020            22.190              Murmansk2           693.437
       251   04 Jun 2027 08:26:40.113   04 Jun 2027 08:27:11.954            31.841            RioGallegos           995.031
       252   04 Jun 2027 08:27:42.834   04 Jun 2027 08:27:48.093             5.259            RioGallegos           164.344
       253   04 Jun 2027 08:28:18.345   04 Jun 2027 08:28:35.881            17.536            RioGallegos           548.000
       254   04 Jun 2027 09:23:08.618   04 Jun 2027 09:23:20.014            11.396                Novosib           356.125
       255   04 Jun 2027 09:23:32.488   04 Jun 2027 09:23:33.374             0.886                Norilsk            27.687
       256   04 Jun 2027 11:02:04.959   04 Jun 2027 11:02:45.548            40.589                Norilsk          1268.406
       257   04 Jun 2027 12:27:16.116   04 Jun 2027 12:28:37.467            81.351                 Moscow          2542.219
       258   04 Jun 2027 12:29:30.370   04 Jun 2027 12:30:17.147            46.777                 Moscow          1461.781
       259   04 Jun 2027 12:30:40.148   04 Jun 2027 12:30:59.815            19.667              Murmansk1           614.594
       260   04 Jun 2027 12:31:02.339   04 Jun 2027 12:31:25.067            22.728              Murmansk2           710.250
       261   04 Jun 2027 12:31:57.990   04 Jun 2027 12:32:42.733            44.743              Murmansk1          1398.219
       262   04 Jun 2027 12:33:14.904   04 Jun 2027 12:33:27.186            12.282              Murmansk1           383.812
       263   04 Jun 2027 12:33:48.184   04 Jun 2027 12:34:07.371            19.187              Murmansk1           599.594
       264   04 Jun 2027 12:34:32.834   04 Jun 2027 12:35:18.756            45.922              Murmansk2          1435.062
       265   04 Jun 2027 12:44:30.378   04 Jun 2027 12:53:52.399           562.021                Anadyr2         17563.156
       266   04 Jun 2027 14:20:01.478   04 Jun 2027 14:20:57.654            56.176                Anadyr2          1755.500
       267   04 Jun 2027 14:23:30.629   04 Jun 2027 14:30:14.430           403.801               Magadan2         12618.781
       268   04 Jun 2027 14:31:00.031   04 Jun 2027 14:31:03.640             3.609               Magadan1           112.781
       269   04 Jun 2027 15:58:17.992   04 Jun 2027 15:59:54.212            96.220               Magadan1          3006.875
       270   04 Jun 2027 16:02:12.753   04 Jun 2027 16:02:22.569             9.816               Magadan2           306.750
       271   04 Jun 2027 16:02:37.043   04 Jun 2027 16:03:15.984            38.941               Magadan2          1216.906
       272   04 Jun 2027 17:31:46.689   04 Jun 2027 17:32:34.984            48.295                Anadyr2          1509.219
       273   04 Jun 2027 17:32:42.929   04 Jun 2027 17:33:31.443            48.514                Anadyr1          1516.063
       274   04 Jun 2027 17:34:03.744   04 Jun 2027 17:35:29.479            85.735                Norilsk          2679.219
       275   04 Jun 2027 17:38:14.235   04 Jun 2027 17:39:32.645            78.410                Norilsk          2450.313
       276   04 Jun 2027 17:40:01.894   04 Jun 2027 17:46:34.768           392.874                Irkutsk         12277.312
       277   04 Jun 2027 17:55:22.965   04 Jun 2027 18:01:05.531           342.566                Sumatra         10705.187
       278   04 Jun 2027 19:15:34.892   04 Jun 2027 19:20:59.313           324.421                Novosib         10138.156
       279   04 Jun 2027 20:49:10.208   04 Jun 2027 20:52:33.275           203.067              Murmansk1          6345.844
       280   04 Jun 2027 22:23:53.422   04 Jun 2027 22:25:24.329            90.907              Murmansk1          2840.844
       281   04 Jun 2027 22:25:34.256   04 Jun 2027 22:29:51.621           257.365              Murmansk2          8042.656
       282   04 Jun 2027 22:30:36.251   04 Jun 2027 22:35:50.230           313.979                 Moscow          9811.844
       283   04 Jun 2027 22:54:59.955   04 Jun 2027 23:01:45.707           405.752               CapeTown         12679.750
       284   05 Jun 2027 01:39:03.663   05 Jun 2027 01:39:49.261            45.598                 Moscow          1424.938
       285   05 Jun 2027 01:40:38.238   05 Jun 2027 01:40:43.119             4.881                 Moscow           152.531
       286   05 Jun 2027 01:43:20.022   05 Jun 2027 01:43:40.555            20.533                 Moscow           641.656
       287   05 Jun 2027 01:48:32.766   05 Jun 2027 01:48:41.726             8.960                 Moscow           280.000
       288   05 Jun 2027 01:48:49.038   05 Jun 2027 01:49:41.363            52.325                 Moscow          1635.156
       289   05 Jun 2027 02:05:16.288   05 Jun 2027 02:05:50.929            34.641               CapeTown          1082.531
       290   05 Jun 2027 02:09:02.849   05 Jun 2027 02:09:26.203            23.354               CapeTown           729.812
       291   05 Jun 2027 02:59:18.119   05 Jun 2027 03:00:21.028            62.909               Magadan1          1965.906
       292   05 Jun 2027 03:00:21.028   05 Jun 2027 03:01:06.052            45.024               Magadan2          1407.000
       293   05 Jun 2027 03:02:33.976   05 Jun 2027 03:02:49.026            15.050               Magadan2           470.313
       294   05 Jun 2027 03:03:35.903   05 Jun 2027 03:06:46.349           190.446               Magadan2          5951.437
       295   05 Jun 2027 03:06:58.397   05 Jun 2027 03:07:12.249            13.852               Magadan2           432.875
       296   05 Jun 2027 03:07:21.988   05 Jun 2027 03:10:59.287           217.299                Anadyr2          6790.594
       297   05 Jun 2027 03:11:09.387   05 Jun 2027 03:11:12.034             2.647                Anadyr2            82.719
       298   05 Jun 2027 03:11:42.666   05 Jun 2027 03:12:21.186            38.520                Anadyr2          1203.750
       299   05 Jun 2027 04:41:06.757   05 Jun 2027 04:41:44.628            37.871               Magadan2          1183.469
       300   05 Jun 2027 04:41:49.297   05 Jun 2027 04:42:28.284            38.987               Magadan2          1218.344
       301   05 Jun 2027 04:42:28.571   05 Jun 2027 04:46:52.583           264.012                Irkutsk          8250.375
       302   05 Jun 2027 04:47:25.751   05 Jun 2027 04:47:53.482            27.731               Magadan1           866.594
       303   05 Jun 2027 06:17:56.439   05 Jun 2027 06:18:48.539            52.100               Magadan1          1628.125
       304   05 Jun 2027 06:18:53.055   05 Jun 2027 06:18:55.159             2.104               Magadan1            65.750
       305   05 Jun 2027 06:18:55.159   05 Jun 2027 06:19:01.809             6.650               Magadan2           207.812
       306   05 Jun 2027 06:19:07.487   05 Jun 2027 06:19:33.331            25.844               Magadan2           807.625
       307   05 Jun 2027 06:19:33.331   05 Jun 2027 06:20:02.154            28.823               Magadan1           900.719
       308   05 Jun 2027 06:20:55.569   05 Jun 2027 06:20:57.067             1.498               Magadan1            46.812
       309   05 Jun 2027 06:21:37.859   05 Jun 2027 06:21:55.561            17.702               Magadan1           553.187
       310   05 Jun 2027 06:23:49.133   05 Jun 2027 06:23:52.330             3.197                Norilsk            99.906
       311   05 Jun 2027 06:26:42.778   05 Jun 2027 06:27:08.706            25.928              Murmansk2           810.250
       312   05 Jun 2027 07:56:07.185   05 Jun 2027 07:56:29.751            22.566                Novosib           705.187
       313   05 Jun 2027 07:56:39.723   05 Jun 2027 07:57:19.941            40.218              Murmansk2          1256.813
       314   05 Jun 2027 08:01:28.253   05 Jun 2027 08:01:57.979            29.726                 Moscow           928.937
       315   05 Jun 2027 08:40:07.349   05 Jun 2027 08:41:04.764            57.415            RioGallegos          1794.219
       316   05 Jun 2027 09:31:06.754   05 Jun 2027 09:31:58.426            51.672                Novosib          1614.750
       317   05 Jun 2027 09:35:55.900   05 Jun 2027 09:36:04.779             8.879                Novosib           277.469
       318   05 Jun 2027 11:13:56.135   05 Jun 2027 11:14:12.714            16.579                Norilsk           518.094
       319   05 Jun 2027 12:39:45.195   05 Jun 2027 12:40:37.157            51.962                 Moscow          1623.813
       320   05 Jun 2027 12:41:36.508   05 Jun 2027 12:43:19.421           102.913                 Moscow          3216.031
       321   05 Jun 2027 12:43:26.039   05 Jun 2027 12:44:43.991            77.952              Murmansk1          2436.000
       322   05 Jun 2027 12:45:19.034   05 Jun 2027 12:45:27.104             8.070              Murmansk1           252.187
       323   05 Jun 2027 12:45:49.888   05 Jun 2027 12:46:27.347            37.459              Murmansk1          1170.594
       324   05 Jun 2027 12:47:20.148   05 Jun 2027 12:48:15.750            55.602              Murmansk2          1737.562
       325   05 Jun 2027 12:56:25.342   05 Jun 2027 13:02:17.587           352.245                Anadyr2         11007.656
       326   05 Jun 2027 13:03:42.767   05 Jun 2027 13:05:56.864           134.097                Anadyr2          4190.531
       327   05 Jun 2027 14:32:02.088   05 Jun 2027 14:33:16.878            74.790                Anadyr2          2337.187
       328   05 Jun 2027 14:34:40.886   05 Jun 2027 14:35:53.859            72.973                Anadyr1          2280.406
       329   05 Jun 2027 14:36:02.550   05 Jun 2027 14:41:25.622           323.072               Magadan1         10096.000
       330   05 Jun 2027 14:41:26.063   05 Jun 2027 14:43:50.860           144.797               Magadan2          4524.906
       331   05 Jun 2027 16:10:16.942   05 Jun 2027 16:11:26.004            69.062               Magadan2          2158.187
       332   05 Jun 2027 17:04:28.753   05 Jun 2027 17:09:19.840           291.087            RioGallegos          9096.469
       333   05 Jun 2027 17:46:52.409   05 Jun 2027 17:47:34.318            41.909                Norilsk          1309.656
       334   05 Jun 2027 17:50:59.090   05 Jun 2027 17:57:49.223           410.133                Irkutsk         12816.656
       335   05 Jun 2027 18:06:05.664   05 Jun 2027 18:14:16.383           490.719                Sumatra         15334.969
       336   05 Jun 2027 19:29:20.671   05 Jun 2027 19:32:25.643           184.972                Novosib          5780.375
       337   05 Jun 2027 19:36:47.438   05 Jun 2027 19:41:16.465           269.027                  Delhi          8407.094
       338   05 Jun 2027 21:00:46.031   05 Jun 2027 21:05:40.158           294.127              Murmansk1          9191.469
       339   05 Jun 2027 22:38:32.084   05 Jun 2027 22:41:15.576           163.492              Murmansk1          5109.125
       340   05 Jun 2027 22:43:41.820   05 Jun 2027 22:45:07.990            86.170                 Moscow          2692.813
       341   05 Jun 2027 22:45:58.408   05 Jun 2027 22:47:53.461           115.053                 Moscow          3595.406
       342   05 Jun 2027 23:05:59.886   05 Jun 2027 23:14:24.032           504.146               CapeTown         15754.563
       343   06 Jun 2027 03:15:22.604   06 Jun 2027 03:15:38.476            15.872               Magadan2           496.000
       344   06 Jun 2027 03:15:48.552   06 Jun 2027 03:16:02.455            13.903               Magadan2           434.469
       345   06 Jun 2027 03:16:18.860   06 Jun 2027 03:16:44.827            25.967               Magadan2           811.469
       346   06 Jun 2027 03:18:13.501   06 Jun 2027 03:19:09.541            56.040               Magadan2          1751.250
       347   06 Jun 2027 03:19:13.326   06 Jun 2027 03:24:19.776           306.450                Anadyr1          9576.562
       348   06 Jun 2027 04:07:42.453   06 Jun 2027 04:07:44.217             1.764            RioGallegos            55.125
       349   06 Jun 2027 04:53:40.441   06 Jun 2027 04:54:21.200            40.759                Irkutsk          1273.719
       350   06 Jun 2027 04:54:46.012   06 Jun 2027 04:56:03.288            77.276                Irkutsk          2414.875
       351   06 Jun 2027 04:56:18.011   06 Jun 2027 04:58:26.378           128.367                Irkutsk          4011.469
       352   06 Jun 2027 04:58:48.566   06 Jun 2027 04:58:58.802            10.236               Magadan2           319.875
       353   06 Jun 2027 04:58:58.802   06 Jun 2027 04:59:47.446            48.644               Magadan1          1520.125
       354   06 Jun 2027 06:30:50.112   06 Jun 2027 06:30:56.448             6.336               Magadan1           198.000
       355   06 Jun 2027 06:31:10.732   06 Jun 2027 06:31:42.421            31.689               Magadan2           990.281
       356   06 Jun 2027 06:35:10.876   06 Jun 2027 06:35:58.864            47.988                Novosib          1499.625
       357   06 Jun 2027 08:09:10.854   06 Jun 2027 08:09:29.545            18.691              Murmansk1           584.094
       358   06 Jun 2027 08:13:11.444   06 Jun 2027 08:13:30.089            18.645              Murmansk2           582.656
       359   06 Jun 2027 08:14:07.216   06 Jun 2027 08:14:09.988             2.772                 Moscow            86.625
       360   06 Jun 2027 09:35:30.084   06 Jun 2027 09:36:36.352            66.268                  Delhi          2070.875
       361   06 Jun 2027 09:47:29.026   06 Jun 2027 09:47:58.007            28.981                Novosib           905.656
       362   06 Jun 2027 12:52:19.792   06 Jun 2027 12:52:34.786            14.994                 Moscow           468.562
       363   06 Jun 2027 12:53:15.766   06 Jun 2027 12:54:15.439            59.673                 Moscow          1864.781
       364   06 Jun 2027 12:55:00.517   06 Jun 2027 12:55:28.029            27.512                 Moscow           859.750
       365   06 Jun 2027 12:55:39.790   06 Jun 2027 12:55:52.599            12.809                 Moscow           400.281
       366   06 Jun 2027 12:55:55.314   06 Jun 2027 12:56:45.041            49.727              Murmansk2          1553.969
       367   06 Jun 2027 12:56:45.041   06 Jun 2027 12:57:08.856            23.815              Murmansk1           744.219
       368   06 Jun 2027 12:57:58.562   06 Jun 2027 12:58:22.588            24.026              Murmansk2           750.812
       369   06 Jun 2027 12:59:21.677   06 Jun 2027 12:59:41.776            20.099              Murmansk2           628.094
       370   06 Jun 2027 13:00:03.457   06 Jun 2027 13:00:29.218            25.761              Murmansk1           805.031
       371   06 Jun 2027 13:03:18.217   06 Jun 2027 13:04:17.981            59.764              Murmansk2          1867.625
       372   06 Jun 2027 13:08:21.690   06 Jun 2027 13:10:18.413           116.723                Anadyr2          3647.594
       373   06 Jun 2027 13:10:35.403   06 Jun 2027 13:14:39.046           243.643                Anadyr1          7613.844
       374   06 Jun 2027 13:16:43.602   06 Jun 2027 13:16:56.426            12.824                Anadyr1           400.750
       375   06 Jun 2027 14:35:26.757   06 Jun 2027 14:35:49.322            22.565              Murmansk1           705.156
       376   06 Jun 2027 14:44:02.934   06 Jun 2027 14:45:15.688            72.754                Anadyr2          2273.562
       377   06 Jun 2027 14:45:24.032   06 Jun 2027 14:46:25.804            61.772                Anadyr1          1930.375
       378   06 Jun 2027 14:46:38.778   06 Jun 2027 14:47:05.993            27.215                Anadyr1           850.469
       379   06 Jun 2027 14:48:20.321   06 Jun 2027 14:52:58.157           277.836               Magadan1          8682.375
       380   06 Jun 2027 14:53:08.369   06 Jun 2027 14:56:30.883           202.514               Magadan2          6328.562
       381   06 Jun 2027 16:22:16.521   06 Jun 2027 16:23:58.517           101.996               Magadan1          3187.375
       382   06 Jun 2027 16:32:27.628   06 Jun 2027 16:32:41.364            13.736               Magadan2           429.250
       383   06 Jun 2027 17:15:41.307   06 Jun 2027 17:22:37.493           416.186            RioGallegos         13005.813
       384   06 Jun 2027 17:59:46.056   06 Jun 2027 18:00:39.476            53.420                Norilsk          1669.375
       385   06 Jun 2027 18:02:39.781   06 Jun 2027 18:10:29.297           469.516                Irkutsk         14672.375
       386   06 Jun 2027 18:17:15.070   06 Jun 2027 18:25:20.963           485.893                Sumatra         15184.156
       387   06 Jun 2027 19:47:27.914   06 Jun 2027 19:54:49.263           441.349                  Delhi         13792.156
       388   06 Jun 2027 21:12:32.170   06 Jun 2027 21:18:34.687           362.517              Murmansk2         11328.656
       389   06 Jun 2027 22:51:27.536   06 Jun 2027 22:51:53.106            25.570              Murmansk1           799.062
       390   06 Jun 2027 23:19:13.260   06 Jun 2027 23:20:00.385            47.125               CapeTown          1472.656
       391   06 Jun 2027 23:20:18.223   06 Jun 2027 23:24:44.685           266.462               CapeTown          8326.938
       392   07 Jun 2027 01:48:29.307   07 Jun 2027 01:48:48.557            19.250               Magadan2           601.562
       393   07 Jun 2027 01:49:44.962   07 Jun 2027 01:50:01.345            16.383               Magadan1           511.969
       394   07 Jun 2027 01:50:04.667   07 Jun 2027 01:50:27.666            22.999               Magadan1           718.719
       395   07 Jun 2027 01:56:10.311   07 Jun 2027 01:56:18.900             8.589                Norilsk           268.406
       396   07 Jun 2027 01:56:45.661   07 Jun 2027 01:57:03.266            17.605               Magadan1           550.156
       397   07 Jun 2027 01:57:50.645   07 Jun 2027 01:58:00.159             9.514               Magadan2           297.312
       398   07 Jun 2027 01:59:45.418   07 Jun 2027 02:01:19.681            94.263              Murmansk2          2945.719
       399   07 Jun 2027 02:03:13.108   07 Jun 2027 02:04:06.231            53.123                 Moscow          1660.094
       400   07 Jun 2027 02:07:48.367   07 Jun 2027 02:08:23.324            34.957                 Moscow          1092.406
       401   07 Jun 2027 02:32:33.869   07 Jun 2027 02:33:29.444            55.575               CapeTown          1736.719
       402   07 Jun 2027 02:33:54.416   07 Jun 2027 02:34:02.932             8.516               CapeTown           266.125
       403   07 Jun 2027 03:25:31.738   07 Jun 2027 03:25:39.295             7.557                Anadyr2           236.156
       404   07 Jun 2027 03:25:48.563   07 Jun 2027 03:26:14.113            25.550               Magadan1           798.437
       405   07 Jun 2027 03:27:37.649   07 Jun 2027 03:28:00.996            23.347                Anadyr1           729.594
       406   07 Jun 2027 03:28:05.915   07 Jun 2027 03:28:17.975            12.060                Anadyr2           376.875
       407   07 Jun 2027 03:28:32.697   07 Jun 2027 03:29:33.782            61.085                Anadyr2          1908.906
       408   07 Jun 2027 03:30:00.242   07 Jun 2027 03:31:36.900            96.658                Anadyr1          3020.563
       409   07 Jun 2027 03:31:54.367   07 Jun 2027 03:33:19.266            84.899               Magadan1          2653.094
       410   07 Jun 2027 03:33:28.718   07 Jun 2027 03:36:17.596           168.878                Anadyr2          5277.438
       411   07 Jun 2027 04:18:25.714   07 Jun 2027 04:20:05.571            99.857            RioGallegos          3120.531
       412   07 Jun 2027 05:03:49.866   07 Jun 2027 05:03:54.422             4.556                Irkutsk           142.375
       413   07 Jun 2027 05:04:59.336   07 Jun 2027 05:05:15.483            16.147                Irkutsk           504.594
       414   07 Jun 2027 05:05:40.407   07 Jun 2027 05:06:21.512            41.105                Irkutsk          1284.531
       415   07 Jun 2027 05:06:28.112   07 Jun 2027 05:08:35.025           126.913                Irkutsk          3966.031
       416   07 Jun 2027 05:10:29.067   07 Jun 2027 05:11:45.347            76.280               Magadan2          2383.750
       417   07 Jun 2027 06:46:16.636   07 Jun 2027 06:46:50.412            33.776                Irkutsk          1055.500
       418   07 Jun 2027 06:50:06.933   07 Jun 2027 06:50:17.996            11.063              Murmansk1           345.719
       419   07 Jun 2027 08:20:41.398   07 Jun 2027 08:21:00.935            19.537              Murmansk1           610.531
       420   07 Jun 2027 08:21:13.999   07 Jun 2027 08:21:16.759             2.760              Murmansk1            86.250
       421   07 Jun 2027 08:23:15.349   07 Jun 2027 08:23:24.941             9.592                Novosib           299.750
       422   07 Jun 2027 09:46:44.379   07 Jun 2027 09:48:36.370           111.991                  Delhi          3499.719
       423   07 Jun 2027 09:59:40.483   07 Jun 2027 09:59:44.331             3.848                Novosib           120.250
       424   07 Jun 2027 12:43:21.964   07 Jun 2027 12:43:56.023            34.059               CapeTown          1064.344
       425   07 Jun 2027 13:05:01.094   07 Jun 2027 13:05:47.065            45.971                 Moscow          1436.594
       426   07 Jun 2027 13:06:13.194   07 Jun 2027 13:06:49.353            36.159                 Moscow          1129.969
       427   07 Jun 2027 13:07:27.395   07 Jun 2027 13:07:28.567             1.172              Murmansk2            36.625
       428   07 Jun 2027 13:07:28.567   07 Jun 2027 13:08:59.486            90.919              Murmansk1          2841.219
       429   07 Jun 2027 13:09:27.908   07 Jun 2027 13:10:18.535            50.627              Murmansk1          1582.094
       430   07 Jun 2027 13:10:18.535   07 Jun 2027 13:11:23.300            64.765              Murmansk2          2023.906
       431   07 Jun 2027 13:11:39.053   07 Jun 2027 13:11:51.559            12.506              Murmansk2           390.812
       432   07 Jun 2027 13:20:19.117   07 Jun 2027 13:22:03.668           104.551                Anadyr2          3267.219
       433   07 Jun 2027 13:22:27.646   07 Jun 2027 13:25:47.696           200.050                Anadyr1          6251.562
       434   07 Jun 2027 13:27:26.910   07 Jun 2027 13:28:14.510            47.600                Anadyr2          1487.500
       435   07 Jun 2027 14:47:58.115   07 Jun 2027 14:49:11.561            73.446              Murmansk2          2295.188
       436   07 Jun 2027 14:56:03.969   07 Jun 2027 14:57:15.082            71.113                Anadyr2          2222.281
       437   07 Jun 2027 14:57:45.002   07 Jun 2027 14:58:34.915            49.913                Anadyr1          1559.781
       438   07 Jun 2027 14:58:52.795   07 Jun 2027 15:02:04.308           191.513               Magadan1          5984.781
       439   07 Jun 2027 15:02:18.975   07 Jun 2027 15:04:56.737           157.762               Magadan2          4930.063
       440   07 Jun 2027 15:05:37.132   07 Jun 2027 15:09:05.216           208.084               Magadan2          6502.625
       441   07 Jun 2027 16:34:16.633   07 Jun 2027 16:34:49.038            32.405               Magadan2          1012.656
       442   07 Jun 2027 17:27:11.608   07 Jun 2027 17:34:13.188           421.580            RioGallegos         13174.375
       443   07 Jun 2027 18:10:46.233   07 Jun 2027 18:12:04.784            78.551                Norilsk          2454.719
       444   07 Jun 2027 18:14:25.477   07 Jun 2027 18:17:40.377           194.900                Irkutsk          6090.625
       445   07 Jun 2027 18:18:13.835   07 Jun 2027 18:20:38.971           145.136                Irkutsk          4535.500
       446   07 Jun 2027 18:32:00.791   07 Jun 2027 18:35:47.358           226.567                Sumatra          7080.219
       447   07 Jun 2027 19:50:02.403   07 Jun 2027 19:51:15.179            72.776                Novosib          2274.250
       448   07 Jun 2027 19:51:32.064   07 Jun 2027 19:52:09.966            37.902                Novosib          1184.438
       449   07 Jun 2027 19:58:40.996   07 Jun 2027 20:06:55.184           494.188                  Delhi         15443.375
       450   07 Jun 2027 21:24:23.221   07 Jun 2027 21:30:12.955           349.734              Murmansk1         10929.187
       451   07 Jun 2027 21:31:14.867   07 Jun 2027 21:31:22.220             7.353              Murmansk2           229.781
       452   07 Jun 2027 23:04:52.769   07 Jun 2027 23:05:53.875            61.106                 Moscow          1909.563
       453   07 Jun 2027 23:10:16.093   07 Jun 2027 23:12:01.349           105.256                 Moscow          3289.250
       454   07 Jun 2027 23:29:21.438   07 Jun 2027 23:31:30.465           129.027               CapeTown          4032.094
       455   07 Jun 2027 23:33:26.390   07 Jun 2027 23:35:38.276           131.886               CapeTown          4121.438
       456   08 Jun 2027 01:03:05.138   08 Jun 2027 01:04:32.130            86.992               CapeTown          2718.500
       457   08 Jun 2027 02:00:14.587   08 Jun 2027 02:01:56.709           102.122               Magadan2          3191.313
       458   08 Jun 2027 02:02:02.972   08 Jun 2027 02:02:37.586            34.614               Magadan1          1081.687
       459   08 Jun 2027 02:05:36.830   08 Jun 2027 02:05:56.412            19.582               Magadan2           611.938
       460   08 Jun 2027 02:08:06.270   08 Jun 2027 02:08:06.840             0.570                Norilsk            17.812
       461   08 Jun 2027 02:08:07.753   08 Jun 2027 02:08:47.901            40.148                Norilsk          1254.625
       462   08 Jun 2027 02:11:46.034   08 Jun 2027 02:12:27.538            41.504              Murmansk2          1297.000
       463   08 Jun 2027 02:13:20.135   08 Jun 2027 02:13:33.477            13.342              Murmansk2           416.937
       464   08 Jun 2027 02:13:45.100   08 Jun 2027 02:14:04.319            19.219              Murmansk2           600.594
       465   08 Jun 2027 02:15:18.623   08 Jun 2027 02:16:09.167            50.544                 Moscow          1579.500
       466   08 Jun 2027 02:19:05.353   08 Jun 2027 02:19:17.825            12.472                 Moscow           389.750
       467   08 Jun 2027 02:20:01.782   08 Jun 2027 02:20:27.652            25.870                 Moscow           808.437
       468   08 Jun 2027 03:35:20.401   08 Jun 2027 03:35:35.306            14.905               Magadan2           465.781
       469   08 Jun 2027 03:35:35.306   08 Jun 2027 03:35:49.115            13.809               Magadan1           431.531
       470   08 Jun 2027 03:37:59.479   08 Jun 2027 03:39:36.806            97.327                Anadyr1          3041.469
       471   08 Jun 2027 03:40:20.150   08 Jun 2027 03:41:35.169            75.019                Anadyr1          2344.344
       472   08 Jun 2027 03:42:09.787   08 Jun 2027 03:42:58.347            48.560               Magadan1          1517.500
       473   08 Jun 2027 03:43:03.598   08 Jun 2027 03:43:25.929            22.331                Anadyr1           697.844
       474   08 Jun 2027 03:43:27.861   08 Jun 2027 03:44:25.000            57.139               Magadan1          1785.594
       475   08 Jun 2027 03:44:52.493   08 Jun 2027 03:48:12.950           200.457               Magadan2          6264.281
       476   08 Jun 2027 04:28:24.582   08 Jun 2027 04:32:35.384           250.802            RioGallegos          7837.562
       477   08 Jun 2027 05:18:20.870   08 Jun 2027 05:18:42.391            21.521                Irkutsk           672.531
       478   08 Jun 2027 05:19:12.704   08 Jun 2027 05:20:03.013            50.309                Irkutsk          1572.156
       479   08 Jun 2027 05:20:58.827   08 Jun 2027 05:21:43.796            44.969                Irkutsk          1405.281
       480   08 Jun 2027 05:22:43.308   08 Jun 2027 05:23:46.083            62.775                Irkutsk          1961.719
       481   08 Jun 2027 07:02:11.568   08 Jun 2027 07:02:17.899             6.331              Murmansk2           197.844
       482   08 Jun 2027 07:41:10.129   08 Jun 2027 07:41:55.308            45.179            RioGallegos          1411.844
