uniorb/output/strategy_4/Drop/Drop_KinoSat_110303.txt

KinoSat_110303
-------------------------
    Access    *     Start Time (UTCG)     *     Stop Time (UTCG)  *   Duration (s)        *       Station  *  Data (Mbytes)
         1   01 Jun 2027 04:17:48.430   01 Jun 2027 04:20:03.572           135.142               Magadan1         16892.750
         2   01 Jun 2027 04:20:18.386   01 Jun 2027 04:21:35.416            77.030               Magadan1          9628.750
         3   01 Jun 2027 04:22:20.287   01 Jun 2027 04:22:27.516             7.229                Norilsk           903.625
         4   01 Jun 2027 04:22:37.954   01 Jun 2027 04:23:55.760            77.806                Norilsk          9725.750
         5   01 Jun 2027 04:24:24.191   01 Jun 2027 04:24:44.748            20.557                Norilsk          2569.625
         6   01 Jun 2027 04:24:50.438   01 Jun 2027 04:25:58.548            68.110                Norilsk          8513.750
         7   01 Jun 2027 04:57:50.993   01 Jun 2027 04:58:21.215            30.222            RioGallegos          3777.750
         8   01 Jun 2027 05:32:31.748   01 Jun 2027 05:35:13.745           161.997                Sumatra         20249.625
         9   01 Jun 2027 05:42:44.116   01 Jun 2027 05:43:01.302            17.186                  Delhi          2148.250
        10   01 Jun 2027 05:44:00.517   01 Jun 2027 05:45:51.349           110.832                  Delhi         13854.000
        11   01 Jun 2027 05:56:03.864   01 Jun 2027 05:56:38.359            34.495                Irkutsk          4311.875
        12   01 Jun 2027 05:56:49.776   01 Jun 2027 05:57:49.865            60.089                Norilsk          7511.125
        13   01 Jun 2027 05:57:54.489   01 Jun 2027 05:58:38.593            44.104                Irkutsk          5513.000
        14   01 Jun 2027 05:58:50.997   01 Jun 2027 05:59:28.088            37.091              Murmansk1          4636.375
        15   01 Jun 2027 06:39:14.630   01 Jun 2027 06:39:16.899             2.269            RioGallegos           283.625
        16   01 Jun 2027 07:16:50.419   01 Jun 2027 07:19:47.723           177.304                  Delhi         22163.000
        17   01 Jun 2027 07:33:21.775   01 Jun 2027 07:34:41.235            79.460                 Moscow          9932.500
        18   01 Jun 2027 07:35:27.512   01 Jun 2027 07:36:02.591            35.079                Novosib          4384.875
        19   01 Jun 2027 09:07:55.255   01 Jun 2027 09:09:21.379            86.124              Murmansk2         10765.500
        20   01 Jun 2027 09:09:26.668   01 Jun 2027 09:09:58.172            31.504              Murmansk2          3938.000
        21   01 Jun 2027 09:10:09.623   01 Jun 2027 09:14:01.898           232.275                 Moscow         29034.375
        22   01 Jun 2027 09:14:11.987   01 Jun 2027 09:17:31.014           199.027              Murmansk2         24878.375
        23   01 Jun 2027 10:16:58.072   01 Jun 2027 10:22:22.967           324.895               CapeTown         40611.875
        24   01 Jun 2027 10:55:39.816   01 Jun 2027 11:00:07.921           268.105                Anadyr2         33513.125
        25   01 Jun 2027 12:35:53.492   01 Jun 2027 12:38:36.942           163.450               Magadan1         20431.250
        26   01 Jun 2027 14:09:28.096   01 Jun 2027 14:10:32.548            64.452               Magadan1          8056.500
        27   01 Jun 2027 14:12:48.011   01 Jun 2027 14:14:07.619            79.608               Magadan2          9951.000
        28   01 Jun 2027 15:05:31.220   01 Jun 2027 15:06:09.365            38.145            RioGallegos          4768.125
        29   01 Jun 2027 15:50:32.041   01 Jun 2027 15:54:06.058           214.017                Irkutsk         26752.125
        30   01 Jun 2027 16:06:19.831   01 Jun 2027 16:09:51.328           211.497                Sumatra         26437.125
        31   01 Jun 2027 17:25:44.421   01 Jun 2027 17:27:40.404           115.983                Novosib         14497.875
        32   01 Jun 2027 17:31:30.281   01 Jun 2027 17:34:21.684           171.403                Novosib         21425.375
        33   01 Jun 2027 19:05:29.188   01 Jun 2027 19:07:31.469           122.281                Novosib         13072.624
        34   02 Jun 2027 04:35:09.289   02 Jun 2027 04:39:27.833           258.544                Norilsk         32318.000
        35   02 Jun 2027 05:44:35.019   02 Jun 2027 05:46:29.405           114.386                Sumatra         14298.250
        36   02 Jun 2027 05:55:13.615   02 Jun 2027 05:55:57.833            44.218                  Delhi          5527.250
        37   02 Jun 2027 06:00:43.783   02 Jun 2027 06:02:39.653           115.870                  Delhi         14483.750
        38   02 Jun 2027 06:09:38.504   02 Jun 2027 06:10:03.703            25.199              Murmansk1          3149.875
        39   02 Jun 2027 06:10:54.157   02 Jun 2027 06:12:20.812            86.655                 Moscow         10831.875
        40   02 Jun 2027 06:12:28.214   02 Jun 2027 06:15:57.633           209.419                Norilsk         26177.375
        41   02 Jun 2027 06:16:00.954   02 Jun 2027 06:18:01.698           120.744              Murmansk2         15093.000
        42   02 Jun 2027 07:35:13.831   02 Jun 2027 07:41:10.142           356.311                  Delhi         44538.875
        43   02 Jun 2027 07:41:11.282   02 Jun 2027 07:42:20.222            68.940                Novosib          8617.500
        44   02 Jun 2027 07:46:39.963   02 Jun 2027 07:47:19.250            39.287              Murmansk2          4910.875
        45   02 Jun 2027 07:47:30.211   02 Jun 2027 07:48:54.467            84.256                Norilsk         10532.000
        46   02 Jun 2027 07:49:05.122   02 Jun 2027 07:53:38.106           272.984              Murmansk2         34123.000
        47   02 Jun 2027 09:16:27.586   02 Jun 2027 09:16:44.683            17.097                 Moscow          2137.125
        48   02 Jun 2027 09:21:46.982   02 Jun 2027 09:26:02.701           255.719                 Moscow         31964.875
        49   02 Jun 2027 09:26:18.583   02 Jun 2027 09:29:32.627           194.044              Murmansk2         24255.500
        50   02 Jun 2027 10:31:12.147   02 Jun 2027 10:38:38.511           446.364               CapeTown         55795.500
        51   02 Jun 2027 10:56:18.668   02 Jun 2027 10:57:11.139            52.471              Murmansk1          6558.875
        52   02 Jun 2027 10:57:14.364   02 Jun 2027 11:01:18.545           244.181                 Moscow         30522.625
        53   02 Jun 2027 11:01:20.645   02 Jun 2027 11:05:29.896           249.251              Murmansk2         31156.375
        54   02 Jun 2027 11:07:35.012   02 Jun 2027 11:14:01.517           386.505                Anadyr2         48313.125
        55   02 Jun 2027 11:16:53.248   02 Jun 2027 11:17:06.678            13.430                Anadyr2          1678.750
        56   02 Jun 2027 12:44:51.555   02 Jun 2027 12:46:12.671            81.116                Anadyr2         10139.500
        57   02 Jun 2027 12:46:22.314   02 Jun 2027 12:49:56.933           214.619               Magadan2         26827.375
        58   02 Jun 2027 14:25:51.099   02 Jun 2027 14:26:05.283            14.184               Magadan2          1773.000
        59   02 Jun 2027 14:27:51.189   02 Jun 2027 14:28:33.800            42.611               Magadan2          5326.375
        60   02 Jun 2027 15:15:30.442   02 Jun 2027 15:18:27.059           176.617            RioGallegos         22077.125
        61   02 Jun 2027 16:02:06.252   02 Jun 2027 16:05:57.758           231.506                Irkutsk         28938.250
        62   02 Jun 2027 16:17:07.765   02 Jun 2027 16:19:46.536           158.771                Sumatra         19846.375
        63   02 Jun 2027 17:37:30.303   02 Jun 2027 17:39:44.651           134.348                Novosib         16793.500
        64   02 Jun 2027 17:47:42.656   02 Jun 2027 17:49:37.800           115.144                  Delhi         14393.000
        65   02 Jun 2027 19:20:00.660   02 Jun 2027 19:21:24.382            83.722                  Delhi         10465.250
        66   02 Jun 2027 20:47:07.773   02 Jun 2027 20:47:45.112            37.339              Murmansk2          4667.375
        67   02 Jun 2027 20:50:52.435   02 Jun 2027 20:53:29.275           156.840                 Moscow         19605.000
        68   02 Jun 2027 21:17:37.862   02 Jun 2027 21:19:37.995           120.133               CapeTown           892.999
        69   03 Jun 2027 03:11:05.185   03 Jun 2027 03:11:07.533             2.348              Murmansk1           293.500
        70   03 Jun 2027 03:11:07.533   03 Jun 2027 03:20:31.966           564.433              Murmansk2         70554.125
        71   03 Jun 2027 03:45:59.792   03 Jun 2027 03:51:37.620           337.828            RioGallegos         42228.500
        72   03 Jun 2027 04:22:41.599   03 Jun 2027 04:25:39.578           177.979                Sumatra         22247.375
        73   03 Jun 2027 04:47:16.681   03 Jun 2027 04:48:26.160            69.479                Novosib          8684.875
        74   03 Jun 2027 04:48:30.081   03 Jun 2027 04:52:01.097           211.016                Norilsk         26377.000
        75   03 Jun 2027 04:52:09.093   03 Jun 2027 04:54:53.465           164.372              Murmansk2         20546.500
        76   03 Jun 2027 06:02:39.194   03 Jun 2027 06:08:55.720           376.526                Sumatra         47065.750
        77   03 Jun 2027 06:11:38.623   03 Jun 2027 06:14:14.294           155.671                Novosib         19458.875
        78   03 Jun 2027 06:14:57.003   03 Jun 2027 06:18:37.669           220.666                Novosib         27583.250
        79   03 Jun 2027 06:21:26.020   03 Jun 2027 06:21:56.997            30.977                Irkutsk          3872.125
        80   03 Jun 2027 06:22:57.120   03 Jun 2027 06:24:17.441            80.321                 Moscow         10040.125
        81   03 Jun 2027 06:24:43.495   03 Jun 2027 06:27:59.543           196.048                Norilsk         24506.000
        82   03 Jun 2027 06:28:00.323   03 Jun 2027 06:29:58.981           118.658              Murmansk2         14832.250
        83   03 Jun 2027 07:48:54.278   03 Jun 2027 07:52:55.498           241.220                  Delhi         30152.500
        84   03 Jun 2027 07:53:10.571   03 Jun 2027 07:53:57.697            47.126                Novosib          5890.750
        85   03 Jun 2027 07:58:33.963   03 Jun 2027 07:59:21.074            47.111              Murmansk1          5888.875
        86   03 Jun 2027 07:59:39.360   03 Jun 2027 07:59:45.531             6.171                Novosib           771.375
        87   03 Jun 2027 08:00:47.077   03 Jun 2027 08:05:38.609           291.532              Murmansk2         36441.500
        88   03 Jun 2027 09:28:28.253   03 Jun 2027 09:29:20.372            52.119                 Moscow          6514.875
        89   03 Jun 2027 09:33:11.922   03 Jun 2027 09:35:41.445           149.523              Murmansk1         18690.375
        90   03 Jun 2027 09:35:51.113   03 Jun 2027 09:38:28.481           157.368                Norilsk         19671.000
        91   03 Jun 2027 09:38:54.302   03 Jun 2027 09:41:34.289           159.987              Murmansk2         19998.375
        92   03 Jun 2027 10:45:08.160   03 Jun 2027 10:51:01.477           353.317               CapeTown         44164.625
        93   03 Jun 2027 11:08:20.334   03 Jun 2027 11:09:12.343            52.009              Murmansk2          6501.125
        94   03 Jun 2027 11:09:21.354   03 Jun 2027 11:13:06.386           225.032                 Moscow         28129.000
        95   03 Jun 2027 11:13:08.480   03 Jun 2027 11:17:30.711           262.231              Murmansk2         32778.875
        96   03 Jun 2027 11:19:31.545   03 Jun 2027 11:21:06.785            95.240                Anadyr1         11905.000
        97   03 Jun 2027 12:58:10.695   03 Jun 2027 13:02:27.860           257.165               Magadan1         32145.625
        98   03 Jun 2027 14:33:26.825   03 Jun 2027 14:34:16.080            49.255               Magadan1          6156.875
        99   03 Jun 2027 15:26:46.631   03 Jun 2027 15:30:15.206           208.575            RioGallegos         26071.875
       100   03 Jun 2027 15:31:15.530   03 Jun 2027 15:33:56.758           161.228            RioGallegos         20153.500
       101   03 Jun 2027 16:16:00.140   03 Jun 2027 16:17:51.603           111.463                Irkutsk         13932.875
       102   03 Jun 2027 16:28:19.622   03 Jun 2027 16:31:34.174           194.552                Sumatra         24319.000
       103   03 Jun 2027 17:52:53.012   03 Jun 2027 17:53:38.994            45.982                Novosib          5747.750
       104   03 Jun 2027 17:58:30.368   03 Jun 2027 18:01:20.415           170.047                  Delhi         21255.875
       105   03 Jun 2027 19:32:42.060   03 Jun 2027 19:33:01.835            19.775                  Delhi          2471.875
       106   03 Jun 2027 21:02:43.957   03 Jun 2027 21:03:54.342            70.385                 Moscow          8798.125
       107   03 Jun 2027 21:05:34.966   03 Jun 2027 21:05:56.824            21.858                 Moscow          2732.250
       108   03 Jun 2027 21:28:27.037   03 Jun 2027 21:29:24.304            57.267               CapeTown          7158.375
       109   03 Jun 2027 21:30:21.529   03 Jun 2027 21:31:20.469            58.940               CapeTown          7367.500
       110   04 Jun 2027 03:21:57.757   04 Jun 2027 03:22:10.297            12.540                Irkutsk          1567.500
       111   04 Jun 2027 03:23:01.209   04 Jun 2027 03:27:49.221           288.012              Murmansk2         36001.500
       112   04 Jun 2027 04:34:00.970   04 Jun 2027 04:35:39.521            98.551                Sumatra         12318.875
       113   04 Jun 2027 04:40:31.124   04 Jun 2027 04:41:52.010            80.886                Sumatra         10110.750
       114   04 Jun 2027 04:58:52.858   04 Jun 2027 04:59:13.294            20.436              Murmansk1          2554.500
       115   04 Jun 2027 04:59:14.370   04 Jun 2027 05:04:02.310           287.940                Norilsk         35992.500
       116   04 Jun 2027 05:04:37.588   04 Jun 2027 05:06:46.020           128.432              Murmansk2         16054.000
       117   04 Jun 2027 06:16:42.199   04 Jun 2027 06:20:36.533           234.334                Sumatra         29291.750
       118   04 Jun 2027 06:23:42.985   04 Jun 2027 06:26:21.249           158.264                Novosib         19783.000
       119   04 Jun 2027 06:26:26.831   04 Jun 2027 06:30:27.037           240.206                Novosib         30025.750
       120   04 Jun 2027 06:34:22.074   04 Jun 2027 06:34:51.996            29.922                 Moscow          3740.250
       121   04 Jun 2027 06:34:53.772   04 Jun 2027 06:35:33.444            39.672              Murmansk2          4959.000
       122   04 Jun 2027 06:35:53.676   04 Jun 2027 06:36:31.977            38.301                Novosib          4787.625
       123   04 Jun 2027 06:36:58.755   04 Jun 2027 06:41:56.804           298.049              Murmansk1         37256.125
       124   04 Jun 2027 08:00:50.426   04 Jun 2027 08:01:10.691            20.265                  Delhi          2533.125
       125   04 Jun 2027 08:02:12.759   04 Jun 2027 08:06:38.954           266.195                Novosib         33274.375
       126   04 Jun 2027 08:10:48.031   04 Jun 2027 08:11:32.629            44.598                Novosib          5574.750
       127   04 Jun 2027 08:12:48.393   04 Jun 2027 08:14:14.855            86.462              Murmansk1         10807.750
       128   04 Jun 2027 08:14:14.855   04 Jun 2027 08:17:39.357           204.502              Murmansk2         25562.750
       129   04 Jun 2027 09:39:49.982   04 Jun 2027 09:40:05.932            15.950                 Moscow          1993.750
       130   04 Jun 2027 09:44:02.210   04 Jun 2027 09:45:13.817            71.607              Murmansk2          8950.875
       131   04 Jun 2027 09:45:13.817   04 Jun 2027 09:47:31.068           137.251              Murmansk1         17156.375
       132   04 Jun 2027 09:48:03.782   04 Jun 2027 09:50:02.177           118.395                 Moscow         14799.375
       133   04 Jun 2027 09:50:32.886   04 Jun 2027 09:53:35.973           183.087              Murmansk2         22885.875
       134   04 Jun 2027 09:59:09.116   04 Jun 2027 10:01:11.703           122.587                Anadyr1         15323.375
       135   04 Jun 2027 10:58:39.752   04 Jun 2027 11:03:17.879           278.127               CapeTown         34765.875
       136   04 Jun 2027 11:20:58.330   04 Jun 2027 11:21:37.668            39.338                 Moscow          4917.250
       137   04 Jun 2027 11:24:35.397   04 Jun 2027 11:26:34.709           119.312              Murmansk2         14914.000
       138   04 Jun 2027 11:26:34.709   04 Jun 2027 11:28:35.603           120.894              Murmansk1         15111.750
       139   04 Jun 2027 13:10:01.993   04 Jun 2027 13:19:07.991           545.998               Magadan1         68249.750
       140   04 Jun 2027 15:38:18.510   04 Jun 2027 15:42:06.295           227.785            RioGallegos         28473.125
       141   04 Jun 2027 16:28:40.645   04 Jun 2027 16:29:47.178            66.533                Irkutsk          8316.625
       142   04 Jun 2027 16:42:47.212   04 Jun 2027 16:43:27.778            40.566                Sumatra          5070.750
       143   04 Jun 2027 16:46:34.267   04 Jun 2027 16:47:03.650            29.383                Sumatra          3672.875
       144   04 Jun 2027 18:01:11.705   04 Jun 2027 18:02:29.631            77.926                Novosib          9740.750
       145   04 Jun 2027 18:04:05.022   04 Jun 2027 18:04:07.431             2.409                Novosib           301.125
       146   04 Jun 2027 18:09:46.067   04 Jun 2027 18:13:08.202           202.135                  Delhi         25266.875
       147   04 Jun 2027 18:17:43.589   04 Jun 2027 18:18:55.161            71.572                  Delhi          8946.500
       148   04 Jun 2027 21:13:22.824   04 Jun 2027 21:15:49.405           146.581              Murmansk1         18322.625
       149   04 Jun 2027 21:40:34.775   04 Jun 2027 21:41:23.915            49.140               CapeTown          6142.500
       150   04 Jun 2027 21:46:04.573   04 Jun 2027 21:46:49.002            44.429               CapeTown          5553.625
       151   05 Jun 2027 03:35:15.378   05 Jun 2027 03:36:02.653            47.275                Novosib          5909.375
       152   05 Jun 2027 03:36:18.704   05 Jun 2027 03:36:49.529            30.825              Murmansk1          3853.125
       153   05 Jun 2027 04:45:31.580   05 Jun 2027 04:47:04.342            92.762                Sumatra         11595.250
       154   05 Jun 2027 05:11:14.289   05 Jun 2027 05:16:03.704           289.415                Norilsk         36176.875
       155   05 Jun 2027 05:16:25.042   05 Jun 2027 05:18:39.319           134.277              Murmansk1         16784.625
       156   05 Jun 2027 06:35:50.397   05 Jun 2027 06:37:35.404           105.007                Novosib         13125.875
       157   05 Jun 2027 06:38:35.372   05 Jun 2027 06:41:38.389           183.017                  Delhi         22877.125
       158   05 Jun 2027 06:46:41.498   05 Jun 2027 06:47:39.893            58.395                 Moscow          7299.375
       159   05 Jun 2027 06:47:41.281   05 Jun 2027 06:48:31.166            49.885                Novosib          6235.625
       160   05 Jun 2027 06:48:58.332   05 Jun 2027 06:53:55.124           296.792              Murmansk2         37099.000
       161   05 Jun 2027 08:12:42.893   05 Jun 2027 08:13:24.082            41.189                  Delhi          5148.625
       162   05 Jun 2027 08:15:14.022   05 Jun 2027 08:18:35.323           201.301                Novosib         25162.625
       163   05 Jun 2027 08:22:58.100   05 Jun 2027 08:23:21.685            23.585                Norilsk          2948.125
       164   05 Jun 2027 08:23:38.971   05 Jun 2027 08:24:46.403            67.432                 Moscow          8429.000
       165   05 Jun 2027 08:24:49.843   05 Jun 2027 08:29:40.321           290.478              Murmansk2         36309.750
       166   05 Jun 2027 09:52:27.418   05 Jun 2027 09:52:55.095            27.677                 Moscow          3459.625
       167   05 Jun 2027 09:56:25.867   05 Jun 2027 09:59:06.606           160.739              Murmansk1         20092.375
       168   05 Jun 2027 09:59:14.182   05 Jun 2027 10:02:00.666           166.484                 Moscow         20810.500
       169   05 Jun 2027 10:02:20.899   05 Jun 2027 10:05:37.644           196.745              Murmansk2         24593.125
       170   05 Jun 2027 10:08:41.125   05 Jun 2027 10:14:21.978           340.853                Anadyr2         42606.625
       171   05 Jun 2027 11:10:35.241   05 Jun 2027 11:15:28.478           293.237               CapeTown         36654.625
       172   05 Jun 2027 11:32:50.573   05 Jun 2027 11:33:50.536            59.963                 Moscow          7495.375
       173   05 Jun 2027 11:36:33.372   05 Jun 2027 11:41:31.231           297.859              Murmansk1         37232.375
       174   05 Jun 2027 11:48:47.063   05 Jun 2027 11:53:58.474           311.411                Anadyr2         38926.375
       175   05 Jun 2027 13:21:55.450   05 Jun 2027 13:24:45.562           170.112               Magadan1         21264.000
       176   05 Jun 2027 15:05:24.553   05 Jun 2027 15:07:02.983            98.430               Magadan1         12303.750
       177   05 Jun 2027 15:49:58.552   05 Jun 2027 15:52:08.076           129.524            RioGallegos         16190.500
       178   05 Jun 2027 15:53:59.684   05 Jun 2027 15:56:20.824           141.140            RioGallegos         17642.500
       179   05 Jun 2027 16:38:35.635   05 Jun 2027 16:40:11.794            96.159                Irkutsk         12019.875
       180   05 Jun 2027 16:41:42.126   05 Jun 2027 16:41:44.196             2.070                Irkutsk           258.750
       181   05 Jun 2027 16:51:20.156   05 Jun 2027 16:53:17.048           116.892                Sumatra         14611.500
       182   05 Jun 2027 17:02:33.910   05 Jun 2027 17:03:07.579            33.669                Sumatra          4208.625
       183   05 Jun 2027 18:13:05.704   05 Jun 2027 18:14:56.035           110.331                Novosib         13791.375
       184   05 Jun 2027 18:21:15.213   05 Jun 2027 18:21:39.032            23.819                  Delhi          2977.375
       185   05 Jun 2027 18:22:21.837   05 Jun 2027 18:25:00.267           158.430                  Delhi         19803.750
       186   05 Jun 2027 18:27:55.562   05 Jun 2027 18:28:25.518            29.956                  Delhi          3744.500
       187   05 Jun 2027 19:53:48.698   05 Jun 2027 19:56:01.494           132.796                 Moscow         16599.500
       188   05 Jun 2027 21:26:32.874   05 Jun 2027 21:28:44.581           131.707                 Moscow         16463.375
       189   05 Jun 2027 21:51:14.911   05 Jun 2027 21:52:53.502            98.591               CapeTown         12323.875
       190   06 Jun 2027 03:47:17.302   06 Jun 2027 03:48:10.957            53.655                Novosib          6706.875
       191   06 Jun 2027 03:48:23.096   06 Jun 2027 03:50:29.504           126.408              Murmansk2         15801.000
       192   06 Jun 2027 04:57:10.620   06 Jun 2027 04:57:26.044            15.424                Sumatra          1928.000
       193   06 Jun 2027 04:59:06.788   06 Jun 2027 05:01:28.729           141.941                Sumatra         17742.625
       194   06 Jun 2027 05:22:59.220   06 Jun 2027 05:23:03.914             4.694                Irkutsk           586.750
       195   06 Jun 2027 05:23:06.813   06 Jun 2027 05:24:37.678            90.865                Novosib         11358.125
       196   06 Jun 2027 05:24:44.853   06 Jun 2027 05:28:05.238           200.385                Norilsk         25048.125
       197   06 Jun 2027 05:28:12.825   06 Jun 2027 05:30:33.353           140.528              Murmansk1         17566.000
       198   06 Jun 2027 06:48:01.008   06 Jun 2027 06:50:03.806           122.798                Novosib         15349.750
       199   06 Jun 2027 06:50:30.873   06 Jun 2027 06:53:42.490           191.617                  Delhi         23952.125
       200   06 Jun 2027 06:53:50.669   06 Jun 2027 06:55:03.830            73.161                Irkutsk          9145.125
       201   06 Jun 2027 06:58:32.372   06 Jun 2027 06:59:06.475            34.103                Norilsk          4262.875
       202   06 Jun 2027 06:59:24.567   06 Jun 2027 07:00:29.458            64.891                Novosib          8111.375
       203   06 Jun 2027 07:00:58.259   06 Jun 2027 07:05:53.901           295.642              Murmansk1         36955.250
       204   06 Jun 2027 08:27:50.811   06 Jun 2027 08:30:08.931           138.120                Novosib         17265.000
       205   06 Jun 2027 08:34:22.821   06 Jun 2027 08:35:01.427            38.606                 Moscow          4825.750
       206   06 Jun 2027 08:35:32.013   06 Jun 2027 08:36:47.432            75.419                Norilsk          9427.375
       207   06 Jun 2027 08:36:51.399   06 Jun 2027 08:41:41.472           290.073              Murmansk2         36259.125
       208   06 Jun 2027 09:45:27.257   06 Jun 2027 09:47:23.885           116.628               CapeTown         14578.500
       209   06 Jun 2027 10:04:25.715   06 Jun 2027 10:05:09.036            43.321                 Moscow          5415.125
       210   06 Jun 2027 10:08:27.143   06 Jun 2027 10:10:52.869           145.726              Murmansk2         18215.750
       211   06 Jun 2027 10:10:53.184   06 Jun 2027 10:13:58.146           184.962                 Moscow         23120.250
       212   06 Jun 2027 10:14:27.840   06 Jun 2027 10:17:39.274           191.434              Murmansk1         23929.250
       213   06 Jun 2027 10:20:22.607   06 Jun 2027 10:27:17.711           415.104                Anadyr1         51888.000
       214   06 Jun 2027 11:22:25.754   06 Jun 2027 11:27:33.761           308.007               CapeTown         38500.875
       215   06 Jun 2027 11:44:40.302   06 Jun 2027 11:46:00.300            79.998                 Moscow          9999.750
       216   06 Jun 2027 11:48:30.168   06 Jun 2027 11:49:35.441            65.273              Murmansk1          8159.125
       217   06 Jun 2027 13:33:50.558   06 Jun 2027 13:35:41.970           111.412               Magadan2         13926.500
       218   06 Jun 2027 13:36:51.528   06 Jun 2027 13:38:49.611           118.083               Magadan1         14760.375
       219   06 Jun 2027 13:43:09.512   06 Jun 2027 13:45:13.781           124.269               Magadan2         15533.625
       220   06 Jun 2027 16:01:43.791   06 Jun 2027 16:07:41.150           357.359            RioGallegos         44669.875
       221   06 Jun 2027 16:49:15.973   06 Jun 2027 16:51:03.462           107.489                Irkutsk         13436.125
       222   06 Jun 2027 16:54:06.355   06 Jun 2027 16:54:27.967            21.612                Novosib          2701.500
       223   06 Jun 2027 17:03:02.809   06 Jun 2027 17:04:53.968           111.159                Sumatra         13894.875
       224   06 Jun 2027 18:25:01.300   06 Jun 2027 18:26:43.375           102.075                Novosib         12759.375
       225   06 Jun 2027 18:32:52.932   06 Jun 2027 18:36:49.440           236.508                  Delhi         29563.500
       226   06 Jun 2027 20:04:54.694   06 Jun 2027 20:07:49.546           174.852                 Moscow         21856.500
       227   06 Jun 2027 21:47:58.949   06 Jun 2027 21:48:02.207             3.258                 Moscow           407.250
       228   06 Jun 2027 21:48:31.123   06 Jun 2027 21:50:50.200           139.077                 Moscow          5829.999
       229   07 Jun 2027 03:59:19.801   07 Jun 2027 04:00:18.305            58.504                Novosib          7313.000
       230   07 Jun 2027 04:00:18.572   07 Jun 2027 04:04:27.073           248.501              Murmansk2         31062.625
       231   07 Jun 2027 05:08:56.605   07 Jun 2027 05:09:57.547            60.942                Sumatra          7617.750
       232   07 Jun 2027 05:11:43.335   07 Jun 2027 05:13:36.468           113.133                Sumatra         14141.625
       233   07 Jun 2027 05:34:49.766   07 Jun 2027 05:35:01.736            11.970                Irkutsk          1496.250
       234   07 Jun 2027 05:35:02.845   07 Jun 2027 05:36:18.620            75.775                 Moscow          9471.875
       235   07 Jun 2027 05:36:25.422   07 Jun 2027 05:36:40.559            15.137                Novosib          1892.125
       236   07 Jun 2027 05:36:49.076   07 Jun 2027 05:40:06.898           197.822                Norilsk         24727.750
       237   07 Jun 2027 05:40:16.406   07 Jun 2027 05:42:28.111           131.705              Murmansk2         16463.125
       238   07 Jun 2027 07:00:30.897   07 Jun 2027 07:05:43.304           312.407                  Delhi         39050.875
       239   07 Jun 2027 07:05:44.324   07 Jun 2027 07:07:03.315            78.991                Irkutsk          9873.875
       240   07 Jun 2027 07:10:43.987   07 Jun 2027 07:11:37.176            53.189              Murmansk2          6648.625
       241   07 Jun 2027 07:11:58.036   07 Jun 2027 07:16:06.821           248.785                Norilsk         31098.125
       242   07 Jun 2027 07:16:31.066   07 Jun 2027 07:17:53.096            82.030              Murmansk1         10253.750
       243   07 Jun 2027 08:47:23.335   07 Jun 2027 08:48:02.824            39.489                Norilsk          4936.125
       244   07 Jun 2027 08:48:53.031   07 Jun 2027 08:53:42.774           289.743              Murmansk1         36217.875
       245   07 Jun 2027 09:57:58.309   07 Jun 2027 10:00:46.790           168.481               CapeTown         21060.125
       246   07 Jun 2027 10:20:28.554   07 Jun 2027 10:22:19.774           111.220              Murmansk1         13902.500
       247   07 Jun 2027 10:22:59.157   07 Jun 2027 10:25:54.424           175.267                 Moscow         21908.375
       248   07 Jun 2027 10:25:55.889   07 Jun 2027 10:28:33.451           157.562              Murmansk2         19695.250
       249   07 Jun 2027 10:28:33.451   07 Jun 2027 10:29:40.826            67.375              Murmansk1          8421.875
       250   07 Jun 2027 10:32:09.996   07 Jun 2027 10:40:05.055           475.059                Anadyr1         59382.375
       251   07 Jun 2027 11:34:34.910   07 Jun 2027 11:39:33.995           299.085               CapeTown         37385.625
       252   07 Jun 2027 11:56:26.576   07 Jun 2027 11:56:36.241             9.665              Murmansk1          1208.125
       253   07 Jun 2027 11:57:27.773   07 Jun 2027 11:58:47.674            79.901                 Moscow          9987.625
       254   07 Jun 2027 12:00:57.105   07 Jun 2027 12:05:29.541           272.436              Murmansk2         34054.500
       255   07 Jun 2027 12:07:26.157   07 Jun 2027 12:17:32.519           606.362                Anadyr2         75795.250
       256   07 Jun 2027 13:45:46.972   07 Jun 2027 13:47:16.858            89.886               Magadan2         11235.750
       257   07 Jun 2027 13:47:43.795   07 Jun 2027 13:50:21.778           157.983               Magadan1         19747.875
       258   07 Jun 2027 13:53:24.178   07 Jun 2027 13:54:41.886            77.708               Magadan1          9713.500
       259   07 Jun 2027 15:28:45.803   07 Jun 2027 15:30:46.303           120.500                Irkutsk         15062.500
       260   07 Jun 2027 16:13:32.697   07 Jun 2027 16:16:19.122           166.425            RioGallegos         20803.125
       261   07 Jun 2027 16:17:46.234   07 Jun 2027 16:19:14.953            88.719            RioGallegos         11089.875
       262   07 Jun 2027 17:01:10.240   07 Jun 2027 17:03:13.981           123.741                Irkutsk         15467.625
       263   07 Jun 2027 17:06:16.701   07 Jun 2027 17:09:17.811           181.110                Novosib         22638.750
       264   07 Jun 2027 17:17:48.732   07 Jun 2027 17:19:18.567            89.835                Sumatra         11229.375
       265   07 Jun 2027 18:44:36.885   07 Jun 2027 18:46:44.479           127.594                  Delhi         15949.250
       266   07 Jun 2027 18:48:55.287   07 Jun 2027 18:49:59.575            64.288                  Delhi          8036.000
       267   07 Jun 2027 20:15:53.639   07 Jun 2027 20:17:08.134            74.495                 Moscow          9311.875
       268   07 Jun 2027 20:20:42.498   07 Jun 2027 20:23:35.513           173.015                 Moscow         16548.500
       269   08 Jun 2027 04:11:21.500   08 Jun 2027 04:16:06.370           284.870                Norilsk         35608.750
       270   08 Jun 2027 05:20:48.692   08 Jun 2027 05:22:00.259            71.567                Sumatra          8945.875
       271   08 Jun 2027 05:31:42.613   08 Jun 2027 05:34:21.502           158.889                  Delhi         19861.125
       272   08 Jun 2027 05:36:39.802   08 Jun 2027 05:38:38.023           118.221                  Delhi         14777.625
       273   08 Jun 2027 05:47:07.466   08 Jun 2027 05:48:50.755           103.289                 Moscow         12911.125
       274   08 Jun 2027 05:48:54.822   08 Jun 2027 05:52:08.657           193.835                Norilsk         24229.375
       275   08 Jun 2027 05:52:29.798   08 Jun 2027 05:54:23.552           113.754              Murmansk2         14219.250
       276   08 Jun 2027 07:12:16.398   08 Jun 2027 07:17:40.789           324.391                  Delhi         40548.875
       277   08 Jun 2027 07:17:56.036   08 Jun 2027 07:19:01.749            65.713                Irkutsk          8214.125
       278   08 Jun 2027 07:23:05.554   08 Jun 2027 07:23:56.271            50.717              Murmansk1          6339.625
       279   08 Jun 2027 07:24:00.824   08 Jun 2027 07:28:08.382           247.558                Norilsk         30944.750
       280   08 Jun 2027 07:28:21.551   08 Jun 2027 07:29:52.673            91.122              Murmansk2         11390.250
       281   08 Jun 2027 08:59:23.546   08 Jun 2027 09:00:32.713            69.167                Norilsk          8645.875
       282   08 Jun 2027 09:00:54.713   08 Jun 2027 09:05:44.213           289.500              Murmansk1         36187.500
       283   08 Jun 2027 10:32:30.070   08 Jun 2027 10:34:19.486           109.416              Murmansk1         13677.000
       284   08 Jun 2027 10:34:43.544   08 Jun 2027 10:37:49.266           185.722                 Moscow         23215.250
       285   08 Jun 2027 10:38:02.378   08 Jun 2027 10:41:42.266           219.888              Murmansk2         27486.000
       286   08 Jun 2027 10:44:00.993   08 Jun 2027 10:52:46.342           525.349                Anadyr2         65668.625
       287   08 Jun 2027 11:41:58.909   08 Jun 2027 11:51:29.280           570.371               CapeTown         71296.375
       288   08 Jun 2027 12:08:38.327   08 Jun 2027 12:17:27.445           529.118              Murmansk2         66139.750
       289   08 Jun 2027 12:20:05.014   08 Jun 2027 12:22:01.891           116.877                Anadyr1         14609.625
       290   08 Jun 2027 12:23:15.120   08 Jun 2027 12:26:58.600           223.480               Magadan2         27935.000
       291   08 Jun 2027 14:00:04.218   08 Jun 2027 14:00:55.836            51.618               Magadan2          6452.250
       292   08 Jun 2027 15:39:25.224   08 Jun 2027 15:42:31.690           186.466                Irkutsk         23308.250
       293   08 Jun 2027 16:25:24.365   08 Jun 2027 16:27:11.214           106.849            RioGallegos         13356.125
       294   08 Jun 2027 16:28:19.561   08 Jun 2027 16:28:20.159             0.598            RioGallegos            74.750
       295   08 Jun 2027 17:13:06.164   08 Jun 2027 17:14:45.638            99.474                Irkutsk         12434.250
       296   08 Jun 2027 17:15:40.895   08 Jun 2027 17:19:18.048           217.153                Novosib         27144.125
       297   08 Jun 2027 17:29:13.657   08 Jun 2027 17:29:56.474            42.817                Sumatra          5352.125
       298   08 Jun 2027 17:37:54.227   08 Jun 2027 17:38:47.478            53.251                Sumatra          6656.375
       299   08 Jun 2027 18:52:37.730   08 Jun 2027 18:53:36.428            58.698                Novosib          7337.250
       300   08 Jun 2027 18:56:01.334   08 Jun 2027 18:56:10.736             9.402                Novosib          1175.250
       301   08 Jun 2027 18:56:25.746   08 Jun 2027 19:00:45.063           259.317                  Delhi         32414.625
       302   08 Jun 2027 20:27:33.133   08 Jun 2027 20:29:23.643           110.510                 Moscow         13157.875
       303   09 Jun 2027 04:23:22.729   09 Jun 2027 04:27:54.822           272.093                Norilsk         34011.625
       304   09 Jun 2027 05:32:46.461   09 Jun 2027 05:35:27.736           161.275                Sumatra         20159.375
       305   09 Jun 2027 05:48:51.113   09 Jun 2027 05:50:43.628           112.515                  Delhi         14064.375
       306   09 Jun 2027 05:58:32.776   09 Jun 2027 05:59:09.356            36.580                 Moscow          4572.500
       307   09 Jun 2027 05:59:21.241   09 Jun 2027 06:00:56.873            95.632                 Moscow         11954.000
       308   09 Jun 2027 06:01:02.158   09 Jun 2027 06:04:10.490           188.332                Norilsk         23541.500
       309   09 Jun 2027 06:04:27.765   09 Jun 2027 06:06:19.648           111.883              Murmansk2         13985.375
       310   09 Jun 2027 07:23:56.124   09 Jun 2027 07:29:34.719           338.595                  Delhi         42324.375
       311   09 Jun 2027 07:29:45.897   09 Jun 2027 07:30:09.229            23.332                 Moscow          2916.500
       312   09 Jun 2027 07:30:34.147   09 Jun 2027 07:30:56.646            22.499                Norilsk          2812.375
       313   09 Jun 2027 07:34:49.360   09 Jun 2027 07:35:38.019            48.659              Murmansk2          6082.375
       314   09 Jun 2027 07:35:53.486   09 Jun 2027 07:37:12.877            79.391                Norilsk          9923.875
       315   09 Jun 2027 07:37:20.810   09 Jun 2027 07:41:52.591           271.781              Murmansk2         33972.625
       316   09 Jun 2027 09:04:26.426   09 Jun 2027 09:04:41.022            14.596                 Moscow          1824.500
       317   09 Jun 2027 09:11:23.184   09 Jun 2027 09:12:46.646            83.462                Norilsk         10432.750
       318   09 Jun 2027 09:12:56.418   09 Jun 2027 09:17:45.747           289.329              Murmansk1         36166.125
       319   09 Jun 2027 10:24:31.919   09 Jun 2027 10:26:22.904           110.985               CapeTown         13873.125
       320   09 Jun 2027 10:44:08.013   09 Jun 2027 10:52:30.190           502.177              Murmansk2         62772.125
       321   09 Jun 2027 10:52:30.190   09 Jun 2027 10:53:43.547            73.357              Murmansk1          9169.625
       322   09 Jun 2027 10:55:54.435   09 Jun 2027 11:05:22.797           568.362                Anadyr1         71045.250
       323   09 Jun 2027 11:57:13.052   09 Jun 2027 12:03:19.590           366.538               CapeTown         45817.250
       324   09 Jun 2027 12:21:15.087   09 Jun 2027 12:28:16.658           421.571              Murmansk1         52696.375
       325   09 Jun 2027 12:34:52.605   09 Jun 2027 12:38:51.651           239.046               Magadan2         29880.750
       326   09 Jun 2027 14:10:04.219   09 Jun 2027 14:10:47.040            42.821               Magadan1          5352.625
       327   09 Jun 2027 14:14:22.452   09 Jun 2027 14:14:50.545            28.093               Magadan2          3511.625
       328   09 Jun 2027 14:16:25.391   09 Jun 2027 14:17:39.324            73.933               Magadan1          9241.625
       329   09 Jun 2027 15:05:38.250   09 Jun 2027 15:06:32.242            53.992            RioGallegos          6749.000
       330   09 Jun 2027 15:50:46.297   09 Jun 2027 15:55:23.654           277.357                Irkutsk         34669.625
       331   09 Jun 2027 16:06:33.227   09 Jun 2027 16:08:20.007           106.780                Sumatra         13347.500
       332   09 Jun 2027 16:10:06.580   09 Jun 2027 16:12:27.966           141.386                Sumatra         17673.250
       333   09 Jun 2027 17:26:11.201   09 Jun 2027 17:27:55.663           104.462                Novosib         13057.750
       334   09 Jun 2027 17:38:47.438   09 Jun 2027 17:40:30.730           103.292                Sumatra         12911.500
       335   09 Jun 2027 19:08:18.722   09 Jun 2027 19:11:18.465           179.743                  Delhi         22467.875
       336   09 Jun 2027 20:37:39.213   09 Jun 2027 20:37:55.239            16.026              Murmansk2          2003.250
       337   09 Jun 2027 20:39:02.365   09 Jun 2027 20:40:00.161            57.796              Murmansk2          7224.500
       338   09 Jun 2027 20:41:13.848   09 Jun 2027 20:43:28.733           134.885                 Moscow         11580.624
       339   10 Jun 2027 04:35:24.140   10 Jun 2027 04:39:43.315           259.175                Norilsk         32396.875
       340   10 Jun 2027 05:44:49.816   10 Jun 2027 05:46:43.576           113.760                Sumatra         14220.000
       341   10 Jun 2027 05:56:12.724   10 Jun 2027 05:57:56.006           103.282                  Delhi         12910.250
       342   10 Jun 2027 06:09:53.030   10 Jun 2027 06:10:19.333            26.303              Murmansk2          3287.875
       343   10 Jun 2027 06:11:11.814   10 Jun 2027 06:13:01.916           110.102                 Moscow         13762.750
       344   10 Jun 2027 06:13:11.255   10 Jun 2027 06:16:12.372           181.117                Norilsk         22639.625
       345   10 Jun 2027 06:16:15.496   10 Jun 2027 06:18:16.360           120.864              Murmansk1         15108.000
       346   10 Jun 2027 07:35:28.107   10 Jun 2027 07:41:24.681           356.574                  Delhi         44571.750
       347   10 Jun 2027 07:41:25.898   10 Jun 2027 07:42:21.794            55.896                Novosib          6987.000
       348   10 Jun 2027 07:46:56.963   10 Jun 2027 07:47:27.215            30.252              Murmansk2          3781.500
       349   10 Jun 2027 07:47:31.951   10 Jun 2027 07:49:10.341            98.390                Norilsk         12298.750
       350   10 Jun 2027 07:49:19.750   10 Jun 2027 07:53:52.819           273.069              Murmansk1         34133.625
       351   10 Jun 2027 09:16:42.310   10 Jun 2027 09:16:59.352            17.042                 Moscow          2130.250
       352   10 Jun 2027 09:21:56.036   10 Jun 2027 09:26:17.418           261.382                 Moscow         32672.750
       353   10 Jun 2027 09:27:11.184   10 Jun 2027 09:29:47.361           156.177              Murmansk1         19522.125
       354   10 Jun 2027 10:31:27.863   10 Jun 2027 10:38:53.599           445.736               CapeTown         55717.000
       355   10 Jun 2027 10:56:33.304   10 Jun 2027 11:03:40.423           427.119              Murmansk1         53389.875
       356   10 Jun 2027 11:03:40.423   10 Jun 2027 11:05:44.624           124.201              Murmansk2         15525.125
       357   10 Jun 2027 11:07:55.091   10 Jun 2027 11:17:08.241           553.150                Anadyr2         69143.750
       358   10 Jun 2027 12:46:36.822   10 Jun 2027 12:47:55.663            78.841               Magadan2          9855.125
       359   10 Jun 2027 12:48:26.371   10 Jun 2027 12:50:46.449           140.078               Magadan1         17509.750
       360   10 Jun 2027 12:52:08.858   10 Jun 2027 12:52:43.146            34.288               Magadan2          4286.000
       361   10 Jun 2027 14:21:41.851   10 Jun 2027 14:22:37.676            55.825               Magadan1          6978.125
       362   10 Jun 2027 15:15:44.315   10 Jun 2027 15:18:41.640           177.325            RioGallegos         22165.625
       363   10 Jun 2027 16:02:20.646   10 Jun 2027 16:06:12.452           231.806                Irkutsk         28975.750
       364   10 Jun 2027 16:17:21.659   10 Jun 2027 16:18:02.774            41.115                Sumatra          5139.375
       365   10 Jun 2027 16:22:27.642   10 Jun 2027 16:24:32.411           124.769                Sumatra         15596.125
       366   10 Jun 2027 17:47:10.703   10 Jun 2027 17:47:40.904            30.201                Novosib          3775.125
       367   10 Jun 2027 17:47:55.933   10 Jun 2027 17:49:52.270           116.337                  Delhi         14542.125
       368   10 Jun 2027 17:51:04.203   10 Jun 2027 17:53:00.144           115.941                  Delhi         14492.625
       369   10 Jun 2027 19:20:15.341   10 Jun 2027 19:21:23.551            68.210                  Delhi          8526.250
       370   10 Jun 2027 20:48:04.691   10 Jun 2027 20:48:08.059             3.368              Murmansk2           421.000
       371   10 Jun 2027 20:49:35.103   10 Jun 2027 20:50:08.280            33.177              Murmansk2          4147.125
       372   10 Jun 2027 20:51:06.999   10 Jun 2027 20:53:44.410           157.411                 Moscow         19676.375
       373   10 Jun 2027 22:50:18.812   10 Jun 2027 22:50:52.942            34.130               CapeTown          4133.625
       374   11 Jun 2027 03:11:20.566   11 Jun 2027 03:20:46.491           565.925              Murmansk1         70740.625
       375   11 Jun 2027 03:46:14.373   11 Jun 2027 03:51:52.038           337.665            RioGallegos         42208.125
       376   11 Jun 2027 04:22:55.628   11 Jun 2027 04:25:54.187           178.559                Sumatra         22319.875
       377   11 Jun 2027 04:47:02.619   11 Jun 2027 04:47:19.355            16.736              Murmansk1          2092.000
       378   11 Jun 2027 04:47:32.667   11 Jun 2027 04:48:40.930            68.263                Novosib          8532.875
       379   11 Jun 2027 04:48:45.227   11 Jun 2027 04:52:15.822           210.595                Norilsk         26324.375
       380   11 Jun 2027 04:52:23.833   11 Jun 2027 04:55:08.057           164.224              Murmansk1         20528.000
       381   11 Jun 2027 06:02:53.279   11 Jun 2027 06:09:10.206           376.927                Sumatra         47115.875
       382   11 Jun 2027 06:11:53.373   11 Jun 2027 06:13:37.575           104.202                Novosib         13025.250
       383   11 Jun 2027 06:15:11.725   11 Jun 2027 06:18:56.739           225.014                Novosib         28126.750
       384   11 Jun 2027 06:21:40.574   11 Jun 2027 06:22:11.194            30.620                Irkutsk          3827.500
       385   11 Jun 2027 06:23:14.816   11 Jun 2027 06:24:31.550            76.734                 Moscow          9591.750
       386   11 Jun 2027 06:25:00.220   11 Jun 2027 06:28:14.282           194.062                Norilsk         24257.750
       387   11 Jun 2027 06:28:16.216   11 Jun 2027 06:30:13.651           117.435              Murmansk1         14679.375
       388   11 Jun 2027 07:49:08.891   11 Jun 2027 07:53:09.964           241.073                  Delhi         30134.125
       389   11 Jun 2027 07:53:10.077   11 Jun 2027 07:53:55.527            45.450                 Moscow          5681.250
       390   11 Jun 2027 07:58:50.870   11 Jun 2027 07:59:36.967            46.097              Murmansk1          5762.125
       391   11 Jun 2027 07:59:54.612   11 Jun 2027 08:00:00.088             5.476                Novosib           684.500
       392   11 Jun 2027 08:01:01.922   11 Jun 2027 08:02:36.089            94.167              Murmansk2         11770.875
       393   11 Jun 2027 08:02:36.089   11 Jun 2027 08:05:53.326           197.237              Murmansk1         24654.625
       394   11 Jun 2027 09:28:42.968   11 Jun 2027 09:29:31.370            48.402                 Moscow          6050.250
       395   11 Jun 2027 09:33:27.801   11 Jun 2027 09:35:58.431           150.630              Murmansk1         18828.750
       396   11 Jun 2027 09:36:07.242   11 Jun 2027 09:38:43.727           156.485                Norilsk         19560.625
       397   11 Jun 2027 09:39:09.117   11 Jun 2027 09:41:49.023           159.906              Murmansk2         19988.250
       398   11 Jun 2027 10:46:54.183   11 Jun 2027 10:51:16.464           262.281               CapeTown         32785.125
       399   11 Jun 2027 11:08:34.970   11 Jun 2027 11:09:27.079            52.109              Murmansk1          6513.625
       400   11 Jun 2027 11:09:38.270   11 Jun 2027 11:13:20.904           222.634                 Moscow         27829.250
       401   11 Jun 2027 11:13:25.143   11 Jun 2027 11:17:45.435           260.292              Murmansk2         32536.500
       402   11 Jun 2027 11:19:46.206   11 Jun 2027 11:23:48.087           241.881                Anadyr2         30235.125
       403   11 Jun 2027 12:58:25.254   11 Jun 2027 13:02:42.621           257.367               Magadan1         32170.875
       404   11 Jun 2027 13:04:33.792   11 Jun 2027 13:07:22.878           169.086               Magadan2         21135.750
       405   11 Jun 2027 15:27:00.847   11 Jun 2027 15:30:29.846           208.999            RioGallegos         26124.875
       406   11 Jun 2027 16:18:06.327   11 Jun 2027 16:20:16.609           130.282                Irkutsk         16285.250
       407   11 Jun 2027 16:28:33.757   11 Jun 2027 16:29:58.562            84.805                Sumatra         10600.625
       408   11 Jun 2027 16:34:41.509   11 Jun 2027 16:36:42.732           121.223                Sumatra         15152.875
       409   11 Jun 2027 17:52:15.077   11 Jun 2027 17:53:53.767            98.690                Novosib         12336.250
       410   11 Jun 2027 17:58:44.304   11 Jun 2027 18:01:34.986           170.682                  Delhi         21335.250
       411   11 Jun 2027 21:04:09.478   11 Jun 2027 21:05:50.042           100.564                 Moscow         12570.500
       412   11 Jun 2027 21:29:39.303   11 Jun 2027 21:30:38.608            59.305               CapeTown          7413.125
       413   12 Jun 2027 03:22:12.618   12 Jun 2027 03:22:25.182            12.564                Irkutsk          1570.500
       414   12 Jun 2027 03:23:15.958   12 Jun 2027 03:23:44.547            28.589              Murmansk2          3573.625
       415   12 Jun 2027 03:23:46.803   12 Jun 2027 03:24:07.940            21.137                Novosib          2642.125
       416   12 Jun 2027 03:24:20.756   12 Jun 2027 03:28:06.304           225.548              Murmansk2         28193.500
       417   12 Jun 2027 04:34:15.195   12 Jun 2027 04:35:54.298            99.103                Sumatra         12387.875
       418   12 Jun 2027 04:40:46.080   12 Jun 2027 04:42:05.211            79.131                Sumatra          9891.375
       419   12 Jun 2027 04:59:07.338   12 Jun 2027 04:59:52.284            44.946              Murmansk2          5618.250
       420   12 Jun 2027 05:00:05.451   12 Jun 2027 05:04:17.038           251.587                Norilsk         31448.375
       421   12 Jun 2027 05:04:52.077   12 Jun 2027 05:07:00.624           128.547              Murmansk1         16068.375
       422   12 Jun 2027 06:16:56.833   12 Jun 2027 06:20:50.917           234.084                Sumatra         29260.500
       423   12 Jun 2027 06:23:57.777   12 Jun 2027 06:26:41.651           163.874                Novosib         20484.250
       424   12 Jun 2027 06:26:56.940   12 Jun 2027 06:29:45.745           168.805                  Delhi         21100.625
       425   12 Jun 2027 06:30:00.063   12 Jun 2027 06:30:22.603            22.540                Irkutsk          2817.500
       426   12 Jun 2027 06:34:39.589   12 Jun 2027 06:35:08.050            28.461                 Moscow          3557.625
       427   12 Jun 2027 06:35:09.369   12 Jun 2027 06:35:50.718            41.349              Murmansk1          5168.625
       428   12 Jun 2027 06:36:08.452   12 Jun 2027 06:36:46.686            38.234                Novosib          4779.250
       429   12 Jun 2027 06:37:13.565   12 Jun 2027 06:38:48.624            95.059              Murmansk1         11882.375
       430   12 Jun 2027 06:38:48.624   12 Jun 2027 06:42:11.483           202.859              Murmansk2         25357.375
       431   12 Jun 2027 08:01:04.994   12 Jun 2027 08:04:49.420           224.426                  Delhi         28053.250
       432   12 Jun 2027 08:04:57.092   12 Jun 2027 08:06:54.686           117.594                Novosib         14699.250
       433   12 Jun 2027 08:11:03.414   12 Jun 2027 08:11:17.250            13.836                Novosib          1729.500
       434   12 Jun 2027 08:11:19.124   12 Jun 2027 08:11:38.454            19.330                 Moscow          2416.250
       435   12 Jun 2027 08:11:57.718   12 Jun 2027 08:13:05.897            68.179                Norilsk          8522.375
       436   12 Jun 2027 08:13:18.791   12 Jun 2027 08:17:54.078           275.287              Murmansk2         34410.875
       437   12 Jun 2027 09:40:04.757   12 Jun 2027 09:40:25.085            20.328                 Moscow          2541.000
       438   12 Jun 2027 09:44:17.227   12 Jun 2027 09:45:16.008            58.781              Murmansk1          7347.625
       439   12 Jun 2027 09:45:16.008   12 Jun 2027 09:47:47.981           151.973              Murmansk2         18996.625
       440   12 Jun 2027 09:48:15.488   12 Jun 2027 09:50:16.873           121.385                 Moscow         15173.125
       441   12 Jun 2027 09:50:21.338   12 Jun 2027 09:53:50.708           209.370              Murmansk1         26171.250
       442   12 Jun 2027 09:59:24.710   12 Jun 2027 10:01:27.604           122.894                Anadyr2         15361.750
       443   12 Jun 2027 10:58:54.541   12 Jun 2027 11:03:32.778           278.237               CapeTown         34779.625
       444   12 Jun 2027 11:21:12.884   12 Jun 2027 11:21:54.363            41.479                 Moscow          5184.875
       445   12 Jun 2027 11:24:50.211   12 Jun 2027 11:26:50.575           120.364              Murmansk1         15045.500
       446   12 Jun 2027 11:26:50.575   12 Jun 2027 11:28:50.679           120.104              Murmansk2         15013.000
       447   12 Jun 2027 13:10:16.590   12 Jun 2027 13:16:55.015           398.425               Magadan2         49803.125
       448   12 Jun 2027 13:19:22.978   12 Jun 2027 13:20:35.159            72.181               Magadan2          9022.625
       449   12 Jun 2027 15:38:32.885   12 Jun 2027 15:42:20.987           228.102            RioGallegos         28512.750
       450   12 Jun 2027 16:28:22.760   12 Jun 2027 16:28:56.169            33.409                Irkutsk          4176.125
       451   12 Jun 2027 16:39:59.382   12 Jun 2027 16:41:04.369            64.987                Sumatra          8123.375
       452   12 Jun 2027 16:41:48.541   12 Jun 2027 16:43:42.543           114.002                Sumatra         14250.250
       453   12 Jun 2027 18:01:26.312   12 Jun 2027 18:02:44.752            78.440                Novosib          9805.000
       454   12 Jun 2027 18:04:20.080   12 Jun 2027 18:04:21.132             1.052                Novosib           131.500
       455   12 Jun 2027 18:10:00.255   12 Jun 2027 18:13:22.854           202.599                  Delhi         25324.875
       456   12 Jun 2027 18:17:58.656   12 Jun 2027 18:19:09.472            70.816                  Delhi          8852.000
       457   12 Jun 2027 21:13:38.117   12 Jun 2027 21:16:04.252           146.135              Murmansk2         18266.875
       458   12 Jun 2027 21:39:57.283   12 Jun 2027 21:41:38.862           101.579               CapeTown         12697.375
       459   12 Jun 2027 21:46:19.511   12 Jun 2027 21:47:02.857            43.346               CapeTown           985.625
       460   13 Jun 2027 03:35:34.702   13 Jun 2027 03:36:49.213            74.511              Murmansk2          9313.875
       461   13 Jun 2027 04:45:45.931   13 Jun 2027 04:47:19.443            93.512                Sumatra         11689.000
       462   13 Jun 2027 05:11:29.148   13 Jun 2027 05:16:18.435           289.287                Norilsk         36160.875
       463   13 Jun 2027 05:16:39.536   13 Jun 2027 05:18:53.935           134.399              Murmansk1         16799.875
       464   13 Jun 2027 06:36:05.234   13 Jun 2027 06:37:48.025           102.791                Novosib         12848.875
       465   13 Jun 2027 06:38:49.980   13 Jun 2027 06:41:53.179           183.199                  Delhi         22899.875
       466   13 Jun 2027 06:46:55.153   13 Jun 2027 06:47:56.432            61.279                 Moscow          7659.875
       467   13 Jun 2027 06:48:28.670   13 Jun 2027 06:48:45.860            17.190                Novosib          2148.750
       468   13 Jun 2027 06:49:13.150   13 Jun 2027 06:50:44.591            91.441              Murmansk1         11430.125
       469   13 Jun 2027 06:50:44.591   13 Jun 2027 06:54:09.810           205.219              Murmansk2         25652.375
       470   13 Jun 2027 08:12:57.412   13 Jun 2027 08:13:38.871            41.459                  Delhi          5182.375
       471   13 Jun 2027 08:15:28.610   13 Jun 2027 08:18:49.848           201.238                Novosib         25154.750
       472   13 Jun 2027 08:23:22.109   13 Jun 2027 08:26:22.550           180.441                 Moscow         22555.125
       473   13 Jun 2027 08:26:31.140   13 Jun 2027 08:29:55.045           203.905              Murmansk1         25488.125
       474   13 Jun 2027 09:52:42.111   13 Jun 2027 09:53:09.745            27.634                 Moscow          3454.250
       475   13 Jun 2027 09:56:40.498   13 Jun 2027 09:59:36.872           176.374              Murmansk2         22046.750
       476   13 Jun 2027 09:59:52.808   13 Jun 2027 10:02:15.352           142.544                 Moscow         17818.000
       477   13 Jun 2027 10:02:36.299   13 Jun 2027 10:05:52.379           196.080              Murmansk1         24510.000
       478   13 Jun 2027 10:08:55.497   13 Jun 2027 10:14:37.570           342.073                Anadyr1         42759.125
       479   13 Jun 2027 11:10:49.946   13 Jun 2027 11:15:43.299           293.353               CapeTown         36669.125
       480   13 Jun 2027 11:33:05.099   13 Jun 2027 11:34:07.099            62.000                 Moscow          7750.000
       481   13 Jun 2027 11:36:48.169   13 Jun 2027 11:38:47.949           119.780              Murmansk2         14972.500
       482   13 Jun 2027 11:38:47.949   13 Jun 2027 11:41:45.942           177.993              Murmansk1         22249.125
