uniorb/output/strategy_4/Drop/Drop_KinoSat_111507.txt

KinoSat_111507
-------------------------
    Access    *     Start Time (UTCG)     *     Stop Time (UTCG)  *   Duration (s)        *       Station  *  Data (Mbytes)
         1   01 Jun 2027 03:00:38.579   01 Jun 2027 03:01:48.909            70.330              Murmansk2          2197.812
         2   01 Jun 2027 03:01:48.909   01 Jun 2027 03:02:19.613            30.704              Murmansk1           959.500
         3   01 Jun 2027 03:02:21.974   01 Jun 2027 03:02:58.419            36.445                Novosib          1138.906
         4   01 Jun 2027 03:03:02.562   01 Jun 2027 03:03:09.986             7.424              Murmansk2           232.000
         5   01 Jun 2027 03:03:14.715   01 Jun 2027 03:04:30.947            76.232                 Moscow          2382.250
         6   01 Jun 2027 03:04:44.566   01 Jun 2027 03:04:52.878             8.312                 Moscow           259.750
         7   01 Jun 2027 03:05:06.727   01 Jun 2027 03:06:03.095            56.368                Novosib          1761.500
         8   01 Jun 2027 03:06:17.542   01 Jun 2027 03:08:31.824           134.282                  Delhi          4196.312
         9   01 Jun 2027 04:38:38.851   01 Jun 2027 04:38:50.897            12.046                Novosib           376.437
        10   01 Jun 2027 04:38:51.801   01 Jun 2027 04:40:37.606           105.805              Murmansk1          3306.406
        11   01 Jun 2027 04:40:56.210   01 Jun 2027 04:41:25.062            28.852                 Moscow           901.625
        12   01 Jun 2027 04:41:50.054   01 Jun 2027 04:43:20.143            90.089                 Moscow          2815.281
        13   01 Jun 2027 04:43:21.241   01 Jun 2027 04:43:49.106            27.865              Murmansk1           870.781
        14   01 Jun 2027 04:58:08.855   01 Jun 2027 05:00:39.068           150.213               CapeTown          4694.156
        15   01 Jun 2027 05:03:55.320   01 Jun 2027 05:04:00.604             5.284               CapeTown           165.125
        16   01 Jun 2027 06:01:56.497   01 Jun 2027 06:03:33.097            96.600                Anadyr2          3018.750
        17   01 Jun 2027 06:03:34.963   01 Jun 2027 06:04:01.692            26.729               Magadan1           835.281
        18   01 Jun 2027 06:04:27.521   01 Jun 2027 06:05:24.725            57.204                Anadyr2          1787.625
        19   01 Jun 2027 07:38:51.985   01 Jun 2027 07:39:24.835            32.850                Irkutsk          1026.563
        20   01 Jun 2027 07:39:54.459   01 Jun 2027 07:40:28.436            33.977                Anadyr2          1061.781
        21   01 Jun 2027 07:40:28.436   01 Jun 2027 07:41:03.075            34.639                Anadyr1          1082.469
        22   01 Jun 2027 07:41:15.511   01 Jun 2027 07:41:59.187            43.676               Magadan1          1364.875
        23   01 Jun 2027 07:42:00.297   01 Jun 2027 07:42:34.299            34.002                Anadyr1          1062.562
        24   01 Jun 2027 09:12:58.265   01 Jun 2027 09:13:12.688            14.423               Magadan1           450.719
        25   01 Jun 2027 09:13:14.268   01 Jun 2027 09:14:09.030            54.762                Irkutsk          1711.312
        26   01 Jun 2027 09:14:25.916   01 Jun 2027 09:15:27.548            61.632               Magadan2          1926.000
        27   01 Jun 2027 09:16:10.896   01 Jun 2027 09:19:01.054           170.158               Magadan2          5317.438
        28   01 Jun 2027 10:50:38.704   01 Jun 2027 10:51:13.015            34.311                Novosib          1072.219
        29   01 Jun 2027 10:51:21.849   01 Jun 2027 10:53:11.101           109.252                Irkutsk          3414.125
        30   01 Jun 2027 10:53:18.721   01 Jun 2027 10:53:35.064            16.343                Norilsk           510.719
        31   01 Jun 2027 10:53:45.089   01 Jun 2027 10:56:31.141           166.052                Novosib          5189.125
        32   01 Jun 2027 10:56:47.043   01 Jun 2027 10:57:00.109            13.066              Murmansk2           408.312
        33   01 Jun 2027 10:58:11.513   01 Jun 2027 10:58:25.621            14.108              Murmansk2           440.875
        34   01 Jun 2027 10:58:39.084   01 Jun 2027 10:58:57.455            18.371              Murmansk2           574.094
        35   01 Jun 2027 11:30:37.758   01 Jun 2027 11:31:17.931            40.173            RioGallegos          1255.406
        36   01 Jun 2027 11:31:52.508   01 Jun 2027 11:32:23.959            31.451            RioGallegos           982.844
        37   01 Jun 2027 11:32:44.108   01 Jun 2027 11:33:54.933            70.825            RioGallegos          2213.281
        38   01 Jun 2027 11:35:05.141   01 Jun 2027 11:35:26.371            21.230            RioGallegos           663.437
        39   01 Jun 2027 12:04:56.511   01 Jun 2027 12:05:25.338            28.827                Sumatra           900.844
        40   01 Jun 2027 12:06:48.342   01 Jun 2027 12:09:18.008           149.666                Sumatra          4677.063
        41   01 Jun 2027 12:14:12.339   01 Jun 2027 12:14:54.363            42.024                  Delhi          1313.250
        42   01 Jun 2027 12:19:43.960   01 Jun 2027 12:20:45.782            61.822                Novosib          1931.937
        43   01 Jun 2027 12:20:53.829   01 Jun 2027 12:23:26.430           152.601                Irkutsk          4768.781
        44   01 Jun 2027 12:23:33.237   01 Jun 2027 12:24:22.934            49.697                Norilsk          1553.031
        45   01 Jun 2027 13:49:42.701   01 Jun 2027 13:51:27.882           105.181                  Delhi          3286.906
        46   01 Jun 2027 13:54:07.243   01 Jun 2027 13:57:39.323           212.080                  Delhi          6627.500
        47   01 Jun 2027 13:58:01.056   01 Jun 2027 14:01:23.237           202.181                Novosib          6318.156
        48   01 Jun 2027 14:01:48.589   01 Jun 2027 14:02:26.835            38.246                Norilsk          1195.187
        49   01 Jun 2027 15:33:19.481   01 Jun 2027 15:36:49.949           210.468                 Moscow          6577.125
        50   01 Jun 2027 15:37:17.651   01 Jun 2027 15:37:28.652            11.001              Murmansk1           343.781
        51   01 Jun 2027 15:37:58.732   01 Jun 2027 15:38:01.598             2.866              Murmansk2            89.563
        52   01 Jun 2027 15:38:18.349   01 Jun 2027 15:38:44.959            26.610              Murmansk2           831.563
        53   01 Jun 2027 15:42:50.568   01 Jun 2027 15:47:14.050           263.482                Norilsk          8233.813
        54   01 Jun 2027 17:12:03.770   01 Jun 2027 17:16:28.582           264.812                 Moscow          8275.375
        55   01 Jun 2027 17:28:47.957   01 Jun 2027 17:29:03.596            15.639                Anadyr1           488.719
        56   01 Jun 2027 17:31:07.062   01 Jun 2027 17:31:10.217             3.155                Anadyr2            98.594
        57   01 Jun 2027 18:23:07.696   01 Jun 2027 18:24:45.511            97.815               CapeTown          3056.719
        58   01 Jun 2027 18:27:32.703   01 Jun 2027 18:27:37.223             4.520               CapeTown           141.250
        59   01 Jun 2027 18:54:56.831   01 Jun 2027 18:59:38.033           281.202              Murmansk2          8787.563
        60   01 Jun 2027 18:59:46.946   01 Jun 2027 19:00:57.728            70.782              Murmansk1          2211.938
        61   01 Jun 2027 19:06:06.044   01 Jun 2027 19:06:22.789            16.745               Magadan1           523.281
        62   01 Jun 2027 19:06:46.369   01 Jun 2027 19:06:59.220            12.851               Magadan1           401.594
        63   01 Jun 2027 19:08:43.996   01 Jun 2027 19:09:16.241            32.245               Magadan2          1007.656
        64   01 Jun 2027 20:39:12.921   01 Jun 2027 20:44:31.823           318.902                Anadyr2          9965.688
        65   01 Jun 2027 20:44:40.350   01 Jun 2027 20:46:13.635            93.285               Magadan2          2915.156
        66   01 Jun 2027 20:46:31.674   01 Jun 2027 20:46:54.370            22.696               Magadan2           709.250
        67   01 Jun 2027 20:52:46.511   01 Jun 2027 20:53:20.479            33.968               Magadan1          1061.500
        68   01 Jun 2027 21:34:27.767   01 Jun 2027 21:36:52.422           144.655            RioGallegos          4520.469
        69   01 Jun 2027 22:14:58.570   01 Jun 2027 22:16:45.087           106.517                Anadyr1          3328.656
        70   01 Jun 2027 22:17:05.169   01 Jun 2027 22:17:11.505             6.336                Anadyr1           198.000
        71   01 Jun 2027 22:17:18.716   01 Jun 2027 22:17:59.498            40.782                Norilsk          1274.438
        72   01 Jun 2027 22:18:38.408   01 Jun 2027 22:19:00.137            21.729               Magadan1           679.031
        73   01 Jun 2027 22:19:00.137   01 Jun 2027 22:20:15.508            75.371               Magadan2          2355.344
        74   01 Jun 2027 22:20:48.476   01 Jun 2027 22:21:09.857            21.381               Magadan2           668.156
        75   01 Jun 2027 22:21:39.859   01 Jun 2027 22:22:38.537            58.678                Irkutsk          1833.688
        76   01 Jun 2027 22:24:18.128   01 Jun 2027 22:24:55.233            37.105                Irkutsk          1159.531
        77   01 Jun 2027 22:35:58.480   01 Jun 2027 22:36:30.019            31.539                Sumatra           985.594
        78   01 Jun 2027 22:36:39.471   01 Jun 2027 22:38:47.292           127.821                Sumatra          3994.406
        79   01 Jun 2027 23:50:04.690   01 Jun 2027 23:52:26.849           142.159                Anadyr1          4442.469
        80   01 Jun 2027 23:53:35.832   01 Jun 2027 23:54:52.945            77.113               Magadan1          2409.781
        81   01 Jun 2027 23:56:00.296   01 Jun 2027 23:56:35.812            35.516               Magadan1          1109.875
        82   01 Jun 2027 23:56:49.979   01 Jun 2027 23:57:45.215            55.236                Irkutsk          1726.125
        83   01 Jun 2027 23:58:23.146   01 Jun 2027 23:58:32.077             8.931                Novosib           279.094
        84   01 Jun 2027 23:59:41.387   02 Jun 2027 00:00:15.167            33.780                Novosib          1055.625
        85   02 Jun 2027 00:03:02.684   02 Jun 2027 00:03:19.471            16.787                Novosib           524.594
        86   02 Jun 2027 00:06:01.074   02 Jun 2027 00:06:17.089            16.015                  Delhi           500.469
        87   02 Jun 2027 00:06:40.231   02 Jun 2027 00:08:36.963           116.732                  Delhi          3647.875
        88   02 Jun 2027 01:23:57.994   02 Jun 2027 01:25:49.196           111.202                Anadyr2          3475.063
        89   02 Jun 2027 01:26:15.601   02 Jun 2027 01:26:30.584            14.983                Anadyr2           468.219
        90   02 Jun 2027 01:28:57.956   02 Jun 2027 01:31:00.504           122.548                Norilsk          3829.625
        91   02 Jun 2027 01:31:34.658   02 Jun 2027 01:32:54.111            79.453              Murmansk2          2482.906
        92   02 Jun 2027 01:33:03.119   02 Jun 2027 01:34:54.346           111.227                Novosib          3475.844
        93   02 Jun 2027 01:42:47.572   02 Jun 2027 01:43:14.679            27.107                  Delhi           847.094
        94   02 Jun 2027 01:49:17.338   02 Jun 2027 01:49:44.210            26.872                  Delhi           839.750
        95   02 Jun 2027 02:22:34.515   02 Jun 2027 02:24:42.273           127.758            RioGallegos          3992.437
        96   02 Jun 2027 02:27:15.803   02 Jun 2027 02:27:40.252            24.449            RioGallegos           764.031
        97   02 Jun 2027 02:57:15.013   02 Jun 2027 02:57:21.313             6.300                Anadyr1           196.875
        98   02 Jun 2027 02:57:38.346   02 Jun 2027 02:58:13.478            35.132                Anadyr2          1097.875
        99   02 Jun 2027 03:12:52.482   02 Jun 2027 03:13:16.699            24.217                Novosib           756.781
       100   02 Jun 2027 03:13:33.362   02 Jun 2027 03:15:53.446           140.084                 Moscow          4377.625
       101   02 Jun 2027 03:15:56.897   02 Jun 2027 03:16:18.467            21.570              Murmansk2           674.063
       102   02 Jun 2027 03:16:34.440   02 Jun 2027 03:17:43.680            69.240                Novosib          2163.750
       103   02 Jun 2027 03:18:01.136   02 Jun 2027 03:18:09.027             7.891              Murmansk2           246.594
       104   02 Jun 2027 03:18:26.722   02 Jun 2027 03:18:26.835             0.113              Murmansk2             3.531
       105   02 Jun 2027 03:19:46.282   02 Jun 2027 03:20:07.332            21.050                  Delhi           657.813
       106   02 Jun 2027 04:31:18.827   02 Jun 2027 04:34:07.808           168.981                Anadyr2          5280.656
       107   02 Jun 2027 06:07:02.586   02 Jun 2027 06:08:30.230            87.644                Anadyr2          2738.875
       108   02 Jun 2027 06:08:58.792   02 Jun 2027 06:09:39.978            41.186               Magadan2          1287.062
       109   02 Jun 2027 06:13:36.972   02 Jun 2027 06:15:27.436           110.464               Magadan2          3452.000
       110   02 Jun 2027 06:16:21.006   02 Jun 2027 06:16:36.226            15.220                Norilsk           475.625
       111   02 Jun 2027 07:52:11.374   02 Jun 2027 07:53:40.512            89.138               Magadan1          2785.562
       112   02 Jun 2027 07:53:40.512   02 Jun 2027 07:54:17.391            36.879               Magadan2          1152.469
       113   02 Jun 2027 07:55:04.297   02 Jun 2027 07:55:30.334            26.037                Anadyr1           813.656
       114   02 Jun 2027 08:00:15.095   02 Jun 2027 08:00:38.826            23.731                 Moscow           741.594
       115   02 Jun 2027 09:25:48.345   02 Jun 2027 09:26:35.375            47.030               Magadan1          1469.687
       116   02 Jun 2027 09:27:25.162   02 Jun 2027 09:27:55.510            30.348               Magadan2           948.375
       117   02 Jun 2027 09:28:08.834   02 Jun 2027 09:28:09.455             0.621               Magadan1            19.406
       118   02 Jun 2027 09:28:43.277   02 Jun 2027 09:28:43.434             0.157                Irkutsk             4.906
       119   02 Jun 2027 09:29:02.654   02 Jun 2027 09:29:05.620             2.966                Irkutsk            92.687
       120   02 Jun 2027 09:29:27.112   02 Jun 2027 09:29:34.137             7.025                Novosib           219.531
       121   02 Jun 2027 09:29:37.392   02 Jun 2027 09:30:36.795            59.403                Irkutsk          1856.344
       122   02 Jun 2027 09:30:54.204   02 Jun 2027 09:30:55.565             1.361               Magadan1            42.531
       123   02 Jun 2027 09:30:56.438   02 Jun 2027 09:30:57.301             0.863                Irkutsk            26.969
       124   02 Jun 2027 09:32:40.456   02 Jun 2027 09:32:45.465             5.009                Norilsk           156.531
       125   02 Jun 2027 10:05:52.868   02 Jun 2027 10:06:56.797            63.929            RioGallegos          1997.781
       126   02 Jun 2027 10:07:55.203   02 Jun 2027 10:08:12.393            17.190            RioGallegos           537.187
       127   02 Jun 2027 10:41:43.427   02 Jun 2027 10:42:35.319            51.892                Sumatra          1621.625
       128   02 Jun 2027 11:01:14.060   02 Jun 2027 11:02:05.140            51.080                Irkutsk          1596.250
       129   02 Jun 2027 11:02:33.056   02 Jun 2027 11:02:48.004            14.948                Novosib           467.125
       130   02 Jun 2027 11:03:22.085   02 Jun 2027 11:03:56.305            34.220                Norilsk          1069.375
       131   02 Jun 2027 11:04:15.159   02 Jun 2027 11:04:37.031            21.872                Norilsk           683.500
       132   02 Jun 2027 11:04:45.784   02 Jun 2027 11:04:48.708             2.924                Irkutsk            91.375
       133   02 Jun 2027 11:05:01.344   02 Jun 2027 11:05:03.284             1.940                Norilsk            60.625
       134   02 Jun 2027 11:05:17.033   02 Jun 2027 11:06:05.734            48.701                Irkutsk          1521.906
       135   02 Jun 2027 11:06:09.729   02 Jun 2027 11:06:15.766             6.037                Norilsk           188.656
       136   02 Jun 2027 11:06:24.327   02 Jun 2027 11:06:35.893            11.566                Novosib           361.437
       137   02 Jun 2027 11:06:39.077   02 Jun 2027 11:06:50.964            11.887                Norilsk           371.469
       138   02 Jun 2027 11:06:52.083   02 Jun 2027 11:07:07.675            15.592                Novosib           487.250
       139   02 Jun 2027 11:43:03.074   02 Jun 2027 11:44:01.367            58.293            RioGallegos          1821.656
       140   02 Jun 2027 11:47:52.410   02 Jun 2027 11:48:06.373            13.963            RioGallegos           436.344
       141   02 Jun 2027 12:17:17.160   02 Jun 2027 12:18:45.041            87.881                Sumatra          2746.281
       142   02 Jun 2027 12:25:59.821   02 Jun 2027 12:27:13.947            74.126                  Delhi          2316.438
       143   02 Jun 2027 12:32:34.523   02 Jun 2027 12:32:42.583             8.060                Irkutsk           251.875
       144   02 Jun 2027 12:32:58.181   02 Jun 2027 12:33:14.479            16.298                Novosib           509.313
       145   02 Jun 2027 12:34:48.860   02 Jun 2027 12:35:26.151            37.291                Novosib          1165.344
       146   02 Jun 2027 12:35:45.608   02 Jun 2027 12:36:11.517            25.909                Norilsk           809.656
       147   02 Jun 2027 12:42:16.311   02 Jun 2027 12:42:27.604            11.293                Norilsk           352.906
       148   02 Jun 2027 14:02:16.306   02 Jun 2027 14:05:13.054           176.748                  Delhi          5523.375
       149   02 Jun 2027 14:10:20.579   02 Jun 2027 14:10:32.660            12.081                 Moscow           377.531
       150   02 Jun 2027 14:10:42.525   02 Jun 2027 14:11:47.197            64.672                Novosib          2021.000
       151   02 Jun 2027 14:12:48.314   02 Jun 2027 14:15:35.046           166.732                Novosib          5210.375
       152   02 Jun 2027 14:21:04.287   02 Jun 2027 14:21:19.873            15.586                Norilsk           487.062
       153   02 Jun 2027 14:21:44.449   02 Jun 2027 14:22:20.698            36.249                Norilsk          1132.781
       154   02 Jun 2027 15:45:28.522   02 Jun 2027 15:47:21.707           113.185                 Moscow          3537.031
       155   02 Jun 2027 15:48:59.453   02 Jun 2027 15:51:51.494           172.041              Murmansk2          5376.281
       156   02 Jun 2027 15:56:00.561   02 Jun 2027 15:57:08.730            68.169                Norilsk          2130.281
       157   02 Jun 2027 15:57:21.664   02 Jun 2027 15:58:13.151            51.487                Norilsk          1608.969
       158   02 Jun 2027 16:05:01.417   02 Jun 2027 16:05:03.807             2.390                Anadyr1            74.688
       159   02 Jun 2027 16:06:02.839   02 Jun 2027 16:07:18.100            75.261                Anadyr1          2351.906
       160   02 Jun 2027 17:01:44.676   02 Jun 2027 17:02:02.745            18.069               CapeTown           564.656
       161   02 Jun 2027 17:24:51.903   02 Jun 2027 17:25:58.025            66.122                 Moscow          2066.313
       162   02 Jun 2027 17:26:59.542   02 Jun 2027 17:27:55.964            56.422              Murmansk1          1763.187
       163   02 Jun 2027 17:28:56.062   02 Jun 2027 17:29:22.063            26.001              Murmansk2           812.531
       164   02 Jun 2027 17:30:07.451   02 Jun 2027 17:31:42.221            94.770              Murmansk2          2961.562
       165   02 Jun 2027 17:40:02.703   02 Jun 2027 17:40:36.095            33.392                Anadyr2          1043.500
       166   02 Jun 2027 17:44:42.989   02 Jun 2027 17:44:54.897            11.908                Anadyr1           372.125
       167   02 Jun 2027 17:45:08.282   02 Jun 2027 17:45:25.633            17.351                Anadyr2           542.219
       168   02 Jun 2027 18:35:25.014   02 Jun 2027 18:36:49.867            84.853               CapeTown          2651.656
       169   02 Jun 2027 18:38:48.639   02 Jun 2027 18:38:52.551             3.912               CapeTown           122.250
       170   02 Jun 2027 18:39:33.386   02 Jun 2027 18:39:53.739            20.353               CapeTown           636.031
       171   02 Jun 2027 19:07:52.117   02 Jun 2027 19:12:44.161           292.044              Murmansk2          9126.375
       172   02 Jun 2027 19:17:59.274   02 Jun 2027 19:18:36.660            37.386               Magadan2          1168.312
       173   02 Jun 2027 19:21:43.971   02 Jun 2027 19:21:59.389            15.418               Magadan1           481.813
       174   02 Jun 2027 19:23:16.172   02 Jun 2027 19:23:28.815            12.643               Magadan2           395.094
       175   02 Jun 2027 19:26:25.824   02 Jun 2027 19:26:45.503            19.679               Magadan2           614.969
       176   02 Jun 2027 19:27:09.456   02 Jun 2027 19:27:26.441            16.985               Magadan2           530.781
       177   02 Jun 2027 20:51:14.213   02 Jun 2027 20:54:57.161           222.948                Anadyr2          6967.125
       178   02 Jun 2027 20:55:09.373   02 Jun 2027 20:57:32.493           143.120               Magadan1          4472.500
       179   02 Jun 2027 20:58:05.207   02 Jun 2027 20:58:09.426             4.219               Magadan1           131.844
       180   02 Jun 2027 20:58:24.330   02 Jun 2027 20:58:42.177            17.847               Magadan2           557.719
       181   02 Jun 2027 20:59:00.634   02 Jun 2027 20:59:08.341             7.707               Magadan1           240.844
       182   02 Jun 2027 21:46:06.037   02 Jun 2027 21:49:16.458           190.421            RioGallegos          5950.656
       183   02 Jun 2027 21:51:12.445   02 Jun 2027 21:52:33.223            80.778            RioGallegos          2524.312
       184   02 Jun 2027 22:26:56.854   02 Jun 2027 22:27:16.410            19.556                Anadyr1           611.125
       185   02 Jun 2027 22:29:04.967   02 Jun 2027 22:30:45.010           100.043                Norilsk          3126.344
       186   02 Jun 2027 22:31:39.194   02 Jun 2027 22:32:05.180            25.986                Norilsk           812.062
       187   02 Jun 2027 22:32:29.777   02 Jun 2027 22:32:50.436            20.659               Magadan1           645.594
       188   02 Jun 2027 22:32:50.436   02 Jun 2027 22:32:59.744             9.308               Magadan2           290.875
       189   02 Jun 2027 22:33:28.910   02 Jun 2027 22:34:38.249            69.339                Irkutsk          2166.844
       190   02 Jun 2027 22:35:47.086   02 Jun 2027 22:36:49.439            62.353                Irkutsk          1948.531
       191   02 Jun 2027 22:47:30.673   02 Jun 2027 22:48:42.213            71.540                Sumatra          2235.625
       192   02 Jun 2027 22:49:11.464   02 Jun 2027 22:49:29.047            17.583                Sumatra           549.469
       193   02 Jun 2027 22:58:17.688   02 Jun 2027 22:58:31.217            13.529                Sumatra           422.781
       194   02 Jun 2027 23:31:01.510   02 Jun 2027 23:31:07.101             5.591            RioGallegos           174.719
       195   02 Jun 2027 23:31:18.727   02 Jun 2027 23:31:26.931             8.204            RioGallegos           256.375
       196   02 Jun 2027 23:32:26.751   02 Jun 2027 23:32:29.578             2.827            RioGallegos            88.344
       197   03 Jun 2027 00:01:55.107   03 Jun 2027 00:04:13.425           138.318                Anadyr2          4322.438
       198   03 Jun 2027 00:04:59.394   03 Jun 2027 00:05:11.949            12.555                Norilsk           392.344
       199   03 Jun 2027 00:05:38.651   03 Jun 2027 00:07:30.484           111.833               Magadan1          3494.781
       200   03 Jun 2027 00:08:51.414   03 Jun 2027 00:10:09.715            78.301                Irkutsk          2446.906
       201   03 Jun 2027 00:10:39.181   03 Jun 2027 00:11:42.093            62.912                Novosib          1966.000
       202   03 Jun 2027 00:16:35.111   03 Jun 2027 00:17:05.824            30.713                Novosib           959.781
       203   03 Jun 2027 00:17:26.722   03 Jun 2027 00:17:52.103            25.381                  Delhi           793.156
       204   03 Jun 2027 00:18:17.597   03 Jun 2027 00:20:21.148           123.551                  Delhi          3860.969
       205   03 Jun 2027 01:05:23.214   03 Jun 2027 01:06:09.288            46.074            RioGallegos          1439.813
       206   03 Jun 2027 01:35:39.756   03 Jun 2027 01:35:47.418             7.662                Anadyr1           239.438
       207   03 Jun 2027 01:36:04.871   03 Jun 2027 01:36:58.754            53.883                Anadyr2          1683.844
       208   03 Jun 2027 01:37:57.957   03 Jun 2027 01:38:20.706            22.749                Anadyr1           710.906
       209   03 Jun 2027 01:40:59.862   03 Jun 2027 01:43:02.845           122.983                Norilsk          3843.219
       210   03 Jun 2027 01:43:28.895   03 Jun 2027 01:45:34.260           125.365              Murmansk2          3917.656
       211   03 Jun 2027 01:48:48.992   03 Jun 2027 01:49:14.231            25.239                Novosib           788.719
       212   03 Jun 2027 01:51:36.322   03 Jun 2027 01:51:52.713            16.391                 Moscow           512.219
       213   03 Jun 2027 01:52:37.989   03 Jun 2027 01:52:42.630             4.641                Irkutsk           145.031
       214   03 Jun 2027 01:53:24.958   03 Jun 2027 01:54:18.449            53.491                  Delhi          1671.594
       215   03 Jun 2027 02:03:49.454   03 Jun 2027 02:04:18.280            28.826                  Delhi           900.813
       216   03 Jun 2027 02:35:16.116   03 Jun 2027 02:36:48.993            92.877            RioGallegos          2902.406
       217   03 Jun 2027 02:38:08.588   03 Jun 2027 02:38:26.207            17.619            RioGallegos           550.594
       218   03 Jun 2027 03:26:36.681   03 Jun 2027 03:26:47.444            10.763                Novosib           336.344
       219   03 Jun 2027 03:27:14.368   03 Jun 2027 03:30:17.373           183.005                Novosib          5718.906
       220   03 Jun 2027 03:31:08.036   03 Jun 2027 03:31:24.438            16.402                Novosib           512.563
       221   03 Jun 2027 03:47:27.367   03 Jun 2027 03:47:59.353            31.986               CapeTown           999.563
       222   03 Jun 2027 04:43:12.584   03 Jun 2027 04:45:49.483           156.899                Anadyr1          4903.094
       223   03 Jun 2027 05:03:12.921   03 Jun 2027 05:03:35.529            22.608                 Moscow           706.500
       224   03 Jun 2027 05:04:08.697   03 Jun 2027 05:04:18.524             9.827                 Moscow           307.094
       225   03 Jun 2027 05:04:35.976   03 Jun 2027 05:04:38.029             2.053                 Moscow            64.156
       226   03 Jun 2027 05:04:56.978   03 Jun 2027 05:05:58.618            61.640                 Moscow          1926.250
       227   03 Jun 2027 05:22:29.388   03 Jun 2027 05:23:24.618            55.230               CapeTown          1725.937
       228   03 Jun 2027 05:23:43.063   03 Jun 2027 05:23:50.015             6.952               CapeTown           217.250
       229   03 Jun 2027 06:25:04.644   03 Jun 2027 06:25:32.610            27.966               Magadan2           873.938
       230   03 Jun 2027 06:25:34.368   03 Jun 2027 06:25:39.820             5.452               Magadan2           170.375
       231   03 Jun 2027 06:25:40.902   03 Jun 2027 06:26:09.197            28.295               Magadan2           884.219
       232   03 Jun 2027 06:26:16.075   03 Jun 2027 06:27:26.426            70.351                Anadyr1          2198.469
       233   03 Jun 2027 06:27:27.933   03 Jun 2027 06:27:41.248            13.315               Magadan1           416.094
       234   03 Jun 2027 06:27:47.826   03 Jun 2027 06:28:06.542            18.716                Anadyr2           584.875
       235   03 Jun 2027 06:28:54.608   03 Jun 2027 06:29:34.462            39.854                Anadyr1          1245.438
       236   03 Jun 2027 08:01:33.855   03 Jun 2027 08:01:49.174            15.319               Magadan2           478.719
       237   03 Jun 2027 08:02:12.557   03 Jun 2027 08:02:44.184            31.627                Anadyr2           988.344
       238   03 Jun 2027 08:02:47.917   03 Jun 2027 08:02:59.220            11.303               Magadan1           353.219
       239   03 Jun 2027 08:03:04.197   03 Jun 2027 08:03:43.961            39.764               Magadan1          1242.625
       240   03 Jun 2027 08:03:52.603   03 Jun 2027 08:04:36.928            44.325                Anadyr2          1385.156
       241   03 Jun 2027 08:04:39.141   03 Jun 2027 08:06:02.288            83.147                Anadyr2          2598.344
       242   03 Jun 2027 09:36:37.649   03 Jun 2027 09:37:49.633            71.984               Magadan2          2249.500
       243   03 Jun 2027 09:38:00.032   03 Jun 2027 09:38:11.951            11.919               Magadan2           372.469
       244   03 Jun 2027 09:38:47.710   03 Jun 2027 09:39:21.658            33.948               Magadan1          1060.875
       245   03 Jun 2027 09:39:27.689   03 Jun 2027 09:40:10.462            42.773               Magadan1          1336.656
       246   03 Jun 2027 09:41:08.693   03 Jun 2027 09:41:28.882            20.189                Irkutsk           630.906
       247   03 Jun 2027 09:41:37.813   03 Jun 2027 09:42:48.140            70.327               Magadan2          2197.719
       248   03 Jun 2027 09:42:52.713   03 Jun 2027 09:43:03.599            10.886                Irkutsk           340.188
       249   03 Jun 2027 10:17:51.144   03 Jun 2027 10:18:56.720            65.576            RioGallegos          2049.250
       250   03 Jun 2027 10:53:19.969   03 Jun 2027 10:54:08.115            48.146                Sumatra          1504.562
       251   03 Jun 2027 11:06:57.482   03 Jun 2027 11:07:28.179            30.697                  Delhi           959.281
       252   03 Jun 2027 11:09:40.810   03 Jun 2027 11:09:45.671             4.861                  Delhi           151.906
       253   03 Jun 2027 11:13:45.654   03 Jun 2027 11:14:23.443            37.789                Novosib          1180.906
       254   03 Jun 2027 11:14:33.142   03 Jun 2027 11:14:59.289            26.147                Irkutsk           817.094
       255   03 Jun 2027 11:15:19.251   03 Jun 2027 11:15:35.426            16.175                Novosib           505.469
       256   03 Jun 2027 11:15:38.741   03 Jun 2027 11:16:02.775            24.034                Irkutsk           751.063
       257   03 Jun 2027 11:16:17.248   03 Jun 2027 11:16:37.982            20.734                Norilsk           647.937
       258   03 Jun 2027 11:16:59.590   03 Jun 2027 11:17:02.561             2.971                Norilsk            92.844
       259   03 Jun 2027 11:17:22.151   03 Jun 2027 11:17:41.831            19.680                Irkutsk           615.000
       260   03 Jun 2027 11:17:47.419   03 Jun 2027 11:17:48.545             1.126                Novosib            35.188
       261   03 Jun 2027 11:18:01.193   03 Jun 2027 11:18:50.103            48.910                Irkutsk          1528.438
       262   03 Jun 2027 11:55:33.963   03 Jun 2027 11:56:14.004            40.041            RioGallegos          1251.281
       263   03 Jun 2027 12:29:46.757   03 Jun 2027 12:30:42.881            56.124                Sumatra          1753.875
       264   03 Jun 2027 12:33:54.067   03 Jun 2027 12:34:58.648            64.581                Sumatra          2018.156
       265   03 Jun 2027 12:44:09.812   03 Jun 2027 12:44:37.538            27.726                Novosib           866.438
       266   03 Jun 2027 12:45:07.080   03 Jun 2027 12:45:18.165            11.085                Novosib           346.406
       267   03 Jun 2027 12:46:54.838   03 Jun 2027 12:48:01.420            66.582                Novosib          2080.688
       268   03 Jun 2027 12:48:28.358   03 Jun 2027 12:48:45.821            17.463                Norilsk           545.719
       269   03 Jun 2027 12:49:31.410   03 Jun 2027 12:50:07.387            35.977                Irkutsk          1124.281
       270   03 Jun 2027 14:15:01.872   03 Jun 2027 14:17:02.574           120.702                  Delhi          3771.938
       271   03 Jun 2027 14:18:00.074   03 Jun 2027 14:19:50.608           110.534                  Delhi          3454.187
       272   03 Jun 2027 14:23:32.750   03 Jun 2027 14:24:16.745            43.995                Novosib          1374.844
       273   03 Jun 2027 14:24:50.919   03 Jun 2027 14:25:37.573            46.654              Murmansk1          1457.938
       274   03 Jun 2027 14:26:48.778   03 Jun 2027 14:27:08.107            19.329                Norilsk           604.031
       275   03 Jun 2027 14:27:32.847   03 Jun 2027 14:28:35.740            62.893                Norilsk          1965.406
       276   03 Jun 2027 14:30:06.881   03 Jun 2027 14:30:30.218            23.337                Norilsk           729.281
       277   03 Jun 2027 14:30:44.514   03 Jun 2027 14:31:54.996            70.482                Norilsk          2202.563
       278   03 Jun 2027 15:57:40.873   03 Jun 2027 15:58:51.263            70.390                 Moscow          2199.688
       279   03 Jun 2027 16:01:09.724   03 Jun 2027 16:02:50.815           101.091              Murmansk1          3159.094
       280   03 Jun 2027 16:03:50.052   03 Jun 2027 16:04:06.857            16.805              Murmansk1           525.156
       281   03 Jun 2027 16:04:06.857   03 Jun 2027 16:04:11.595             4.738              Murmansk2           148.063
       282   03 Jun 2027 16:16:27.970   03 Jun 2027 16:17:20.098            52.128                Anadyr1          1629.000
       283   03 Jun 2027 16:17:39.280   03 Jun 2027 16:19:19.030            99.750                Anadyr2          3117.187
       284   03 Jun 2027 17:10:51.153   03 Jun 2027 17:13:00.942           129.789               CapeTown          4055.906
       285   03 Jun 2027 17:37:51.884   03 Jun 2027 17:40:27.905           156.021                 Moscow          4875.656
       286   03 Jun 2027 17:43:41.251   03 Jun 2027 17:44:04.269            23.018              Murmansk1           719.312
       287   03 Jun 2027 17:51:29.235   03 Jun 2027 17:52:43.328            74.093                Anadyr1          2315.406
       288   03 Jun 2027 18:47:47.716   03 Jun 2027 18:48:57.084            69.368               CapeTown          2167.750
       289   03 Jun 2027 18:53:01.671   03 Jun 2027 18:53:08.777             7.106               CapeTown           222.063
       290   03 Jun 2027 19:21:00.003   03 Jun 2027 19:24:20.064           200.061              Murmansk1          6251.906
       291   03 Jun 2027 19:28:06.072   03 Jun 2027 19:29:10.551            64.479                Anadyr2          2014.969
       292   03 Jun 2027 19:29:54.287   03 Jun 2027 19:30:22.345            28.058               Magadan2           876.813
       293   03 Jun 2027 19:30:22.345   03 Jun 2027 19:31:15.011            52.666               Magadan1          1645.813
       294   03 Jun 2027 19:31:28.590   03 Jun 2027 19:32:36.216            67.626               Magadan1          2113.312
       295   03 Jun 2027 19:34:31.298   03 Jun 2027 19:35:02.444            31.146               Magadan1           973.313
       296   03 Jun 2027 21:03:15.314   03 Jun 2027 21:07:11.470           236.156                Anadyr1          7379.875
       297   03 Jun 2027 21:07:42.605   03 Jun 2027 21:09:32.154           109.549                Norilsk          3423.406
       298   03 Jun 2027 21:09:35.148   03 Jun 2027 21:09:45.470            10.322               Magadan1           322.563
       299   03 Jun 2027 21:09:50.747   03 Jun 2027 21:09:54.612             3.865               Magadan1           120.781
       300   03 Jun 2027 21:10:31.491   03 Jun 2027 21:10:40.772             9.281               Magadan1           290.031
       301   03 Jun 2027 21:12:30.632   03 Jun 2027 21:13:06.415            35.783               Magadan1          1118.219
       302   03 Jun 2027 21:16:08.045   03 Jun 2027 21:16:16.815             8.770               Magadan2           274.062
       303   03 Jun 2027 21:16:31.377   03 Jun 2027 21:17:42.629            71.252               Magadan1          2226.625
       304   03 Jun 2027 21:57:50.224   03 Jun 2027 22:00:03.515           133.291            RioGallegos          4165.344
       305   03 Jun 2027 22:01:01.375   03 Jun 2027 22:01:08.455             7.080            RioGallegos           221.250
       306   03 Jun 2027 22:38:54.456   03 Jun 2027 22:39:18.187            23.731                Anadyr2           741.594
       307   03 Jun 2027 22:41:05.132   03 Jun 2027 22:42:46.905           101.773                Norilsk          3180.406
       308   03 Jun 2027 22:43:20.744   03 Jun 2027 22:43:43.429            22.685               Magadan1           708.906
       309   03 Jun 2027 22:43:53.996   03 Jun 2027 22:44:59.592            65.596                Norilsk          2049.875
       310   03 Jun 2027 22:45:20.763   03 Jun 2027 22:46:13.781            53.018                Irkutsk          1656.812
       311   03 Jun 2027 22:47:51.229   03 Jun 2027 22:50:00.893           129.664                Novosib          4052.000
       312   03 Jun 2027 22:59:11.115   03 Jun 2027 22:59:46.483            35.368                Sumatra          1105.250
       313   03 Jun 2027 23:02:31.747   03 Jun 2027 23:03:34.988            63.241                Sumatra          1976.281
       314   03 Jun 2027 23:43:04.037   03 Jun 2027 23:43:16.300            12.263            RioGallegos           383.219
       315   04 Jun 2027 00:13:44.203   04 Jun 2027 00:15:05.990            81.787                Anadyr1          2555.844
       316   04 Jun 2027 00:17:01.601   04 Jun 2027 00:17:10.240             8.639                Norilsk           269.969
       317   04 Jun 2027 00:17:41.256   04 Jun 2027 00:19:14.289            93.033               Magadan2          2907.281
       318   04 Jun 2027 00:20:14.854   04 Jun 2027 00:20:21.099             6.245               Magadan1           195.156
       319   04 Jun 2027 00:20:43.317   04 Jun 2027 00:20:47.753             4.436                Norilsk           138.625
       320   04 Jun 2027 00:20:52.584   04 Jun 2027 00:21:16.081            23.497               Magadan1           734.281
       321   04 Jun 2027 00:21:21.291   04 Jun 2027 00:22:07.114            45.823                Irkutsk          1431.969
       322   04 Jun 2027 00:23:15.102   04 Jun 2027 00:23:44.648            29.546                Novosib           923.312
       323   04 Jun 2027 00:24:07.880   04 Jun 2027 00:25:17.381            69.501                Irkutsk          2171.906
       324   04 Jun 2027 00:25:35.364   04 Jun 2027 00:25:52.163            16.799                Novosib           524.969
       325   04 Jun 2027 00:26:56.168   04 Jun 2027 00:27:35.435            39.267                Novosib          1227.094
       326   04 Jun 2027 00:29:02.223   04 Jun 2027 00:29:55.467            53.244                  Delhi          1663.875
       327   04 Jun 2027 00:34:49.465   04 Jun 2027 00:34:51.995             2.530                  Delhi            79.062
       328   04 Jun 2027 00:35:36.464   04 Jun 2027 00:36:18.147            41.683                  Delhi          1302.594
       329   04 Jun 2027 01:09:18.314   04 Jun 2027 01:10:25.957            67.643            RioGallegos          2113.844
       330   04 Jun 2027 01:17:09.655   04 Jun 2027 01:17:25.399            15.744            RioGallegos           492.000
       331   04 Jun 2027 01:47:21.075   04 Jun 2027 01:47:34.413            13.338                Anadyr2           416.812
       332   04 Jun 2027 01:48:05.616   04 Jun 2027 01:49:51.217           105.601                Anadyr2          3300.031
       333   04 Jun 2027 01:50:03.297   04 Jun 2027 01:50:05.876             2.579                Anadyr1            80.594
       334   04 Jun 2027 01:53:01.633   04 Jun 2027 01:54:39.531            97.898                Norilsk          3059.312
       335   04 Jun 2027 01:55:25.134   04 Jun 2027 01:56:55.542            90.408              Murmansk2          2825.250
       336   04 Jun 2027 01:57:12.059   04 Jun 2027 01:57:43.646            31.587                Novosib           987.094
       337   04 Jun 2027 01:57:55.869   04 Jun 2027 01:58:10.572            14.703                Novosib           459.469
       338   04 Jun 2027 01:58:37.857   04 Jun 2027 01:58:46.723             8.866                Novosib           277.062
       339   04 Jun 2027 02:00:00.477   04 Jun 2027 02:00:13.020            12.543                Novosib           391.969
       340   04 Jun 2027 02:00:49.053   04 Jun 2027 02:01:04.524            15.471                 Moscow           483.469
       341   04 Jun 2027 02:04:20.729   04 Jun 2027 02:05:06.318            45.589                  Delhi          1424.656
       342   04 Jun 2027 02:13:05.668   04 Jun 2027 02:13:40.876            35.208                  Delhi          1100.250
       343   04 Jun 2027 03:20:42.817   04 Jun 2027 03:21:08.655            25.838                Anadyr2           807.438
       344   04 Jun 2027 03:21:08.655   04 Jun 2027 03:22:16.355            67.700                Anadyr1          2115.625
       345   04 Jun 2027 03:24:52.267   04 Jun 2027 03:26:11.407            79.140                Anadyr1          2473.125
       346   04 Jun 2027 03:39:56.934   04 Jun 2027 03:40:40.055            43.121              Murmansk1          1347.531
       347   04 Jun 2027 03:40:41.673   04 Jun 2027 03:42:24.843           103.170                Novosib          3224.062
       348   04 Jun 2027 03:42:31.879   04 Jun 2027 03:43:16.460            44.581                 Moscow          1393.156
       349   04 Jun 2027 03:43:59.599   04 Jun 2027 03:46:49.192           169.593                 Moscow          5299.781
       350   04 Jun 2027 03:59:03.496   04 Jun 2027 04:08:23.118           559.622               CapeTown         17488.187
       351   04 Jun 2027 04:55:08.024   04 Jun 2027 04:55:53.971            45.947                Anadyr1          1435.844
       352   04 Jun 2027 04:56:15.581   04 Jun 2027 04:56:39.912            24.331                Anadyr2           760.344
       353   04 Jun 2027 04:57:53.169   04 Jun 2027 04:58:33.463            40.294               Magadan1          1259.187
       354   04 Jun 2027 05:00:02.698   04 Jun 2027 05:00:08.625             5.927                Anadyr2           185.219
       355   04 Jun 2027 05:00:26.354   04 Jun 2027 05:02:01.077            94.723                Anadyr2          2960.094
       356   04 Jun 2027 05:02:05.634   04 Jun 2027 05:03:15.820            70.186                Anadyr2          2193.313
       357   04 Jun 2027 05:03:51.672   04 Jun 2027 05:05:44.131           112.459                Anadyr1          3514.344
       358   04 Jun 2027 05:15:16.982   04 Jun 2027 05:15:28.510            11.528                 Moscow           360.250
       359   04 Jun 2027 05:15:41.810   04 Jun 2027 05:16:07.298            25.488                 Moscow           796.500
       360   04 Jun 2027 05:16:10.774   04 Jun 2027 05:16:26.037            15.263                 Moscow           476.969
       361   04 Jun 2027 05:16:45.613   04 Jun 2027 05:16:58.597            12.984                 Moscow           405.750
       362   04 Jun 2027 05:18:31.112   04 Jun 2027 05:19:24.783            53.671                 Moscow          1677.219
       363   04 Jun 2027 05:34:48.537   04 Jun 2027 05:35:19.323            30.786               CapeTown           962.062
       364   04 Jun 2027 05:35:34.895   04 Jun 2027 05:36:17.740            42.845               CapeTown          1338.906
       365   04 Jun 2027 06:37:30.685   04 Jun 2027 06:37:42.180            11.495               Magadan1           359.219
       366   04 Jun 2027 06:37:42.180   04 Jun 2027 06:37:44.089             1.909               Magadan2            59.656
       367   04 Jun 2027 06:37:58.425   04 Jun 2027 06:39:20.980            82.555                Anadyr1          2579.844
       368   04 Jun 2027 06:39:27.937   04 Jun 2027 06:39:44.283            16.346               Magadan2           510.812
       369   04 Jun 2027 06:40:07.991   04 Jun 2027 06:40:11.064             3.073                Anadyr2            96.031
       370   04 Jun 2027 06:40:17.695   04 Jun 2027 06:40:57.811            40.116                Anadyr2          1253.625
       371   04 Jun 2027 06:41:28.624   04 Jun 2027 06:41:39.535            10.911               Magadan2           340.969
       372   04 Jun 2027 08:09:53.035   04 Jun 2027 08:10:20.795            27.760               Magadan1           867.500
       373   04 Jun 2027 08:13:33.091   04 Jun 2027 08:13:52.211            19.120               Magadan1           597.500
       374   04 Jun 2027 08:14:13.860   04 Jun 2027 08:15:13.095            59.235                Anadyr1          1851.094
       375   04 Jun 2027 08:15:26.795   04 Jun 2027 08:15:41.352            14.557               Magadan1           454.906
       376   04 Jun 2027 08:15:44.944   04 Jun 2027 08:15:50.495             5.551                Anadyr1           173.469
       377   04 Jun 2027 08:15:50.495   04 Jun 2027 08:16:17.715            27.220                Anadyr2           850.625
       378   04 Jun 2027 08:16:29.258   04 Jun 2027 08:17:09.175            39.917               Magadan2          1247.406
       379   04 Jun 2027 08:17:39.208   04 Jun 2027 08:17:46.104             6.896               Magadan1           215.500
       380   04 Jun 2027 08:18:02.779   04 Jun 2027 08:19:21.540            78.761                Anadyr1          2461.281
       381   04 Jun 2027 09:48:21.286   04 Jun 2027 09:49:50.487            89.201               Magadan2          2787.531
       382   04 Jun 2027 09:50:29.774   04 Jun 2027 09:50:37.171             7.397               Magadan2           231.156
       383   04 Jun 2027 09:51:03.072   04 Jun 2027 09:51:07.401             4.329               Magadan2           135.281
       384   04 Jun 2027 09:51:07.401   04 Jun 2027 09:51:16.758             9.357               Magadan1           292.406
       385   04 Jun 2027 09:52:13.996   04 Jun 2027 09:53:37.190            83.194               Magadan2          2599.812
       386   04 Jun 2027 09:53:45.433   04 Jun 2027 09:54:26.168            40.735                Irkutsk          1272.969
       387   04 Jun 2027 09:54:31.008   04 Jun 2027 09:55:01.968            30.960                Novosib           967.500
       388   04 Jun 2027 09:56:32.578   04 Jun 2027 09:56:33.131             0.553                Norilsk            17.281
       389   04 Jun 2027 10:29:52.734   04 Jun 2027 10:30:53.623            60.889            RioGallegos          1902.781
       390   04 Jun 2027 10:31:10.509   04 Jun 2027 10:31:12.753             2.244            RioGallegos            70.125
       391   04 Jun 2027 10:36:46.667   04 Jun 2027 10:36:50.405             3.738            RioGallegos           116.813
       392   04 Jun 2027 10:40:52.133   04 Jun 2027 10:41:43.994            51.861            RioGallegos          1620.656
       393   04 Jun 2027 11:11:03.573   04 Jun 2027 11:11:24.617            21.044                Sumatra           657.625
       394   04 Jun 2027 11:17:10.257   04 Jun 2027 11:17:49.523            39.266                  Delhi          1227.062
       395   04 Jun 2027 11:25:08.506   04 Jun 2027 11:25:17.504             8.998                Irkutsk           281.187
       396   04 Jun 2027 11:25:38.693   04 Jun 2027 11:26:30.127            51.434                Norilsk          1607.312
       397   04 Jun 2027 11:26:53.709   04 Jun 2027 11:27:03.025             9.316                Novosib           291.125
       398   04 Jun 2027 11:27:06.482   04 Jun 2027 11:27:41.805            35.323                Norilsk          1103.844
       399   04 Jun 2027 11:28:02.852   04 Jun 2027 11:28:19.324            16.472                Norilsk           514.750
       400   04 Jun 2027 11:28:32.385   04 Jun 2027 11:28:53.093            20.708                Novosib           647.125
       401   04 Jun 2027 11:28:56.620   04 Jun 2027 11:29:03.178             6.558                Norilsk           204.937
       402   04 Jun 2027 11:29:19.519   04 Jun 2027 11:29:26.479             6.960                Irkutsk           217.500
       403   04 Jun 2027 11:29:39.189   04 Jun 2027 11:29:42.661             3.472                Novosib           108.500
       404   04 Jun 2027 11:29:59.810   04 Jun 2027 11:30:58.291            58.481                Irkutsk          1827.531
       405   04 Jun 2027 12:08:11.514   04 Jun 2027 12:08:30.693            19.179            RioGallegos           599.344
       406   04 Jun 2027 12:10:59.722   04 Jun 2027 12:11:09.225             9.503            RioGallegos           296.969
       407   04 Jun 2027 12:42:28.991   04 Jun 2027 12:42:55.585            26.594                Sumatra           831.062
       408   04 Jun 2027 12:47:23.308   04 Jun 2027 12:47:39.128            15.820                Sumatra           494.375
       409   04 Jun 2027 12:48:50.992   04 Jun 2027 12:51:02.815           131.823                Sumatra          4119.469
       410   04 Jun 2027 12:56:30.935   04 Jun 2027 12:56:38.024             7.089                Novosib           221.531
       411   04 Jun 2027 12:59:48.076   04 Jun 2027 13:00:38.829            50.753                Novosib          1586.031
       412   04 Jun 2027 13:02:11.985   04 Jun 2027 13:02:34.859            22.874                Norilsk           714.813
       413   04 Jun 2027 13:04:15.513   04 Jun 2027 13:04:16.428             0.915                Norilsk            28.594
       414   04 Jun 2027 14:28:06.478   04 Jun 2027 14:28:57.572            51.094                  Delhi          1596.688
       415   04 Jun 2027 14:29:50.704   04 Jun 2027 14:32:08.313           137.609                  Delhi          4300.281
       416   04 Jun 2027 14:34:35.521   04 Jun 2027 14:34:47.006            11.485                 Moscow           358.906
       417   04 Jun 2027 14:36:36.097   04 Jun 2027 14:38:57.097           141.000                Novosib          4406.250
       418   04 Jun 2027 14:39:22.868   04 Jun 2027 14:39:56.870            34.002                Norilsk          1062.563
       419   04 Jun 2027 14:42:04.296   04 Jun 2027 14:42:32.605            28.309                Norilsk           884.656
       420   04 Jun 2027 14:44:21.647   04 Jun 2027 14:44:25.035             3.388                Norilsk           105.875
       421   04 Jun 2027 15:49:28.364   04 Jun 2027 15:51:14.143           105.779               CapeTown          3305.594
       422   04 Jun 2027 16:09:56.745   04 Jun 2027 16:10:54.028            57.283                 Moscow          1790.094
       423   04 Jun 2027 16:13:21.843   04 Jun 2027 16:14:03.396            41.553              Murmansk1          1298.531
       424   04 Jun 2027 16:14:56.150   04 Jun 2027 16:15:47.607            51.457              Murmansk1          1608.031
       425   04 Jun 2027 16:28:14.544   04 Jun 2027 16:29:18.689            64.145                Anadyr1          2004.531
       426   04 Jun 2027 16:29:21.544   04 Jun 2027 16:30:14.301            52.757                Anadyr2          1648.656
       427   04 Jun 2027 16:30:56.149   04 Jun 2027 16:31:20.141            23.992                Anadyr2           749.750
       428   04 Jun 2027 16:31:31.287   04 Jun 2027 16:32:51.265            79.978                Anadyr1          2499.312
       429   04 Jun 2027 17:23:26.954   04 Jun 2027 17:25:19.530           112.576               CapeTown          3518.000
       430   04 Jun 2027 17:51:14.221   04 Jun 2027 17:54:37.082           202.861                 Moscow          6339.406
       431   04 Jun 2027 18:04:16.743   04 Jun 2027 18:04:26.051             9.308                Anadyr2           290.875
       432   04 Jun 2027 18:04:39.938   04 Jun 2027 18:05:07.290            27.352                Anadyr2           854.750
       433   04 Jun 2027 18:08:06.463   04 Jun 2027 18:10:35.399           148.936               Magadan1          4654.250
       434   04 Jun 2027 19:39:21.543   04 Jun 2027 19:43:06.246           224.703                Anadyr2          7021.969
       435   04 Jun 2027 19:43:30.421   04 Jun 2027 19:46:37.090           186.669               Magadan2          5833.406
       436   04 Jun 2027 21:15:16.178   04 Jun 2027 21:17:23.011           126.833                Anadyr1          3963.531
       437   04 Jun 2027 21:17:25.373   04 Jun 2027 21:19:18.809           113.436                Anadyr2          3544.875
       438   04 Jun 2027 21:19:44.494   04 Jun 2027 21:21:10.124            85.630                Norilsk          2675.937
       439   04 Jun 2027 21:21:19.901   04 Jun 2027 21:21:37.683            17.782               Magadan2           555.687
       440   04 Jun 2027 21:21:37.683   04 Jun 2027 21:22:16.941            39.258               Magadan1          1226.813
       441   04 Jun 2027 21:24:01.511   04 Jun 2027 21:24:27.496            25.985               Magadan1           812.031
       442   04 Jun 2027 21:24:48.713   04 Jun 2027 21:25:04.342            15.629               Magadan1           488.406
       443   04 Jun 2027 21:25:44.441   04 Jun 2027 21:26:18.990            34.549               Magadan1          1079.656
       444   04 Jun 2027 22:09:38.465   04 Jun 2027 22:12:27.834           169.369            RioGallegos          5292.781
       445   04 Jun 2027 22:13:02.632   04 Jun 2027 22:13:04.798             2.166            RioGallegos            67.687
       446   04 Jun 2027 22:50:51.295   04 Jun 2027 22:51:39.169            47.874                Anadyr1          1496.062
       447   04 Jun 2027 22:51:54.014   04 Jun 2027 22:52:11.914            17.900                Anadyr1           559.375
       448   04 Jun 2027 22:52:36.192   04 Jun 2027 22:52:48.867            12.675                Anadyr1           396.094
       449   04 Jun 2027 22:53:05.827   04 Jun 2027 22:53:48.795            42.968                Norilsk          1342.750
       450   04 Jun 2027 22:53:58.013   04 Jun 2027 22:55:00.345            62.332               Magadan1          1947.875
       451   04 Jun 2027 22:56:49.540   04 Jun 2027 22:57:19.291            29.751               Magadan2           929.719
       452   04 Jun 2027 22:57:19.291   04 Jun 2027 22:57:26.812             7.521               Magadan1           235.031
       453   04 Jun 2027 22:57:51.056   04 Jun 2027 22:58:23.363            32.307               Magadan2          1009.594
       454   04 Jun 2027 22:58:32.765   04 Jun 2027 22:58:40.440             7.675                Irkutsk           239.844
       455   04 Jun 2027 22:58:57.550   04 Jun 2027 22:59:49.134            51.584                Novosib          1612.000
       456   04 Jun 2027 22:59:56.618   04 Jun 2027 23:00:03.115             6.497                Irkutsk           203.031
       457   04 Jun 2027 23:00:37.742   04 Jun 2027 23:01:45.820            68.078                Novosib          2127.437
       458   04 Jun 2027 23:10:58.410   04 Jun 2027 23:13:48.910           170.500                Sumatra          5328.125
       459   05 Jun 2027 00:25:31.985   05 Jun 2027 00:26:19.606            47.621                Anadyr2          1488.156
       460   05 Jun 2027 00:27:46.979   05 Jun 2027 00:28:07.186            20.207                Anadyr2           631.469
       461   05 Jun 2027 00:29:03.846   05 Jun 2027 00:29:09.572             5.726                Norilsk           178.937
       462   05 Jun 2027 00:29:43.577   05 Jun 2027 00:31:56.311           132.734               Magadan2          4147.938
       463   05 Jun 2027 00:32:56.745   05 Jun 2027 00:33:39.821            43.076                Irkutsk          1346.125
       464   05 Jun 2027 00:34:04.810   05 Jun 2027 00:35:19.573            74.763                Novosib          2336.344
       465   05 Jun 2027 00:36:50.449   05 Jun 2027 00:37:51.166            60.717                Novosib          1897.406
       466   05 Jun 2027 00:40:44.624   05 Jun 2027 00:41:13.426            28.802                  Delhi           900.063
       467   05 Jun 2027 00:41:22.159   05 Jun 2027 00:41:23.024             0.865                  Delhi            27.031
       468   05 Jun 2027 00:42:02.201   05 Jun 2027 00:42:21.586            19.385                  Delhi           605.781
       469   05 Jun 2027 00:44:53.524   05 Jun 2027 00:44:54.832             1.308                  Delhi            40.875
       470   05 Jun 2027 00:46:22.222   05 Jun 2027 00:47:03.199            40.977                  Delhi          1280.531
       471   05 Jun 2027 00:51:27.604   05 Jun 2027 00:51:44.559            16.955                  Delhi           529.844
       472   05 Jun 2027 00:54:37.078   05 Jun 2027 00:56:31.868           114.790                Sumatra          3587.187
       473   05 Jun 2027 01:59:02.149   05 Jun 2027 01:59:20.142            17.993                Anadyr1           562.281
       474   05 Jun 2027 02:00:06.097   05 Jun 2027 02:01:01.453            55.356                Anadyr1          1729.875
       475   05 Jun 2027 02:01:23.315   05 Jun 2027 02:01:41.020            17.705                Anadyr1           553.281
       476   05 Jun 2027 02:01:41.020   05 Jun 2027 02:01:52.191            11.171                Anadyr2           349.094
       477   05 Jun 2027 02:05:03.226   05 Jun 2027 02:05:03.486             0.260                Norilsk             8.125
       478   05 Jun 2027 02:05:09.551   05 Jun 2027 02:05:21.583            12.032               Magadan1           376.000
       479   05 Jun 2027 02:05:42.380   05 Jun 2027 02:06:35.744            53.364               Magadan2          1667.625
       480   05 Jun 2027 02:06:57.172   05 Jun 2027 02:07:07.359            10.187                Norilsk           318.344
       481   05 Jun 2027 02:07:22.796   05 Jun 2027 02:08:56.727            93.931              Murmansk2          2935.344
       482   05 Jun 2027 02:08:57.433   05 Jun 2027 02:09:43.202            45.769              Murmansk1          1430.281
