uniorb/output/strategy_4/Drop/Drop_KinoSat_111004.txt

KinoSat_111004
-------------------------
    Access    *     Start Time (UTCG)     *     Stop Time (UTCG)  *   Duration (s)        *       Station  *  Data (Mbytes)
         1   01 Jun 2027 03:38:03.974   01 Jun 2027 03:39:33.572            89.598                Anadyr1          2799.937
         2   01 Jun 2027 03:40:27.072   01 Jun 2027 03:41:43.973            76.901                Anadyr1          2403.156
         3   01 Jun 2027 05:14:31.492   01 Jun 2027 05:15:34.321            62.829                Anadyr1          1963.406
         4   01 Jun 2027 05:16:19.398   01 Jun 2027 05:19:19.434           180.036               Magadan2          5626.125
         5   01 Jun 2027 06:48:12.711   01 Jun 2027 06:50:02.873           110.162                Irkutsk          3442.562
         6   01 Jun 2027 06:50:10.825   01 Jun 2027 06:50:42.000            31.175                Anadyr1           974.219
         7   01 Jun 2027 06:50:42.000   01 Jun 2027 06:52:43.292           121.292                Anadyr2          3790.375
         8   01 Jun 2027 06:52:53.941   01 Jun 2027 06:53:14.196            20.255               Magadan2           632.969
         9   01 Jun 2027 06:53:14.406   01 Jun 2027 06:53:29.310            14.904                Anadyr2           465.750
        10   01 Jun 2027 06:53:29.310   01 Jun 2027 06:54:02.667            33.357                Anadyr1          1042.406
        11   01 Jun 2027 06:54:10.347   01 Jun 2027 06:54:33.853            23.506                Irkutsk           734.562
        12   01 Jun 2027 06:54:41.199   01 Jun 2027 06:56:21.743           100.544              Murmansk2          3142.000
        13   01 Jun 2027 07:30:09.985   01 Jun 2027 07:30:51.125            41.140            RioGallegos          1285.625
        14   01 Jun 2027 07:31:31.572   01 Jun 2027 07:32:50.081            78.509            RioGallegos          2453.406
        15   01 Jun 2027 08:25:28.873   01 Jun 2027 08:25:50.364            21.491                Irkutsk           671.594
        16   01 Jun 2027 08:26:16.189   01 Jun 2027 08:28:48.221           152.032               Magadan2          4751.000
        17   01 Jun 2027 08:28:59.366   01 Jun 2027 08:29:23.942            24.576              Murmansk1           768.000
        18   01 Jun 2027 08:29:26.889   01 Jun 2027 08:30:16.670            49.781                Irkutsk          1555.656
        19   01 Jun 2027 08:30:23.261   01 Jun 2027 08:31:05.391            42.130                Novosib          1316.562
        20   01 Jun 2027 08:31:16.875   01 Jun 2027 08:32:14.467            57.592              Murmansk1          1799.750
        21   01 Jun 2027 08:32:43.858   01 Jun 2027 08:33:01.004            17.146              Murmansk1           535.812
        22   01 Jun 2027 09:06:10.462   01 Jun 2027 09:06:45.796            35.334            RioGallegos          1104.187
        23   01 Jun 2027 09:09:19.572   01 Jun 2027 09:10:02.244            42.672            RioGallegos          1333.500
        24   01 Jun 2027 09:40:39.183   01 Jun 2027 09:41:04.718            25.535                Sumatra           797.969
        25   01 Jun 2027 09:44:15.299   01 Jun 2027 09:45:10.753            55.454                Sumatra          1732.937
        26   01 Jun 2027 09:50:05.084   01 Jun 2027 09:50:33.272            28.188                  Delhi           880.875
        27   01 Jun 2027 09:51:21.082   01 Jun 2027 09:51:49.255            28.173                  Delhi           880.406
        28   01 Jun 2027 10:02:56.612   01 Jun 2027 10:04:11.452            74.840                Irkutsk          2338.750
        29   01 Jun 2027 10:04:35.979   01 Jun 2027 10:04:46.920            10.941                 Moscow           341.906
        30   01 Jun 2027 10:04:58.974   01 Jun 2027 10:08:18.936           199.962                 Moscow          6248.813
        31   01 Jun 2027 10:08:36.658   01 Jun 2027 10:09:02.245            25.587              Murmansk2           799.594
        32   01 Jun 2027 10:48:10.275   01 Jun 2027 10:49:09.502            59.227            RioGallegos          1850.844
        33   01 Jun 2027 10:50:04.299   01 Jun 2027 10:50:26.191            21.892            RioGallegos           684.125
        34   01 Jun 2027 11:25:10.057   01 Jun 2027 11:26:52.481           102.424                  Delhi          3200.750
        35   01 Jun 2027 11:40:21.329   01 Jun 2027 11:43:29.719           188.390                Novosib          5887.187
        36   01 Jun 2027 11:43:51.810   01 Jun 2027 11:44:30.550            38.740                 Moscow          1210.625
        37   01 Jun 2027 11:45:28.908   01 Jun 2027 11:45:48.722            19.814                 Moscow           619.187
        38   01 Jun 2027 13:09:12.012   01 Jun 2027 13:13:26.778           254.766                 Moscow          7961.437
        39   01 Jun 2027 13:14:03.383   01 Jun 2027 13:14:30.937            27.554              Murmansk2           861.063
        40   01 Jun 2027 13:14:41.875   01 Jun 2027 13:16:42.918           121.043              Murmansk1          3782.594
        41   01 Jun 2027 13:18:08.500   01 Jun 2027 13:18:19.052            10.552              Murmansk2           329.750
        42   01 Jun 2027 13:18:24.760   01 Jun 2027 13:19:10.277            45.517                Norilsk          1422.406
        43   01 Jun 2027 13:20:18.747   01 Jun 2027 13:20:42.462            23.715                Norilsk           741.094
        44   01 Jun 2027 14:23:22.209   01 Jun 2027 14:28:00.832           278.623               CapeTown          8706.969
        45   01 Jun 2027 14:47:10.140   01 Jun 2027 14:47:25.907            15.767                 Moscow           492.719
        46   01 Jun 2027 14:50:04.481   01 Jun 2027 14:50:53.843            49.362              Murmansk1          1542.563
        47   01 Jun 2027 14:51:57.594   01 Jun 2027 14:54:09.294           131.700              Murmansk1          4115.625
        48   01 Jun 2027 15:03:36.200   01 Jun 2027 15:05:59.320           143.120                Anadyr1          4472.500
        49   01 Jun 2027 15:11:03.570   01 Jun 2027 15:12:29.390            85.820                Anadyr1          2681.875
        50   01 Jun 2027 15:58:49.683   01 Jun 2027 16:00:07.862            78.179               CapeTown          2443.094
        51   01 Jun 2027 16:29:52.386   01 Jun 2027 16:30:59.714            67.328              Murmansk1          2104.000
        52   01 Jun 2027 16:31:47.187   01 Jun 2027 16:32:00.417            13.230              Murmansk2           413.438
        53   01 Jun 2027 16:33:25.848   01 Jun 2027 16:33:52.797            26.949              Murmansk2           842.156
        54   01 Jun 2027 16:33:52.797   01 Jun 2027 16:35:13.998            81.201              Murmansk1          2537.531
        55   01 Jun 2027 16:39:15.125   01 Jun 2027 16:39:57.073            41.948                Anadyr1          1310.875
        56   01 Jun 2027 16:40:16.252   01 Jun 2027 16:41:03.766            47.514                Anadyr2          1484.812
        57   01 Jun 2027 16:42:21.232   01 Jun 2027 16:45:16.137           174.905               Magadan2          5465.781
        58   01 Jun 2027 16:47:06.356   01 Jun 2027 16:47:12.877             6.521               Magadan1           203.781
        59   01 Jun 2027 16:48:28.177   01 Jun 2027 16:48:34.315             6.138               Magadan1           191.812
        60   01 Jun 2027 16:50:41.744   01 Jun 2027 16:51:19.986            38.242               Magadan1          1195.062
        61   01 Jun 2027 18:15:10.452   01 Jun 2027 18:19:09.036           238.584                Anadyr2          7455.750
        62   01 Jun 2027 18:19:14.058   01 Jun 2027 18:21:03.226           109.168               Magadan2          3411.500
        63   01 Jun 2027 18:21:03.226   01 Jun 2027 18:22:12.347            69.121               Magadan1          2160.031
        64   01 Jun 2027 18:25:16.678   01 Jun 2027 18:25:32.666            15.988               Magadan2           499.625
        65   01 Jun 2027 19:11:19.363   01 Jun 2027 19:13:57.871           158.508            RioGallegos          4953.375
        66   01 Jun 2027 19:15:23.722   01 Jun 2027 19:15:54.614            30.892            RioGallegos           965.375
        67   01 Jun 2027 19:50:58.989   01 Jun 2027 19:51:25.945            26.956                Anadyr2           842.375
        68   01 Jun 2027 19:52:06.403   01 Jun 2027 19:52:43.214            36.811                Anadyr2          1150.344
        69   01 Jun 2027 19:53:09.801   01 Jun 2027 19:57:01.650           231.849                Norilsk          7245.281
        70   01 Jun 2027 19:58:03.359   01 Jun 2027 19:58:41.779            38.420                Irkutsk          1200.625
        71   01 Jun 2027 19:58:47.784   01 Jun 2027 19:59:09.570            21.786                Irkutsk           680.813
        72   01 Jun 2027 19:59:21.921   01 Jun 2027 19:59:30.476             8.555                Norilsk           267.344
        73   01 Jun 2027 19:59:58.140   01 Jun 2027 20:01:02.587            64.447                Norilsk          2013.969
        74   01 Jun 2027 20:02:31.848   01 Jun 2027 20:03:26.182            54.334                Irkutsk          1697.938
        75   01 Jun 2027 20:03:49.210   01 Jun 2027 20:04:20.606            31.396                Irkutsk           981.125
        76   01 Jun 2027 20:12:57.153   01 Jun 2027 20:15:19.970           142.817                Sumatra          4463.031
        77   01 Jun 2027 20:18:47.131   01 Jun 2027 20:19:42.909            55.778                Sumatra          1743.062
        78   01 Jun 2027 21:28:55.123   01 Jun 2027 21:29:16.663            21.540                Norilsk           673.125
        79   01 Jun 2027 21:29:30.295   01 Jun 2027 21:29:53.377            23.082               Magadan1           721.312
        80   01 Jun 2027 21:30:13.852   01 Jun 2027 21:30:18.455             4.603                Norilsk           143.844
        81   01 Jun 2027 21:30:36.621   01 Jun 2027 21:30:46.596             9.975                Norilsk           311.719
        82   01 Jun 2027 21:32:49.574   01 Jun 2027 21:34:22.798            93.224                Irkutsk          2913.250
        83   01 Jun 2027 21:34:32.467   01 Jun 2027 21:35:06.241            33.774                Novosib          1055.437
        84   01 Jun 2027 21:39:44.106   01 Jun 2027 21:41:09.396            85.290                Novosib          2665.312
        85   01 Jun 2027 21:43:22.942   01 Jun 2027 21:45:15.288           112.346                  Delhi          3510.812
        86   01 Jun 2027 23:01:10.305   01 Jun 2027 23:01:19.783             9.478                Anadyr1           296.188
        87   01 Jun 2027 23:01:48.503   01 Jun 2027 23:02:28.997            40.494                Anadyr1          1265.437
        88   01 Jun 2027 23:04:42.429   01 Jun 2027 23:05:28.254            45.825                Anadyr1          1432.031
        89   01 Jun 2027 23:05:49.788   01 Jun 2027 23:05:59.698             9.910                Norilsk           309.688
        90   01 Jun 2027 23:06:01.111   01 Jun 2027 23:06:30.330            29.219               Magadan2           913.094
        91   01 Jun 2027 23:06:47.151   01 Jun 2027 23:07:01.464            14.313               Magadan1           447.281
        92   01 Jun 2027 23:07:10.736   01 Jun 2027 23:08:20.214            69.478               Magadan1          2171.188
        93   01 Jun 2027 23:08:30.461   01 Jun 2027 23:09:50.341            79.880              Murmansk2          2496.250
        94   01 Jun 2027 23:10:14.198   01 Jun 2027 23:10:19.474             5.276                Novosib           164.875
        95   01 Jun 2027 23:10:34.549   01 Jun 2027 23:13:15.840           161.291              Murmansk1          5040.344
        96   01 Jun 2027 23:24:48.242   01 Jun 2027 23:25:07.315            19.073                  Delhi           596.031
        97   01 Jun 2027 23:28:36.239   01 Jun 2027 23:28:50.134            13.895                  Delhi           434.219
        98   02 Jun 2027 00:04:38.859   02 Jun 2027 00:04:53.140            14.281            RioGallegos           446.281
        99   02 Jun 2027 00:33:38.606   02 Jun 2027 00:33:59.193            20.587                Anadyr1           643.344
       100   02 Jun 2027 00:34:16.956   02 Jun 2027 00:35:08.298            51.342                Anadyr2          1604.437
       101   02 Jun 2027 00:35:39.435   02 Jun 2027 00:36:06.273            26.838                Anadyr1           838.687
       102   02 Jun 2027 00:36:06.273   02 Jun 2027 00:36:14.773             8.500                Anadyr2           265.625
       103   02 Jun 2027 00:36:26.007   02 Jun 2027 00:36:41.273            15.266                Anadyr2           477.062
       104   02 Jun 2027 00:38:54.281   02 Jun 2027 00:39:26.574            32.293                Anadyr1          1009.156
       105   02 Jun 2027 00:39:39.422   02 Jun 2027 00:41:30.111           110.689               Magadan1          3459.031
       106   02 Jun 2027 00:43:05.714   02 Jun 2027 00:45:44.908           159.194              Murmansk1          4974.812
       107   02 Jun 2027 00:46:52.401   02 Jun 2027 00:47:42.757            50.356                 Moscow          1573.625
       108   02 Jun 2027 00:48:08.681   02 Jun 2027 00:48:58.105            49.424                 Moscow          1544.500
       109   02 Jun 2027 00:52:52.086   02 Jun 2027 00:52:56.459             4.373                 Moscow           136.656
       110   02 Jun 2027 00:53:24.101   02 Jun 2027 00:54:24.663            60.562                 Moscow          1892.562
       111   02 Jun 2027 01:14:17.251   02 Jun 2027 01:15:15.090            57.839               CapeTown          1807.469
       112   02 Jun 2027 01:21:23.816   02 Jun 2027 01:21:47.796            23.980               CapeTown           749.375
       113   02 Jun 2027 02:07:29.802   02 Jun 2027 02:08:28.420            58.618                Anadyr1          1831.813
       114   02 Jun 2027 02:10:02.932   02 Jun 2027 02:10:16.176            13.244                Anadyr1           413.875
       115   02 Jun 2027 02:11:18.557   02 Jun 2027 02:12:37.034            78.477               Magadan1          2452.406
       116   02 Jun 2027 02:12:37.034   02 Jun 2027 02:12:55.766            18.732               Magadan2           585.375
       117   02 Jun 2027 02:16:26.500   02 Jun 2027 02:16:33.405             6.905                Norilsk           215.781
       118   02 Jun 2027 02:17:35.088   02 Jun 2027 02:17:51.115            16.027               Magadan2           500.844
       119   02 Jun 2027 02:18:30.887   02 Jun 2027 02:18:36.309             5.422                Norilsk           169.438
       120   02 Jun 2027 02:19:01.005   02 Jun 2027 02:20:08.115            67.110              Murmansk2          2097.187
       121   02 Jun 2027 02:20:42.389   02 Jun 2027 02:20:50.249             7.860              Murmansk2           245.625
       122   02 Jun 2027 02:20:52.595   02 Jun 2027 02:21:43.254            50.659              Murmansk1          1583.094
       123   02 Jun 2027 02:22:46.062   02 Jun 2027 02:23:02.295            16.233              Murmansk1           507.281
       124   02 Jun 2027 02:25:32.256   02 Jun 2027 02:25:54.247            21.991                 Moscow           687.219
       125   02 Jun 2027 02:27:14.309   02 Jun 2027 02:27:56.965            42.656                 Moscow          1333.000
       126   02 Jun 2027 02:34:23.524   02 Jun 2027 02:34:44.198            20.674                 Moscow           646.063
       127   02 Jun 2027 02:34:50.183   02 Jun 2027 02:35:08.305            18.122                 Moscow           566.312
       128   02 Jun 2027 02:51:26.147   02 Jun 2027 02:51:53.884            27.737               CapeTown           866.781
       129   02 Jun 2027 02:53:05.532   02 Jun 2027 02:54:59.578           114.046               CapeTown          3563.937
       130   02 Jun 2027 03:49:12.120   02 Jun 2027 03:52:14.606           182.486                Anadyr2          5702.687
       131   02 Jun 2027 03:52:49.389   02 Jun 2027 03:53:56.443            67.054               Magadan1          2095.437
       132   02 Jun 2027 03:54:12.343   02 Jun 2027 03:55:46.998            94.655                Anadyr1          2957.969
       133   02 Jun 2027 05:28:05.021   02 Jun 2027 05:28:47.947            42.926               Magadan2          1341.437
       134   02 Jun 2027 05:30:08.184   02 Jun 2027 05:30:23.567            15.383                Anadyr2           480.719
       135   02 Jun 2027 05:30:50.397   02 Jun 2027 05:31:32.355            41.958                Anadyr2          1311.188
       136   02 Jun 2027 07:02:45.751   02 Jun 2027 07:05:47.838           182.087                Anadyr1          5690.219
       137   02 Jun 2027 07:06:13.464   02 Jun 2027 07:07:01.710            48.246               Magadan2          1507.687
       138   02 Jun 2027 07:07:13.267   02 Jun 2027 07:07:46.540            33.273                Novosib          1039.781
       139   02 Jun 2027 08:27:36.709   02 Jun 2027 08:27:55.285            18.576                Sumatra           580.500
       140   02 Jun 2027 08:40:22.529   02 Jun 2027 08:40:52.673            30.144                Norilsk           942.000
       141   02 Jun 2027 08:40:53.653   02 Jun 2027 08:43:07.043           133.390                Irkutsk          4168.438
       142   02 Jun 2027 09:21:51.957   02 Jun 2027 09:22:19.667            27.710            RioGallegos           865.937
       143   02 Jun 2027 09:25:01.850   02 Jun 2027 09:25:22.324            20.474            RioGallegos           639.813
       144   02 Jun 2027 09:27:29.043   02 Jun 2027 09:28:01.921            32.878            RioGallegos          1027.438
       145   02 Jun 2027 09:52:49.796   02 Jun 2027 09:54:18.653            88.857                Sumatra          2776.781
       146   02 Jun 2027 10:13:42.137   02 Jun 2027 10:13:50.769             8.632                Irkutsk           269.750
       147   02 Jun 2027 10:16:25.366   02 Jun 2027 10:16:35.702            10.336                Novosib           323.000
       148   02 Jun 2027 10:16:36.438   02 Jun 2027 10:16:40.964             4.526                Novosib           141.438
       149   02 Jun 2027 10:16:47.940   02 Jun 2027 10:17:20.298            32.358                Novosib          1011.188
       150   02 Jun 2027 10:17:45.820   02 Jun 2027 10:17:52.402             6.582                Irkutsk           205.688
       151   02 Jun 2027 10:17:59.268   02 Jun 2027 10:18:22.909            23.641                Irkutsk           738.781
       152   02 Jun 2027 10:18:27.486   02 Jun 2027 10:18:41.155            13.669                Norilsk           427.156
       153   02 Jun 2027 11:37:31.445   02 Jun 2027 11:41:34.864           243.419                  Delhi          7606.844
       154   02 Jun 2027 11:50:33.928   02 Jun 2027 11:50:38.769             4.841                Norilsk           151.281
       155   02 Jun 2027 11:50:39.614   02 Jun 2027 11:50:49.063             9.449                Novosib           295.281
       156   02 Jun 2027 11:51:21.919   02 Jun 2027 11:51:28.018             6.099                Novosib           190.594
       157   02 Jun 2027 11:51:30.240   02 Jun 2027 11:51:32.119             1.879              Murmansk2            58.719
       158   02 Jun 2027 11:51:44.597   02 Jun 2027 11:52:16.545            31.948                Novosib           998.375
       159   02 Jun 2027 11:52:37.458   02 Jun 2027 11:53:00.087            22.629                Norilsk           707.156
       160   02 Jun 2027 11:53:22.741   02 Jun 2027 11:54:31.723            68.982                Novosib          2155.687
       161   02 Jun 2027 13:21:44.679   02 Jun 2027 13:22:28.290            43.611                 Moscow          1362.844
       162   02 Jun 2027 13:23:13.874   02 Jun 2027 13:25:39.856           145.982                 Moscow          4561.938
       163   02 Jun 2027 13:26:04.292   02 Jun 2027 13:26:31.567            27.275              Murmansk1           852.344
       164   02 Jun 2027 13:26:48.183   02 Jun 2027 13:27:27.705            39.522              Murmansk1          1235.063
       165   02 Jun 2027 13:28:01.500   02 Jun 2027 13:28:10.710             9.210              Murmansk1           287.812
       166   02 Jun 2027 13:29:01.950   02 Jun 2027 13:29:39.657            37.707              Murmansk2          1178.344
       167   02 Jun 2027 13:30:29.765   02 Jun 2027 13:32:20.944           111.179                Norilsk          3474.344
       168   02 Jun 2027 13:34:20.019   02 Jun 2027 13:34:36.617            16.598                Norilsk           518.688
       169   02 Jun 2027 13:42:00.883   02 Jun 2027 13:42:18.631            17.748                Anadyr1           554.625
       170   02 Jun 2027 13:42:56.284   02 Jun 2027 13:43:55.550            59.266                Anadyr2          1852.063
       171   02 Jun 2027 14:35:51.494   02 Jun 2027 14:36:24.065            32.571               CapeTown          1017.844
       172   02 Jun 2027 14:37:41.270   02 Jun 2027 14:38:45.516            64.246               CapeTown          2007.687
       173   02 Jun 2027 14:44:34.646   02 Jun 2027 14:45:54.631            79.985               CapeTown          2499.531
       174   02 Jun 2027 15:02:25.750   02 Jun 2027 15:02:55.808            30.058              Murmansk1           939.312
       175   02 Jun 2027 15:08:52.112   02 Jun 2027 15:09:40.297            48.185              Murmansk2          1505.781
       176   02 Jun 2027 15:15:33.120   02 Jun 2027 15:18:00.195           147.075                Anadyr1          4596.094
       177   02 Jun 2027 15:21:37.706   02 Jun 2027 15:22:20.029            42.323                Anadyr1          1322.594
       178   02 Jun 2027 16:18:23.311   02 Jun 2027 16:18:50.039            26.728               CapeTown           835.250
       179   02 Jun 2027 16:22:22.113   02 Jun 2027 16:22:26.852             4.739               CapeTown           148.094
       180   02 Jun 2027 16:42:38.466   02 Jun 2027 16:45:23.216           164.750              Murmansk1          5148.437
       181   02 Jun 2027 16:51:16.148   02 Jun 2027 16:52:58.004           101.856                Anadyr1          3183.000
       182   02 Jun 2027 16:52:58.004   02 Jun 2027 16:53:09.858            11.854                Anadyr2           370.437
       183   02 Jun 2027 16:54:10.539   02 Jun 2027 16:56:49.332           158.793               Magadan2          4962.281
       184   02 Jun 2027 17:03:11.240   02 Jun 2027 17:03:48.984            37.744               Magadan2          1179.500
       185   02 Jun 2027 18:27:11.703   02 Jun 2027 18:29:02.402           110.699                Anadyr2          3459.344
       186   02 Jun 2027 18:29:29.342   02 Jun 2027 18:32:35.302           185.960               Magadan1          5811.250
       187   02 Jun 2027 18:34:50.443   02 Jun 2027 18:35:01.185            10.742               Magadan1           335.688
       188   02 Jun 2027 18:35:41.034   02 Jun 2027 18:35:46.222             5.188               Magadan2           162.125
       189   02 Jun 2027 18:36:31.275   02 Jun 2027 18:36:46.676            15.401               Magadan2           481.281
       190   02 Jun 2027 18:38:35.022   02 Jun 2027 18:40:11.208            96.186               Magadan1          3005.813
       191   02 Jun 2027 19:22:40.847   02 Jun 2027 19:25:42.870           182.023            RioGallegos          5688.219
       192   02 Jun 2027 19:29:19.068   02 Jun 2027 19:29:38.536            19.468            RioGallegos           608.375
       193   02 Jun 2027 20:05:07.478   02 Jun 2027 20:07:40.811           153.333                Norilsk          4791.656
       194   02 Jun 2027 20:08:06.358   02 Jun 2027 20:09:01.587            55.229                Norilsk          1725.906
       195   02 Jun 2027 20:10:39.010   02 Jun 2027 20:11:33.710            54.700                Irkutsk          1709.375
       196   02 Jun 2027 20:12:44.093   02 Jun 2027 20:13:14.682            30.589                Irkutsk           955.906
       197   02 Jun 2027 20:19:03.469   02 Jun 2027 20:19:10.400             6.931                Irkutsk           216.594
       198   02 Jun 2027 20:24:12.818   02 Jun 2027 20:25:36.747            83.929                Sumatra          2622.781
       199   02 Jun 2027 20:27:02.157   02 Jun 2027 20:28:13.411            71.254                Sumatra          2226.688
       200   02 Jun 2027 20:29:33.548   02 Jun 2027 20:31:08.250            94.702                Sumatra          2959.437
       201   02 Jun 2027 21:40:56.821   02 Jun 2027 21:41:44.002            47.181                Norilsk          1474.406
       202   02 Jun 2027 21:44:49.444   02 Jun 2027 21:46:14.153            84.709                Irkutsk          2647.156
       203   02 Jun 2027 21:46:14.711   02 Jun 2027 21:48:23.365           128.654                Novosib          4020.437
       204   02 Jun 2027 21:54:20.267   02 Jun 2027 21:56:39.066           138.799                  Delhi          4337.469
       205   02 Jun 2027 23:16:43.483   02 Jun 2027 23:16:59.923            16.440                Anadyr2           513.750
       206   02 Jun 2027 23:17:00.021   02 Jun 2027 23:17:20.919            20.898                Norilsk           653.063
       207   02 Jun 2027 23:17:26.266   02 Jun 2027 23:18:40.249            73.983               Magadan2          2311.969
       208   02 Jun 2027 23:19:40.234   02 Jun 2027 23:21:50.644           130.410              Murmansk1          4075.313
       209   02 Jun 2027 23:23:00.451   02 Jun 2027 23:23:43.160            42.709              Murmansk2          1334.656
       210   02 Jun 2027 23:25:17.614   02 Jun 2027 23:26:07.261            49.647              Murmansk2          1551.469
       211   02 Jun 2027 23:31:15.422   02 Jun 2027 23:31:23.599             8.177                  Delhi           255.531
       212   02 Jun 2027 23:32:27.943   02 Jun 2027 23:33:16.744            48.801                  Delhi          1525.031
       213   03 Jun 2027 00:15:17.971   03 Jun 2027 00:15:28.349            10.378            RioGallegos           324.312
       214   03 Jun 2027 00:16:05.352   03 Jun 2027 00:16:06.712             1.360            RioGallegos            42.500
       215   03 Jun 2027 00:45:20.929   03 Jun 2027 00:46:32.355            71.426                Anadyr1          2232.063
       216   03 Jun 2027 00:47:19.917   03 Jun 2027 00:48:01.755            41.838                Anadyr2          1307.438
       217   03 Jun 2027 00:50:56.462   03 Jun 2027 00:51:09.348            12.886                Anadyr2           402.687
       218   03 Jun 2027 00:51:11.561   03 Jun 2027 00:52:47.711            96.150               Magadan1          3004.687
       219   03 Jun 2027 00:53:16.183   03 Jun 2027 00:53:43.580            27.397               Magadan1           856.156
       220   03 Jun 2027 00:55:06.246   03 Jun 2027 00:57:51.200           164.954              Murmansk1          5154.812
       221   03 Jun 2027 00:58:44.582   03 Jun 2027 00:58:57.049            12.467                 Moscow           389.594
       222   03 Jun 2027 00:59:54.545   03 Jun 2027 01:00:04.165             9.620                 Moscow           300.625
       223   03 Jun 2027 01:04:17.986   03 Jun 2027 01:04:43.552            25.566                 Moscow           798.937
       224   03 Jun 2027 01:05:00.580   03 Jun 2027 01:05:19.157            18.577                 Moscow           580.531
       225   03 Jun 2027 01:09:18.918   03 Jun 2027 01:09:36.117            17.199                 Moscow           537.469
       226   03 Jun 2027 01:24:11.971   03 Jun 2027 01:24:54.398            42.427               CapeTown          1325.844
       227   03 Jun 2027 01:26:10.482   03 Jun 2027 01:26:52.833            42.351               CapeTown          1323.469
       228   03 Jun 2027 01:31:55.823   03 Jun 2027 01:33:19.069            83.246               CapeTown          2601.437
       229   03 Jun 2027 02:19:37.811   03 Jun 2027 02:20:27.339            49.528                Anadyr1          1547.750
       230   03 Jun 2027 02:22:49.344   03 Jun 2027 02:23:02.902            13.558               Magadan2           423.688
       231   03 Jun 2027 02:23:15.900   03 Jun 2027 02:23:44.635            28.735               Magadan1           897.969
       232   03 Jun 2027 02:24:59.290   03 Jun 2027 02:25:45.028            45.738               Magadan1          1429.313
       233   03 Jun 2027 02:31:02.771   03 Jun 2027 02:32:41.496            98.725              Murmansk1          3085.156
       234   03 Jun 2027 02:32:41.496   03 Jun 2027 02:32:53.683            12.187              Murmansk2           380.844
       235   03 Jun 2027 02:33:46.867   03 Jun 2027 02:34:17.351            30.484                Novosib           952.625
       236   03 Jun 2027 02:37:15.708   03 Jun 2027 02:38:05.947            50.239                Novosib          1569.969
       237   03 Jun 2027 02:58:22.146   03 Jun 2027 02:58:45.130            22.984               CapeTown           718.250
       238   03 Jun 2027 03:02:49.555   03 Jun 2027 03:03:02.062            12.507               CapeTown           390.844
       239   03 Jun 2027 03:04:11.020   03 Jun 2027 03:04:55.378            44.358               CapeTown          1386.188
       240   03 Jun 2027 04:00:54.146   03 Jun 2027 04:03:35.751           161.605               Magadan1          5050.156
       241   03 Jun 2027 04:03:35.751   03 Jun 2027 04:04:33.759            58.008               Magadan2          1812.750
       242   03 Jun 2027 04:04:39.899   03 Jun 2027 04:05:51.437            71.538                Anadyr1          2235.562
       243   03 Jun 2027 04:06:12.046   03 Jun 2027 04:07:48.141            96.095                Anadyr1          3002.969
       244   03 Jun 2027 05:39:58.502   03 Jun 2027 05:40:30.002            31.500                Irkutsk           984.375
       245   03 Jun 2027 05:41:04.177   03 Jun 2027 05:41:08.400             4.223                Irkutsk           131.969
       246   03 Jun 2027 05:41:25.704   03 Jun 2027 05:43:19.168           113.464               Magadan1          3545.750
       247   03 Jun 2027 07:14:14.751   03 Jun 2027 07:15:16.332            61.581               Magadan1          1924.406
       248   03 Jun 2027 07:15:32.068   03 Jun 2027 07:15:44.129            12.061               Magadan2           376.906
       249   03 Jun 2027 07:16:12.479   03 Jun 2027 07:16:16.291             3.812               Magadan2           119.125
       250   03 Jun 2027 07:17:08.803   03 Jun 2027 07:17:39.591            30.788                Irkutsk           962.125
       251   03 Jun 2027 07:17:40.506   03 Jun 2027 07:18:08.363            27.857               Magadan2           870.531
       252   03 Jun 2027 07:18:27.488   03 Jun 2027 07:18:45.954            18.466               Magadan1           577.063
       253   03 Jun 2027 07:18:50.087   03 Jun 2027 07:18:56.571             6.484               Magadan2           202.625
       254   03 Jun 2027 07:19:05.612   03 Jun 2027 07:20:04.801            59.189              Murmansk2          1849.656
       255   03 Jun 2027 08:29:55.566   03 Jun 2027 08:30:42.738            47.172                Sumatra          1474.125
       256   03 Jun 2027 08:34:52.995   03 Jun 2027 08:35:40.809            47.814                Sumatra          1494.187
       257   03 Jun 2027 08:50:00.105   03 Jun 2027 08:50:30.476            30.371                Irkutsk           949.094
       258   03 Jun 2027 08:52:23.096   03 Jun 2027 08:52:25.563             2.467                Novosib            77.094
       259   03 Jun 2027 08:52:30.806   03 Jun 2027 08:53:54.771            83.965                Novosib          2623.906
       260   03 Jun 2027 08:54:02.925   03 Jun 2027 08:54:06.041             3.116                Novosib            97.375
       261   03 Jun 2027 08:54:20.151   03 Jun 2027 08:54:40.844            20.693                Irkutsk           646.656
       262   03 Jun 2027 08:58:32.955   03 Jun 2027 08:58:34.084             1.129              Murmansk1            35.281
       263   03 Jun 2027 08:59:19.610   03 Jun 2027 08:59:49.855            30.245              Murmansk1           945.156
       264   03 Jun 2027 09:30:51.987   03 Jun 2027 09:31:21.451            29.464            RioGallegos           920.750
       265   03 Jun 2027 09:34:44.408   03 Jun 2027 09:34:50.761             6.353            RioGallegos           198.531
       266   03 Jun 2027 09:35:47.091   03 Jun 2027 09:35:57.811            10.720            RioGallegos           335.000
       267   03 Jun 2027 10:05:07.019   03 Jun 2027 10:06:33.020            86.001                Sumatra          2687.531
       268   03 Jun 2027 10:15:53.142   03 Jun 2027 10:16:07.822            14.680                  Delhi           458.750
       269   03 Jun 2027 10:20:39.961   03 Jun 2027 10:21:09.219            29.258                  Delhi           914.312
       270   03 Jun 2027 10:28:08.691   03 Jun 2027 10:28:33.079            24.388                Novosib           762.125
       271   03 Jun 2027 10:28:42.598   03 Jun 2027 10:29:12.786            30.188                Novosib           943.375
       272   03 Jun 2027 10:29:21.160   03 Jun 2027 10:30:18.896            57.736                Norilsk          1804.250
       273   03 Jun 2027 10:30:29.332   03 Jun 2027 10:30:51.510            22.178                Norilsk           693.063
       274   03 Jun 2027 11:50:00.882   03 Jun 2027 11:53:14.730           193.848                  Delhi          6057.750
       275   03 Jun 2027 13:33:24.093   03 Jun 2027 13:33:59.023            34.930                 Moscow          1091.563
       276   03 Jun 2027 13:35:09.126   03 Jun 2027 13:36:01.594            52.468                 Moscow          1639.625
       277   03 Jun 2027 13:39:31.259   03 Jun 2027 13:40:00.184            28.925              Murmansk1           903.906
       278   03 Jun 2027 13:40:44.582   03 Jun 2027 13:41:20.363            35.781              Murmansk1          1118.156
       279   03 Jun 2027 13:42:06.889   03 Jun 2027 13:43:06.644            59.755                 Moscow          1867.344
       280   03 Jun 2027 13:43:33.833   03 Jun 2027 13:44:23.026            49.193                Norilsk          1537.281
       281   03 Jun 2027 13:44:50.233   03 Jun 2027 13:45:58.331            68.098                Norilsk          2128.062
       282   03 Jun 2027 13:53:03.811   03 Jun 2027 13:55:09.778           125.967                Anadyr2          3936.469
       283   03 Jun 2027 13:56:05.584   03 Jun 2027 13:57:31.437            85.853                Anadyr2          2682.906
       284   03 Jun 2027 15:15:20.941   03 Jun 2027 15:15:38.112            17.171              Murmansk1           536.594
       285   03 Jun 2027 15:17:51.207   03 Jun 2027 15:18:08.427            17.220              Murmansk2           538.125
       286   03 Jun 2027 15:18:36.195   03 Jun 2027 15:19:52.609            76.414              Murmansk1          2387.937
       287   03 Jun 2027 15:27:31.013   03 Jun 2027 15:29:07.835            96.822                Anadyr2          3025.687
       288   03 Jun 2027 15:32:19.809   03 Jun 2027 15:32:56.548            36.739                Anadyr2          1148.094
       289   03 Jun 2027 15:34:18.798   03 Jun 2027 15:34:30.814            12.016                Anadyr2           375.500
       290   03 Jun 2027 15:37:08.655   03 Jun 2027 15:37:39.256            30.601                Anadyr1           956.281
       291   03 Jun 2027 15:38:24.396   03 Jun 2027 15:38:42.753            18.357                Anadyr1           573.656
       292   03 Jun 2027 16:29:23.124   03 Jun 2027 16:30:11.347            48.223               CapeTown          1506.969
       293   03 Jun 2027 16:55:30.781   03 Jun 2027 16:57:19.133           108.352              Murmansk1          3386.000
       294   03 Jun 2027 16:57:56.744   03 Jun 2027 16:58:22.514            25.770              Murmansk2           805.313
       295   03 Jun 2027 16:59:32.167   03 Jun 2027 16:59:45.656            13.489              Murmansk1           421.531
       296   03 Jun 2027 17:03:17.344   03 Jun 2027 17:03:45.441            28.097                Anadyr2           878.031
       297   03 Jun 2027 17:03:57.180   03 Jun 2027 17:04:57.554            60.374                Anadyr1          1886.687
       298   03 Jun 2027 17:06:02.536   03 Jun 2027 17:08:13.867           131.331               Magadan2          4104.094
       299   03 Jun 2027 17:15:24.868   03 Jun 2027 17:15:49.465            24.597               Magadan1           768.656
       300   03 Jun 2027 18:39:12.816   03 Jun 2027 18:43:10.288           237.472                Anadyr2          7421.000
       301   03 Jun 2027 18:43:26.332   03 Jun 2027 18:45:13.542           107.210               Magadan2          3350.312
       302   03 Jun 2027 18:45:48.199   03 Jun 2027 18:45:52.865             4.666               Magadan1           145.813
       303   03 Jun 2027 18:47:13.930   03 Jun 2027 18:47:44.016            30.086               Magadan2           940.188
       304   03 Jun 2027 18:53:29.813   03 Jun 2027 18:54:22.765            52.952               Magadan1          1654.750
       305   03 Jun 2027 19:34:15.271   03 Jun 2027 19:35:41.590            86.319            RioGallegos          2697.469
       306   03 Jun 2027 19:36:23.689   03 Jun 2027 19:37:31.621            67.932            RioGallegos          2122.875
       307   03 Jun 2027 19:39:36.293   03 Jun 2027 19:40:47.141            70.848            RioGallegos          2214.000
       308   03 Jun 2027 20:17:06.226   03 Jun 2027 20:21:02.039           235.813                Norilsk          7369.156
       309   03 Jun 2027 20:21:33.640   03 Jun 2027 20:23:10.799            97.159                Irkutsk          3036.219
       310   03 Jun 2027 20:35:40.887   03 Jun 2027 20:38:50.877           189.990                Sumatra          5937.187
       311   03 Jun 2027 21:54:11.272   03 Jun 2027 21:54:38.222            26.950                Norilsk           842.188
       312   03 Jun 2027 21:55:42.390   03 Jun 2027 21:55:46.224             3.834                Norilsk           119.813
       313   03 Jun 2027 21:55:47.297   03 Jun 2027 21:56:06.862            19.565               Magadan2           611.406
       314   03 Jun 2027 21:56:35.113   03 Jun 2027 21:56:42.411             7.298               Magadan1           228.062
       315   03 Jun 2027 21:56:43.474   03 Jun 2027 21:56:59.519            16.045                Norilsk           501.406
       316   03 Jun 2027 21:57:12.491   03 Jun 2027 21:57:58.501            46.010                Novosib          1437.812
       317   03 Jun 2027 21:58:08.735   03 Jun 2027 21:58:25.803            17.068                Novosib           533.375
       318   03 Jun 2027 21:58:39.287   03 Jun 2027 21:58:43.634             4.347                Novosib           135.844
       319   03 Jun 2027 21:58:47.209   03 Jun 2027 22:00:01.668            74.459                Novosib          2326.844
       320   03 Jun 2027 22:05:40.014   03 Jun 2027 22:07:23.404           103.390                  Delhi          3230.938
       321   03 Jun 2027 22:08:11.077   03 Jun 2027 22:08:36.159            25.082                  Delhi           783.812
       322   03 Jun 2027 22:10:41.220   03 Jun 2027 22:12:15.408            94.188                  Delhi          2943.375
       323   03 Jun 2027 23:28:32.501   03 Jun 2027 23:28:44.664            12.163                Anadyr2           380.094
       324   03 Jun 2027 23:28:58.666   03 Jun 2027 23:29:01.711             3.045                Norilsk            95.156
       325   03 Jun 2027 23:29:18.108   03 Jun 2027 23:29:27.462             9.354                Anadyr2           292.312
       326   03 Jun 2027 23:29:31.565   03 Jun 2027 23:30:19.689            48.124               Magadan2          1503.875
       327   03 Jun 2027 23:30:31.110   03 Jun 2027 23:31:29.195            58.085               Magadan2          1815.156
       328   03 Jun 2027 23:31:32.797   03 Jun 2027 23:33:51.322           138.525              Murmansk2          4328.906
       329   03 Jun 2027 23:34:27.660   03 Jun 2027 23:35:18.761            51.101              Murmansk1          1596.906
       330   03 Jun 2027 23:37:18.333   03 Jun 2027 23:37:31.611            13.278              Murmansk2           414.938
       331   03 Jun 2027 23:47:30.004   03 Jun 2027 23:48:12.356            42.352                  Delhi          1323.500
       332   04 Jun 2027 00:27:02.107   04 Jun 2027 00:27:03.508             1.401            RioGallegos            43.781
       333   04 Jun 2027 00:57:03.989   04 Jun 2027 00:58:30.957            86.968                Anadyr2          2717.750
       334   04 Jun 2027 00:59:13.977   04 Jun 2027 00:59:39.942            25.965                Anadyr2           811.406
       335   04 Jun 2027 01:00:08.902   04 Jun 2027 01:00:18.668             9.766                Anadyr1           305.187
       336   04 Jun 2027 01:02:41.555   04 Jun 2027 01:04:44.179           122.624               Magadan1          3832.000
       337   04 Jun 2027 01:07:07.123   04 Jun 2027 01:09:38.534           151.411              Murmansk1          4731.594
       338   04 Jun 2027 01:10:38.746   04 Jun 2027 01:11:13.526            34.780                 Moscow          1086.875
       339   04 Jun 2027 01:13:16.831   04 Jun 2027 01:13:20.441             3.610                 Moscow           112.812
       340   04 Jun 2027 01:14:24.572   04 Jun 2027 01:14:25.776             1.204                 Moscow            37.625
       341   04 Jun 2027 01:16:04.241   04 Jun 2027 01:16:17.633            13.392                 Moscow           418.500
       342   04 Jun 2027 01:17:03.876   04 Jun 2027 01:17:15.930            12.054                 Moscow           376.688
       343   04 Jun 2027 01:19:43.657   04 Jun 2027 01:20:09.726            26.069                 Moscow           814.656
       344   04 Jun 2027 01:22:07.312   04 Jun 2027 01:22:22.741            15.429                 Moscow           482.156
       345   04 Jun 2027 01:35:38.390   04 Jun 2027 01:35:55.447            17.057               CapeTown           533.031
       346   04 Jun 2027 01:36:42.191   04 Jun 2027 01:37:03.141            20.950               CapeTown           654.687
       347   04 Jun 2027 01:40:00.582   04 Jun 2027 01:41:16.110            75.528               CapeTown          2360.250
       348   04 Jun 2027 02:31:14.235   04 Jun 2027 02:32:26.760            72.525                Anadyr2          2266.406
       349   04 Jun 2027 02:34:21.392   04 Jun 2027 02:35:46.328            84.936               Magadan2          2654.250
       350   04 Jun 2027 02:40:29.085   04 Jun 2027 02:40:58.445            29.360                Norilsk           917.500
       351   04 Jun 2027 02:42:28.462   04 Jun 2027 02:42:35.146             6.684                Norilsk           208.875
       352   04 Jun 2027 02:43:04.525   04 Jun 2027 02:43:12.825             8.300              Murmansk1           259.375
       353   04 Jun 2027 02:43:15.947   04 Jun 2027 02:44:40.177            84.230              Murmansk2          2632.187
       354   04 Jun 2027 02:44:53.322   04 Jun 2027 02:45:17.667            24.345              Murmansk2           760.781
       355   04 Jun 2027 02:46:05.164   04 Jun 2027 02:46:51.853            46.689                Novosib          1459.031
       356   04 Jun 2027 02:54:53.176   04 Jun 2027 02:55:16.503            23.327                 Moscow           728.969
       357   04 Jun 2027 02:57:24.073   04 Jun 2027 02:58:47.701            83.628                 Moscow          2613.375
       358   04 Jun 2027 04:13:32.484   04 Jun 2027 04:16:47.553           195.069               Magadan1          6095.906
       359   04 Jun 2027 05:51:50.491   04 Jun 2027 05:53:28.295            97.804               Magadan1          3056.375
       360   04 Jun 2027 07:26:23.665   04 Jun 2027 07:27:13.275            49.610               Magadan1          1550.312
       361   04 Jun 2027 07:27:17.995   04 Jun 2027 07:27:41.450            23.455               Magadan2           732.969
       362   04 Jun 2027 07:27:41.450   04 Jun 2027 07:27:46.585             5.135               Magadan1           160.469
       363   04 Jun 2027 07:28:12.436   04 Jun 2027 07:29:23.890            71.454               Magadan2          2232.937
       364   04 Jun 2027 07:29:42.139   04 Jun 2027 07:30:11.368            29.229                Irkutsk           913.406
       365   04 Jun 2027 07:30:27.728   04 Jun 2027 07:30:37.003             9.275               Magadan1           289.844
       366   04 Jun 2027 07:30:40.303   04 Jun 2027 07:31:01.157            20.854                Irkutsk           651.688
       367   04 Jun 2027 07:31:07.651   04 Jun 2027 07:31:57.457            49.806              Murmansk2          1556.437
       368   04 Jun 2027 08:11:17.828   04 Jun 2027 08:11:42.331            24.503            RioGallegos           765.719
       369   04 Jun 2027 08:41:28.434   04 Jun 2027 08:42:19.274            50.840                Sumatra          1588.750
       370   04 Jun 2027 08:43:13.383   04 Jun 2027 08:44:07.462            54.079                Sumatra          1689.969
       371   04 Jun 2027 09:03:42.727   04 Jun 2027 09:03:58.490            15.763                Irkutsk           492.594
       372   04 Jun 2027 09:04:04.569   04 Jun 2027 09:04:35.960            31.391                Novosib           980.969
       373   04 Jun 2027 09:05:05.273   04 Jun 2027 09:05:11.817             6.544                Irkutsk           204.500
       374   04 Jun 2027 09:05:49.982   04 Jun 2027 09:05:53.185             3.203                Irkutsk           100.094
       375   04 Jun 2027 09:06:14.165   04 Jun 2027 09:06:14.325             0.160                Novosib             5.000
       376   04 Jun 2027 09:06:42.478   04 Jun 2027 09:06:58.989            16.511              Murmansk2           515.969
       377   04 Jun 2027 09:43:20.277   04 Jun 2027 09:43:49.805            29.528            RioGallegos           922.750
       378   04 Jun 2027 09:44:31.106   04 Jun 2027 09:45:07.397            36.291            RioGallegos          1134.094
       379   04 Jun 2027 10:17:32.227   04 Jun 2027 10:18:30.795            58.568                Sumatra          1830.250
       380   04 Jun 2027 10:25:08.376   04 Jun 2027 10:26:23.960            75.584                  Delhi          2362.000
       381   04 Jun 2027 10:40:40.006   04 Jun 2027 10:40:43.620             3.614                Novosib           112.938
       382   04 Jun 2027 10:41:14.752   04 Jun 2027 10:41:16.820             2.068                Norilsk            64.625
       383   04 Jun 2027 10:41:38.689   04 Jun 2027 10:41:42.452             3.763                Novosib           117.594
       384   04 Jun 2027 10:42:00.519   04 Jun 2027 10:42:32.120            31.601              Murmansk2           987.531
       385   04 Jun 2027 10:42:35.362   04 Jun 2027 10:42:36.032             0.670                Novosib            20.937
       386   04 Jun 2027 10:42:36.903   04 Jun 2027 10:42:47.109            10.206                Norilsk           318.937
       387   04 Jun 2027 12:02:40.697   04 Jun 2027 12:04:37.919           117.222                  Delhi          3663.188
       388   04 Jun 2027 12:05:49.985   04 Jun 2027 12:07:06.284            76.299                  Delhi          2384.344
       389   04 Jun 2027 12:12:30.648   04 Jun 2027 12:13:08.990            38.342                Novosib          1198.187
       390   04 Jun 2027 12:17:25.760   04 Jun 2027 12:18:28.656            62.896                Novosib          1965.500
       391   04 Jun 2027 13:45:34.879   04 Jun 2027 13:47:07.158            92.279                 Moscow          2883.719
       392   04 Jun 2027 13:49:04.852   04 Jun 2027 13:49:38.880            34.028              Murmansk1          1063.375
       393   04 Jun 2027 13:49:39.615   04 Jun 2027 13:49:59.826            20.211                 Moscow           631.594
       394   04 Jun 2027 13:50:25.326   04 Jun 2027 13:51:01.578            36.252                 Moscow          1132.875
       395   04 Jun 2027 13:52:51.970   04 Jun 2027 13:53:21.685            29.715              Murmansk1           928.594
       396   04 Jun 2027 13:55:12.941   04 Jun 2027 13:55:57.228            44.287              Murmansk2          1383.969
       397   04 Jun 2027 13:57:45.564   04 Jun 2027 13:57:56.679            11.115              Murmansk2           347.344
       398   04 Jun 2027 13:58:40.279   04 Jun 2027 13:58:54.930            14.651              Murmansk1           457.844
       399   04 Jun 2027 14:00:09.668   04 Jun 2027 14:00:16.686             7.018              Murmansk2           219.313
       400   04 Jun 2027 14:00:42.765   04 Jun 2027 14:01:40.907            58.142              Murmansk2          1816.938
       401   04 Jun 2027 14:04:37.664   04 Jun 2027 14:06:14.485            96.821                Anadyr2          3025.656
       402   04 Jun 2027 14:06:57.072   04 Jun 2027 14:07:49.667            52.595                Anadyr1          1643.594
       403   04 Jun 2027 15:06:16.635   04 Jun 2027 15:07:06.405            49.770               CapeTown          1555.313
       404   04 Jun 2027 15:27:15.332   04 Jun 2027 15:28:09.170            53.838              Murmansk2          1682.438
       405   04 Jun 2027 15:28:18.985   04 Jun 2027 15:28:52.017            33.032              Murmansk1          1032.250
       406   04 Jun 2027 15:31:54.590   04 Jun 2027 15:32:11.145            16.555              Murmansk1           517.344
       407   04 Jun 2027 15:33:59.628   04 Jun 2027 15:34:32.304            32.676              Murmansk1          1021.125
       408   04 Jun 2027 15:39:29.684   04 Jun 2027 15:41:37.962           128.278                Anadyr1          4008.688
       409   04 Jun 2027 15:45:14.605   04 Jun 2027 15:45:39.268            24.663                Anadyr1           770.719
       410   04 Jun 2027 15:46:11.683   04 Jun 2027 15:46:13.232             1.549                Anadyr1            48.406
       411   04 Jun 2027 15:46:20.138   04 Jun 2027 15:48:12.031           111.893                Anadyr1          3496.656
       412   04 Jun 2027 17:08:33.143   04 Jun 2027 17:09:58.559            85.416              Murmansk1          2669.250
       413   04 Jun 2027 17:11:31.591   04 Jun 2027 17:11:50.371            18.780              Murmansk2           586.875
       414   04 Jun 2027 17:15:18.653   04 Jun 2027 17:16:56.660            98.007                Anadyr2          3062.719
       415   04 Jun 2027 17:17:56.540   04 Jun 2027 17:18:59.706            63.166               Magadan1          1973.938
       416   04 Jun 2027 17:20:10.758   04 Jun 2027 17:20:36.093            25.335               Magadan2           791.719
       417   04 Jun 2027 17:22:18.709   04 Jun 2027 17:23:19.496            60.787               Magadan2          1899.594
       418   04 Jun 2027 18:51:13.755   04 Jun 2027 18:53:05.452           111.697                Anadyr1          3490.531
       419   04 Jun 2027 18:53:30.580   04 Jun 2027 18:56:49.102           198.522               Magadan2          6203.813
       420   04 Jun 2027 19:00:03.896   04 Jun 2027 19:00:36.619            32.723               Magadan1          1022.594
       421   04 Jun 2027 19:03:40.243   04 Jun 2027 19:03:50.107             9.864               Magadan2           308.250
       422   04 Jun 2027 19:45:56.899   04 Jun 2027 19:49:23.175           206.276            RioGallegos          6446.125
       423   04 Jun 2027 19:49:47.636   04 Jun 2027 19:50:55.778            68.142            RioGallegos          2129.437
       424   04 Jun 2027 20:29:31.679   04 Jun 2027 20:31:09.229            97.550               Magadan2          3048.438
       425   04 Jun 2027 20:31:44.307   04 Jun 2027 20:33:02.893            78.586                Norilsk          2455.813
       426   04 Jun 2027 20:34:23.530   04 Jun 2027 20:35:35.417            71.887                Irkutsk          2246.469
       427   04 Jun 2027 20:36:49.100   04 Jun 2027 20:37:57.920            68.820                Novosib          2150.625
       428   04 Jun 2027 20:47:17.974   04 Jun 2027 20:49:25.095           127.121                Sumatra          3972.531
       429   04 Jun 2027 20:57:42.935   04 Jun 2027 20:58:25.944            43.009                Sumatra          1344.031
       430   04 Jun 2027 22:05:00.564   04 Jun 2027 22:05:32.761            32.197                Norilsk          1006.156
       431   04 Jun 2027 22:05:45.724   04 Jun 2027 22:06:09.304            23.580                Norilsk           736.875
       432   04 Jun 2027 22:07:45.681   04 Jun 2027 22:08:02.276            16.595               Magadan1           518.594
       433   04 Jun 2027 22:08:10.660   04 Jun 2027 22:08:29.270            18.610                Norilsk           581.563
       434   04 Jun 2027 22:08:51.882   04 Jun 2027 22:09:47.711            55.829                Irkutsk          1744.656
       435   04 Jun 2027 22:10:33.669   04 Jun 2027 22:12:50.264           136.595                Novosib          4268.594
       436   04 Jun 2027 22:17:11.628   04 Jun 2027 22:17:50.430            38.802                  Delhi          1212.562
       437   04 Jun 2027 22:18:01.587   04 Jun 2027 22:20:07.292           125.705                  Delhi          3928.281
       438   04 Jun 2027 23:37:14.731   04 Jun 2027 23:37:29.641            14.910                Anadyr1           465.937
       439   04 Jun 2027 23:41:00.250   04 Jun 2027 23:41:03.590             3.340                Norilsk           104.375
       440   04 Jun 2027 23:41:17.398   04 Jun 2027 23:42:57.153            99.755               Magadan2          3117.344
       441   04 Jun 2027 23:42:57.153   04 Jun 2027 23:43:17.399            20.246               Magadan1           632.688
       442   04 Jun 2027 23:43:27.811   04 Jun 2027 23:45:52.299           144.488              Murmansk2          4515.250
       443   04 Jun 2027 23:47:01.869   04 Jun 2027 23:47:45.121            43.252              Murmansk2          1351.625
       444   04 Jun 2027 23:49:00.194   04 Jun 2027 23:49:20.044            19.850                 Moscow           620.312
       445   04 Jun 2027 23:50:06.671   04 Jun 2027 23:51:29.979            83.308                 Moscow          2603.375
       446   05 Jun 2027 01:08:47.919   05 Jun 2027 01:08:51.016             3.097                Anadyr1            96.781
       447   05 Jun 2027 01:08:53.247   05 Jun 2027 01:09:00.042             6.795                Anadyr2           212.344
       448   05 Jun 2027 01:09:36.676   05 Jun 2027 01:09:54.446            17.770                Anadyr1           555.312
       449   05 Jun 2027 01:10:30.089   05 Jun 2027 01:11:05.815            35.726                Anadyr2          1116.438
       450   05 Jun 2027 01:11:31.643   05 Jun 2027 01:12:05.534            33.891                Anadyr2          1059.094
       451   05 Jun 2027 01:13:51.510   05 Jun 2027 01:14:00.581             9.071                Anadyr2           283.469
       452   05 Jun 2027 01:14:10.231   05 Jun 2027 01:16:10.845           120.614               Magadan2          3769.187
       453   05 Jun 2027 01:17:53.875   05 Jun 2027 01:17:58.310             4.435               Magadan2           138.594
       454   05 Jun 2027 01:19:07.717   05 Jun 2027 01:19:14.369             6.652               Magadan1           207.875
       455   05 Jun 2027 01:19:39.129   05 Jun 2027 01:21:01.906            82.777              Murmansk1          2586.781
       456   05 Jun 2027 01:21:04.893   05 Jun 2027 01:21:52.103            47.210                Novosib          1475.313
       457   05 Jun 2027 01:22:34.495   05 Jun 2027 01:24:08.480            93.985                 Moscow          2937.031
       458   05 Jun 2027 01:47:11.876   05 Jun 2027 01:47:57.540            45.664               CapeTown          1427.000
       459   05 Jun 2027 01:51:53.968   05 Jun 2027 01:52:01.436             7.468               CapeTown           233.375
       460   05 Jun 2027 01:52:48.548   05 Jun 2027 01:53:23.910            35.362               CapeTown          1105.062
       461   05 Jun 2027 02:43:08.864   05 Jun 2027 02:45:34.630           145.766                Anadyr1          4555.187
       462   05 Jun 2027 02:45:54.865   05 Jun 2027 02:46:59.881            65.016               Magadan2          2031.750
       463   05 Jun 2027 02:52:26.515   05 Jun 2027 02:52:32.672             6.157                Norilsk           192.406
       464   05 Jun 2027 02:54:05.433   05 Jun 2027 02:54:26.556            21.123                Norilsk           660.094
       465   05 Jun 2027 02:55:06.234   05 Jun 2027 02:56:19.468            73.234              Murmansk1          2288.562
       466   05 Jun 2027 02:56:32.308   05 Jun 2027 02:56:51.569            19.261              Murmansk1           601.906
       467   05 Jun 2027 02:58:19.367   05 Jun 2027 02:58:38.194            18.827                 Moscow           588.344
       468   05 Jun 2027 02:58:56.050   05 Jun 2027 02:59:08.046            11.996                 Moscow           374.875
       469   05 Jun 2027 02:59:12.814   05 Jun 2027 02:59:56.395            43.581                 Moscow          1361.906
       470   05 Jun 2027 03:01:31.147   05 Jun 2027 03:01:56.221            25.074              Murmansk1           783.563
       471   05 Jun 2027 03:02:41.597   05 Jun 2027 03:03:09.991            28.394              Murmansk1           887.313
       472   05 Jun 2027 03:03:09.991   05 Jun 2027 03:03:18.591             8.600              Murmansk2           268.750
       473   05 Jun 2027 03:03:58.024   05 Jun 2027 03:06:23.720           145.696              Murmansk1          4553.000
       474   05 Jun 2027 03:22:39.081   05 Jun 2027 03:24:04.410            85.329               CapeTown          2666.531
       475   05 Jun 2027 04:19:10.840   05 Jun 2027 04:19:20.032             9.192               Magadan1           287.250
       476   05 Jun 2027 04:19:22.480   05 Jun 2027 04:20:18.894            56.414                Anadyr1          1762.938
       477   05 Jun 2027 04:20:18.894   05 Jun 2027 04:20:45.805            26.911                Anadyr2           840.969
       478   05 Jun 2027 04:25:35.552   05 Jun 2027 04:26:41.637            66.085               Magadan1          2065.156
       479   05 Jun 2027 04:27:28.979   05 Jun 2027 04:31:05.098           216.119               Magadan1          6753.719
       480   05 Jun 2027 04:32:27.062   05 Jun 2027 04:32:53.213            26.151              Murmansk1           817.219
       481   05 Jun 2027 06:03:34.256   05 Jun 2027 06:04:09.344            35.088               Magadan1          1096.500
       482   05 Jun 2027 06:04:34.599   05 Jun 2027 06:06:12.913            98.314                Anadyr1          3072.312
