uniorb/output/strategy_4/Drop/Drop_KinoSat_110204.txt

KinoSat_110204
-------------------------
    Access    *     Start Time (UTCG)     *     Stop Time (UTCG)  *   Duration (s)        *       Station  *  Data (Mbytes)
         1   01 Jun 2027 04:13:18.886   01 Jun 2027 04:15:56.668           157.782                Irkutsk         19722.750
         2   01 Jun 2027 04:16:31.538   01 Jun 2027 04:16:51.538            20.000                Norilsk          2500.000
         3   01 Jun 2027 04:17:09.703   01 Jun 2027 04:18:11.548            61.845                Novosib          7730.625
         4   01 Jun 2027 04:53:48.107   01 Jun 2027 04:54:49.526            61.419            RioGallegos          7677.375
         5   01 Jun 2027 04:57:07.469   01 Jun 2027 04:57:50.993            43.524            RioGallegos          5440.500
         6   01 Jun 2027 05:28:04.396   01 Jun 2027 05:28:34.238            29.842                Sumatra          3730.250
         7   01 Jun 2027 05:30:24.224   01 Jun 2027 05:32:31.748           127.524                Sumatra         15940.500
         8   01 Jun 2027 05:38:52.851   01 Jun 2027 05:40:49.146           116.295                  Delhi         14536.875
         9   01 Jun 2027 05:52:22.153   01 Jun 2027 05:53:16.679            54.526                Irkutsk          6815.750
        10   01 Jun 2027 07:12:54.720   01 Jun 2027 07:14:23.783            89.063                  Delhi         11132.875
        11   01 Jun 2027 07:15:12.744   01 Jun 2027 07:15:56.921            44.177                  Delhi          5522.125
        12   01 Jun 2027 07:27:39.541   01 Jun 2027 07:27:52.501            12.960                 Moscow          1620.000
        13   01 Jun 2027 07:27:53.890   01 Jun 2027 07:28:12.219            18.329                 Moscow          2291.125
        14   01 Jun 2027 07:28:30.635   01 Jun 2027 07:29:28.214            57.579                 Moscow          7197.375
        15   01 Jun 2027 07:29:38.484   01 Jun 2027 07:30:30.507            52.023              Murmansk2          6502.875
        16   01 Jun 2027 10:10:03.943   01 Jun 2027 10:12:35.648           151.705               CapeTown         18963.125
        17   01 Jun 2027 10:50:34.747   01 Jun 2027 10:51:44.221            69.474                Anadyr2          8684.250
        18   01 Jun 2027 12:29:07.835   01 Jun 2027 12:33:36.409           268.574               Magadan2         33571.750
        19   01 Jun 2027 14:04:32.616   01 Jun 2027 14:06:14.427           101.811               Magadan1         12726.375
        20   01 Jun 2027 15:01:16.037   01 Jun 2027 15:02:59.556           103.519            RioGallegos         12939.875
        21   01 Jun 2027 15:44:40.095   01 Jun 2027 15:47:25.701           165.606                Irkutsk         20700.750
        22   01 Jun 2027 15:59:53.461   01 Jun 2027 16:02:39.023           165.562                Sumatra         20695.250
        23   01 Jun 2027 16:05:46.327   01 Jun 2027 16:06:19.831            33.504                Sumatra          4188.000
        24   01 Jun 2027 17:20:17.547   01 Jun 2027 17:21:34.148            76.601                Novosib          9575.125
        25   01 Jun 2027 17:28:53.093   01 Jun 2027 17:32:18.740           205.647                  Delhi         25705.875
        26   01 Jun 2027 17:34:54.008   01 Jun 2027 17:38:01.853           187.845                  Delhi          7944.626
        27   02 Jun 2027 05:42:03.865   02 Jun 2027 05:42:46.013            42.148                Sumatra          5268.500
        28   02 Jun 2027 05:43:26.068   02 Jun 2027 05:44:35.019            68.951                Sumatra          8618.875
        29   02 Jun 2027 05:48:14.370   02 Jun 2027 05:51:03.443           169.073                  Delhi         21134.125
        30   02 Jun 2027 06:05:47.975   02 Jun 2027 06:11:30.006           342.031              Murmansk1         42753.875
        31   02 Jun 2027 07:25:31.215   02 Jun 2027 07:29:03.511           212.296                  Delhi         26537.000
        32   02 Jun 2027 07:34:00.434   02 Jun 2027 07:36:53.718           173.284                Novosib         21660.500
        33   02 Jun 2027 07:42:01.132   02 Jun 2027 07:45:13.281           192.149                 Moscow         24018.625
        34   02 Jun 2027 07:45:20.435   02 Jun 2027 07:47:03.056           102.621                Norilsk         12827.625
        35   02 Jun 2027 07:47:12.469   02 Jun 2027 07:48:45.913            93.444              Murmansk1         11680.500
        36   02 Jun 2027 09:08:34.486   02 Jun 2027 09:13:08.866           274.380                 Moscow         34297.500
        37   02 Jun 2027 09:13:12.404   02 Jun 2027 09:16:38.354           205.950              Murmansk1         25743.750
        38   02 Jun 2027 09:20:23.087   02 Jun 2027 09:21:48.886            85.799              Murmansk1         10724.875
        39   02 Jun 2027 09:27:47.442   02 Jun 2027 09:31:06.393           198.951                Anadyr1         24868.875
        40   02 Jun 2027 11:02:33.136   02 Jun 2027 11:04:09.208            96.072                Anadyr1         12009.000
        41   02 Jun 2027 12:41:01.241   02 Jun 2027 12:43:41.907           160.666               Magadan2         20083.250
        42   02 Jun 2027 12:44:56.529   02 Jun 2027 12:46:37.945           101.416               Magadan1         12677.000
        43   02 Jun 2027 14:16:33.265   02 Jun 2027 14:18:40.902           127.637               Magadan2         15954.625
        44   02 Jun 2027 15:09:04.777   02 Jun 2027 15:13:10.651           245.874            RioGallegos         30734.250
        45   02 Jun 2027 16:00:30.708   02 Jun 2027 16:00:55.528            24.820                Irkutsk          3102.500
        46   02 Jun 2027 16:10:26.624   02 Jun 2027 16:14:38.866           252.242                Sumatra         31530.250
        47   02 Jun 2027 17:32:11.499   02 Jun 2027 17:34:00.756           109.257                Novosib         13657.125
        48   02 Jun 2027 17:40:21.841   02 Jun 2027 17:44:11.243           229.402                  Delhi         28675.250
        49   02 Jun 2027 19:14:33.941   02 Jun 2027 19:15:06.853            32.912                 Moscow          4114.000
        50   02 Jun 2027 20:44:04.562   02 Jun 2027 20:44:33.471            28.909              Murmansk1          3613.625
        51   02 Jun 2027 20:45:38.633   02 Jun 2027 20:47:22.255           103.622                 Moscow         12952.750
        52   02 Jun 2027 22:18:08.710   02 Jun 2027 22:19:03.552            54.842              Murmansk2          5609.250
        53   03 Jun 2027 04:16:16.950   03 Jun 2027 04:20:40.892           263.942                Sumatra         32992.750
        54   03 Jun 2027 04:41:51.092   03 Jun 2027 04:42:25.735            34.643                Norilsk          4330.375
        55   03 Jun 2027 04:42:44.380   03 Jun 2027 04:47:04.883           260.503              Murmansk2         32562.875
        56   03 Jun 2027 05:18:47.327   03 Jun 2027 05:20:18.163            90.836            RioGallegos         11354.500
        57   03 Jun 2027 05:20:50.039   03 Jun 2027 05:21:21.013            30.974            RioGallegos          3871.750
        58   03 Jun 2027 05:21:28.397   03 Jun 2027 05:22:08.358            39.961            RioGallegos          4995.125
        59   03 Jun 2027 05:52:59.405   03 Jun 2027 05:54:59.144           119.739                Sumatra         14967.375
        60   03 Jun 2027 05:56:22.485   03 Jun 2027 05:56:44.076            21.591                Sumatra          2698.875
        61   03 Jun 2027 06:00:05.411   03 Jun 2027 06:03:28.127           202.716                  Delhi         25339.500
        62   03 Jun 2027 06:07:06.165   03 Jun 2027 06:08:51.555           105.390                Novosib         13173.750
        63   03 Jun 2027 06:09:23.220   03 Jun 2027 06:10:09.434            46.214                Irkutsk          5776.750
        64   03 Jun 2027 06:10:16.447   03 Jun 2027 06:10:38.334            21.887                Novosib          2735.875
        65   03 Jun 2027 06:11:07.077   03 Jun 2027 06:11:42.332            35.255                Norilsk          4406.875
        66   03 Jun 2027 06:12:21.218   03 Jun 2027 06:13:20.477            59.259                 Moscow          7407.375
        67   03 Jun 2027 06:13:22.458   03 Jun 2027 06:13:24.766             2.308              Murmansk1           288.500
        68   03 Jun 2027 06:17:38.081   03 Jun 2027 06:19:00.055            81.974              Murmansk1         10246.750
        69   03 Jun 2027 06:19:00.055   03 Jun 2027 06:19:50.712            50.657              Murmansk2          6332.125
        70   03 Jun 2027 06:20:00.211   03 Jun 2027 06:20:52.902            52.691                 Moscow          6586.375
        71   03 Jun 2027 06:21:14.999   03 Jun 2027 06:22:45.617            90.618                Norilsk         11327.250
        72   03 Jun 2027 07:38:21.094   03 Jun 2027 07:41:23.117           182.023                  Delhi         22752.875
        73   03 Jun 2027 07:46:53.958   03 Jun 2027 07:48:07.180            73.222                Novosib          9152.750
        74   03 Jun 2027 07:48:08.109   03 Jun 2027 07:49:15.175            67.066                 Moscow          8383.250
        75   03 Jun 2027 07:53:27.482   03 Jun 2027 07:54:13.935            46.453              Murmansk2          5806.625
        76   03 Jun 2027 07:54:38.067   03 Jun 2027 08:00:47.077           369.010              Murmansk2         46126.250
        77   03 Jun 2027 09:01:24.293   03 Jun 2027 09:03:32.593           128.300               CapeTown         16037.500
        78   03 Jun 2027 09:20:47.650   03 Jun 2027 09:25:12.608           264.958                 Moscow         33119.750
        79   03 Jun 2027 09:25:13.530   03 Jun 2027 09:25:28.725            15.195              Murmansk2          1899.375
        80   03 Jun 2027 09:26:00.572   03 Jun 2027 09:26:26.583            26.011              Murmansk2          3251.375
        81   03 Jun 2027 09:27:29.245   03 Jun 2027 09:27:40.319            11.074              Murmansk1          1384.250
        82   03 Jun 2027 09:28:02.116   03 Jun 2027 09:29:18.777            76.661              Murmansk1          9582.625
        83   03 Jun 2027 09:39:28.669   03 Jun 2027 09:46:21.500           412.831                Anadyr2         51603.875
        84   03 Jun 2027 11:03:43.848   03 Jun 2027 11:03:54.695            10.847              Murmansk2          1355.875
        85   03 Jun 2027 11:04:15.283   03 Jun 2027 11:05:02.155            46.872              Murmansk2          5859.000
        86   03 Jun 2027 11:14:32.190   03 Jun 2027 11:15:17.854            45.664                Anadyr1          5708.000
        87   03 Jun 2027 11:16:31.208   03 Jun 2027 11:18:09.516            98.308                Anadyr2         12288.500
        88   03 Jun 2027 12:44:36.204   03 Jun 2027 12:45:10.246            34.042              Murmansk2          4255.250
        89   03 Jun 2027 12:52:56.315   03 Jun 2027 12:54:46.530           110.215               Magadan1         13776.875
        90   03 Jun 2027 12:57:41.075   03 Jun 2027 12:58:10.695            29.620               Magadan1          3702.500
        91   03 Jun 2027 13:00:10.964   03 Jun 2027 13:04:18.569           247.605               Magadan2         30950.625
        92   03 Jun 2027 15:20:49.871   03 Jun 2027 15:23:25.758           155.887            RioGallegos         19485.875
        93   03 Jun 2027 16:08:21.840   03 Jun 2027 16:11:16.002           174.162                Irkutsk         21770.250
        94   03 Jun 2027 16:22:09.014   03 Jun 2027 16:26:44.346           275.332                Sumatra         34416.500
        95   03 Jun 2027 17:44:07.061   03 Jun 2027 17:46:22.910           135.849                Novosib         16981.125
        96   03 Jun 2027 17:51:59.294   03 Jun 2027 17:55:30.657           211.363                  Delhi         26420.375
        97   03 Jun 2027 20:54:12.260   03 Jun 2027 20:54:31.394            19.134              Murmansk2          2391.750
        98   03 Jun 2027 20:57:35.256   03 Jun 2027 20:58:56.619            81.363                 Moscow         10170.375
        99   03 Jun 2027 21:21:59.502   03 Jun 2027 21:22:46.181            46.679               CapeTown          5834.875
       100   04 Jun 2027 03:18:21.020   04 Jun 2027 03:19:23.601            62.581                Novosib          7822.625
       101   04 Jun 2027 03:19:24.567   04 Jun 2027 03:23:18.821           234.254                Norilsk         29281.750
       102   04 Jun 2027 03:25:18.166   04 Jun 2027 03:25:49.199            31.033              Murmansk1          3879.125
       103   04 Jun 2027 04:28:02.695   04 Jun 2027 04:30:48.502           165.807                Sumatra         20725.875
       104   04 Jun 2027 04:53:53.465   04 Jun 2027 04:59:34.950           341.485              Murmansk2         42685.625
       105   04 Jun 2027 05:34:43.486   04 Jun 2027 05:35:57.570            74.084            RioGallegos          9260.500
       106   04 Jun 2027 05:37:39.412   04 Jun 2027 05:38:03.336            23.924            RioGallegos          2990.500
       107   04 Jun 2027 06:05:46.022   04 Jun 2027 06:08:59.513           193.491                Sumatra         24186.375
       108   04 Jun 2027 06:13:52.995   04 Jun 2027 06:14:35.832            42.837                  Delhi          5354.625
       109   04 Jun 2027 06:19:20.048   04 Jun 2027 06:23:42.985           262.937                Novosib         32867.125
       110   04 Jun 2027 06:24:23.059   04 Jun 2027 06:25:44.634            81.575                 Moscow         10196.875
       111   04 Jun 2027 06:29:57.649   04 Jun 2027 06:32:59.682           182.033                 Moscow         22754.125
       112   04 Jun 2027 06:33:09.456   04 Jun 2027 06:34:17.534            68.078                Norilsk          8509.750
       113   04 Jun 2027 06:34:53.772   04 Jun 2027 06:35:06.481            12.709              Murmansk2          1588.625
       114   04 Jun 2027 07:56:41.466   04 Jun 2027 07:57:33.877            52.411                  Delhi          6551.375
       115   04 Jun 2027 07:57:44.715   04 Jun 2027 07:59:07.005            82.290                 Moscow         10286.250
       116   04 Jun 2027 08:05:38.304   04 Jun 2027 08:05:56.606            18.302                Norilsk          2287.750
       117   04 Jun 2027 08:06:47.634   04 Jun 2027 08:11:00.797           253.163                Norilsk         31645.375
       118   04 Jun 2027 08:11:09.231   04 Jun 2027 08:12:48.393            99.162              Murmansk1         12395.250
       119   04 Jun 2027 09:12:16.504   04 Jun 2027 09:19:49.914           453.410               CapeTown         56676.250
       120   04 Jun 2027 09:33:04.385   04 Jun 2027 09:37:50.716           286.331                 Moscow         35791.375
       121   04 Jun 2027 09:38:05.124   04 Jun 2027 09:42:21.970           256.846              Murmansk2         32105.750
       122   04 Jun 2027 09:43:06.367   04 Jun 2027 09:44:24.742            78.375              Murmansk2          9796.875
       123   04 Jun 2027 09:44:44.918   04 Jun 2027 09:45:13.817            28.899              Murmansk2          3612.375
       124   04 Jun 2027 09:45:23.388   04 Jun 2027 09:45:32.538             9.150              Murmansk1          1143.750
       125   04 Jun 2027 09:45:35.921   04 Jun 2027 09:46:28.779            52.858              Murmansk1          6607.250
       126   04 Jun 2027 09:46:57.309   04 Jun 2027 09:47:31.068            33.759              Murmansk2          4219.875
       127   04 Jun 2027 09:51:15.924   04 Jun 2027 09:57:11.666           355.742                Anadyr2         44467.750
       128   04 Jun 2027 11:17:02.838   04 Jun 2027 11:17:26.509            23.671              Murmansk1          2958.875
       129   04 Jun 2027 11:18:13.748   04 Jun 2027 11:18:27.737            13.989              Murmansk2          1748.625
       130   04 Jun 2027 11:26:31.787   04 Jun 2027 11:31:19.818           288.031                Anadyr2         36003.875
       131   04 Jun 2027 11:33:42.928   04 Jun 2027 11:35:32.073           109.145               Magadan2         13643.125
       132   04 Jun 2027 13:02:23.907   04 Jun 2027 13:05:44.457           200.550                Anadyr2         25068.750
       133   04 Jun 2027 13:06:48.633   04 Jun 2027 13:09:33.377           164.744               Magadan1         20593.000
       134   04 Jun 2027 13:12:36.915   04 Jun 2027 13:13:15.076            38.161               Magadan2          4770.125
       135   04 Jun 2027 14:41:16.536   04 Jun 2027 14:43:22.632           126.096               Magadan1         15762.000
       136   04 Jun 2027 15:32:38.678   04 Jun 2027 15:36:34.415           235.737            RioGallegos         29467.125
       137   04 Jun 2027 16:20:16.058   04 Jun 2027 16:22:19.736           123.678                Irkutsk         15459.750
       138   04 Jun 2027 16:33:57.902   04 Jun 2027 16:36:54.028           176.126                Sumatra         22015.750
       139   04 Jun 2027 17:56:03.942   04 Jun 2027 17:57:21.599            77.657                Novosib          9707.125
       140   04 Jun 2027 18:03:43.052   04 Jun 2027 18:08:07.048           263.996                  Delhi         32999.500
       141   04 Jun 2027 21:09:33.028   04 Jun 2027 21:10:38.503            65.475                 Moscow          8184.375
       142   04 Jun 2027 21:33:43.074   04 Jun 2027 21:36:23.696           160.622               CapeTown         20077.750
       143   05 Jun 2027 03:30:17.995   05 Jun 2027 03:30:31.620            13.625              Murmansk1          1703.125
       144   05 Jun 2027 03:30:31.620   05 Jun 2027 03:36:00.731           329.111              Murmansk2         41138.875
       145   05 Jun 2027 04:39:54.570   05 Jun 2027 04:42:58.050           183.480                Sumatra         22935.000
       146   05 Jun 2027 05:06:14.293   05 Jun 2027 05:06:28.048            13.755                Norilsk          1719.375
       147   05 Jun 2027 05:06:30.592   05 Jun 2027 05:07:55.176            84.584                 Moscow         10573.000
       148   05 Jun 2027 05:08:22.576   05 Jun 2027 05:10:58.260           155.684              Murmansk2         19460.500
       149   05 Jun 2027 05:10:58.260   05 Jun 2027 05:11:37.071            38.811              Murmansk1          4851.375
       150   05 Jun 2027 05:45:41.445   05 Jun 2027 05:46:08.378            26.933            RioGallegos          3366.625
       151   05 Jun 2027 05:51:00.772   05 Jun 2027 05:51:02.567             1.795            RioGallegos           224.375
       152   05 Jun 2027 06:19:00.421   05 Jun 2027 06:21:18.675           138.254                Sumatra         17281.750
       153   05 Jun 2027 06:24:03.449   05 Jun 2027 06:24:57.748            54.299                  Delhi          6787.375
       154   05 Jun 2027 06:26:24.928   05 Jun 2027 06:27:14.290            49.362                  Delhi          6170.250
       155   05 Jun 2027 06:31:26.278   05 Jun 2027 06:33:18.850           112.572                  Delhi         14071.500
       156   05 Jun 2027 06:33:57.356   05 Jun 2027 06:35:50.397           113.041                Novosib         14130.125
       157   05 Jun 2027 06:36:38.056   05 Jun 2027 06:37:18.882            40.826              Murmansk1          5103.250
       158   05 Jun 2027 06:41:59.701   05 Jun 2027 06:42:27.293            27.592                Norilsk          3449.000
       159   05 Jun 2027 06:42:30.500   05 Jun 2027 06:45:05.776           155.276                 Moscow         19409.500
       160   05 Jun 2027 06:45:18.227   05 Jun 2027 06:46:51.302            93.075              Murmansk2         11634.375
       161   05 Jun 2027 06:46:51.302   05 Jun 2027 06:47:08.442            17.140              Murmansk1          2142.500
       162   05 Jun 2027 08:08:30.541   05 Jun 2027 08:11:40.681           190.140                 Moscow         23767.500
       163   05 Jun 2027 08:17:47.343   05 Jun 2027 08:18:22.874            35.531                Norilsk          4441.375
       164   05 Jun 2027 08:18:49.425   05 Jun 2027 08:22:58.100           248.675                Norilsk         31084.375
       165   05 Jun 2027 08:23:19.306   05 Jun 2027 08:24:49.843            90.537              Murmansk2         11317.125
       166   05 Jun 2027 09:23:34.863   05 Jun 2027 09:32:45.460           550.597               CapeTown         68824.625
       167   05 Jun 2027 09:45:24.992   05 Jun 2027 09:49:29.317           244.325                 Moscow         30540.625
       168   05 Jun 2027 09:49:40.812   05 Jun 2027 09:54:44.676           303.864              Murmansk1         37983.000
       169   05 Jun 2027 10:03:06.840   05 Jun 2027 10:11:50.622           523.782                Anadyr2         65472.750
       170   05 Jun 2027 11:38:31.814   05 Jun 2027 11:39:04.034            32.220                Anadyr2          4027.500
       171   05 Jun 2027 11:41:07.014   05 Jun 2027 11:43:27.508           140.494                Anadyr2         17561.750
       172   05 Jun 2027 11:44:17.776   05 Jun 2027 11:44:32.041            14.265                Anadyr1          1783.125
       173   05 Jun 2027 11:46:09.302   05 Jun 2027 11:48:44.496           155.194               Magadan1         19399.250
       174   05 Jun 2027 12:36:17.848   05 Jun 2027 12:37:01.240            43.392               CapeTown          5424.000
       175   05 Jun 2027 12:37:18.638   05 Jun 2027 12:38:59.289           100.651               CapeTown         12581.375
       176   05 Jun 2027 13:14:25.282   05 Jun 2027 13:16:23.490           118.208                Anadyr2         14776.000
       177   05 Jun 2027 13:16:50.162   05 Jun 2027 13:17:57.594            67.432               Magadan2          8429.000
       178   05 Jun 2027 13:19:09.208   05 Jun 2027 13:21:55.450           166.242               Magadan1         20780.250
       179   05 Jun 2027 15:44:30.275   05 Jun 2027 15:47:42.646           192.371            RioGallegos         24046.375
       180   05 Jun 2027 15:53:59.684   05 Jun 2027 15:56:09.394           129.710            RioGallegos         16213.750
       181   05 Jun 2027 16:32:11.951   05 Jun 2027 16:33:47.025            95.074                Irkutsk         11884.250
       182   05 Jun 2027 16:40:43.170   05 Jun 2027 16:41:19.397            36.227                Novosib          4528.375
       183   05 Jun 2027 16:49:00.613   05 Jun 2027 16:49:13.374            12.761                Sumatra          1595.125
       184   05 Jun 2027 16:53:17.048   05 Jun 2027 16:55:27.014           129.966                Sumatra         16245.750
       185   05 Jun 2027 18:10:55.534   05 Jun 2027 18:12:48.241           112.707                Novosib         14088.375
       186   05 Jun 2027 18:15:31.761   05 Jun 2027 18:18:09.577           157.816                  Delhi         19727.000
       187   05 Jun 2027 19:46:39.371   05 Jun 2027 19:47:45.451            66.080                 Moscow          8260.000
       188   05 Jun 2027 21:21:31.773   05 Jun 2027 21:22:25.131            53.358                 Moscow          6669.750
       189   05 Jun 2027 21:25:14.662   05 Jun 2027 21:26:20.275            65.613                 Moscow          8201.625
       190   05 Jun 2027 21:45:31.885   05 Jun 2027 21:48:31.360           179.475               CapeTown         22434.375
       191   06 Jun 2027 03:20:39.790   06 Jun 2027 03:21:41.190            61.400                Sumatra          7675.000
       192   06 Jun 2027 03:23:07.582   06 Jun 2027 03:24:52.777           105.195                Sumatra          2088.750
       193   06 Jun 2027 03:42:32.120   06 Jun 2027 03:46:00.402           208.282              Murmansk2         26035.250
       194   06 Jun 2027 04:51:52.142   06 Jun 2027 04:54:40.117           167.975                Sumatra         20996.875
       195   06 Jun 2027 05:17:42.507   06 Jun 2027 05:17:50.147             7.640              Murmansk2           955.000
       196   06 Jun 2027 05:18:48.018   06 Jun 2027 05:23:33.998           285.980              Murmansk2         35747.500
       197   06 Jun 2027 05:57:18.799   06 Jun 2027 05:58:13.413            54.614            RioGallegos          6826.750
       198   06 Jun 2027 06:36:10.583   06 Jun 2027 06:40:59.511           288.928                  Delhi         36116.000
       199   06 Jun 2027 06:42:32.829   06 Jun 2027 06:43:05.325            32.496                  Delhi          4062.000
       200   06 Jun 2027 06:43:59.004   06 Jun 2027 06:48:01.008           242.004                Novosib         30250.500
       201   06 Jun 2027 06:48:30.110   06 Jun 2027 06:49:16.298            46.188              Murmansk2          5773.500
       202   06 Jun 2027 06:53:53.752   06 Jun 2027 06:54:21.049            27.297                Novosib          3412.125
       203   06 Jun 2027 06:54:22.692   06 Jun 2027 06:56:47.526           144.834                Norilsk         18104.250
       204   06 Jun 2027 06:56:48.968   06 Jun 2027 06:59:08.904           139.936              Murmansk2         17492.000
       205   06 Jun 2027 08:20:28.472   06 Jun 2027 08:23:45.793           197.321                 Moscow         24665.125
       206   06 Jun 2027 08:30:20.435   06 Jun 2027 08:33:22.289           181.854                 Moscow         22731.750
       207   06 Jun 2027 08:33:24.331   06 Jun 2027 08:34:53.796            89.465                Norilsk         11183.125
       208   06 Jun 2027 08:35:31.559   06 Jun 2027 08:36:51.399            79.840              Murmansk1          9980.000
       209   06 Jun 2027 09:35:05.824   06 Jun 2027 09:44:23.018           557.194               CapeTown         69649.250
       210   06 Jun 2027 09:57:49.856   06 Jun 2027 10:01:13.430           203.574                 Moscow         25446.750
       211   06 Jun 2027 10:01:19.891   06 Jun 2027 10:01:29.953            10.062              Murmansk2          1257.750
       212   06 Jun 2027 10:01:29.953   06 Jun 2027 10:02:37.305            67.352              Murmansk1          8419.000
       213   06 Jun 2027 10:03:23.656   06 Jun 2027 10:05:03.571            99.915              Murmansk2         12489.375
       214   06 Jun 2027 10:09:10.002   06 Jun 2027 10:09:45.821            35.819              Murmansk1          4477.375
       215   06 Jun 2027 10:15:00.232   06 Jun 2027 10:20:22.607           322.375                Anadyr2         40296.875
       216   06 Jun 2027 10:21:08.460   06 Jun 2027 10:24:27.258           198.798                Anadyr1         24849.750
       217   06 Jun 2027 11:41:48.144   06 Jun 2027 11:42:31.465            43.321              Murmansk1          5415.125
       218   06 Jun 2027 11:43:34.241   06 Jun 2027 11:44:25.144            50.903              Murmansk1          6362.875
       219   06 Jun 2027 11:44:59.696   06 Jun 2027 11:45:12.180            12.484              Murmansk1          1560.500
       220   06 Jun 2027 11:45:31.322   06 Jun 2027 11:45:55.831            24.509              Murmansk1          3063.625
       221   06 Jun 2027 11:46:35.623   06 Jun 2027 11:47:19.342            43.719              Murmansk1          5464.875
       222   06 Jun 2027 11:50:32.201   06 Jun 2027 11:52:54.369           142.168                Anadyr2         17771.000
       223   06 Jun 2027 11:53:21.125   06 Jun 2027 11:54:46.677            85.552                Anadyr1         10694.000
       224   06 Jun 2027 11:54:51.868   06 Jun 2027 11:58:02.596           190.728               Magadan2         23841.000
       225   06 Jun 2027 11:58:04.889   06 Jun 2027 12:01:26.542           201.653               Magadan1         25206.625
       226   06 Jun 2027 13:31:08.428   06 Jun 2027 13:33:50.558           162.130               Magadan2         20266.250
       227   06 Jun 2027 15:25:42.469   06 Jun 2027 15:29:20.870           218.401                Sumatra         27300.125
       228   06 Jun 2027 16:45:05.096   06 Jun 2027 16:46:30.961            85.865                Novosib         10733.125
       229   06 Jun 2027 16:48:55.148   06 Jun 2027 16:49:15.973            20.825                Irkutsk          2603.125
       230   06 Jun 2027 16:52:09.553   06 Jun 2027 16:54:06.355           116.802                Novosib         14600.250
       231   06 Jun 2027 16:57:53.022   06 Jun 2027 17:00:12.916           139.894                Sumatra         17486.750
       232   06 Jun 2027 18:23:58.072   06 Jun 2027 18:26:43.375           165.303                Novosib         20662.875
       233   06 Jun 2027 18:27:24.610   06 Jun 2027 18:30:23.324           178.714                  Delhi         22339.250
       234   06 Jun 2027 19:58:24.282   06 Jun 2027 19:59:55.565            91.283                 Moscow         11410.375
       235   06 Jun 2027 21:39:43.406   06 Jun 2027 21:41:03.356            79.950                 Moscow          9993.750
       236   06 Jun 2027 21:57:25.713   06 Jun 2027 21:59:17.270           111.557               CapeTown         13944.625
       237   07 Jun 2027 03:31:01.678   07 Jun 2027 03:33:19.355           137.677                Sumatra          5099.000
       238   07 Jun 2027 03:54:23.557   07 Jun 2027 03:57:28.446           184.889                Norilsk         23111.125
       239   07 Jun 2027 05:03:55.302   07 Jun 2027 05:05:50.151           114.849                Sumatra         14356.125
       240   07 Jun 2027 05:13:36.468   07 Jun 2027 05:14:31.726            55.258                Sumatra          6907.250
       241   07 Jun 2027 05:30:30.186   07 Jun 2027 05:36:25.496           355.310              Murmansk2         44413.750
       242   07 Jun 2027 06:14:18.426   07 Jun 2027 06:14:33.836            15.410            RioGallegos          1926.250
       243   07 Jun 2027 06:48:23.540   07 Jun 2027 06:52:56.075           272.535                  Delhi         34066.875
       244   07 Jun 2027 06:54:36.336   07 Jun 2027 06:55:27.808            51.472                  Delhi          6434.000
       245   07 Jun 2027 06:57:37.944   07 Jun 2027 06:58:13.022            35.078                  Delhi          4384.750
       246   07 Jun 2027 06:58:22.854   07 Jun 2027 07:01:21.249           178.395                 Moscow         22299.375
       247   07 Jun 2027 07:05:57.523   07 Jun 2027 07:09:08.315           190.792              Murmansk2         23849.000
       248   07 Jun 2027 07:09:08.315   07 Jun 2027 07:10:43.987            95.672              Murmansk1         11959.000
       249   07 Jun 2027 07:11:03.949   07 Jun 2027 07:11:16.643            12.694                Norilsk          1586.750
       250   07 Jun 2027 07:11:37.176   07 Jun 2027 07:11:57.658            20.482              Murmansk2          2560.250
       251   07 Jun 2027 07:12:28.114   07 Jun 2027 07:12:58.137            30.023              Murmansk2          3752.875
       252   07 Jun 2027 08:35:47.992   07 Jun 2027 08:36:01.602            13.610                 Moscow          1701.250
       253   07 Jun 2027 08:37:08.570   07 Jun 2027 08:37:43.023            34.453              Murmansk1          4306.625
       254   07 Jun 2027 08:40:59.427   07 Jun 2027 08:45:23.127           263.700                 Moscow         32962.500
       255   07 Jun 2027 08:45:33.133   07 Jun 2027 08:48:53.031           199.898              Murmansk1         24987.250
       256   07 Jun 2027 09:46:44.769   07 Jun 2027 09:53:08.972           384.203               CapeTown         48025.375
       257   07 Jun 2027 10:13:17.324   07 Jun 2027 10:14:28.599            71.275              Murmansk1          8909.375
       258   07 Jun 2027 10:15:25.289   07 Jun 2027 10:16:31.555            66.266              Murmansk2          8283.250
       259   07 Jun 2027 10:20:28.554   07 Jun 2027 10:21:53.267            84.713              Murmansk1         10589.125
       260   07 Jun 2027 10:22:51.396   07 Jun 2027 10:22:59.799             8.403              Murmansk1          1050.375
       261   07 Jun 2027 10:23:08.135   07 Jun 2027 10:23:21.390            13.255              Murmansk1          1656.875
       262   07 Jun 2027 10:23:56.854   07 Jun 2027 10:24:47.846            50.992              Murmansk2          6374.000
       263   07 Jun 2027 10:26:55.421   07 Jun 2027 10:32:09.996           314.575                Anadyr2         39321.875
       264   07 Jun 2027 10:32:38.833   07 Jun 2027 10:36:47.735           248.902                Anadyr1         31112.750
       265   07 Jun 2027 11:56:26.576   07 Jun 2027 11:57:00.664            34.088              Murmansk1          4261.000
       266   07 Jun 2027 11:57:18.360   07 Jun 2027 11:57:48.822            30.462              Murmansk1          3807.750
       267   07 Jun 2027 11:58:37.518   07 Jun 2027 12:00:03.245            85.727              Murmansk2         10715.875
       268   07 Jun 2027 12:04:30.571   07 Jun 2027 12:05:32.865            62.294                Anadyr1          7786.750
       269   07 Jun 2027 12:05:42.914   07 Jun 2027 12:08:05.203           142.289               Magadan1         17786.125
       270   07 Jun 2027 12:11:23.480   07 Jun 2027 12:11:50.837            27.357               Magadan2          3419.625
       271   07 Jun 2027 13:40:47.559   07 Jun 2027 13:43:40.525           172.966               Magadan2         21620.750
       272   07 Jun 2027 13:48:54.922   07 Jun 2027 13:50:21.778            86.856               Magadan1         10857.000
       273   07 Jun 2027 15:21:27.052   07 Jun 2027 15:21:29.646             2.594                Irkutsk           324.250
       274   07 Jun 2027 15:26:05.363   07 Jun 2027 15:27:07.266            61.903                Irkutsk          7737.875
       275   07 Jun 2027 15:36:29.540   07 Jun 2027 15:41:41.133           311.593                Sumatra         38949.125
       276   07 Jun 2027 16:56:50.909   07 Jun 2027 17:00:12.945           202.036                Novosib         25254.500
       277   07 Jun 2027 17:07:05.322   07 Jun 2027 17:10:19.560           194.238                  Delhi         24279.750
       278   07 Jun 2027 18:39:21.118   07 Jun 2027 18:41:36.989           135.871                  Delhi         16983.875
       279   07 Jun 2027 18:44:25.955   07 Jun 2027 18:44:36.885            10.930                  Delhi          1366.250
       280   07 Jun 2027 18:46:44.479   07 Jun 2027 18:46:56.291            11.812                  Delhi          1476.500
       281   07 Jun 2027 20:10:12.999   07 Jun 2027 20:13:13.708           180.709                 Moscow         22588.625
       282   07 Jun 2027 21:47:08.092   07 Jun 2027 21:47:37.493            29.401              Murmansk1          3675.125
       283   07 Jun 2027 21:55:06.942   07 Jun 2027 21:55:37.324            30.382                 Moscow          3797.750
       284   07 Jun 2027 22:09:24.485   07 Jun 2027 22:10:26.635            62.150               CapeTown          7768.750
       285   07 Jun 2027 22:12:38.227   07 Jun 2027 22:14:36.849           118.622               CapeTown          2963.749
       286   08 Jun 2027 04:06:16.264   08 Jun 2027 04:06:53.212            36.948              Murmansk1          4618.500
       287   08 Jun 2027 05:16:04.242   08 Jun 2027 05:16:21.959            17.717                Sumatra          2214.625
       288   08 Jun 2027 05:18:11.904   08 Jun 2027 05:18:52.367            40.463                Sumatra          5057.875
       289   08 Jun 2027 05:20:28.426   08 Jun 2027 05:20:48.692            20.266                Sumatra          2533.250
       290   08 Jun 2027 05:23:52.622   08 Jun 2027 05:24:31.988            39.366                Sumatra          4920.750
       291   08 Jun 2027 05:25:03.708   08 Jun 2027 05:26:53.206           109.498                  Delhi         13687.250
       292   08 Jun 2027 05:40:49.350   08 Jun 2027 05:41:13.331            23.981                 Moscow          2997.625
       293   08 Jun 2027 05:42:19.240   08 Jun 2027 05:43:52.453            93.213                Novosib         11651.625
       294   08 Jun 2027 05:44:00.256   08 Jun 2027 05:47:19.974           199.718                Norilsk         24964.750
       295   08 Jun 2027 07:00:42.998   08 Jun 2027 07:02:53.858           130.860                  Delhi         16357.500
       296   08 Jun 2027 07:05:20.959   08 Jun 2027 07:05:55.128            34.169                  Delhi          4271.125
       297   08 Jun 2027 07:07:41.501   08 Jun 2027 07:08:08.540            27.039                  Delhi          3379.875
       298   08 Jun 2027 07:08:28.143   08 Jun 2027 07:10:38.442           130.299                  Delhi         16287.375
       299   08 Jun 2027 07:10:49.955   08 Jun 2027 07:13:20.824           150.869                Novosib         18858.625
       300   08 Jun 2027 07:17:41.675   08 Jun 2027 07:23:01.936           320.261                Norilsk         40032.625
       301   08 Jun 2027 07:23:05.554   08 Jun 2027 07:23:56.271            50.717              Murmansk1          6339.625
       302   08 Jun 2027 07:23:56.271   08 Jun 2027 07:24:48.968            52.697              Murmansk2          6587.125
       303   08 Jun 2027 08:47:48.698   08 Jun 2027 08:50:03.988           135.290                 Moscow         16911.250
       304   08 Jun 2027 08:52:30.202   08 Jun 2027 08:57:23.284           293.082                 Moscow         36635.250
       305   08 Jun 2027 08:57:33.605   08 Jun 2027 09:00:43.130           189.525              Murmansk2         23690.625
       306   08 Jun 2027 10:03:24.970   08 Jun 2027 10:04:27.945            62.975               CapeTown          7871.875
       307   08 Jun 2027 10:32:06.597   08 Jun 2027 10:34:19.486           132.889              Murmansk2         16611.125
       308   08 Jun 2027 10:38:51.953   08 Jun 2027 10:40:23.764            91.811                Anadyr2         11476.375
       309   08 Jun 2027 10:42:39.281   08 Jun 2027 10:48:24.461           345.180                Anadyr1         43147.500
       310   08 Jun 2027 12:06:40.283   08 Jun 2027 12:07:13.852            33.569              Murmansk2          4196.125
       311   08 Jun 2027 12:15:49.622   08 Jun 2027 12:16:15.135            25.513                Anadyr1          3189.125
       312   08 Jun 2027 12:17:31.241   08 Jun 2027 12:19:11.358           100.117               Magadan1         12514.625
       313   08 Jun 2027 12:20:43.452   08 Jun 2027 12:20:59.469            16.017               Magadan1          2002.125
       314   08 Jun 2027 13:52:47.240   08 Jun 2027 13:55:51.682           184.442               Magadan2         23055.250
       315   08 Jun 2027 14:03:58.137   08 Jun 2027 14:05:33.097            94.960               Magadan1         11870.000
       316   08 Jun 2027 15:33:08.483   08 Jun 2027 15:34:03.984            55.501                Irkutsk          6937.625
       317   08 Jun 2027 15:37:17.436   08 Jun 2027 15:39:25.224           127.788                Irkutsk         15973.500
       318   08 Jun 2027 15:47:40.988   08 Jun 2027 15:50:59.601           198.613                Sumatra         24826.625
       319   08 Jun 2027 17:08:40.270   08 Jun 2027 17:13:05.151           264.881                Novosib         33110.125
       320   08 Jun 2027 17:17:51.972   08 Jun 2027 17:20:45.123           173.151                  Delhi         21643.875
       321   08 Jun 2027 18:52:36.105   08 Jun 2027 18:52:58.878            22.773                  Delhi          2846.625
       322   08 Jun 2027 18:58:37.227   08 Jun 2027 19:00:45.063           127.836                  Delhi         15979.500
       323   08 Jun 2027 20:23:14.137   08 Jun 2027 20:26:06.978           172.841                 Moscow         21605.125
       324   08 Jun 2027 22:21:28.262   08 Jun 2027 22:22:57.291            89.029               CapeTown          2294.125
       325   09 Jun 2027 04:13:37.706   09 Jun 2027 04:13:59.465            21.759                Irkutsk          2719.875
       326   09 Jun 2027 05:28:19.544   09 Jun 2027 05:28:48.601            29.057                Sumatra          3632.125
       327   09 Jun 2027 05:36:43.381   09 Jun 2027 05:42:58.273           374.892                  Delhi         46861.500
       328   09 Jun 2027 05:53:38.560   09 Jun 2027 05:56:51.646           193.086                 Moscow         24135.750
       329   09 Jun 2027 05:57:04.357   09 Jun 2027 05:59:21.895           137.538                Norilsk         17192.250
       330   09 Jun 2027 05:59:45.405   09 Jun 2027 06:00:40.066            54.661              Murmansk1          6832.625
       331   09 Jun 2027 07:21:20.613   09 Jun 2027 07:25:31.910           251.297                 Moscow         31412.125
       332   09 Jun 2027 07:30:24.225   09 Jun 2027 07:30:53.558            29.333                Novosib          3666.625
       333   09 Jun 2027 07:30:56.646   09 Jun 2027 07:33:10.097           133.451                Norilsk         16681.375
       334   09 Jun 2027 07:33:12.601   09 Jun 2027 07:36:59.775           227.174              Murmansk2         28396.750
       335   09 Jun 2027 09:00:11.182   09 Jun 2027 09:01:35.382            84.200              Murmansk2         10525.000
       336   09 Jun 2027 09:03:31.583   09 Jun 2027 09:04:49.278            77.695              Murmansk1          9711.875
       337   09 Jun 2027 09:08:13.311   09 Jun 2027 09:11:03.103           169.792              Murmansk1         21224.000
       338   09 Jun 2027 09:16:32.675   09 Jun 2027 09:20:08.317           215.642                Anadyr2         26955.250
       339   09 Jun 2027 10:50:49.527   09 Jun 2027 10:51:59.507            69.980                Anadyr2          8747.500
       340   09 Jun 2027 10:55:19.520   09 Jun 2027 10:55:32.818            13.298                Anadyr2          1662.250
       341   09 Jun 2027 12:26:34.867   09 Jun 2027 12:26:53.303            18.436                Anadyr1          2304.500
       342   09 Jun 2027 12:29:22.516   09 Jun 2027 12:33:51.337           268.821               Magadan2         33602.625
       343   09 Jun 2027 14:04:47.445   09 Jun 2027 14:05:19.588            32.143               Magadan2          4017.875
       344   09 Jun 2027 14:06:29.424   09 Jun 2027 14:08:00.049            90.625               Magadan1         11328.125
       345   09 Jun 2027 15:01:26.741   09 Jun 2027 15:01:31.838             5.097            RioGallegos           637.125
       346   09 Jun 2027 15:03:15.091   09 Jun 2027 15:05:38.250           143.159            RioGallegos         17894.875
       347   09 Jun 2027 15:45:21.610   09 Jun 2027 15:47:41.500           139.890                Irkutsk         17486.250
       348   09 Jun 2027 16:01:28.051   09 Jun 2027 16:06:01.398           273.347                Sumatra         34168.375
       349   09 Jun 2027 17:20:32.243   09 Jun 2027 17:21:49.470            77.227                Novosib          9653.375
       350   09 Jun 2027 17:29:07.279   09 Jun 2027 17:32:33.519           206.240                  Delhi         25780.000
       351   09 Jun 2027 19:06:30.555   09 Jun 2027 19:07:37.250            66.695                  Delhi          8336.875
       352   09 Jun 2027 19:11:18.021   09 Jun 2027 19:11:18.465             0.444                  Delhi            55.500
       353   09 Jun 2027 20:33:58.094   09 Jun 2027 20:36:16.523           138.429                 Moscow         17303.625
       354   09 Jun 2027 20:38:32.894   09 Jun 2027 20:41:13.848           160.954                 Moscow         15843.000
       355   10 Jun 2027 05:42:18.279   10 Jun 2027 05:43:00.859            42.580                Sumatra          5322.500
       356   10 Jun 2027 05:48:28.997   10 Jun 2027 05:51:18.413           169.416                  Delhi         21177.000
       357   10 Jun 2027 06:06:02.496   10 Jun 2027 06:06:50.734            48.238              Murmansk1          6029.750
       358   10 Jun 2027 06:07:06.221   10 Jun 2027 06:09:00.254           114.033                 Moscow         14254.125
       359   10 Jun 2027 06:09:05.505   10 Jun 2027 06:11:12.789           127.284              Murmansk1         15910.500
       360   10 Jun 2027 07:25:46.760   10 Jun 2027 07:27:19.599            92.839                  Delhi         11604.875
       361   10 Jun 2027 07:27:32.898   10 Jun 2027 07:27:53.503            20.605                  Delhi          2575.625
       362   10 Jun 2027 07:28:47.667   10 Jun 2027 07:29:18.452            30.785                  Delhi          3848.125
       363   10 Jun 2027 07:34:16.066   10 Jun 2027 07:36:15.267           119.201                Novosib         14900.125
       364   10 Jun 2027 07:36:52.969   10 Jun 2027 07:38:04.131            71.162              Murmansk1          8895.250
       365   10 Jun 2027 07:42:15.300   10 Jun 2027 07:45:28.157           192.857                 Moscow         24107.125
       366   10 Jun 2027 07:45:36.517   10 Jun 2027 07:46:05.248            28.731                Norilsk          3591.375
       367   10 Jun 2027 07:46:22.410   10 Jun 2027 07:47:35.170            72.760              Murmansk2          9095.000
       368   10 Jun 2027 07:47:35.170   10 Jun 2027 07:49:00.754            85.584              Murmansk1         10698.000
       369   10 Jun 2027 09:11:19.315   10 Jun 2027 09:11:47.946            28.631                 Moscow          3578.875
       370   10 Jun 2027 09:12:20.019   10 Jun 2027 09:14:40.947           140.928              Murmansk1         17616.000
       371   10 Jun 2027 09:14:40.947   10 Jun 2027 09:14:54.098            13.151              Murmansk2          1643.875
       372   10 Jun 2027 09:15:34.594   10 Jun 2027 09:15:48.349            13.755              Murmansk2          1719.375
       373   10 Jun 2027 09:16:02.843   10 Jun 2027 09:16:16.966            14.123              Murmansk2          1765.375
       374   10 Jun 2027 09:20:37.713   10 Jun 2027 09:22:04.267            86.554              Murmansk2         10819.250
       375   10 Jun 2027 09:28:01.836   10 Jun 2027 09:32:01.593           239.757                Anadyr1         29969.625
       376   10 Jun 2027 09:33:15.206   10 Jun 2027 09:33:41.271            26.065                Anadyr2          3258.125
       377   10 Jun 2027 11:02:47.929   10 Jun 2027 11:04:24.439            96.510                Anadyr1         12063.750
       378   10 Jun 2027 12:31:33.916   10 Jun 2027 12:34:41.694           187.778              Murmansk1         23472.250
       379   10 Jun 2027 12:41:15.957   10 Jun 2027 12:43:55.430           159.473               Magadan2         19934.125
       380   10 Jun 2027 12:45:11.936   10 Jun 2027 12:46:54.190           102.254               Magadan1         12781.750
       381   10 Jun 2027 14:16:48.103   10 Jun 2027 14:18:55.851           127.748               Magadan1         15968.500
       382   10 Jun 2027 15:09:19.298   10 Jun 2027 15:13:25.511           246.213            RioGallegos         30776.625
       383   10 Jun 2027 15:57:55.454   10 Jun 2027 16:00:46.228           170.774                Irkutsk         21346.750
       384   10 Jun 2027 16:12:36.964   10 Jun 2027 16:14:53.909           136.945                Sumatra         17118.125
       385   10 Jun 2027 17:32:26.227   10 Jun 2027 17:34:15.996           109.769                Novosib         13721.125
       386   10 Jun 2027 17:40:36.209   10 Jun 2027 17:44:26.106           229.897                  Delhi         28737.125
       387   10 Jun 2027 19:14:40.543   10 Jun 2027 19:15:26.231            45.688                 Moscow          5711.000
       388   10 Jun 2027 20:43:37.502   10 Jun 2027 20:44:19.734            42.232              Murmansk1          5279.000
       389   10 Jun 2027 20:45:53.382   10 Jun 2027 20:47:36.503           103.121                 Moscow         12890.125
       390   10 Jun 2027 22:48:27.211   10 Jun 2027 22:50:18.812           111.601               CapeTown          8322.875
       391   11 Jun 2027 04:16:31.475   11 Jun 2027 04:20:55.990           264.515                Sumatra         33064.375
       392   11 Jun 2027 04:42:06.574   11 Jun 2027 04:42:40.457            33.883                Norilsk          4235.375
       393   11 Jun 2027 04:42:59.114   11 Jun 2027 04:47:19.355           260.241              Murmansk1         32530.125
       394   11 Jun 2027 05:19:02.761   11 Jun 2027 05:20:32.805            90.044            RioGallegos         11255.500
       395   11 Jun 2027 05:21:22.030   11 Jun 2027 05:21:36.081            14.051            RioGallegos          1756.375
       396   11 Jun 2027 05:22:22.936   11 Jun 2027 05:22:36.622            13.686            RioGallegos          1710.750
       397   11 Jun 2027 05:24:58.422   11 Jun 2027 05:25:37.249            38.827            RioGallegos          4853.375
       398   11 Jun 2027 05:26:39.914   11 Jun 2027 05:26:52.508            12.594            RioGallegos          1574.250
       399   11 Jun 2027 05:53:14.891   11 Jun 2027 05:55:13.908           119.017                Sumatra         14877.125
       400   11 Jun 2027 05:56:35.936   11 Jun 2027 05:56:58.960            23.024                Sumatra          2878.000
       401   11 Jun 2027 06:00:20.130   11 Jun 2027 06:03:42.014           201.884                  Delhi         25235.500
       402   11 Jun 2027 06:07:21.195   11 Jun 2027 06:09:43.753           142.558                Novosib         17819.750
       403   11 Jun 2027 06:10:16.917   11 Jun 2027 06:10:53.058            36.141                Novosib          4517.625
       404   11 Jun 2027 06:11:24.353   11 Jun 2027 06:11:53.373            29.020                Novosib          3627.500
       405   11 Jun 2027 06:12:37.189   11 Jun 2027 06:13:51.710            74.521                 Moscow          9315.125
       406   11 Jun 2027 06:17:52.611   11 Jun 2027 06:19:18.481            85.870              Murmansk2         10733.750
       407   11 Jun 2027 06:19:18.481   11 Jun 2027 06:20:00.703            42.222              Murmansk1          5277.750
       408   11 Jun 2027 06:20:16.600   11 Jun 2027 06:21:07.835            51.235                 Moscow          6404.375
       409   11 Jun 2027 06:21:29.965   11 Jun 2027 06:21:36.816             6.851                Norilsk           856.375
       410   11 Jun 2027 06:21:41.773   11 Jun 2027 06:23:02.980            81.207                Norilsk         10150.875
       411   11 Jun 2027 07:38:36.922   11 Jun 2027 07:41:38.151           181.229                  Delhi         22653.625
       412   11 Jun 2027 07:47:09.789   11 Jun 2027 07:48:21.895            72.106                Novosib          9013.250
       413   11 Jun 2027 07:48:25.710   11 Jun 2027 07:49:30.199            64.489                 Moscow          8061.125
       414   11 Jun 2027 07:53:44.261   11 Jun 2027 07:54:28.656            44.395              Murmansk1          5549.375
       415   11 Jun 2027 07:54:53.797   11 Jun 2027 08:01:01.922           368.125              Murmansk2         46015.625
       416   11 Jun 2027 09:01:37.507   11 Jun 2027 09:03:47.180           129.673               CapeTown         16209.125
       417   11 Jun 2027 09:21:02.727   11 Jun 2027 09:24:28.249           205.522                 Moscow         25690.250
       418   11 Jun 2027 09:25:03.658   11 Jun 2027 09:25:27.391            23.733                 Moscow          2966.625
       419   11 Jun 2027 09:27:55.556   11 Jun 2027 09:28:16.762            21.206              Murmansk1          2650.750
       420   11 Jun 2027 09:32:38.434   11 Jun 2027 09:33:27.801            49.367              Murmansk1          6170.875
       421   11 Jun 2027 09:39:43.209   11 Jun 2027 09:43:56.705           253.496                Anadyr1         31687.000
       422   11 Jun 2027 09:43:58.246   11 Jun 2027 09:46:37.219           158.973                Anadyr2         19871.625
       423   11 Jun 2027 11:03:31.830   11 Jun 2027 11:04:31.612            59.782              Murmansk1          7472.750
       424   11 Jun 2027 11:05:17.008   11 Jun 2027 11:06:05.919            48.911              Murmansk1          6113.875
       425   11 Jun 2027 11:14:46.995   11 Jun 2027 11:15:32.375            45.380                Anadyr2          5672.500
       426   11 Jun 2027 11:16:06.433   11 Jun 2027 11:18:24.057           137.624                Anadyr1         17203.000
       427   11 Jun 2027 11:21:03.362   11 Jun 2027 11:21:18.148            14.786               Magadan1          1848.250
       428   11 Jun 2027 12:44:52.672   11 Jun 2027 12:45:07.060            14.388              Murmansk2          1798.500
       429   11 Jun 2027 12:51:34.906   11 Jun 2027 12:53:18.379           103.473                Anadyr2         12934.125
       430   11 Jun 2027 12:54:39.687   11 Jun 2027 12:57:56.372           196.685               Magadan1         24585.625
       431   11 Jun 2027 14:32:08.887   11 Jun 2027 14:33:41.532            92.645               Magadan2         11580.625
       432   11 Jun 2027 15:21:04.465   11 Jun 2027 15:23:41.632           157.167            RioGallegos         19645.875
       433   11 Jun 2027 16:08:36.543   11 Jun 2027 16:11:29.617           173.074                Irkutsk         21634.250
       434   11 Jun 2027 16:22:23.596   11 Jun 2027 16:26:59.507           275.911                Sumatra         34488.875
       435   11 Jun 2027 17:44:21.816   11 Jun 2027 17:46:38.080           136.264                Novosib         17033.000
       436   11 Jun 2027 17:52:13.787   11 Jun 2027 17:53:36.439            82.652                  Delhi         10331.500
       437   11 Jun 2027 17:55:46.768   11 Jun 2027 17:56:22.379            35.611                  Delhi          4451.375
       438   11 Jun 2027 20:54:27.100   11 Jun 2027 20:54:46.071            18.971              Murmansk2          2371.375
       439   11 Jun 2027 20:57:50.028   11 Jun 2027 20:59:10.987            80.959                 Moscow         10119.875
       440   11 Jun 2027 21:22:14.002   11 Jun 2027 21:23:09.975            55.973               CapeTown          6996.625
       441   11 Jun 2027 23:00:16.837   11 Jun 2027 23:00:47.916            31.079               CapeTown          3884.875
       442   12 Jun 2027 03:18:36.020   12 Jun 2027 03:19:38.533            62.513                Novosib          7814.125
       443   12 Jun 2027 03:19:40.106   12 Jun 2027 03:23:12.219           212.113                Norilsk         26514.125
       444   12 Jun 2027 03:23:15.958   12 Jun 2027 03:25:02.691           106.733              Murmansk1         13341.625
       445   12 Jun 2027 04:28:17.331   12 Jun 2027 04:31:03.540           166.209                Sumatra         20776.125
       446   12 Jun 2027 04:54:06.657   12 Jun 2027 04:56:00.974           114.317                Novosib         14289.625
       447   12 Jun 2027 04:56:03.487   12 Jun 2027 04:59:52.284           228.797              Murmansk2         28599.625
       448   12 Jun 2027 05:34:58.539   12 Jun 2027 05:36:12.023            73.484            RioGallegos          9185.500
       449   12 Jun 2027 05:38:56.130   12 Jun 2027 05:39:08.844            12.714            RioGallegos          1589.250
       450   12 Jun 2027 06:06:01.823   12 Jun 2027 06:09:14.493           192.670                Sumatra         24083.750
       451   12 Jun 2027 06:12:16.593   12 Jun 2027 06:14:08.105           111.512                  Delhi         13939.000
       452   12 Jun 2027 06:19:35.137   12 Jun 2027 06:23:57.777           262.640                Novosib         32830.000
       453   12 Jun 2027 06:24:37.497   12 Jun 2027 06:26:01.019            83.522                 Moscow         10440.250
       454   12 Jun 2027 06:30:13.883   12 Jun 2027 06:33:14.605           180.722                 Moscow         22590.250
       455   12 Jun 2027 06:33:26.386   12 Jun 2027 06:34:59.156            92.770                Norilsk         11596.250
       456   12 Jun 2027 06:35:09.369   12 Jun 2027 06:35:24.137            14.768              Murmansk1          1846.000
       457   12 Jun 2027 07:51:50.560   12 Jun 2027 07:54:05.530           134.970                  Delhi         16871.250
       458   12 Jun 2027 08:05:53.270   12 Jun 2027 08:06:11.712            18.442                Norilsk          2305.250
       459   12 Jun 2027 08:07:02.269   12 Jun 2027 08:11:15.610           253.341                Norilsk         31667.625
       460   12 Jun 2027 08:11:24.476   12 Jun 2027 08:13:03.241            98.765              Murmansk2         12345.625
       461   12 Jun 2027 09:12:30.450   12 Jun 2027 09:20:05.874           455.424               CapeTown         56928.000
       462   12 Jun 2027 09:33:19.525   12 Jun 2027 09:37:34.209           254.684                 Moscow         31835.500
       463   12 Jun 2027 09:37:40.142   12 Jun 2027 09:38:06.762            26.620              Murmansk1          3327.500
       464   12 Jun 2027 09:38:06.762   12 Jun 2027 09:42:37.396           270.634              Murmansk2         33829.250
       465   12 Jun 2027 09:42:50.558   12 Jun 2027 09:43:23.452            32.894              Murmansk1          4111.750
       466   12 Jun 2027 09:44:14.835   12 Jun 2027 09:45:01.345            46.510              Murmansk1          5813.750
       467   12 Jun 2027 09:45:01.345   12 Jun 2027 09:45:16.008            14.663              Murmansk2          1832.875
       468   12 Jun 2027 09:45:31.579   12 Jun 2027 09:45:47.975            16.396              Murmansk1          2049.500
       469   12 Jun 2027 09:45:47.975   12 Jun 2027 09:46:43.358            55.383              Murmansk2          6922.875
       470   12 Jun 2027 09:46:55.439   12 Jun 2027 09:47:12.263            16.824              Murmansk2          2103.000
       471   12 Jun 2027 09:51:30.547   12 Jun 2027 09:55:53.182           262.635                Anadyr1         32829.375
       472   12 Jun 2027 09:55:56.525   12 Jun 2027 09:59:24.710           208.185                Anadyr2         26023.125
       473   12 Jun 2027 11:18:29.535   12 Jun 2027 11:18:42.986            13.451              Murmansk1          1681.375
       474   12 Jun 2027 11:18:54.157   12 Jun 2027 11:18:56.089             1.932              Murmansk1           241.500
       475   12 Jun 2027 11:26:46.603   12 Jun 2027 11:31:34.819           288.216                Anadyr1         36027.000
       476   12 Jun 2027 11:31:40.904   12 Jun 2027 11:34:32.981           172.077               Magadan1         21509.625
       477   12 Jun 2027 13:05:07.477   12 Jun 2027 13:06:31.477            84.000               Magadan1         10500.000
       478   12 Jun 2027 13:07:03.843   12 Jun 2027 13:10:16.590           192.747               Magadan2         24093.375
       479   12 Jun 2027 15:32:53.334   12 Jun 2027 15:37:18.002           264.668            RioGallegos         33083.500
       480   12 Jun 2027 16:20:30.794   12 Jun 2027 16:22:33.869           123.075                Irkutsk         15384.375
       481   12 Jun 2027 16:34:12.589   12 Jun 2027 16:37:09.018           176.429                Sumatra         22053.625
       482   12 Jun 2027 17:56:18.720   12 Jun 2027 17:57:35.990            77.270                Novosib          9658.750
