uniorb/output/strategy_4/Drop/Drop_KinoSat_111404.txt

KinoSat_111404
-------------------------
    Access    *     Start Time (UTCG)     *     Stop Time (UTCG)  *   Duration (s)        *       Station  *  Data (Mbytes)
         1   01 Jun 2027 03:35:27.622   01 Jun 2027 03:36:40.428            72.806                 Moscow          2275.188
         2   01 Jun 2027 03:36:41.932   01 Jun 2027 03:39:55.263           193.331              Murmansk2          6041.594
         3   01 Jun 2027 03:56:49.956   01 Jun 2027 03:57:11.363            21.407               CapeTown           668.969
         4   01 Jun 2027 03:58:28.974   01 Jun 2027 03:58:39.453            10.479               CapeTown           327.469
         5   01 Jun 2027 03:59:01.106   01 Jun 2027 03:59:20.300            19.194               CapeTown           599.812
         6   01 Jun 2027 04:01:17.298   01 Jun 2027 04:01:42.654            25.356               CapeTown           792.375
         7   01 Jun 2027 04:02:23.461   01 Jun 2027 04:02:28.493             5.032               CapeTown           157.250
         8   01 Jun 2027 04:03:26.008   01 Jun 2027 04:04:26.948            60.940               CapeTown          1904.375
         9   01 Jun 2027 04:58:06.697   01 Jun 2027 04:58:17.098            10.401               Magadan2           325.031
        10   01 Jun 2027 04:58:41.223   01 Jun 2027 04:58:57.034            15.811                Anadyr2           494.094
        11   01 Jun 2027 04:59:13.177   01 Jun 2027 05:00:26.117            72.940                Anadyr2          2279.375
        12   01 Jun 2027 05:00:53.479   01 Jun 2027 05:01:02.720             9.241                Anadyr2           288.781
        13   01 Jun 2027 05:03:12.797   01 Jun 2027 05:03:29.125            16.328                Anadyr1           510.250
        14   01 Jun 2027 05:10:34.074   01 Jun 2027 05:11:44.526            70.452              Murmansk2          2201.625
        15   01 Jun 2027 05:11:44.526   01 Jun 2027 05:14:53.571           189.045              Murmansk1          5907.656
        16   01 Jun 2027 05:14:53.571   01 Jun 2027 05:15:11.946            18.375              Murmansk2           574.219
        17   01 Jun 2027 05:15:33.982   01 Jun 2027 05:16:17.794            43.812              Murmansk1          1369.125
        18   01 Jun 2027 06:33:42.349   01 Jun 2027 06:34:22.763            40.414                Anadyr1          1262.938
        19   01 Jun 2027 06:34:41.608   01 Jun 2027 06:37:58.030           196.422               Magadan2          6138.188
        20   01 Jun 2027 06:37:59.755   01 Jun 2027 06:39:18.686            78.931                Anadyr2          2466.594
        21   01 Jun 2027 08:09:05.572   01 Jun 2027 08:12:10.465           184.893               Magadan1          5777.906
        22   01 Jun 2027 08:12:35.055   01 Jun 2027 08:15:31.178           176.123                Anadyr1          5503.844
        23   01 Jun 2027 08:51:16.466   01 Jun 2027 08:51:17.537             1.071            RioGallegos            33.469
        24   01 Jun 2027 08:52:42.980   01 Jun 2027 08:52:53.865            10.885            RioGallegos           340.156
        25   01 Jun 2027 08:53:27.248   01 Jun 2027 08:54:27.298            60.050            RioGallegos          1876.562
        26   01 Jun 2027 09:46:20.433   01 Jun 2027 09:49:01.971           161.538               Magadan1          5048.062
        27   01 Jun 2027 09:49:01.971   01 Jun 2027 09:50:35.220            93.249               Magadan2          2914.031
        28   01 Jun 2027 09:51:44.240   01 Jun 2027 09:52:54.072            69.832                Novosib          2182.250
        29   01 Jun 2027 09:52:57.906   01 Jun 2027 09:54:20.872            82.966              Murmansk2          2592.687
        30   01 Jun 2027 09:54:33.634   01 Jun 2027 09:54:37.725             4.091                Norilsk           127.844
        31   01 Jun 2027 10:26:27.404   01 Jun 2027 10:27:10.970            43.566            RioGallegos          1361.437
        32   01 Jun 2027 10:27:50.403   01 Jun 2027 10:28:29.694            39.291            RioGallegos          1227.844
        33   01 Jun 2027 10:29:23.556   01 Jun 2027 10:30:31.381            67.825            RioGallegos          2119.531
        34   01 Jun 2027 11:01:15.130   01 Jun 2027 11:02:22.190            67.060                Sumatra          2095.625
        35   01 Jun 2027 11:04:05.910   01 Jun 2027 11:04:17.384            11.474                Sumatra           358.562
        36   01 Jun 2027 11:04:22.578   01 Jun 2027 11:04:23.838             1.260                Sumatra            39.375
        37   01 Jun 2027 11:15:10.345   01 Jun 2027 11:15:23.407            13.062                  Delhi           408.187
        38   01 Jun 2027 11:23:21.940   01 Jun 2027 11:24:01.284            39.344                Novosib          1229.500
        39   01 Jun 2027 11:24:27.771   01 Jun 2027 11:26:41.253           133.482              Murmansk1          4171.313
        40   01 Jun 2027 11:26:48.472   01 Jun 2027 11:29:25.253           156.781                Norilsk          4899.406
        41   01 Jun 2027 11:29:31.134   01 Jun 2027 11:30:58.835            87.701              Murmansk1          2740.656
        42   01 Jun 2027 12:06:01.153   01 Jun 2027 12:07:15.080            73.927            RioGallegos          2310.219
        43   01 Jun 2027 12:08:17.419   01 Jun 2027 12:09:37.770            80.351            RioGallegos          2510.969
        44   01 Jun 2027 12:41:16.724   01 Jun 2027 12:44:16.727           180.003                Sumatra          5625.094
        45   01 Jun 2027 12:53:08.035   01 Jun 2027 12:53:52.599            44.564                Novosib          1392.625
        46   01 Jun 2027 12:55:18.773   01 Jun 2027 12:56:26.612            67.839                Novosib          2119.969
        47   01 Jun 2027 12:57:11.850   01 Jun 2027 12:57:14.726             2.876                Norilsk            89.875
        48   01 Jun 2027 12:57:37.290   01 Jun 2027 12:57:52.543            15.253                Novosib           476.656
        49   01 Jun 2027 12:57:57.315   01 Jun 2027 12:58:19.697            22.382                Irkutsk           699.437
        50   01 Jun 2027 12:58:36.601   01 Jun 2027 12:59:02.138            25.537                Norilsk           798.031
        51   01 Jun 2027 12:59:56.023   01 Jun 2027 12:59:59.515             3.492                Irkutsk           109.125
        52   01 Jun 2027 13:01:06.516   01 Jun 2027 13:01:32.029            25.513                Norilsk           797.281
        53   01 Jun 2027 14:29:51.742   01 Jun 2027 14:33:36.516           224.774                 Moscow          7024.188
        54   01 Jun 2027 14:34:34.695   01 Jun 2027 14:35:14.562            39.867              Murmansk2          1245.844
        55   01 Jun 2027 14:35:17.137   01 Jun 2027 14:35:42.985            25.848              Murmansk1           807.750
        56   01 Jun 2027 14:36:12.768   01 Jun 2027 14:36:37.156            24.388              Murmansk2           762.125
        57   01 Jun 2027 14:36:52.414   01 Jun 2027 14:38:13.467            81.053                Norilsk          2532.906
        58   01 Jun 2027 14:40:06.111   01 Jun 2027 14:40:23.352            17.241              Murmansk1           538.781
        59   01 Jun 2027 14:40:45.224   01 Jun 2027 14:41:46.521            61.297                Norilsk          1915.531
        60   01 Jun 2027 15:44:42.716   01 Jun 2027 15:47:36.624           173.908               CapeTown          5434.625
        61   01 Jun 2027 16:06:56.817   01 Jun 2027 16:07:24.459            27.642                 Moscow           863.813
        62   01 Jun 2027 16:09:54.935   01 Jun 2027 16:11:07.838            72.903                 Moscow          2278.219
        63   01 Jun 2027 16:12:35.889   01 Jun 2027 16:12:49.179            13.290              Murmansk1           415.313
        64   01 Jun 2027 16:13:19.367   01 Jun 2027 16:14:19.035            59.668              Murmansk1          1864.625
        65   01 Jun 2027 16:24:24.493   01 Jun 2027 16:25:48.063            83.570                Anadyr2          2611.563
        66   01 Jun 2027 16:26:00.626   01 Jun 2027 16:27:00.602            59.976                Anadyr1          1874.250
        67   01 Jun 2027 16:27:27.678   01 Jun 2027 16:28:03.198            35.520                Anadyr1          1110.000
        68   01 Jun 2027 17:19:17.409   01 Jun 2027 17:21:32.861           135.452               CapeTown          4232.875
        69   01 Jun 2027 17:49:18.510   01 Jun 2027 17:50:09.105            50.595              Murmansk2          1581.094
        70   01 Jun 2027 17:50:16.195   01 Jun 2027 17:54:19.054           242.859              Murmansk1          7589.344
        71   01 Jun 2027 18:03:30.894   01 Jun 2027 18:04:43.951            73.057               Magadan1          2283.031
        72   01 Jun 2027 18:04:58.179   01 Jun 2027 18:05:15.632            17.453               Magadan1           545.406
        73   01 Jun 2027 18:05:57.105   01 Jun 2027 18:06:02.851             5.746               Magadan1           179.562
        74   01 Jun 2027 18:08:38.373   01 Jun 2027 18:09:20.427            42.054               Magadan2          1314.188
        75   01 Jun 2027 18:59:16.582   01 Jun 2027 19:01:21.019           124.437               CapeTown          3888.656
        76   01 Jun 2027 19:35:48.369   01 Jun 2027 19:37:19.929            91.560                Anadyr2          2861.250
        77   01 Jun 2027 19:37:52.810   01 Jun 2027 19:39:33.884           101.074                Anadyr1          3158.562
        78   01 Jun 2027 19:39:39.379   01 Jun 2027 19:40:59.554            80.175               Magadan1          2505.469
        79   01 Jun 2027 19:42:48.851   01 Jun 2027 19:43:11.313            22.462               Magadan2           701.938
        80   01 Jun 2027 21:11:40.768   01 Jun 2027 21:16:30.003           289.235                Anadyr1          9038.594
        81   01 Jun 2027 21:16:46.144   01 Jun 2027 21:20:26.932           220.788                Norilsk          6899.625
        82   01 Jun 2027 21:20:52.578   01 Jun 2027 21:21:41.681            49.103                Irkutsk          1534.469
        83   01 Jun 2027 21:21:45.512   01 Jun 2027 21:22:15.690            30.178                Irkutsk           943.062
        84   01 Jun 2027 21:24:52.997   01 Jun 2027 21:25:25.516            32.519                Irkutsk          1016.219
        85   01 Jun 2027 21:36:13.824   01 Jun 2027 21:39:26.132           192.308                Sumatra          6009.625
        86   01 Jun 2027 22:47:07.556   01 Jun 2027 22:47:53.589            46.033                Anadyr2          1438.531
        87   01 Jun 2027 22:49:32.087   01 Jun 2027 22:51:23.044           110.957                Norilsk          3467.406
        88   01 Jun 2027 22:51:41.083   01 Jun 2027 22:51:44.917             3.834                Norilsk           119.812
        89   01 Jun 2027 22:52:44.374   01 Jun 2027 22:53:30.529            46.155               Magadan2          1442.344
        90   01 Jun 2027 22:53:30.529   01 Jun 2027 22:54:08.640            38.111               Magadan1          1190.969
        91   01 Jun 2027 22:54:36.091   01 Jun 2027 22:56:38.843           122.752                Novosib          3836.000
        92   01 Jun 2027 23:04:49.129   01 Jun 2027 23:04:52.961             3.832                Irkutsk           119.750
        93   01 Jun 2027 23:07:14.522   01 Jun 2027 23:07:55.726            41.204                Sumatra          1287.625
        94   01 Jun 2027 23:09:52.927   01 Jun 2027 23:10:10.448            17.521                Sumatra           547.531
        95   01 Jun 2027 23:11:26.977   01 Jun 2027 23:11:43.624            16.647                Sumatra           520.219
        96   01 Jun 2027 23:13:54.069   01 Jun 2027 23:15:52.816           118.747                Sumatra          3710.844
        97   01 Jun 2027 23:51:50.423   01 Jun 2027 23:52:22.867            32.444            RioGallegos          1013.875
        98   02 Jun 2027 00:21:31.877   02 Jun 2027 00:22:06.345            34.468                Anadyr1          1077.125
        99   02 Jun 2027 00:22:06.345   02 Jun 2027 00:23:04.538            58.193                Anadyr2          1818.531
       100   02 Jun 2027 00:23:47.202   02 Jun 2027 00:24:18.644            31.442                Anadyr1           982.562
       101   02 Jun 2027 00:25:31.700   02 Jun 2027 00:28:11.081           159.381                Norilsk          4980.656
       102   02 Jun 2027 00:28:17.390   02 Jun 2027 00:28:44.109            26.719               Magadan1           834.969
       103   02 Jun 2027 00:29:01.368   02 Jun 2027 00:30:10.990            69.622               Magadan1          2175.687
       104   02 Jun 2027 00:30:13.333   02 Jun 2027 00:31:54.486           101.153              Murmansk1          3161.031
       105   02 Jun 2027 00:37:42.472   02 Jun 2027 00:38:22.253            39.781                  Delhi          1243.156
       106   02 Jun 2027 00:43:47.343   02 Jun 2027 00:43:57.768            10.425                  Delhi           325.781
       107   02 Jun 2027 00:49:20.444   02 Jun 2027 00:49:22.500             2.056                  Delhi            64.250
       108   02 Jun 2027 01:18:10.903   02 Jun 2027 01:18:47.614            36.711            RioGallegos          1147.219
       109   02 Jun 2027 01:19:58.110   02 Jun 2027 01:20:56.181            58.071            RioGallegos          1814.719
       110   02 Jun 2027 01:23:46.770   02 Jun 2027 01:24:27.163            40.393            RioGallegos          1262.281
       111   02 Jun 2027 01:54:53.646   02 Jun 2027 01:55:18.726            25.080                Anadyr1           783.750
       112   02 Jun 2027 01:55:25.896   02 Jun 2027 01:55:53.080            27.184                Anadyr1           849.500
       113   02 Jun 2027 01:57:51.684   02 Jun 2027 01:57:52.428             0.744                Anadyr2            23.250
       114   02 Jun 2027 01:58:01.672   02 Jun 2027 01:58:03.215             1.543                Anadyr1            48.219
       115   02 Jun 2027 01:58:44.202   02 Jun 2027 01:58:55.292            11.090                Anadyr2           346.563
       116   02 Jun 2027 01:59:08.658   02 Jun 2027 01:59:45.541            36.883                Anadyr2          1152.594
       117   02 Jun 2027 02:01:06.050   02 Jun 2027 02:02:01.616            55.566               Magadan1          1736.438
       118   02 Jun 2027 02:02:51.250   02 Jun 2027 02:03:04.014            12.764                Norilsk           398.875
       119   02 Jun 2027 02:03:45.321   02 Jun 2027 02:05:51.809           126.488              Murmansk2          3952.750
       120   02 Jun 2027 02:10:18.049   02 Jun 2027 02:11:10.130            52.081                 Moscow          1627.531
       121   02 Jun 2027 02:13:32.164   02 Jun 2027 02:13:34.604             2.440                  Delhi            76.250
       122   02 Jun 2027 02:14:08.272   02 Jun 2027 02:14:17.313             9.041                  Delhi           282.531
       123   02 Jun 2027 02:16:12.444   02 Jun 2027 02:16:52.668            40.224                  Delhi          1257.000
       124   02 Jun 2027 02:20:31.809   02 Jun 2027 02:20:52.336            20.527                  Delhi           641.469
       125   02 Jun 2027 02:39:45.068   02 Jun 2027 02:40:42.471            57.403               CapeTown          1793.844
       126   02 Jun 2027 03:46:55.158   02 Jun 2027 03:47:12.236            17.078                Norilsk           533.688
       127   02 Jun 2027 03:47:52.261   02 Jun 2027 03:52:07.904           255.643              Murmansk2          7988.844
       128   02 Jun 2027 03:52:09.001   02 Jun 2027 03:52:54.629            45.628                 Moscow          1425.875
       129   02 Jun 2027 03:53:35.904   02 Jun 2027 03:54:11.649            35.745                 Moscow          1117.031
       130   02 Jun 2027 05:10:33.843   02 Jun 2027 05:12:25.554           111.711                Anadyr1          3490.969
       131   02 Jun 2027 05:14:00.407   02 Jun 2027 05:14:08.219             7.812               Magadan1           244.125
       132   02 Jun 2027 05:14:43.039   02 Jun 2027 05:15:56.835            73.796               Magadan1          2306.125
       133   02 Jun 2027 05:16:16.170   02 Jun 2027 05:16:25.035             8.865                Anadyr1           277.031
       134   02 Jun 2027 06:46:39.817   02 Jun 2027 06:47:58.210            78.393               Magadan2          2449.781
       135   02 Jun 2027 06:48:34.632   02 Jun 2027 06:52:15.714           221.082                Anadyr2          6908.812
       136   02 Jun 2027 08:20:49.190   02 Jun 2027 08:21:30.238            41.048                Anadyr1          1282.750
       137   02 Jun 2027 08:22:09.506   02 Jun 2027 08:22:29.773            20.267               Magadan1           633.344
       138   02 Jun 2027 08:22:59.043   02 Jun 2027 08:27:28.820           269.777               Magadan1          8430.531
       139   02 Jun 2027 08:27:28.820   02 Jun 2027 08:27:48.707            19.887               Magadan2           621.469
       140   02 Jun 2027 09:58:19.534   02 Jun 2027 09:59:16.463            56.929               Magadan1          1779.031
       141   02 Jun 2027 09:59:28.231   02 Jun 2027 09:59:37.096             8.865                Irkutsk           277.031
       142   02 Jun 2027 09:59:53.936   02 Jun 2027 10:00:27.676            33.740                Irkutsk          1054.375
       143   02 Jun 2027 10:00:30.262   02 Jun 2027 10:00:40.939            10.677               Magadan1           333.656
       144   02 Jun 2027 10:01:24.492   02 Jun 2027 10:02:15.390            50.898                Novosib          1590.562
       145   02 Jun 2027 10:02:21.209   02 Jun 2027 10:02:36.393            15.184                Novosib           474.500
       146   02 Jun 2027 10:02:50.257   02 Jun 2027 10:02:55.081             4.824                Irkutsk           150.750
       147   02 Jun 2027 10:03:10.380   02 Jun 2027 10:03:32.525            22.145                Novosib           692.031
       148   02 Jun 2027 10:03:38.192   02 Jun 2027 10:03:51.302            13.110                Novosib           409.687
       149   02 Jun 2027 10:38:38.559   02 Jun 2027 10:39:47.104            68.545            RioGallegos          2142.031
       150   02 Jun 2027 11:13:15.315   02 Jun 2027 11:13:30.895            15.580                Sumatra           486.875
       151   02 Jun 2027 11:15:23.447   02 Jun 2027 11:15:59.176            35.729                Sumatra          1116.531
       152   02 Jun 2027 11:26:24.475   02 Jun 2027 11:27:39.334            74.859                  Delhi          2339.344
       153   02 Jun 2027 11:33:16.138   02 Jun 2027 11:33:34.612            18.474                  Delhi           577.313
       154   02 Jun 2027 11:35:43.687   02 Jun 2027 11:35:48.929             5.242                Irkutsk           163.813
       155   02 Jun 2027 11:35:57.867   02 Jun 2027 11:36:29.834            31.967                Norilsk           998.969
       156   02 Jun 2027 11:36:44.865   02 Jun 2027 11:36:51.981             7.116                Novosib           222.375
       157   02 Jun 2027 11:36:55.027   02 Jun 2027 11:37:08.458            13.431                Norilsk           419.719
       158   02 Jun 2027 11:37:21.709   02 Jun 2027 11:37:35.932            14.223                Norilsk           444.469
       159   02 Jun 2027 11:37:52.682   02 Jun 2027 11:38:01.253             8.571                Irkutsk           267.844
       160   02 Jun 2027 11:38:04.469   02 Jun 2027 11:38:15.295            10.826                Novosib           338.312
       161   02 Jun 2027 11:38:17.503   02 Jun 2027 11:38:50.608            33.105                Norilsk          1034.531
       162   02 Jun 2027 11:39:05.980   02 Jun 2027 11:39:22.557            16.577                Novosib           518.031
       163   02 Jun 2027 11:39:37.713   02 Jun 2027 11:39:43.281             5.568                Norilsk           174.000
       164   02 Jun 2027 11:40:13.987   02 Jun 2027 11:40:28.935            14.948                Norilsk           467.125
       165   02 Jun 2027 12:19:12.777   02 Jun 2027 12:20:14.430            61.653            RioGallegos          1926.656
       166   02 Jun 2027 12:21:36.370   02 Jun 2027 12:22:14.187            37.817            RioGallegos          1181.781
       167   02 Jun 2027 12:59:09.251   02 Jun 2027 12:59:42.815            33.564                  Delhi          1048.875
       168   02 Jun 2027 13:00:31.672   02 Jun 2027 13:01:24.524            52.852                  Delhi          1651.625
       169   02 Jun 2027 13:05:31.457   02 Jun 2027 13:06:34.857            63.400                Novosib          1981.250
       170   02 Jun 2027 13:07:14.262   02 Jun 2027 13:07:46.869            32.607                Novosib          1018.969
       171   02 Jun 2027 13:09:33.294   02 Jun 2027 13:11:03.910            90.616                Norilsk          2831.750
       172   02 Jun 2027 13:11:15.019   02 Jun 2027 13:11:56.809            41.790                Norilsk          1305.938
       173   02 Jun 2027 13:20:12.204   02 Jun 2027 13:20:20.509             8.305                Norilsk           259.531
       174   02 Jun 2027 14:41:50.990   02 Jun 2027 14:44:38.966           167.976                 Moscow          5249.250
       175   02 Jun 2027 14:44:55.756   02 Jun 2027 14:45:09.824            14.068                 Moscow           439.625
       176   02 Jun 2027 14:45:18.744   02 Jun 2027 14:48:38.931           200.187              Murmansk2          6255.844
       177   02 Jun 2027 14:49:55.182   02 Jun 2027 14:50:10.175            14.993                Norilsk           468.531
       178   02 Jun 2027 14:52:44.058   02 Jun 2027 14:54:24.153           100.095                Norilsk          3127.969
       179   02 Jun 2027 15:56:17.725   02 Jun 2027 15:57:09.696            51.971               CapeTown          1624.094
       180   02 Jun 2027 15:59:47.057   02 Jun 2027 16:00:21.622            34.565               CapeTown          1080.156
       181   02 Jun 2027 16:19:23.838   02 Jun 2027 16:20:05.628            41.790                 Moscow          1305.938
       182   02 Jun 2027 16:20:40.160   02 Jun 2027 16:21:20.105            39.945                 Moscow          1248.281
       183   02 Jun 2027 16:22:56.007   02 Jun 2027 16:23:44.354            48.347              Murmansk2          1510.844
       184   02 Jun 2027 16:24:50.887   02 Jun 2027 16:25:22.750            31.863              Murmansk2           995.719
       185   02 Jun 2027 16:36:19.105   02 Jun 2027 16:37:48.171            89.066                Anadyr1          2783.313
       186   02 Jun 2027 16:37:57.580   02 Jun 2027 16:38:49.826            52.246                Anadyr2          1632.688
       187   02 Jun 2027 16:45:34.296   02 Jun 2027 16:45:50.315            16.019                Anadyr2           500.594
       188   02 Jun 2027 17:31:23.373   02 Jun 2027 17:32:39.003            75.630               CapeTown          2363.437
       189   02 Jun 2027 17:39:50.771   02 Jun 2027 17:40:07.119            16.348               CapeTown           510.875
       190   02 Jun 2027 17:40:20.644   02 Jun 2027 17:41:04.580            43.936               CapeTown          1373.000
       191   02 Jun 2027 18:01:56.742   02 Jun 2027 18:04:41.914           165.172              Murmansk2          5161.625
       192   02 Jun 2027 18:06:18.278   02 Jun 2027 18:06:57.304            39.026              Murmansk2          1219.562
       193   02 Jun 2027 18:11:54.585   02 Jun 2027 18:12:22.951            28.366                Anadyr2           886.437
       194   02 Jun 2027 18:12:49.143   02 Jun 2027 18:13:06.756            17.613                Anadyr2           550.406
       195   02 Jun 2027 18:13:10.979   02 Jun 2027 18:13:29.108            18.129                Anadyr2           566.531
       196   02 Jun 2027 18:15:12.041   02 Jun 2027 18:16:04.477            52.436               Magadan1          1638.625
       197   02 Jun 2027 18:17:24.712   02 Jun 2027 18:18:23.892            59.180               Magadan2          1849.375
       198   02 Jun 2027 19:47:49.975   02 Jun 2027 19:49:34.568           104.593                Anadyr2          3268.531
       199   02 Jun 2027 19:49:43.252   02 Jun 2027 19:51:35.207           111.955                Anadyr1          3498.594
       200   02 Jun 2027 19:51:48.619   02 Jun 2027 19:55:08.031           199.412               Magadan1          6231.625
       201   02 Jun 2027 19:58:50.314   02 Jun 2027 19:59:11.673            21.359               Magadan1           667.469
       202   02 Jun 2027 20:44:53.187   02 Jun 2027 20:46:48.096           114.909            RioGallegos          3590.906
       203   02 Jun 2027 21:23:40.671   02 Jun 2027 21:25:26.373           105.702                Anadyr2          3303.187
       204   02 Jun 2027 21:25:51.541   02 Jun 2027 21:28:47.739           176.198                Norilsk          5506.188
       205   02 Jun 2027 21:30:25.432   02 Jun 2027 21:30:28.597             3.165               Magadan1            98.906
       206   02 Jun 2027 21:31:01.442   02 Jun 2027 21:31:28.744            27.302                Irkutsk           853.187
       207   02 Jun 2027 21:32:09.822   02 Jun 2027 21:33:36.822            87.000                Irkutsk          2718.750
       208   02 Jun 2027 21:36:46.783   02 Jun 2027 21:36:51.357             4.574                Irkutsk           142.938
       209   02 Jun 2027 21:46:29.219   02 Jun 2027 21:48:17.420           108.201                Sumatra          3381.281
       210   02 Jun 2027 21:50:17.390   02 Jun 2027 21:51:10.050            52.660                Sumatra          1645.625
       211   02 Jun 2027 22:59:01.793   02 Jun 2027 22:59:56.968            55.175                Anadyr1          1724.219
       212   02 Jun 2027 23:00:21.155   02 Jun 2027 23:01:31.429            70.274                Anadyr2          2196.062
       213   02 Jun 2027 23:02:09.340   02 Jun 2027 23:02:22.522            13.182               Magadan2           411.938
       214   02 Jun 2027 23:02:58.066   02 Jun 2027 23:03:08.669            10.603               Magadan1           331.344
       215   02 Jun 2027 23:03:13.394   02 Jun 2027 23:03:25.083            11.689                Norilsk           365.281
       216   02 Jun 2027 23:03:28.527   02 Jun 2027 23:04:12.314            43.787               Magadan2          1368.344
       217   02 Jun 2027 23:04:58.651   02 Jun 2027 23:05:32.774            34.123               Magadan2          1066.344
       218   02 Jun 2027 23:06:19.645   02 Jun 2027 23:07:18.563            58.918                Novosib          1841.187
       219   02 Jun 2027 23:15:08.191   02 Jun 2027 23:15:31.202            23.011                Novosib           719.094
       220   02 Jun 2027 23:17:56.254   02 Jun 2027 23:19:46.166           109.912                  Delhi          3434.750
       221   02 Jun 2027 23:28:15.826   02 Jun 2027 23:28:17.547             1.721                Sumatra            53.781
       222   02 Jun 2027 23:29:18.477   02 Jun 2027 23:31:12.801           114.324                Sumatra          3572.625
       223   03 Jun 2027 00:35:11.762   03 Jun 2027 00:35:31.010            19.248                Anadyr1           601.500
       224   03 Jun 2027 00:35:44.531   03 Jun 2027 00:36:00.491            15.960                Anadyr2           498.750
       225   03 Jun 2027 00:37:33.849   03 Jun 2027 00:38:43.446            69.597                Norilsk          2174.906
       226   03 Jun 2027 00:38:50.980   03 Jun 2027 00:39:57.956            66.976               Magadan1          2093.000
       227   03 Jun 2027 00:40:43.428   03 Jun 2027 00:41:40.818            57.390              Murmansk2          1793.438
       228   03 Jun 2027 00:41:52.639   03 Jun 2027 00:42:56.949            64.310                Irkutsk          2009.687
       229   03 Jun 2027 00:45:51.572   03 Jun 2027 00:45:57.048             5.476                Novosib           171.125
       230   03 Jun 2027 00:48:25.742   03 Jun 2027 00:49:19.065            53.323                Novosib          1666.344
       231   03 Jun 2027 00:51:13.522   03 Jun 2027 00:51:41.498            27.976                  Delhi           874.250
       232   03 Jun 2027 00:52:28.120   03 Jun 2027 00:52:39.910            11.790                  Delhi           368.437
       233   03 Jun 2027 00:54:34.378   03 Jun 2027 00:54:48.009            13.631                  Delhi           425.969
       234   03 Jun 2027 00:55:36.539   03 Jun 2027 00:56:29.743            53.204                  Delhi          1662.625
       235   03 Jun 2027 01:30:25.414   03 Jun 2027 01:31:53.589            88.175            RioGallegos          2755.469
       236   03 Jun 2027 02:06:35.033   03 Jun 2027 02:06:57.888            22.855                Anadyr1           714.219
       237   03 Jun 2027 02:07:16.195   03 Jun 2027 02:07:49.019            32.824                Anadyr1          1025.750
       238   03 Jun 2027 02:08:49.111   03 Jun 2027 02:09:10.385            21.274                Anadyr2           664.813
       239   03 Jun 2027 02:11:38.020   03 Jun 2027 02:12:02.821            24.801                Anadyr1           775.031
       240   03 Jun 2027 02:12:26.332   03 Jun 2027 02:12:41.890            15.558                Anadyr2           486.188
       241   03 Jun 2027 02:12:44.364   03 Jun 2027 02:13:04.020            19.656               Magadan2           614.250
       242   03 Jun 2027 02:13:12.794   03 Jun 2027 02:13:41.668            28.874               Magadan1           902.312
       243   03 Jun 2027 02:14:44.769   03 Jun 2027 02:15:02.593            17.824                Norilsk           557.000
       244   03 Jun 2027 02:15:45.211   03 Jun 2027 02:17:10.904            85.693              Murmansk1          2677.906
       245   03 Jun 2027 02:17:25.859   03 Jun 2027 02:18:40.217            74.358                Novosib          2323.687
       246   03 Jun 2027 02:23:10.516   03 Jun 2027 02:23:13.074             2.558                Novosib            79.938
       247   03 Jun 2027 02:24:37.812   03 Jun 2027 02:25:18.331            40.519                Novosib          1266.219
       248   03 Jun 2027 02:29:34.829   03 Jun 2027 02:31:33.683           118.854                  Delhi          3714.187
       249   03 Jun 2027 03:58:45.685   03 Jun 2027 03:59:33.934            48.249                Norilsk          1507.781
       250   03 Jun 2027 04:00:09.859   03 Jun 2027 04:00:38.568            28.709              Murmansk1           897.156
       251   03 Jun 2027 04:01:21.005   03 Jun 2027 04:02:11.744            50.739              Murmansk1          1585.594
       252   03 Jun 2027 04:02:14.878   03 Jun 2027 04:04:18.677           123.799              Murmansk1          3868.719
       253   03 Jun 2027 04:04:21.728   03 Jun 2027 04:04:52.980            31.252                 Moscow           976.625
       254   03 Jun 2027 04:23:40.311   03 Jun 2027 04:23:58.607            18.296               CapeTown           571.750
       255   03 Jun 2027 04:26:16.020   03 Jun 2027 04:27:06.798            50.778               CapeTown          1586.812
       256   03 Jun 2027 05:22:12.521   03 Jun 2027 05:28:00.298           347.777               Magadan1         10868.031
       257   03 Jun 2027 05:28:03.357   03 Jun 2027 05:28:26.599            23.242                Anadyr1           726.313
       258   03 Jun 2027 06:59:55.131   03 Jun 2027 06:59:56.015             0.884               Magadan1            27.625
       259   03 Jun 2027 06:59:56.015   03 Jun 2027 07:00:08.482            12.467               Magadan2           389.594
       260   03 Jun 2027 07:00:18.313   03 Jun 2027 07:00:19.631             1.318               Magadan2            41.187
       261   03 Jun 2027 07:00:20.590   03 Jun 2027 07:01:58.911            98.321               Magadan1          3072.531
       262   03 Jun 2027 08:32:29.378   03 Jun 2027 08:32:47.793            18.415               Magadan1           575.469
       263   03 Jun 2027 08:33:32.193   03 Jun 2027 08:34:45.475            73.282                Anadyr2          2290.062
       264   03 Jun 2027 08:36:09.874   03 Jun 2027 08:36:16.853             6.979               Magadan1           218.094
       265   03 Jun 2027 08:36:39.339   03 Jun 2027 08:37:42.778            63.439                Anadyr1          1982.469
       266   03 Jun 2027 08:37:58.295   03 Jun 2027 08:37:59.170             0.875               Magadan2            27.344
       267   03 Jun 2027 08:38:06.788   03 Jun 2027 08:38:28.663            21.875                Irkutsk           683.594
       268   03 Jun 2027 08:38:32.095   03 Jun 2027 08:39:20.382            48.287                Irkutsk          1508.969
       269   03 Jun 2027 08:42:48.110   03 Jun 2027 08:43:22.327            34.217                Norilsk          1069.281
       270   03 Jun 2027 09:14:48.886   03 Jun 2027 09:15:29.275            40.389            RioGallegos          1262.156
       271   03 Jun 2027 09:15:41.435   03 Jun 2027 09:15:50.535             9.100            RioGallegos           284.375
       272   03 Jun 2027 09:51:56.004   03 Jun 2027 09:53:30.496            94.492                Sumatra          2952.875
       273   03 Jun 2027 10:10:16.724   03 Jun 2027 10:10:30.131            13.407                Irkutsk           418.969
       274   03 Jun 2027 10:11:46.789   03 Jun 2027 10:12:56.704            69.915                Norilsk          2184.844
       275   03 Jun 2027 10:12:59.269   03 Jun 2027 10:13:25.611            26.342               Magadan2           823.187
       276   03 Jun 2027 10:13:30.359   03 Jun 2027 10:13:50.136            19.777                Norilsk           618.031
       277   03 Jun 2027 10:13:56.183   03 Jun 2027 10:14:37.178            40.995                Irkutsk          1281.094
       278   03 Jun 2027 10:15:08.683   03 Jun 2027 10:15:09.202             0.519                Irkutsk            16.219
       279   03 Jun 2027 10:15:12.216   03 Jun 2027 10:15:46.300            34.084                Irkutsk          1065.125
       280   03 Jun 2027 10:50:53.644   03 Jun 2027 10:51:38.992            45.348            RioGallegos          1417.125
       281   03 Jun 2027 11:25:21.189   03 Jun 2027 11:25:58.003            36.814                Sumatra          1150.438
       282   03 Jun 2027 11:28:20.174   03 Jun 2027 11:29:42.004            81.830                Sumatra          2557.188
       283   03 Jun 2027 11:46:46.057   03 Jun 2027 11:47:45.747            59.690                Irkutsk          1865.313
       284   03 Jun 2027 11:47:50.499   03 Jun 2027 11:47:57.919             7.420                Irkutsk           231.875
       285   03 Jun 2027 11:48:27.297   03 Jun 2027 11:48:43.292            15.995                Novosib           499.844
       286   03 Jun 2027 11:48:54.958   03 Jun 2027 11:48:59.064             4.106                Novosib           128.312
       287   03 Jun 2027 11:49:17.428   03 Jun 2027 11:49:41.974            24.546                Norilsk           767.063
       288   03 Jun 2027 11:49:56.876   03 Jun 2027 11:51:04.095            67.219                Novosib          2100.594
       289   03 Jun 2027 11:51:10.153   03 Jun 2027 11:51:11.817             1.664                Norilsk            52.000
       290   03 Jun 2027 11:51:27.350   03 Jun 2027 11:51:57.719            30.369                Novosib           949.031
       291   03 Jun 2027 12:33:20.464   03 Jun 2027 12:35:05.506           105.042            RioGallegos          3282.563
       292   03 Jun 2027 13:09:53.710   03 Jun 2027 13:10:16.664            22.954                  Delhi           717.313
       293   03 Jun 2027 13:14:16.012   03 Jun 2027 13:14:42.878            26.866                  Delhi           839.562
       294   03 Jun 2027 13:17:43.449   03 Jun 2027 13:18:27.813            44.364                  Delhi          1386.375
       295   03 Jun 2027 13:18:47.466   03 Jun 2027 13:19:50.258            62.792                Novosib          1962.250
       296   03 Jun 2027 13:21:36.136   03 Jun 2027 13:23:10.172            94.036                Novosib          2938.625
       297   03 Jun 2027 13:25:11.038   03 Jun 2027 13:25:35.179            24.141                Norilsk           754.406
       298   03 Jun 2027 13:30:32.400   03 Jun 2027 13:30:59.855            27.455                Norilsk           857.969
       299   03 Jun 2027 14:53:53.131   03 Jun 2027 14:57:52.002           238.871                 Moscow          7464.719
       300   03 Jun 2027 14:58:39.567   03 Jun 2027 15:00:13.479            93.912              Murmansk1          2934.750
       301   03 Jun 2027 15:02:23.356   03 Jun 2027 15:04:41.768           138.412                Norilsk          4325.375
       302   03 Jun 2027 15:06:50.540   03 Jun 2027 15:07:05.236            14.696                Norilsk           459.250
       303   03 Jun 2027 16:07:59.610   03 Jun 2027 16:08:24.415            24.805               CapeTown           775.156
       304   03 Jun 2027 16:10:47.940   03 Jun 2027 16:11:17.453            29.513               CapeTown           922.281
       305   03 Jun 2027 16:14:08.419   03 Jun 2027 16:14:23.123            14.704               CapeTown           459.500
       306   03 Jun 2027 16:15:31.466   03 Jun 2027 16:17:23.308           111.842               CapeTown          3495.062
       307   03 Jun 2027 16:34:48.063   03 Jun 2027 16:35:53.489            65.426              Murmansk1          2044.562
       308   03 Jun 2027 16:44:34.103   03 Jun 2027 16:44:39.571             5.468              Murmansk1           170.875
       309   03 Jun 2027 16:48:15.269   03 Jun 2027 16:49:48.647            93.378                Anadyr2          2918.063
       310   03 Jun 2027 16:49:52.819   03 Jun 2027 16:50:52.074            59.255                Anadyr1          1851.719
       311   03 Jun 2027 16:53:35.689   03 Jun 2027 16:54:37.323            61.634                Anadyr2          1926.062
       312   03 Jun 2027 17:43:32.289   03 Jun 2027 17:44:07.330            35.041               CapeTown          1095.031
       313   03 Jun 2027 17:49:04.338   03 Jun 2027 17:49:13.326             8.988               CapeTown           280.875
       314   03 Jun 2027 17:52:42.740   03 Jun 2027 17:53:16.088            33.348               CapeTown          1042.125
       315   03 Jun 2027 18:14:38.885   03 Jun 2027 18:16:51.850           132.965              Murmansk2          4155.156
       316   03 Jun 2027 18:18:03.283   03 Jun 2027 18:20:08.764           125.481              Murmansk1          3921.281
       317   03 Jun 2027 18:26:58.604   03 Jun 2027 18:28:37.830            99.226               Magadan1          3100.813
       318   03 Jun 2027 18:29:20.642   03 Jun 2027 18:29:36.029            15.387               Magadan2           480.844
       319   03 Jun 2027 19:59:51.509   03 Jun 2027 20:02:43.387           171.878                Anadyr2          5371.187
       320   03 Jun 2027 20:02:55.876   03 Jun 2027 20:06:27.073           211.197               Magadan2          6599.906
       321   03 Jun 2027 20:06:56.396   03 Jun 2027 20:07:47.167            50.771               Magadan1          1586.594
       322   03 Jun 2027 20:55:50.069   03 Jun 2027 20:58:26.950           156.881            RioGallegos          4902.531
       323   03 Jun 2027 21:00:59.151   03 Jun 2027 21:01:40.234            41.083            RioGallegos          1283.844
       324   03 Jun 2027 21:35:40.137   03 Jun 2027 21:37:52.558           132.421                Anadyr1          4138.156
       325   03 Jun 2027 21:38:05.399   03 Jun 2027 21:39:38.313            92.914               Magadan2          2903.563
       326   03 Jun 2027 21:40:49.983   03 Jun 2027 21:41:01.906            11.923               Magadan2           372.594
       327   03 Jun 2027 21:42:39.570   03 Jun 2027 21:43:26.009            46.439                Irkutsk          1451.219
       328   03 Jun 2027 21:44:54.686   03 Jun 2027 21:45:43.402            48.716                Irkutsk          1522.375
       329   03 Jun 2027 21:51:39.702   03 Jun 2027 21:51:48.850             9.148                Irkutsk           285.875
       330   03 Jun 2027 21:57:28.894   03 Jun 2027 21:57:55.296            26.402                Sumatra           825.062
       331   03 Jun 2027 21:59:01.647   03 Jun 2027 21:59:50.553            48.906                Sumatra          1528.312
       332   03 Jun 2027 22:01:26.661   03 Jun 2027 22:01:36.626             9.965                Sumatra           311.406
       333   03 Jun 2027 22:03:00.335   03 Jun 2027 22:04:44.037           103.702                Sumatra          3240.688
       334   03 Jun 2027 23:10:54.929   03 Jun 2027 23:11:18.021            23.092                Anadyr1           721.625
       335   03 Jun 2027 23:11:43.814   03 Jun 2027 23:12:09.023            25.209                Anadyr2           787.781
       336   03 Jun 2027 23:13:35.420   03 Jun 2027 23:15:27.101           111.681                Norilsk          3490.031
       337   03 Jun 2027 23:15:40.315   03 Jun 2027 23:16:13.344            33.029               Magadan2          1032.156
       338   03 Jun 2027 23:17:29.956   03 Jun 2027 23:18:36.583            66.627                Irkutsk          2082.094
       339   03 Jun 2027 23:20:54.425   03 Jun 2027 23:21:39.046            44.621                Novosib          1394.406
       340   03 Jun 2027 23:24:22.335   03 Jun 2027 23:24:28.313             5.978                Novosib           186.813
       341   03 Jun 2027 23:25:39.873   03 Jun 2027 23:26:28.079            48.206                Novosib          1506.438
       342   03 Jun 2027 23:27:49.048   03 Jun 2027 23:29:38.857           109.809                  Delhi          3431.531
       343   04 Jun 2027 00:13:25.753   04 Jun 2027 00:13:36.328            10.575            RioGallegos           330.469
       344   04 Jun 2027 00:14:07.104   04 Jun 2027 00:14:25.565            18.461            RioGallegos           576.906
       345   04 Jun 2027 00:16:41.034   04 Jun 2027 00:17:11.551            30.517            RioGallegos           953.656
       346   04 Jun 2027 00:44:59.777   04 Jun 2027 00:45:09.765             9.988                Anadyr1           312.125
       347   04 Jun 2027 00:45:09.765   04 Jun 2027 00:45:12.663             2.898                Anadyr2            90.563
       348   04 Jun 2027 00:45:29.092   04 Jun 2027 00:46:08.687            39.595                Anadyr2          1237.344
       349   04 Jun 2027 00:47:12.544   04 Jun 2027 00:47:59.425            46.881                Anadyr2          1465.031
       350   04 Jun 2027 00:49:35.940   04 Jun 2027 00:49:46.751            10.811                Norilsk           337.844
       351   04 Jun 2027 00:50:10.655   04 Jun 2027 00:50:47.779            37.124               Magadan2          1160.125
       352   04 Jun 2027 00:50:49.195   04 Jun 2027 00:51:39.780            50.585                Norilsk          1580.781
       353   04 Jun 2027 00:51:41.741   04 Jun 2027 00:52:01.718            19.977               Magadan1           624.281
       354   04 Jun 2027 00:52:13.981   04 Jun 2027 00:53:08.635            54.654               Magadan1          1707.937
       355   04 Jun 2027 00:53:23.366   04 Jun 2027 00:54:28.441            65.075                Novosib          2033.594
       356   04 Jun 2027 00:57:51.683   04 Jun 2027 00:58:08.446            16.763                Novosib           523.844
       357   04 Jun 2027 01:00:25.383   04 Jun 2027 01:01:00.684            35.301                Novosib          1103.156
       358   04 Jun 2027 01:03:23.066   04 Jun 2027 01:03:38.532            15.466                  Delhi           483.313
       359   04 Jun 2027 01:03:55.265   04 Jun 2027 01:04:34.291            39.026                  Delhi          1219.562
       360   04 Jun 2027 01:10:09.483   04 Jun 2027 01:10:18.797             9.314                  Delhi           291.062
       361   04 Jun 2027 01:42:43.434   04 Jun 2027 01:44:02.762            79.328            RioGallegos          2479.000
       362   04 Jun 2027 01:44:53.273   04 Jun 2027 01:44:54.632             1.359            RioGallegos            42.469
       363   04 Jun 2027 01:45:06.232   04 Jun 2027 01:45:41.421            35.189            RioGallegos          1099.656
       364   04 Jun 2027 02:18:16.873   04 Jun 2027 02:18:18.617             1.744                Anadyr1            54.500
       365   04 Jun 2027 02:18:36.907   04 Jun 2027 02:19:06.460            29.553                Anadyr2           923.531
       366   04 Jun 2027 02:19:56.123   04 Jun 2027 02:20:15.214            19.091                Anadyr2           596.594
       367   04 Jun 2027 02:20:49.651   04 Jun 2027 02:21:12.977            23.326                Anadyr1           728.938
       368   04 Jun 2027 02:24:18.759   04 Jun 2027 02:25:36.643            77.884               Magadan1          2433.875
       369   04 Jun 2027 02:26:10.461   04 Jun 2027 02:26:23.493            13.032               Magadan1           407.250
       370   04 Jun 2027 02:27:14.030   04 Jun 2027 02:27:38.227            24.197                Norilsk           756.156
       371   04 Jun 2027 02:27:45.621   04 Jun 2027 02:28:44.543            58.922              Murmansk1          1841.312
       372   04 Jun 2027 02:28:56.537   04 Jun 2027 02:29:04.515             7.978              Murmansk1           249.313
       373   04 Jun 2027 02:29:30.569   04 Jun 2027 02:29:39.596             9.027                Novosib           282.094
       374   04 Jun 2027 02:29:48.653   04 Jun 2027 02:29:59.063            10.410              Murmansk1           325.312
       375   04 Jun 2027 02:31:05.409   04 Jun 2027 02:31:59.089            53.680                Irkutsk          1677.500
       376   04 Jun 2027 02:32:32.019   04 Jun 2027 02:33:14.219            42.200                Irkutsk          1318.750
       377   04 Jun 2027 02:39:49.609   04 Jun 2027 02:40:47.135            57.526                  Delhi          1797.687
       378   04 Jun 2027 03:05:29.480   04 Jun 2027 03:06:15.578            46.098               CapeTown          1440.563
       379   04 Jun 2027 03:59:03.248   04 Jun 2027 03:59:10.306             7.058                Anadyr1           220.563
       380   04 Jun 2027 03:59:16.433   04 Jun 2027 04:00:38.520            82.087                Anadyr1          2565.219
       381   04 Jun 2027 04:12:23.163   04 Jun 2027 04:13:17.649            54.486              Murmansk1          1702.687
       382   04 Jun 2027 04:13:31.806   04 Jun 2027 04:16:27.637           175.831              Murmansk1          5494.719
       383   04 Jun 2027 04:17:02.344   04 Jun 2027 04:17:08.133             5.789                 Moscow           180.906
       384   04 Jun 2027 05:34:22.702   04 Jun 2027 05:38:13.909           231.207               Magadan2          7225.219
       385   04 Jun 2027 05:38:15.836   04 Jun 2027 05:40:07.555           111.719                Anadyr2          3491.219
       386   04 Jun 2027 07:11:43.137   04 Jun 2027 07:12:35.060            51.923                Anadyr1          1622.594
       387   04 Jun 2027 07:12:44.916   04 Jun 2027 07:13:19.953            35.037                Anadyr1          1094.906
       388   04 Jun 2027 07:13:19.953   04 Jun 2027 07:13:47.105            27.152                Anadyr2           848.500
       389   04 Jun 2027 07:13:58.560   04 Jun 2027 07:14:21.788            23.228               Magadan1           725.875
       390   04 Jun 2027 08:45:20.385   04 Jun 2027 08:45:25.575             5.190               Magadan1           162.187
       391   04 Jun 2027 08:45:40.799   04 Jun 2027 08:46:33.988            53.189               Magadan1          1662.156
       392   04 Jun 2027 08:46:45.386   04 Jun 2027 08:47:09.033            23.647               Magadan1           738.969
       393   04 Jun 2027 08:47:42.423   04 Jun 2027 08:50:14.682           152.259                Anadyr2          4758.094
       394   04 Jun 2027 08:50:24.118   04 Jun 2027 08:50:46.653            22.535               Magadan2           704.219
       395   04 Jun 2027 08:51:16.699   04 Jun 2027 08:51:42.359            25.660               Magadan2           801.875
       396   04 Jun 2027 08:54:46.719   04 Jun 2027 08:54:48.350             1.631                Norilsk            50.969
       397   04 Jun 2027 09:26:39.921   04 Jun 2027 09:27:29.773            49.852            RioGallegos          1557.875
       398   04 Jun 2027 09:27:42.030   04 Jun 2027 09:28:24.328            42.298            RioGallegos          1321.812
       399   04 Jun 2027 10:03:06.237   04 Jun 2027 10:03:45.098            38.861                Sumatra          1214.406
       400   04 Jun 2027 10:12:03.422   04 Jun 2027 10:12:11.524             8.102                Sumatra           253.187
       401   04 Jun 2027 10:22:52.582   04 Jun 2027 10:22:56.709             4.127                Irkutsk           128.969
       402   04 Jun 2027 10:23:26.943   04 Jun 2027 10:23:33.101             6.158                Norilsk           192.437
       403   04 Jun 2027 10:23:44.268   04 Jun 2027 10:24:50.407            66.139                Norilsk          2066.844
       404   04 Jun 2027 10:24:58.669   04 Jun 2027 10:25:18.351            19.682                Norilsk           615.063
       405   04 Jun 2027 10:25:36.218   04 Jun 2027 10:25:54.545            18.327                Irkutsk           572.719
       406   04 Jun 2027 10:26:12.274   04 Jun 2027 10:26:57.284            45.010                Irkutsk          1406.563
       407   04 Jun 2027 10:27:16.672   04 Jun 2027 10:27:19.454             2.782                Novosib            86.937
       408   04 Jun 2027 10:27:21.828   04 Jun 2027 10:27:27.404             5.576                Irkutsk           174.250
       409   04 Jun 2027 10:27:30.425   04 Jun 2027 10:27:49.522            19.097                Novosib           596.781
       410   04 Jun 2027 11:03:12.995   04 Jun 2027 11:03:22.499             9.504            RioGallegos           297.000
       411   04 Jun 2027 11:04:01.844   04 Jun 2027 11:04:33.168            31.324            RioGallegos           978.875
       412   04 Jun 2027 11:07:47.077   04 Jun 2027 11:08:00.042            12.965            RioGallegos           405.156
       413   04 Jun 2027 11:09:46.803   04 Jun 2027 11:09:54.072             7.269            RioGallegos           227.156
       414   04 Jun 2027 11:37:33.094   04 Jun 2027 11:38:05.734            32.640                Sumatra          1020.000
       415   04 Jun 2027 11:39:31.749   04 Jun 2027 11:40:10.292            38.543                Sumatra          1204.469
       416   04 Jun 2027 11:46:17.090   04 Jun 2027 11:46:44.152            27.062                  Delhi           845.687
       417   04 Jun 2027 11:59:56.427   04 Jun 2027 12:00:49.821            53.394                Irkutsk          1668.562
       418   04 Jun 2027 12:02:02.772   04 Jun 2027 12:02:32.250            29.478                Irkutsk           921.188
       419   04 Jun 2027 12:03:31.647   04 Jun 2027 12:05:13.510           101.863                Novosib          3183.219
       420   04 Jun 2027 13:22:16.548   04 Jun 2027 13:23:36.614            80.066                  Delhi          2502.062
       421   04 Jun 2027 13:26:59.744   04 Jun 2027 13:27:29.908            30.164                  Delhi           942.625
       422   04 Jun 2027 13:29:31.811   04 Jun 2027 13:30:21.889            50.078                  Delhi          1564.937
       423   04 Jun 2027 13:30:32.841   04 Jun 2027 13:31:53.123            80.282                Novosib          2508.813
       424   04 Jun 2027 13:33:51.204   04 Jun 2027 13:34:29.541            38.337              Murmansk1          1198.031
       425   04 Jun 2027 13:34:29.731   04 Jun 2027 13:35:37.436            67.705                Novosib          2115.781
       426   04 Jun 2027 13:39:29.136   04 Jun 2027 13:40:25.454            56.318                Novosib          1759.937
       427   04 Jun 2027 13:44:19.323   04 Jun 2027 13:44:26.625             7.302                Norilsk           228.187
       428   04 Jun 2027 15:05:58.264   04 Jun 2027 15:09:09.779           191.515                 Moscow          5984.844
       429   04 Jun 2027 15:09:29.696   04 Jun 2027 15:10:41.337            71.641              Murmansk2          2238.781
       430   04 Jun 2027 15:15:17.635   04 Jun 2027 15:18:46.484           208.849                Norilsk          6526.531
       431   04 Jun 2027 16:21:34.849   04 Jun 2027 16:22:02.363            27.514               CapeTown           859.812
       432   04 Jun 2027 16:27:07.390   04 Jun 2027 16:27:12.665             5.275               CapeTown           164.844
       433   04 Jun 2027 16:29:13.661   04 Jun 2027 16:29:21.439             7.778               CapeTown           243.062
       434   04 Jun 2027 16:30:54.405   04 Jun 2027 16:31:03.362             8.957               CapeTown           279.906
       435   04 Jun 2027 16:44:34.248   04 Jun 2027 16:45:25.522            51.274                 Moscow          1602.312
       436   04 Jun 2027 16:47:09.861   04 Jun 2027 16:48:10.036            60.175              Murmansk2          1880.469
       437   04 Jun 2027 16:50:46.995   04 Jun 2027 16:51:13.405            26.410              Murmansk1           825.312
       438   04 Jun 2027 16:51:52.369   04 Jun 2027 16:52:11.071            18.702              Murmansk1           584.438
       439   04 Jun 2027 16:54:31.882   04 Jun 2027 16:54:34.547             2.665              Murmansk1            83.281
       440   04 Jun 2027 16:56:05.275   04 Jun 2027 16:56:36.225            30.950              Murmansk2           967.187
       441   04 Jun 2027 16:56:36.225   04 Jun 2027 16:56:53.464            17.239              Murmansk1           538.719
       442   04 Jun 2027 17:00:12.617   04 Jun 2027 17:01:46.402            93.785                Anadyr2          2930.781
       443   04 Jun 2027 17:07:22.874   04 Jun 2027 17:07:35.725            12.851                Anadyr1           401.594
       444   04 Jun 2027 17:09:28.059   04 Jun 2027 17:09:42.379            14.320                Anadyr2           447.500
       445   04 Jun 2027 17:55:44.516   04 Jun 2027 17:56:40.654            56.138               CapeTown          1754.313
       446   04 Jun 2027 18:02:09.362   04 Jun 2027 18:03:18.902            69.540               CapeTown          2173.125
       447   04 Jun 2027 18:27:25.810   04 Jun 2027 18:32:09.211           283.401              Murmansk1          8856.281
       448   04 Jun 2027 18:39:30.869   04 Jun 2027 18:40:21.226            50.357               Magadan2          1573.656
       449   04 Jun 2027 18:47:53.999   04 Jun 2027 18:48:17.076            23.077               Magadan1           721.156
       450   04 Jun 2027 20:11:52.934   04 Jun 2027 20:13:59.406           126.472                Anadyr1          3952.250
       451   04 Jun 2027 20:14:09.929   04 Jun 2027 20:18:29.794           259.865               Magadan2          8120.781
       452   04 Jun 2027 20:18:29.794   04 Jun 2027 20:18:33.869             4.075               Magadan1           127.344
       453   04 Jun 2027 20:18:48.358   04 Jun 2027 20:18:50.305             1.947               Magadan1            60.844
       454   04 Jun 2027 20:18:51.870   04 Jun 2027 20:19:00.235             8.365               Magadan1           261.406
       455   04 Jun 2027 20:19:26.287   04 Jun 2027 20:20:32.679            66.392               Magadan1          2074.750
       456   04 Jun 2027 21:07:15.037   04 Jun 2027 21:09:52.768           157.731            RioGallegos          4929.094
       457   04 Jun 2027 21:47:39.100   04 Jun 2027 21:48:06.004            26.904                Anadyr1           840.750
       458   04 Jun 2027 21:49:46.592   04 Jun 2027 21:51:49.748           123.156                Norilsk          3848.625
       459   04 Jun 2027 21:52:06.384   04 Jun 2027 21:52:50.498            44.114                Norilsk          1378.563
       460   04 Jun 2027 21:53:16.764   04 Jun 2027 21:53:26.269             9.505                Norilsk           297.031
       461   04 Jun 2027 21:54:23.689   04 Jun 2027 21:55:24.500            60.811                Irkutsk          1900.344
       462   04 Jun 2027 21:56:51.006   04 Jun 2027 21:57:42.539            51.533                Irkutsk          1610.406
       463   04 Jun 2027 22:03:01.988   04 Jun 2027 22:03:18.149            16.161                Irkutsk           505.031
       464   04 Jun 2027 22:08:47.069   04 Jun 2027 22:11:31.707           164.638                Sumatra          5144.938
       465   04 Jun 2027 23:22:46.870   04 Jun 2027 23:23:57.932            71.062                Anadyr2          2220.687
       466   04 Jun 2027 23:25:13.441   04 Jun 2027 23:25:24.592            11.151                Anadyr1           348.469
       467   04 Jun 2027 23:25:37.357   04 Jun 2027 23:27:29.071           111.714                Norilsk          3491.063
       468   04 Jun 2027 23:27:56.522   04 Jun 2027 23:28:13.850            17.328               Magadan2           541.500
       469   04 Jun 2027 23:29:30.213   04 Jun 2027 23:30:29.744            59.531                Irkutsk          1860.344
       470   04 Jun 2027 23:30:55.927   04 Jun 2027 23:31:44.645            48.718                Novosib          1522.438
       471   04 Jun 2027 23:32:42.915   04 Jun 2027 23:33:01.090            18.175                Novosib           567.969
       472   04 Jun 2027 23:35:46.361   04 Jun 2027 23:37:05.600            79.239                Novosib          2476.219
       473   04 Jun 2027 23:38:52.007   04 Jun 2027 23:39:31.118            39.111                  Delhi          1222.219
       474   04 Jun 2027 23:54:07.676   04 Jun 2027 23:55:01.294            53.618                Sumatra          1675.562
       475   05 Jun 2027 00:27:21.715   05 Jun 2027 00:27:32.462            10.747            RioGallegos           335.844
       476   05 Jun 2027 00:29:13.707   05 Jun 2027 00:29:14.635             0.928            RioGallegos            29.000
       477   05 Jun 2027 00:56:42.356   05 Jun 2027 00:59:00.717           138.361                Anadyr1          4323.781
       478   05 Jun 2027 01:01:37.938   05 Jun 2027 01:01:48.530            10.592                Norilsk           331.000
       479   05 Jun 2027 01:02:09.220   05 Jun 2027 01:04:01.984           112.764               Magadan2          3523.875
       480   05 Jun 2027 01:04:17.467   05 Jun 2027 01:05:40.125            82.658              Murmansk1          2583.063
       481   05 Jun 2027 01:05:40.866   05 Jun 2027 01:06:13.809            32.943                Novosib          1029.469
       482   05 Jun 2027 01:10:24.737   05 Jun 2027 01:10:49.416            24.679                Novosib           771.219
