uniorb/output/strategy_4/Drop/Drop_KinoSat_110810.txt

KinoSat_110810
-------------------------
    Access    *     Start Time (UTCG)     *     Stop Time (UTCG)  *   Duration (s)        *       Station  *  Data (Mbytes)
         1   01 Jun 2027 04:25:09.504   01 Jun 2027 04:25:27.317            17.813               Magadan2           556.656
         2   01 Jun 2027 04:25:34.934   01 Jun 2027 04:26:27.120            52.186                Anadyr2          1630.813
         3   01 Jun 2027 04:26:28.654   01 Jun 2027 04:27:48.975            80.321                Anadyr2          2510.031
         4   01 Jun 2027 05:59:21.899   01 Jun 2027 06:00:02.960            41.061                Irkutsk          1283.156
         5   01 Jun 2027 06:00:03.018   01 Jun 2027 06:00:16.963            13.945                Anadyr1           435.781
         6   01 Jun 2027 06:00:30.055   01 Jun 2027 06:02:10.569           100.514                Novosib          3141.062
         7   01 Jun 2027 06:02:12.813   01 Jun 2027 06:02:36.243            23.430                Anadyr1           732.188
         8   01 Jun 2027 06:02:38.798   01 Jun 2027 06:03:26.780            47.982                Irkutsk          1499.437
         9   01 Jun 2027 06:03:33.097   01 Jun 2027 06:04:27.521            54.424                Anadyr2          1700.750
        10   01 Jun 2027 06:04:30.977   01 Jun 2027 06:05:15.318            44.341                Irkutsk          1385.656
        11   01 Jun 2027 06:05:18.531   01 Jun 2027 06:05:25.943             7.412                Norilsk           231.625
        12   01 Jun 2027 06:05:29.791   01 Jun 2027 06:05:32.445             2.654               Magadan1            82.938
        13   01 Jun 2027 06:06:04.995   01 Jun 2027 06:06:58.719            53.724              Murmansk2          1678.875
        14   01 Jun 2027 06:07:01.314   01 Jun 2027 06:07:14.644            13.330              Murmansk2           416.563
        15   01 Jun 2027 06:08:06.545   01 Jun 2027 06:08:23.593            17.048                Norilsk           532.750
        16   01 Jun 2027 06:08:30.796   01 Jun 2027 06:09:03.900            33.104              Murmansk1          1034.500
        17   01 Jun 2027 06:12:50.019   01 Jun 2027 06:13:37.924            47.905              Murmansk2          1497.031
        18   01 Jun 2027 06:40:32.516   01 Jun 2027 06:40:51.729            19.213            RioGallegos           600.406
        19   01 Jun 2027 06:41:03.804   01 Jun 2027 06:42:24.710            80.906            RioGallegos          2528.312
        20   01 Jun 2027 07:17:15.979   01 Jun 2027 07:18:45.080            89.101                Sumatra          2784.406
        21   01 Jun 2027 07:36:53.168   01 Jun 2027 07:38:08.875            75.707               Magadan1          2365.844
        22   01 Jun 2027 07:38:18.255   01 Jun 2027 07:38:28.861            10.606                Irkutsk           331.437
        23   01 Jun 2027 07:38:46.299   01 Jun 2027 07:41:39.968           173.669                Novosib          5427.156
        24   01 Jun 2027 07:42:02.026   01 Jun 2027 07:42:58.248            56.222                Novosib          1756.938
        25   01 Jun 2027 08:16:53.116   01 Jun 2027 08:17:43.292            50.176            RioGallegos          1568.000
        26   01 Jun 2027 08:51:15.908   01 Jun 2027 08:53:01.922           106.014                Sumatra          3312.938
        27   01 Jun 2027 09:00:16.065   01 Jun 2027 09:01:26.657            70.592                  Delhi          2206.000
        28   01 Jun 2027 09:02:04.784   01 Jun 2027 09:03:30.279            85.495                  Delhi          2671.719
        29   01 Jun 2027 09:14:09.030   01 Jun 2027 09:14:47.442            38.412                Irkutsk          1200.375
        30   01 Jun 2027 09:15:08.923   01 Jun 2027 09:15:48.770            39.847                Irkutsk          1245.219
        31   01 Jun 2027 09:15:50.183   01 Jun 2027 09:17:35.841           105.658                 Moscow          3301.812
        32   01 Jun 2027 10:37:59.738   01 Jun 2027 10:40:01.170           121.432                  Delhi          3794.750
        33   01 Jun 2027 10:51:13.015   01 Jun 2027 10:53:45.089           152.074                Novosib          4752.312
        34   01 Jun 2027 10:53:52.876   01 Jun 2027 10:54:20.677            27.801              Murmansk2           868.781
        35   01 Jun 2027 10:54:45.441   01 Jun 2027 10:55:10.662            25.221              Murmansk2           788.156
        36   01 Jun 2027 10:57:36.188   01 Jun 2027 10:58:01.252            25.064              Murmansk2           783.250
        37   01 Jun 2027 12:19:44.724   01 Jun 2027 12:22:36.535           171.811                 Moscow          5369.094
        38   01 Jun 2027 12:23:00.590   01 Jun 2027 12:23:15.996            15.406                 Moscow           481.437
        39   01 Jun 2027 12:23:45.676   01 Jun 2027 12:24:20.966            35.290                 Moscow          1102.812
        40   01 Jun 2027 12:24:25.711   01 Jun 2027 12:28:23.748           238.037              Murmansk2          7438.656
        41   01 Jun 2027 12:29:09.485   01 Jun 2027 12:29:35.672            26.187              Murmansk2           818.344
        42   01 Jun 2027 12:30:08.511   01 Jun 2027 12:30:14.220             5.709                Norilsk           178.406
        43   01 Jun 2027 12:30:25.903   01 Jun 2027 12:30:56.042            30.139                Norilsk           941.844
        44   01 Jun 2027 13:33:41.606   01 Jun 2027 13:37:50.574           248.968               CapeTown          7780.250
        45   01 Jun 2027 14:00:49.449   01 Jun 2027 14:03:59.156           189.707              Murmansk1          5928.344
        46   01 Jun 2027 14:04:39.253   01 Jun 2027 14:05:18.340            39.087              Murmansk2          1221.469
        47   01 Jun 2027 14:14:03.921   01 Jun 2027 14:16:13.699           129.778                Anadyr2          4055.563
        48   01 Jun 2027 14:16:38.280   01 Jun 2027 14:18:06.140            87.860                Anadyr1          2745.625
        49   01 Jun 2027 15:09:27.108   01 Jun 2027 15:10:35.692            68.584               CapeTown          2143.250
        50   01 Jun 2027 15:40:55.267   01 Jun 2027 15:43:43.880           168.613              Murmansk1          5269.156
        51   01 Jun 2027 15:49:45.667   01 Jun 2027 15:49:55.381             9.714                Anadyr2           303.563
        52   01 Jun 2027 15:50:27.974   01 Jun 2027 15:51:56.264            88.290                Anadyr1          2759.063
        53   01 Jun 2027 15:52:31.061   01 Jun 2027 15:52:54.072            23.011                Anadyr1           719.094
        54   01 Jun 2027 15:53:02.850   01 Jun 2027 15:53:24.031            21.181                Anadyr1           661.906
        55   01 Jun 2027 15:53:27.228   01 Jun 2027 15:56:38.122           190.894               Magadan2          5965.437
        56   01 Jun 2027 15:59:02.759   01 Jun 2027 15:59:44.305            41.546               Magadan2          1298.313
        57   01 Jun 2027 17:25:41.038   01 Jun 2027 17:27:12.429            91.391                Anadyr2          2855.969
        58   01 Jun 2027 17:27:31.459   01 Jun 2027 17:28:47.957            76.498                Anadyr1          2390.563
        59   01 Jun 2027 17:29:18.527   01 Jun 2027 17:30:47.483            88.956               Magadan2          2779.875
        60   01 Jun 2027 17:31:03.392   01 Jun 2027 17:31:06.207             2.815               Magadan2            87.969
        61   01 Jun 2027 17:31:17.989   01 Jun 2027 17:31:41.544            23.555               Magadan2           736.094
        62   01 Jun 2027 17:35:05.921   01 Jun 2027 17:35:27.814            21.893               Magadan2           684.156
        63   01 Jun 2027 18:21:20.278   01 Jun 2027 18:24:24.320           184.042            RioGallegos          5751.312
        64   01 Jun 2027 18:28:11.144   01 Jun 2027 18:28:26.527            15.383            RioGallegos           480.719
        65   01 Jun 2027 19:02:26.681   01 Jun 2027 19:03:16.260            49.579                Anadyr1          1549.344
        66   01 Jun 2027 19:03:38.242   01 Jun 2027 19:07:42.992           244.750                Norilsk          7648.437
        67   01 Jun 2027 19:08:20.709   01 Jun 2027 19:09:30.010            69.301                Irkutsk          2165.656
        68   01 Jun 2027 19:10:25.694   01 Jun 2027 19:11:23.390            57.696                Irkutsk          1803.000
        69   01 Jun 2027 19:12:45.191   01 Jun 2027 19:13:41.002            55.811                Irkutsk          1744.094
        70   01 Jun 2027 19:22:53.685   01 Jun 2027 19:22:58.412             4.727                Sumatra           147.719
        71   01 Jun 2027 19:24:53.769   01 Jun 2027 19:28:14.626           200.857                Sumatra          6276.781
        72   01 Jun 2027 19:29:40.690   01 Jun 2027 19:30:31.579            50.889                Sumatra          1590.281
        73   01 Jun 2027 20:43:52.364   01 Jun 2027 20:44:29.106            36.742                Novosib          1148.187
        74   01 Jun 2027 20:45:39.024   01 Jun 2027 20:46:18.392            39.368                Novosib          1230.250
        75   01 Jun 2027 20:46:34.739   01 Jun 2027 20:46:54.363            19.624                Novosib           613.250
        76   01 Jun 2027 20:53:04.946   01 Jun 2027 20:55:33.947           149.001                  Delhi          4656.281
        77   01 Jun 2027 20:58:55.049   01 Jun 2027 21:00:38.641           103.592                  Delhi          3237.250
        78   01 Jun 2027 22:18:13.422   01 Jun 2027 22:22:02.747           229.325              Murmansk2          7166.406
        79   01 Jun 2027 22:22:21.646   01 Jun 2027 22:24:22.431           120.785              Murmansk1          3774.531
        80   01 Jun 2027 23:49:48.431   01 Jun 2027 23:50:38.062            49.631               Magadan2          1550.969
        81   01 Jun 2027 23:51:30.021   01 Jun 2027 23:51:32.785             2.764               Magadan2            86.375
        82   01 Jun 2027 23:51:49.801   01 Jun 2027 23:52:06.769            16.968               Magadan1           530.250
        83   01 Jun 2027 23:52:24.413   01 Jun 2027 23:53:23.356            58.943               Magadan2          1841.969
        84   01 Jun 2027 23:53:36.049   01 Jun 2027 23:55:16.931           100.882              Murmansk2          3152.563
        85   01 Jun 2027 23:56:21.625   01 Jun 2027 23:57:46.125            84.500              Murmansk1          2640.625
        86   01 Jun 2027 23:58:05.895   01 Jun 2027 23:58:41.655            35.760                 Moscow          1117.500
        87   01 Jun 2027 23:59:52.737   02 Jun 2027 00:00:09.818            17.081                 Moscow           533.781
        88   02 Jun 2027 00:04:42.225   02 Jun 2027 00:04:54.643            12.418                 Moscow           388.062
        89   02 Jun 2027 00:05:09.520   02 Jun 2027 00:06:45.781            96.261                 Moscow          3008.156
        90   02 Jun 2027 00:22:52.549   02 Jun 2027 00:24:05.756            73.207               CapeTown          2287.719
        91   02 Jun 2027 00:26:45.588   02 Jun 2027 00:27:46.313            60.725               CapeTown          1897.656
        92   02 Jun 2027 00:29:41.383   02 Jun 2027 00:30:11.120            29.737               CapeTown           929.281
        93   02 Jun 2027 01:25:05.477   02 Jun 2027 01:25:13.025             7.548               Magadan2           235.875
        94   02 Jun 2027 01:28:41.617   02 Jun 2027 01:28:57.956            16.339                Norilsk           510.594
        95   02 Jun 2027 01:29:20.108   02 Jun 2027 01:29:34.461            14.353               Magadan1           448.531
        96   02 Jun 2027 01:30:36.624   02 Jun 2027 01:31:02.006            25.382              Murmansk1           793.187
        97   02 Jun 2027 01:31:40.767   02 Jun 2027 01:32:13.447            32.680              Murmansk1          1021.250
        98   02 Jun 2027 01:32:39.985   02 Jun 2027 01:33:05.431            25.446              Murmansk1           795.187
        99   02 Jun 2027 01:33:32.330   02 Jun 2027 01:34:16.382            44.052                 Moscow          1376.625
       100   02 Jun 2027 01:36:20.675   02 Jun 2027 01:36:39.391            18.716                 Moscow           584.875
       101   02 Jun 2027 01:40:05.523   02 Jun 2027 01:40:13.544             8.021                 Moscow           250.656
       102   02 Jun 2027 01:41:56.803   02 Jun 2027 01:42:11.494            14.691                 Moscow           459.094
       103   02 Jun 2027 01:56:40.043   02 Jun 2027 01:57:28.847            48.804               CapeTown          1525.125
       104   02 Jun 2027 02:02:56.378   02 Jun 2027 02:03:36.489            40.111               CapeTown          1253.469
       105   02 Jun 2027 02:53:27.213   02 Jun 2027 02:54:57.625            90.412                Anadyr1          2825.375
       106   02 Jun 2027 02:55:16.487   02 Jun 2027 02:57:06.480           109.993               Magadan1          3437.281
       107   02 Jun 2027 02:58:21.372   02 Jun 2027 02:58:47.262            25.890               Magadan1           809.062
       108   02 Jun 2027 03:00:18.807   02 Jun 2027 03:02:10.894           112.087                Anadyr1          3502.719
       109   02 Jun 2027 03:02:32.596   02 Jun 2027 03:03:21.191            48.595               Magadan1          1518.594
       110   02 Jun 2027 04:36:18.478   02 Jun 2027 04:36:27.735             9.257                Irkutsk           289.281
       111   02 Jun 2027 04:36:40.673   02 Jun 2027 04:37:06.469            25.796                Irkutsk           806.125
       112   02 Jun 2027 04:38:24.308   02 Jun 2027 04:38:49.268            24.960               Magadan1           780.000
       113   02 Jun 2027 04:39:11.655   02 Jun 2027 04:39:23.466            11.811               Magadan1           369.094
       114   02 Jun 2027 04:39:23.466   02 Jun 2027 04:39:31.543             8.077               Magadan2           252.406
       115   02 Jun 2027 04:39:47.164   02 Jun 2027 04:40:00.073            12.909                Norilsk           403.406
       116   02 Jun 2027 04:40:07.761   02 Jun 2027 04:40:20.853            13.092                Anadyr1           409.125
       117   02 Jun 2027 04:40:48.081   02 Jun 2027 04:41:07.965            19.884                Anadyr2           621.375
       118   02 Jun 2027 04:41:36.578   02 Jun 2027 04:41:55.060            18.482               Magadan1           577.563
       119   02 Jun 2027 06:12:55.437   02 Jun 2027 06:13:22.737            27.300                Irkutsk           853.125
       120   02 Jun 2027 06:13:31.282   02 Jun 2027 06:16:08.550           157.268                Novosib          4914.625
       121   02 Jun 2027 06:16:21.294   02 Jun 2027 06:17:22.802            61.508                Irkutsk          1922.125
       122   02 Jun 2027 06:17:27.118   02 Jun 2027 06:18:24.861            57.743                Novosib          1804.469
       123   02 Jun 2027 07:50:17.779   02 Jun 2027 07:53:37.363           199.584                Irkutsk          6237.000
       124   02 Jun 2027 07:54:03.730   02 Jun 2027 07:55:02.614            58.884                Novosib          1840.125
       125   02 Jun 2027 09:03:31.082   02 Jun 2027 09:04:49.442            78.360                Sumatra          2448.750
       126   02 Jun 2027 09:25:59.104   02 Jun 2027 09:26:20.954            21.850                Novosib           682.813
       127   02 Jun 2027 09:28:14.447   02 Jun 2027 09:28:43.277            28.830                Irkutsk           900.937
       128   02 Jun 2027 09:29:15.133   02 Jun 2027 09:29:23.515             8.382                Novosib           261.938
       129   02 Jun 2027 10:48:21.379   02 Jun 2027 10:51:34.860           193.481                  Delhi          6046.281
       130   02 Jun 2027 11:03:56.305   02 Jun 2027 11:04:15.159            18.854                Norilsk           589.188
       131   02 Jun 2027 11:04:37.031   02 Jun 2027 11:05:01.344            24.313                Norilsk           759.781
       132   02 Jun 2027 11:05:58.360   02 Jun 2027 11:06:02.913             4.553                Novosib           142.281
       133   02 Jun 2027 12:31:51.377   02 Jun 2027 12:32:10.639            19.262                 Moscow           601.938
       134   02 Jun 2027 12:32:33.199   02 Jun 2027 12:33:11.510            38.311                 Moscow          1197.219
       135   02 Jun 2027 12:34:16.011   02 Jun 2027 12:35:00.620            44.609                 Moscow          1394.031
       136   02 Jun 2027 12:35:22.935   02 Jun 2027 12:36:41.492            78.557              Murmansk1          2454.906
       137   02 Jun 2027 12:36:41.836   02 Jun 2027 12:36:49.092             7.256              Murmansk2           226.750
       138   02 Jun 2027 12:37:26.865   02 Jun 2027 12:38:48.570            81.705              Murmansk2          2553.281
       139   02 Jun 2027 12:39:13.445   02 Jun 2027 12:40:02.720            49.275              Murmansk2          1539.844
       140   02 Jun 2027 12:40:24.895   02 Jun 2027 12:40:47.951            23.056              Murmansk1           720.500
       141   02 Jun 2027 12:51:45.469   02 Jun 2027 12:55:40.825           235.356                Anadyr1          7354.875
       142   02 Jun 2027 13:47:09.645   02 Jun 2027 13:48:02.332            52.687               CapeTown          1646.469
       143   02 Jun 2027 14:13:12.320   02 Jun 2027 14:14:01.842            49.522              Murmansk2          1547.562
       144   02 Jun 2027 14:14:28.711   02 Jun 2027 14:14:35.030             6.319              Murmansk2           197.469
       145   02 Jun 2027 14:14:43.229   02 Jun 2027 14:16:00.843            77.614              Murmansk1          2425.438
       146   02 Jun 2027 14:26:01.483   02 Jun 2027 14:28:02.249           120.766                Anadyr1          3773.938
       147   02 Jun 2027 14:28:37.842   02 Jun 2027 14:30:05.701            87.859                Anadyr2          2745.594
       148   02 Jun 2027 14:33:40.210   02 Jun 2027 14:34:20.377            40.167                Anadyr1          1255.219
       149   02 Jun 2027 15:53:45.638   02 Jun 2027 15:54:40.459            54.821              Murmansk1          1713.156
       150   02 Jun 2027 15:55:40.489   02 Jun 2027 15:55:50.263             9.774              Murmansk1           305.438
       151   02 Jun 2027 15:56:34.485   02 Jun 2027 15:57:36.019            61.534              Murmansk1          1922.938
       152   02 Jun 2027 16:01:46.751   02 Jun 2027 16:01:48.203             1.452                Anadyr2            45.375
       153   02 Jun 2027 16:02:15.885   02 Jun 2027 16:03:41.888            86.003                Anadyr1          2687.594
       154   02 Jun 2027 16:04:34.584   02 Jun 2027 16:08:26.737           232.153               Magadan1          7254.781
       155   02 Jun 2027 17:37:42.124   02 Jun 2027 17:39:13.866            91.742                Anadyr1          2866.938
       156   02 Jun 2027 17:39:14.795   02 Jun 2027 17:39:29.997            15.202                Anadyr2           475.062
       157   02 Jun 2027 17:39:59.343   02 Jun 2027 17:42:00.390           121.047               Magadan1          3782.719
       158   02 Jun 2027 17:43:03.322   02 Jun 2027 17:43:32.275            28.953               Magadan1           904.781
       159   02 Jun 2027 17:49:20.782   02 Jun 2027 17:49:34.343            13.561               Magadan2           423.781
       160   02 Jun 2027 18:32:51.745   02 Jun 2027 18:37:03.555           251.810            RioGallegos          7869.063
       161   02 Jun 2027 18:37:20.052   02 Jun 2027 18:38:00.098            40.046            RioGallegos          1251.438
       162   02 Jun 2027 18:39:19.004   02 Jun 2027 18:39:39.341            20.337            RioGallegos           635.531
       163   02 Jun 2027 19:15:36.613   02 Jun 2027 19:19:43.375           246.762                Norilsk          7711.313
       164   02 Jun 2027 19:20:06.850   02 Jun 2027 19:22:31.578           144.728                Irkutsk          4522.750
       165   02 Jun 2027 19:23:42.317   02 Jun 2027 19:23:50.149             7.832                Irkutsk           244.750
       166   02 Jun 2027 19:34:18.680   02 Jun 2027 19:37:32.072           193.392                Sumatra          6043.500
       167   02 Jun 2027 19:40:27.514   02 Jun 2027 19:41:17.143            49.629                Sumatra          1550.906
       168   02 Jun 2027 20:55:44.092   02 Jun 2027 20:56:51.835            67.743                Irkutsk          2116.969
       169   02 Jun 2027 20:57:21.956   02 Jun 2027 20:58:22.947            60.991                Novosib          1905.969
       170   02 Jun 2027 21:04:19.905   02 Jun 2027 21:07:17.464           177.559                  Delhi          5548.719
       171   02 Jun 2027 21:11:08.382   02 Jun 2027 21:11:54.599            46.217                  Delhi          1444.281
       172   02 Jun 2027 22:30:04.912   02 Jun 2027 22:35:59.880           354.968              Murmansk2         11092.750
       173   03 Jun 2027 00:01:19.036   03 Jun 2027 00:01:23.127             4.091               Magadan1           127.844
       174   03 Jun 2027 00:02:15.097   03 Jun 2027 00:03:07.972            52.875               Magadan2          1652.344
       175   03 Jun 2027 00:04:09.098   03 Jun 2027 00:04:46.419            37.321               Magadan2          1166.281
       176   03 Jun 2027 00:05:36.760   03 Jun 2027 00:06:32.839            56.079              Murmansk1          1752.469
       177   03 Jun 2027 00:06:33.737   03 Jun 2027 00:07:10.103            36.366              Murmansk2          1136.437
       178   03 Jun 2027 00:08:04.274   03 Jun 2027 00:08:54.511            50.237                Novosib          1569.906
       179   03 Jun 2027 00:09:10.117   03 Jun 2027 00:09:47.388            37.271                 Moscow          1164.719
       180   03 Jun 2027 00:10:53.067   03 Jun 2027 00:11:57.702            64.635                 Moscow          2019.844
       181   03 Jun 2027 00:15:56.889   03 Jun 2027 00:16:40.601            43.712                 Moscow          1366.000
       182   03 Jun 2027 00:34:16.748   03 Jun 2027 00:37:17.440           180.692               CapeTown          5646.625
       183   03 Jun 2027 00:39:57.213   03 Jun 2027 00:41:04.538            67.325               CapeTown          2103.906
       184   03 Jun 2027 01:40:03.595   03 Jun 2027 01:40:18.004            14.409               Magadan2           450.281
       185   03 Jun 2027 01:40:40.436   03 Jun 2027 01:40:57.900            17.464                Norilsk           545.750
       186   03 Jun 2027 01:41:33.781   03 Jun 2027 01:42:28.670            54.889              Murmansk2          1715.281
       187   03 Jun 2027 01:42:28.670   03 Jun 2027 01:43:03.521            34.851              Murmansk1          1089.094
       188   03 Jun 2027 01:44:28.155   03 Jun 2027 01:44:53.698            25.543                Novosib           798.219
       189   03 Jun 2027 01:45:09.255   03 Jun 2027 01:46:01.655            52.400                 Moscow          1637.500
       190   03 Jun 2027 01:53:20.022   03 Jun 2027 01:53:27.203             7.181                 Moscow           224.406
       191   03 Jun 2027 01:53:34.352   03 Jun 2027 01:54:06.053            31.701                 Moscow           990.656
       192   03 Jun 2027 02:08:48.949   03 Jun 2027 02:10:23.923            94.974               CapeTown          2967.938
       193   03 Jun 2027 03:05:34.466   03 Jun 2027 03:05:52.378            17.912                Anadyr2           559.750
       194   03 Jun 2027 03:07:56.113   03 Jun 2027 03:08:19.404            23.291                Anadyr2           727.844
       195   03 Jun 2027 03:08:20.473   03 Jun 2027 03:08:27.922             7.449               Magadan1           232.781
       196   03 Jun 2027 03:09:30.518   03 Jun 2027 03:09:32.351             1.833               Magadan1            57.281
       197   03 Jun 2027 03:11:24.130   03 Jun 2027 03:14:10.975           166.845                Anadyr1          5213.906
       198   03 Jun 2027 03:14:14.276   03 Jun 2027 03:15:10.629            56.353                Anadyr1          1761.031
       199   03 Jun 2027 03:17:17.435   03 Jun 2027 03:17:39.541            22.106               Magadan2           690.812
       200   03 Jun 2027 04:51:30.409   03 Jun 2027 04:51:33.960             3.551               Magadan1           110.969
       201   03 Jun 2027 04:51:48.399   03 Jun 2027 04:52:43.166            54.767                Anadyr2          1711.469
       202   03 Jun 2027 06:24:19.919   03 Jun 2027 06:25:04.644            44.725               Magadan2          1397.656
       203   03 Jun 2027 06:25:32.610   03 Jun 2027 06:25:34.368             1.758               Magadan1            54.938
       204   03 Jun 2027 06:25:39.820   03 Jun 2027 06:25:40.902             1.082               Magadan1            33.813
       205   03 Jun 2027 06:26:09.197   03 Jun 2027 06:27:27.933            78.736               Magadan2          2460.500
       206   03 Jun 2027 06:27:41.248   03 Jun 2027 06:28:42.834            61.586               Magadan1          1924.562
       207   03 Jun 2027 06:28:56.067   03 Jun 2027 06:29:01.997             5.930               Magadan1           185.313
       208   03 Jun 2027 06:29:18.191   03 Jun 2027 06:29:51.946            33.755                Norilsk          1054.844
       209   03 Jun 2027 08:00:06.364   03 Jun 2027 08:00:25.284            18.920                Irkutsk           591.250
       210   03 Jun 2027 08:01:33.959   03 Jun 2027 08:01:56.516            22.557                Irkutsk           704.906
       211   03 Jun 2027 08:02:25.991   03 Jun 2027 08:02:44.732            18.741                Irkutsk           585.656
       212   03 Jun 2027 08:03:04.939   03 Jun 2027 08:04:02.856            57.917                Irkutsk          1809.906
       213   03 Jun 2027 08:04:19.247   03 Jun 2027 08:04:36.981            17.734                Irkutsk           554.188
       214   03 Jun 2027 08:04:45.247   03 Jun 2027 08:05:07.867            22.620                Novosib           706.875
       215   03 Jun 2027 08:05:25.176   03 Jun 2027 08:06:04.852            39.676                Novosib          1239.875
       216   03 Jun 2027 08:41:41.475   03 Jun 2027 08:41:53.481            12.006            RioGallegos           375.188
       217   03 Jun 2027 08:42:58.714   03 Jun 2027 08:43:44.395            45.681            RioGallegos          1427.531
       218   03 Jun 2027 09:15:53.742   03 Jun 2027 09:16:42.946            49.204                Sumatra          1537.625
       219   03 Jun 2027 09:19:35.765   03 Jun 2027 09:19:49.215            13.450                Sumatra           420.313
       220   03 Jun 2027 09:25:14.345   03 Jun 2027 09:25:53.103            38.758                Sumatra          1211.188
       221   03 Jun 2027 09:40:27.856   03 Jun 2027 09:40:40.646            12.790                Novosib           399.687
       222   03 Jun 2027 09:40:45.730   03 Jun 2027 09:40:53.295             7.565                Novosib           236.406
       223   03 Jun 2027 09:41:23.065   03 Jun 2027 09:41:26.227             3.162                Novosib            98.813
       224   03 Jun 2027 11:00:57.855   03 Jun 2027 11:03:14.554           136.699                  Delhi          4271.844
       225   03 Jun 2027 11:04:03.446   03 Jun 2027 11:05:27.393            83.947                  Delhi          2623.344
       226   03 Jun 2027 11:16:37.982   03 Jun 2027 11:16:59.590            21.608                Norilsk           675.250
       227   03 Jun 2027 11:17:47.911   03 Jun 2027 11:18:17.719            29.808                Norilsk           931.500
       228   03 Jun 2027 12:44:01.192   03 Jun 2027 12:44:41.793            40.601                 Moscow          1268.781
       229   03 Jun 2027 12:46:59.867   03 Jun 2027 12:47:51.950            52.083                 Moscow          1627.594
       230   03 Jun 2027 12:48:09.843   03 Jun 2027 12:49:28.045            78.202              Murmansk2          2443.812
       231   03 Jun 2027 12:49:28.045   03 Jun 2027 12:49:30.863             2.818              Murmansk1            88.062
       232   03 Jun 2027 12:50:34.109   03 Jun 2027 12:50:44.020             9.911              Murmansk2           309.719
       233   03 Jun 2027 12:52:04.174   03 Jun 2027 12:52:53.927            49.753              Murmansk2          1554.781
       234   03 Jun 2027 12:55:09.824   03 Jun 2027 12:56:49.429            99.605                Norilsk          3112.656
       235   03 Jun 2027 13:03:14.244   03 Jun 2027 13:04:48.760            94.516                Anadyr2          2953.625
       236   03 Jun 2027 13:57:23.483   03 Jun 2027 13:58:12.642            49.159               CapeTown          1536.219
       237   03 Jun 2027 14:25:37.573   03 Jun 2027 14:28:02.444           144.871              Murmansk1          4527.219
       238   03 Jun 2027 14:37:59.874   03 Jun 2027 14:40:36.951           157.077                Anadyr2          4908.656
       239   03 Jun 2027 14:41:09.883   03 Jun 2027 14:42:04.735            54.852                Anadyr2          1714.125
       240   03 Jun 2027 15:38:51.048   03 Jun 2027 15:39:00.333             9.285               CapeTown           290.156
       241   03 Jun 2027 16:06:44.644   03 Jun 2027 16:09:35.879           171.235              Murmansk2          5351.094
       242   03 Jun 2027 16:13:47.964   03 Jun 2027 16:15:21.381            93.417                Anadyr2          2919.281
       243   03 Jun 2027 16:15:23.326   03 Jun 2027 16:16:27.970            64.644                Anadyr1          2020.125
       244   03 Jun 2027 16:16:27.990   03 Jun 2027 16:19:03.550           155.560               Magadan1          4861.250
       245   03 Jun 2027 16:19:09.827   03 Jun 2027 16:20:24.135            74.308               Magadan2          2322.125
       246   03 Jun 2027 17:49:43.053   03 Jun 2027 17:51:29.235           106.182                Anadyr1          3318.187
       247   03 Jun 2027 17:51:59.995   03 Jun 2027 17:55:05.428           185.433               Magadan1          5794.781
       248   03 Jun 2027 17:55:23.008   03 Jun 2027 17:56:03.932            40.924               Magadan1          1278.875
       249   03 Jun 2027 18:44:31.554   03 Jun 2027 18:50:05.030           333.476            RioGallegos         10421.125
       250   03 Jun 2027 19:27:35.856   03 Jun 2027 19:28:52.440            76.584                Norilsk          2393.250
       251   03 Jun 2027 19:29:28.061   03 Jun 2027 19:31:44.165           136.104                Norilsk          4253.250
       252   03 Jun 2027 19:31:56.429   03 Jun 2027 19:33:06.759            70.330                Irkutsk          2197.813
       253   03 Jun 2027 19:34:38.359   03 Jun 2027 19:35:08.760            30.401                Irkutsk           950.031
       254   03 Jun 2027 19:45:53.401   03 Jun 2027 19:48:55.162           181.761                Sumatra          5680.031
       255   03 Jun 2027 19:49:26.591   03 Jun 2027 19:50:20.456            53.865                Sumatra          1683.281
       256   03 Jun 2027 21:07:38.246   03 Jun 2027 21:07:56.366            18.120                Novosib           566.250
       257   03 Jun 2027 21:09:27.426   03 Jun 2027 21:10:28.015            60.589                Novosib          1893.406
       258   03 Jun 2027 21:10:38.108   03 Jun 2027 21:11:16.835            38.727                Novosib          1210.219
       259   03 Jun 2027 21:15:48.632   03 Jun 2027 21:19:05.982           197.350                  Delhi          6167.188
       260   03 Jun 2027 21:23:08.498   03 Jun 2027 21:23:39.830            31.332                  Delhi           979.125
       261   03 Jun 2027 22:40:49.996   03 Jun 2027 22:40:58.891             8.895                Norilsk           277.969
       262   03 Jun 2027 22:41:59.205   03 Jun 2027 22:47:48.549           349.344              Murmansk2         10917.000
       263   03 Jun 2027 22:47:49.866   03 Jun 2027 22:51:37.454           227.588                 Moscow          7112.125
       264   04 Jun 2027 00:17:37.769   04 Jun 2027 00:18:19.736            41.967              Murmansk1          1311.469
       265   04 Jun 2027 00:19:08.667   04 Jun 2027 00:19:31.245            22.578              Murmansk1           705.563
       266   04 Jun 2027 00:21:05.377   04 Jun 2027 00:22:19.052            73.675                 Moscow          2302.344
       267   04 Jun 2027 00:23:03.004   04 Jun 2027 00:23:16.113            13.109                 Moscow           409.656
       268   04 Jun 2027 00:24:03.202   04 Jun 2027 00:24:59.431            56.229                 Moscow          1757.156
       269   04 Jun 2027 00:27:58.327   04 Jun 2027 00:28:08.757            10.430                 Moscow           325.938
       270   04 Jun 2027 00:28:49.859   04 Jun 2027 00:29:10.492            20.633                 Moscow           644.781
       271   04 Jun 2027 00:29:20.130   04 Jun 2027 00:29:45.950            25.820                 Moscow           806.875
       272   04 Jun 2027 00:45:48.353   04 Jun 2027 00:46:51.144            62.791               CapeTown          1962.219
       273   04 Jun 2027 00:47:25.144   04 Jun 2027 00:48:35.855            70.711               CapeTown          2209.719
       274   04 Jun 2027 01:44:31.623   04 Jun 2027 01:44:58.416            26.793               Magadan1           837.281
       275   04 Jun 2027 01:45:33.904   04 Jun 2027 01:45:58.973            25.069               Magadan1           783.406
       276   04 Jun 2027 01:49:03.393   04 Jun 2027 01:49:20.471            17.078               Magadan2           533.688
       277   04 Jun 2027 01:49:47.877   04 Jun 2027 01:50:03.683            15.806               Magadan2           493.937
       278   04 Jun 2027 01:52:16.256   04 Jun 2027 01:52:39.806            23.550               Magadan1           735.937
       279   04 Jun 2027 01:53:35.439   04 Jun 2027 01:55:05.157            89.718              Murmansk2          2803.687
       280   04 Jun 2027 01:56:39.899   04 Jun 2027 01:56:50.361            10.462              Murmansk1           326.938
       281   04 Jun 2027 01:56:51.911   04 Jun 2027 01:57:12.059            20.148                Novosib           629.625
       282   04 Jun 2027 01:57:14.105   04 Jun 2027 01:57:44.300            30.195                 Moscow           943.594
       283   04 Jun 2027 02:03:41.477   04 Jun 2027 02:05:12.252            90.775                 Moscow          2836.719
       284   04 Jun 2027 02:28:57.775   04 Jun 2027 02:29:22.960            25.185               CapeTown           787.031
       285   04 Jun 2027 03:17:43.559   04 Jun 2027 03:17:45.967             2.408               Magadan1            75.250
       286   04 Jun 2027 03:18:47.903   04 Jun 2027 03:19:19.755            31.852               Magadan2           995.375
       287   04 Jun 2027 03:20:20.227   04 Jun 2027 03:20:42.817            22.590                Anadyr2           705.937
       288   04 Jun 2027 03:23:58.003   04 Jun 2027 03:26:11.407           133.404                Anadyr2          4168.875
       289   04 Jun 2027 03:26:15.523   04 Jun 2027 03:27:00.580            45.057                Anadyr2          1408.031
       290   04 Jun 2027 05:00:16.158   04 Jun 2027 05:00:50.525            34.367                Irkutsk          1073.969
       291   04 Jun 2027 06:36:30.098   04 Jun 2027 06:37:18.488            48.390               Magadan1          1512.187
       292   04 Jun 2027 06:37:30.685   04 Jun 2027 06:37:42.180            11.495               Magadan2           359.219
       293   04 Jun 2027 06:37:44.089   04 Jun 2027 06:38:08.862            24.773               Magadan1           774.156
       294   04 Jun 2027 06:38:08.862   04 Jun 2027 06:39:27.937            79.075               Magadan2          2471.094
       295   04 Jun 2027 06:39:44.283   04 Jun 2027 06:40:34.229            49.946               Magadan1          1560.812
       296   04 Jun 2027 06:40:40.155   04 Jun 2027 06:40:53.039            12.884                Novosib           402.625
       297   04 Jun 2027 06:41:00.765   04 Jun 2027 06:41:12.667            11.902               Magadan1           371.937
       298   04 Jun 2027 06:41:31.128   04 Jun 2027 06:42:31.032            59.904                Novosib          1872.000
       299   04 Jun 2027 08:12:02.702   04 Jun 2027 08:12:30.997            28.295                Irkutsk           884.219
       300   04 Jun 2027 08:12:39.401   04 Jun 2027 08:13:20.121            40.720                Irkutsk          1272.500
       301   04 Jun 2027 08:13:26.258   04 Jun 2027 08:13:35.590             9.332                Irkutsk           291.625
       302   04 Jun 2027 08:14:34.959   04 Jun 2027 08:15:10.125            35.166                Irkutsk          1098.938
       303   04 Jun 2027 08:15:17.391   04 Jun 2027 08:15:51.972            34.581                Irkutsk          1080.656
       304   04 Jun 2027 08:16:15.482   04 Jun 2027 08:16:19.603             4.121                Novosib           128.781
       305   04 Jun 2027 08:16:46.455   04 Jun 2027 08:17:36.387            49.932                Irkutsk          1560.375
       306   04 Jun 2027 08:54:52.938   04 Jun 2027 08:55:26.467            33.529            RioGallegos          1047.781
       307   04 Jun 2027 09:28:26.052   04 Jun 2027 09:28:42.103            16.051                Sumatra           501.594
       308   04 Jun 2027 09:29:02.004   04 Jun 2027 09:29:10.781             8.777                Sumatra           274.281
       309   04 Jun 2027 09:30:06.665   04 Jun 2027 09:31:23.605            76.940                Sumatra          2404.375
       310   04 Jun 2027 09:49:39.809   04 Jun 2027 09:49:41.606             1.797                Novosib            56.156
       311   04 Jun 2027 09:52:18.184   04 Jun 2027 09:52:34.129            15.945                Novosib           498.281
       312   04 Jun 2027 09:52:43.843   04 Jun 2027 09:53:11.989            28.146                Novosib           879.563
       313   04 Jun 2027 11:13:47.706   04 Jun 2027 11:15:59.516           131.810                  Delhi          4119.062
       314   04 Jun 2027 11:26:15.894   04 Jun 2027 11:26:21.526             5.632                Novosib           176.000
       315   04 Jun 2027 11:26:32.926   04 Jun 2027 11:26:53.709            20.783                Novosib           649.469
       316   04 Jun 2027 11:30:00.454   04 Jun 2027 11:30:05.350             4.896                Norilsk           153.000
       317   04 Jun 2027 12:56:14.353   04 Jun 2027 12:57:18.064            63.711                 Moscow          1990.969
       318   04 Jun 2027 12:59:42.343   04 Jun 2027 13:00:45.389            63.046              Murmansk1          1970.187
       319   04 Jun 2027 13:01:27.408   04 Jun 2027 13:02:10.738            43.330              Murmansk2          1354.063
       320   04 Jun 2027 13:03:03.748   04 Jun 2027 13:04:05.740            61.992              Murmansk2          1937.250
       321   04 Jun 2027 13:09:46.661   04 Jun 2027 13:09:50.219             3.558              Murmansk2           111.188
       322   04 Jun 2027 13:16:49.930   04 Jun 2027 13:17:56.075            66.145                Anadyr2          2067.031
       323   04 Jun 2027 13:19:47.068   04 Jun 2027 13:20:08.123            21.055                Anadyr2           657.969
       324   04 Jun 2027 14:09:19.490   04 Jun 2027 14:10:40.464            80.974               CapeTown          2530.438
       325   04 Jun 2027 14:13:19.501   04 Jun 2027 14:13:31.388            11.887               CapeTown           371.469
       326   04 Jun 2027 14:16:33.347   04 Jun 2027 14:17:35.407            62.060               CapeTown          1939.375
       327   04 Jun 2027 14:38:05.351   04 Jun 2027 14:38:51.177            45.826              Murmansk2          1432.062
       328   04 Jun 2027 14:40:03.916   04 Jun 2027 14:40:23.999            20.083              Murmansk1           627.594
       329   04 Jun 2027 14:41:53.722   04 Jun 2027 14:42:17.005            23.283              Murmansk1           727.594
       330   04 Jun 2027 14:42:32.076   04 Jun 2027 14:42:45.365            13.289              Murmansk1           415.281
       331   04 Jun 2027 14:49:58.930   04 Jun 2027 14:51:57.396           118.466                Anadyr2          3702.063
       332   04 Jun 2027 14:52:35.539   04 Jun 2027 14:53:11.191            35.652                Anadyr2          1114.125
       333   04 Jun 2027 14:53:47.819   04 Jun 2027 14:54:06.044            18.225                Anadyr1           569.531
       334   04 Jun 2027 14:57:26.642   04 Jun 2027 14:57:43.465            16.823                Anadyr2           525.719
       335   04 Jun 2027 15:46:23.142   04 Jun 2027 15:46:49.238            26.096               CapeTown           815.500
       336   04 Jun 2027 15:47:05.459   04 Jun 2027 15:47:35.544            30.085               CapeTown           940.156
       337   04 Jun 2027 15:51:37.468   04 Jun 2027 15:51:43.277             5.809               CapeTown           181.531
       338   04 Jun 2027 16:20:02.814   04 Jun 2027 16:21:58.148           115.334              Murmansk2          3604.188
       339   04 Jun 2027 16:21:59.238   04 Jun 2027 16:22:07.832             8.594              Murmansk1           268.563
       340   04 Jun 2027 16:25:49.276   04 Jun 2027 16:27:21.928            92.652                Anadyr2          2895.375
       341   04 Jun 2027 16:27:40.850   04 Jun 2027 16:28:14.544            33.694                Anadyr1          1052.938
       342   04 Jun 2027 16:28:23.065   04 Jun 2027 16:33:27.418           304.353               Magadan2          9511.031
       343   04 Jun 2027 18:01:43.765   04 Jun 2027 18:04:16.743           152.978                Anadyr2          4780.562
       344   04 Jun 2027 18:04:21.400   04 Jun 2027 18:06:25.638           124.238               Magadan2          3882.438
       345   04 Jun 2027 18:06:31.712   04 Jun 2027 18:08:15.388           103.676                Norilsk          3239.875
       346   04 Jun 2027 18:56:16.642   04 Jun 2027 18:58:41.557           144.915            RioGallegos          4528.594
       347   04 Jun 2027 18:59:58.151   04 Jun 2027 19:00:41.522            43.371            RioGallegos          1355.344
       348   04 Jun 2027 19:40:03.060   04 Jun 2027 19:41:54.919           111.859               Magadan2          3495.594
       349   04 Jun 2027 19:43:40.601   04 Jun 2027 19:43:47.514             6.913               Magadan1           216.031
       350   04 Jun 2027 19:43:48.595   04 Jun 2027 19:46:34.150           165.555                Irkutsk          5173.594
       351   04 Jun 2027 19:46:34.162   04 Jun 2027 19:48:39.713           125.551                Novosib          3923.469
       352   04 Jun 2027 19:49:21.635   04 Jun 2027 19:49:34.370            12.735                Novosib           397.969
       353   04 Jun 2027 19:57:35.777   04 Jun 2027 20:00:08.065           152.288                Sumatra          4759.000
       354   04 Jun 2027 20:01:26.712   04 Jun 2027 20:02:08.376            41.664                Sumatra          1302.000
       355   04 Jun 2027 21:19:23.113   04 Jun 2027 21:20:01.210            38.097                Irkutsk          1190.531
       356   04 Jun 2027 21:20:11.127   04 Jun 2027 21:21:32.783            81.656                Novosib          2551.750
       357   04 Jun 2027 21:21:49.596   04 Jun 2027 21:22:33.639            44.043                Novosib          1376.344
       358   04 Jun 2027 21:24:59.924   04 Jun 2027 21:25:45.779            45.855                Novosib          1432.969
       359   04 Jun 2027 21:27:26.073   04 Jun 2027 21:30:58.660           212.587                  Delhi          6643.344
       360   04 Jun 2027 22:52:20.558   04 Jun 2027 22:53:02.734            42.176               Magadan2          1318.000
       361   04 Jun 2027 22:53:55.377   04 Jun 2027 22:59:21.232           325.855              Murmansk2         10182.969
       362   04 Jun 2027 22:59:50.004   04 Jun 2027 23:04:42.310           292.306                 Moscow          9134.563
       363   05 Jun 2027 00:29:38.998   05 Jun 2027 00:29:50.423            11.425              Murmansk2           357.031
       364   05 Jun 2027 00:30:17.723   05 Jun 2027 00:31:05.461            47.738              Murmansk1          1491.812
       365   05 Jun 2027 00:33:02.000   05 Jun 2027 00:33:30.136            28.136                 Moscow           879.250
       366   05 Jun 2027 00:35:03.664   05 Jun 2027 00:36:09.302            65.638                 Moscow          2051.187
       367   05 Jun 2027 00:57:26.272   05 Jun 2027 00:59:39.608           133.336               CapeTown          4166.750
       368   05 Jun 2027 01:55:07.690   05 Jun 2027 01:55:10.973             3.283                Anadyr1           102.594
       369   05 Jun 2027 01:55:35.750   05 Jun 2027 01:55:43.321             7.571                Anadyr1           236.594
       370   05 Jun 2027 01:56:06.202   05 Jun 2027 01:57:26.850            80.648               Magadan2          2520.250
       371   05 Jun 2027 01:57:46.800   05 Jun 2027 01:58:44.602            57.802               Magadan1          1806.313
       372   05 Jun 2027 02:02:41.115   05 Jun 2027 02:02:55.065            13.950                Norilsk           435.937
       373   05 Jun 2027 02:04:47.467   05 Jun 2027 02:05:03.226            15.759                Norilsk           492.469
       374   05 Jun 2027 02:05:37.031   05 Jun 2027 02:07:20.049           103.018              Murmansk1          3219.313
       375   05 Jun 2027 02:08:50.877   05 Jun 2027 02:08:53.949             3.072                 Moscow            96.000
       376   05 Jun 2027 02:09:43.202   05 Jun 2027 02:09:48.165             4.963              Murmansk1           155.094
       377   05 Jun 2027 02:10:09.335   05 Jun 2027 02:10:42.054            32.719                Novosib          1022.469
       378   05 Jun 2027 02:15:27.594   05 Jun 2027 02:16:02.645            35.051                 Moscow          1095.344
       379   05 Jun 2027 02:33:24.299   05 Jun 2027 02:34:03.498            39.199               CapeTown          1224.969
       380   05 Jun 2027 02:42:00.664   05 Jun 2027 02:43:01.027            60.363               CapeTown          1886.344
       381   05 Jun 2027 03:34:51.676   05 Jun 2027 03:36:36.239           104.563                Anadyr1          3267.594
       382   05 Jun 2027 03:36:39.166   05 Jun 2027 03:38:12.141            92.975                Anadyr2          2905.469
       383   05 Jun 2027 03:38:16.644   05 Jun 2027 03:39:17.381            60.737                Anadyr1          1898.031
       384   05 Jun 2027 03:39:58.871   05 Jun 2027 03:40:23.211            24.340                Anadyr1           760.625
       385   05 Jun 2027 05:12:47.151   05 Jun 2027 05:13:28.130            40.979                Irkutsk          1280.594
       386   05 Jun 2027 05:15:35.166   05 Jun 2027 05:16:26.676            51.510               Magadan2          1609.688
       387   05 Jun 2027 05:16:38.599   05 Jun 2027 05:17:46.336            67.737                Anadyr1          2116.781
       388   05 Jun 2027 06:47:40.894   05 Jun 2027 06:47:57.996            17.102               Magadan2           534.438
       389   05 Jun 2027 06:49:47.378   05 Jun 2027 06:50:10.987            23.609               Magadan1           737.781
       390   05 Jun 2027 06:51:09.399   05 Jun 2027 06:51:47.220            37.821               Magadan2          1181.906
       391   05 Jun 2027 06:52:14.255   05 Jun 2027 06:52:27.792            13.537               Magadan1           423.031
       392   05 Jun 2027 06:53:19.078   05 Jun 2027 06:54:04.966            45.888                Norilsk          1434.000
       393   05 Jun 2027 08:23:57.464   05 Jun 2027 08:24:19.962            22.498                Irkutsk           703.063
       394   05 Jun 2027 08:24:46.496   05 Jun 2027 08:25:13.458            26.962                Novosib           842.563
       395   05 Jun 2027 08:25:36.382   05 Jun 2027 08:25:59.745            23.363                Irkutsk           730.094
       396   05 Jun 2027 08:26:01.952   05 Jun 2027 08:26:16.022            14.070              Murmansk1           439.688
       397   05 Jun 2027 08:27:14.519   05 Jun 2027 08:27:28.109            13.590                Irkutsk           424.687
       398   05 Jun 2027 08:28:05.841   05 Jun 2027 08:28:26.619            20.778                Novosib           649.312
       399   05 Jun 2027 08:28:54.281   05 Jun 2027 08:29:54.325            60.044                Novosib          1876.375
       400   05 Jun 2027 09:06:53.602   05 Jun 2027 09:07:05.386            11.784            RioGallegos           368.250
       401   05 Jun 2027 09:07:36.118   05 Jun 2027 09:07:39.657             3.539            RioGallegos           110.594
       402   05 Jun 2027 09:08:57.206   05 Jun 2027 09:09:26.572            29.366            RioGallegos           917.688
       403   05 Jun 2027 09:41:12.632   05 Jun 2027 09:43:02.604           109.972                Sumatra          3436.625
       404   05 Jun 2027 10:01:57.062   05 Jun 2027 10:02:20.899            23.837              Murmansk1           744.906
       405   05 Jun 2027 10:03:03.258   05 Jun 2027 10:03:46.238            42.980                Novosib          1343.125
       406   05 Jun 2027 10:04:17.633   05 Jun 2027 10:04:25.468             7.835                Novosib           244.844
       407   05 Jun 2027 10:04:34.935   05 Jun 2027 10:04:46.539            11.604                Novosib           362.625
       408   05 Jun 2027 10:04:54.333   05 Jun 2027 10:04:57.075             2.742                Norilsk            85.688
       409   05 Jun 2027 10:05:01.828   05 Jun 2027 10:05:14.689            12.861                Novosib           401.906
       410   05 Jun 2027 11:27:00.712   05 Jun 2027 11:29:56.607           175.895                  Delhi          5496.719
       411   05 Jun 2027 11:43:13.293   05 Jun 2027 11:43:21.215             7.922                Norilsk           247.562
       412   05 Jun 2027 13:12:21.408   05 Jun 2027 13:13:34.403            72.995                 Moscow          2281.094
       413   05 Jun 2027 13:14:37.439   05 Jun 2027 13:14:49.465            12.026              Murmansk1           375.813
       414   05 Jun 2027 13:17:48.814   05 Jun 2027 13:18:16.012            27.198              Murmansk2           849.938
       415   05 Jun 2027 13:26:42.707   05 Jun 2027 13:28:51.206           128.499                Anadyr2          4015.594
       416   05 Jun 2027 13:33:36.462   05 Jun 2027 13:34:35.281            58.819                Anadyr1          1838.094
       417   05 Jun 2027 14:21:18.414   05 Jun 2027 14:22:17.521            59.107               CapeTown          1847.094
       418   05 Jun 2027 14:24:29.470   05 Jun 2027 14:24:58.379            28.909               CapeTown           903.406
       419   05 Jun 2027 14:25:38.510   05 Jun 2027 14:26:41.835            63.325               CapeTown          1978.906
       420   05 Jun 2027 14:50:35.828   05 Jun 2027 14:51:01.926            26.098              Murmansk2           815.563
       421   05 Jun 2027 14:51:07.711   05 Jun 2027 14:52:11.970            64.259              Murmansk1          2008.094
       422   05 Jun 2027 14:52:11.970   05 Jun 2027 14:52:29.707            17.737              Murmansk2           554.281
       423   05 Jun 2027 14:53:55.567   05 Jun 2027 14:54:17.920            22.353              Murmansk1           698.531
       424   05 Jun 2027 15:01:58.530   05 Jun 2027 15:03:58.643           120.113                Anadyr2          3753.531
       425   05 Jun 2027 15:04:17.111   05 Jun 2027 15:04:33.535            16.424                Anadyr2           513.250
       426   05 Jun 2027 15:04:45.771   05 Jun 2027 15:05:12.528            26.757                Anadyr2           836.156
       427   05 Jun 2027 15:06:24.980   05 Jun 2027 15:09:35.568           190.588               Magadan2          5955.875
       428   05 Jun 2027 15:09:35.568   05 Jun 2027 15:10:22.553            46.985               Magadan1          1468.281
       429   05 Jun 2027 16:37:50.637   05 Jun 2027 16:40:05.146           134.509                Anadyr2          4203.406
       430   05 Jun 2027 16:40:19.457   05 Jun 2027 16:43:04.726           165.269               Magadan1          5164.656
       431   05 Jun 2027 16:43:14.822   05 Jun 2027 16:43:24.399             9.577               Magadan1           299.281
       432   05 Jun 2027 16:45:12.989   05 Jun 2027 16:46:41.910            88.921               Magadan2          2778.781
       433   05 Jun 2027 18:13:44.231   05 Jun 2027 18:17:08.763           204.532                Anadyr2          6391.625
       434   05 Jun 2027 18:17:33.134   05 Jun 2027 18:19:21.475           108.341               Magadan2          3385.656
       435   05 Jun 2027 18:19:43.534   05 Jun 2027 18:21:13.463            89.929                Norilsk          2810.281
       436   05 Jun 2027 18:23:24.478   05 Jun 2027 18:25:01.883            97.405                Irkutsk          3043.906
       437   05 Jun 2027 19:08:05.445   05 Jun 2027 19:08:37.458            32.013            RioGallegos          1000.406
       438   05 Jun 2027 19:09:14.132   05 Jun 2027 19:09:37.796            23.664            RioGallegos           739.500
       439   05 Jun 2027 19:10:49.244   05 Jun 2027 19:11:26.350            37.106            RioGallegos          1159.562
       440   05 Jun 2027 19:52:05.757   05 Jun 2027 19:53:24.715            78.958               Magadan2          2467.437
       441   05 Jun 2027 19:53:51.593   05 Jun 2027 19:54:43.443            51.850               Magadan2          1620.312
       442   05 Jun 2027 19:55:42.811   05 Jun 2027 19:55:46.851             4.040                Irkutsk           126.250
       443   05 Jun 2027 19:56:04.958   05 Jun 2027 19:56:54.978            50.020                Irkutsk          1563.125
       444   05 Jun 2027 19:57:19.102   05 Jun 2027 20:01:31.006           251.904                Novosib          7872.000
       445   05 Jun 2027 20:03:12.411   05 Jun 2027 20:03:47.629            35.218                Novosib          1100.563
       446   05 Jun 2027 20:09:24.654   05 Jun 2027 20:11:37.619           132.965                Sumatra          4155.156
       447   05 Jun 2027 20:12:41.915   05 Jun 2027 20:13:04.066            22.151                Sumatra           692.219
       448   05 Jun 2027 21:30:48.972   05 Jun 2027 21:30:53.847             4.875                Norilsk           152.344
       449   05 Jun 2027 21:31:26.032   05 Jun 2027 21:31:46.029            19.997                Irkutsk           624.906
       450   05 Jun 2027 21:31:56.019   05 Jun 2027 21:33:33.758            97.739                Novosib          3054.344
       451   05 Jun 2027 21:33:41.210   05 Jun 2027 21:34:07.756            26.546                Novosib           829.563
       452   05 Jun 2027 21:39:09.821   05 Jun 2027 21:42:55.006           225.185                  Delhi          7037.031
       453   05 Jun 2027 23:03:28.808   05 Jun 2027 23:04:11.237            42.429               Magadan1          1325.906
       454   05 Jun 2027 23:04:15.529   05 Jun 2027 23:04:31.885            16.356               Magadan1           511.125
       455   05 Jun 2027 23:05:28.565   05 Jun 2027 23:05:36.934             8.369               Magadan1           261.531
       456   05 Jun 2027 23:05:52.889   05 Jun 2027 23:07:59.017           126.128              Murmansk1          3941.500
       457   05 Jun 2027 23:08:37.959   05 Jun 2027 23:10:42.100           124.141              Murmansk2          3879.406
       458   05 Jun 2027 23:11:52.538   05 Jun 2027 23:15:18.556           206.018                 Moscow          6438.062
       459   06 Jun 2027 00:35:44.316   06 Jun 2027 00:36:32.571            48.255               Magadan1          1507.969
       460   06 Jun 2027 00:39:28.367   06 Jun 2027 00:40:14.930            46.563               Magadan1          1455.094
       461   06 Jun 2027 00:41:40.409   06 Jun 2027 00:44:06.734           146.325              Murmansk2          4572.656
       462   06 Jun 2027 00:44:59.772   06 Jun 2027 00:45:48.083            48.311                 Moscow          1509.719
       463   06 Jun 2027 00:47:40.869   06 Jun 2027 00:47:50.297             9.428                 Moscow           294.625
       464   06 Jun 2027 00:48:16.092   06 Jun 2027 00:49:05.470            49.378                 Moscow          1543.062
       465   06 Jun 2027 01:09:09.834   06 Jun 2027 01:10:45.148            95.314               CapeTown          2978.562
       466   06 Jun 2027 02:05:33.181   06 Jun 2027 02:06:31.224            58.043                Anadyr2          1813.844
       467   06 Jun 2027 02:06:55.859   06 Jun 2027 02:07:20.604            24.745                Anadyr2           773.281
       468   06 Jun 2027 02:07:42.399   06 Jun 2027 02:09:48.375           125.976               Magadan1          3936.750
       469   06 Jun 2027 02:17:38.527   06 Jun 2027 02:18:27.071            48.544              Murmansk2          1517.000
       470   06 Jun 2027 02:18:35.461   06 Jun 2027 02:19:00.408            24.947              Murmansk1           779.594
       471   06 Jun 2027 02:20:49.694   06 Jun 2027 02:21:49.210            59.516              Murmansk1          1859.875
       472   06 Jun 2027 02:22:21.609   06 Jun 2027 02:23:40.780            79.171                 Moscow          2474.094
       473   06 Jun 2027 02:45:52.495   06 Jun 2027 02:46:04.988            12.493               CapeTown           390.406
       474   06 Jun 2027 02:46:32.112   06 Jun 2027 02:47:14.321            42.209               CapeTown          1319.031
       475   06 Jun 2027 02:56:24.034   06 Jun 2027 02:56:33.251             9.217               CapeTown           288.031
       476   06 Jun 2027 03:46:19.130   06 Jun 2027 03:52:23.058           363.928                Anadyr1         11372.750
       477   06 Jun 2027 03:52:55.412   06 Jun 2027 03:52:56.490             1.078                Anadyr1            33.687
       478   06 Jun 2027 03:52:56.713   06 Jun 2027 03:53:12.471            15.758               Magadan1           492.437
       479   06 Jun 2027 03:53:24.054   06 Jun 2027 03:53:33.422             9.368               Magadan2           292.750
       480   06 Jun 2027 04:34:54.458   06 Jun 2027 04:36:07.000            72.542            RioGallegos          2266.938
       481   06 Jun 2027 05:23:55.828   06 Jun 2027 05:24:46.903            51.075                Irkutsk          1596.094
       482   06 Jun 2027 05:25:46.957   06 Jun 2027 05:26:28.236            41.279               Magadan1          1289.969
