uniorb/output/strategy_4/Drop/Drop_KinoSat_110808.txt

KinoSat_110808
-------------------------
    Access    *     Start Time (UTCG)     *     Stop Time (UTCG)  *   Duration (s)        *       Station  *  Data (Mbytes)
         1   01 Jun 2027 03:07:14.108   01 Jun 2027 03:08:01.172            47.064                Anadyr2          1470.750
         2   01 Jun 2027 03:08:01.172   01 Jun 2027 03:09:22.741            81.569                Anadyr1          2549.031
         3   01 Jun 2027 03:12:13.872   01 Jun 2027 03:13:02.893            49.021                Anadyr2          1531.906
         4   01 Jun 2027 04:44:58.744   01 Jun 2027 04:47:27.123           148.379               Magadan1          4636.844
         5   01 Jun 2027 04:47:46.184   01 Jun 2027 04:49:04.545            78.361               Magadan2          2448.781
         6   01 Jun 2027 05:26:09.111   01 Jun 2027 05:26:50.943            41.832            RioGallegos          1307.250
         7   01 Jun 2027 06:19:25.482   01 Jun 2027 06:20:44.539            79.057               Magadan2          2470.531
         8   01 Jun 2027 06:20:51.347   01 Jun 2027 06:22:54.263           122.916                Irkutsk          3841.125
         9   01 Jun 2027 06:23:22.079   01 Jun 2027 06:23:26.879             4.800                Novosib           150.000
        10   01 Jun 2027 06:23:31.559   01 Jun 2027 06:24:10.521            38.962                Irkutsk          1217.562
        11   01 Jun 2027 06:24:14.210   01 Jun 2027 06:24:33.069            18.859               Magadan2           589.344
        12   01 Jun 2027 06:24:37.607   01 Jun 2027 06:25:02.997            25.390                Novosib           793.438
        13   01 Jun 2027 06:25:09.069   01 Jun 2027 06:25:28.257            19.188              Murmansk2           599.625
        14   01 Jun 2027 06:25:42.047   01 Jun 2027 06:26:08.875            26.828              Murmansk2           838.375
        15   01 Jun 2027 06:26:34.990   01 Jun 2027 06:27:03.226            28.236              Murmansk2           882.375
        16   01 Jun 2027 06:27:05.600   01 Jun 2027 06:27:26.986            21.386                Norilsk           668.312
        17   01 Jun 2027 06:29:12.255   01 Jun 2027 06:29:42.744            30.489              Murmansk1           952.781
        18   01 Jun 2027 06:59:31.399   01 Jun 2027 07:00:47.052            75.653            RioGallegos          2364.156
        19   01 Jun 2027 07:02:02.390   01 Jun 2027 07:02:30.543            28.153            RioGallegos           879.781
        20   01 Jun 2027 07:35:24.886   01 Jun 2027 07:35:32.614             7.728                Sumatra           241.500
        21   01 Jun 2027 07:36:22.354   01 Jun 2027 07:38:28.863           126.509                Sumatra          3953.406
        22   01 Jun 2027 07:57:01.791   01 Jun 2027 07:58:46.242           104.451                Norilsk          3264.094
        23   01 Jun 2027 07:58:54.564   01 Jun 2027 08:01:14.218           139.654              Murmansk1          4364.188
        24   01 Jun 2027 08:01:14.218   01 Jun 2027 08:02:09.963            55.745              Murmansk2          1742.031
        25   01 Jun 2027 08:36:39.088   01 Jun 2027 08:36:59.245            20.157            RioGallegos           629.906
        26   01 Jun 2027 08:38:05.246   01 Jun 2027 08:38:55.801            50.555            RioGallegos          1579.844
        27   01 Jun 2027 09:10:52.623   01 Jun 2027 09:11:53.843            61.220                Sumatra          1913.125
        28   01 Jun 2027 09:12:48.783   01 Jun 2027 09:14:11.258            82.475                Sumatra          2577.344
        29   01 Jun 2027 09:18:55.317   01 Jun 2027 09:22:15.693           200.376                  Delhi          6261.750
        30   01 Jun 2027 09:34:11.450   01 Jun 2027 09:35:31.114            79.664                Irkutsk          2489.500
        31   01 Jun 2027 09:36:38.754   01 Jun 2027 09:38:13.055            94.301                Novosib          2946.906
        32   01 Jun 2027 10:55:50.838   01 Jun 2027 10:58:59.698           188.860                  Delhi          5901.875
        33   01 Jun 2027 10:59:13.014   01 Jun 2027 11:00:27.789            74.775                  Delhi          2336.719
        34   01 Jun 2027 11:10:34.992   01 Jun 2027 11:13:24.964           169.972              Murmansk1          5311.625
        35   01 Jun 2027 11:13:25.652   01 Jun 2027 11:14:04.524            38.872                Norilsk          1214.750
        36   01 Jun 2027 11:14:11.379   01 Jun 2027 11:14:44.970            33.591                 Moscow          1049.719
        37   01 Jun 2027 12:39:05.871   01 Jun 2027 12:43:10.831           244.960                 Moscow          7655.000
        38   01 Jun 2027 12:43:18.300   01 Jun 2027 12:47:12.527           234.227              Murmansk2          7319.594
        39   01 Jun 2027 12:49:38.660   01 Jun 2027 12:50:10.797            32.137                Norilsk          1004.281
        40   01 Jun 2027 12:51:11.050   01 Jun 2027 12:51:30.373            19.323                Norilsk           603.844
        41   01 Jun 2027 12:52:15.366   01 Jun 2027 12:52:19.256             3.890              Murmansk1           121.562
        42   01 Jun 2027 12:58:33.682   01 Jun 2027 13:03:34.778           301.096                Anadyr2          9409.250
        43   01 Jun 2027 13:55:21.304   01 Jun 2027 13:55:37.794            16.490               CapeTown           515.312
        44   01 Jun 2027 14:20:36.116   01 Jun 2027 14:20:38.900             2.784              Murmansk1            87.000
        45   01 Jun 2027 14:21:11.667   01 Jun 2027 14:22:16.572            64.905              Murmansk2          2028.281
        46   01 Jun 2027 14:25:08.560   01 Jun 2027 14:25:22.766            14.206              Murmansk1           443.938
        47   01 Jun 2027 14:29:47.648   01 Jun 2027 14:30:26.102            38.454              Murmansk1          1201.688
        48   01 Jun 2027 14:33:09.464   01 Jun 2027 14:35:06.006           116.542                Anadyr2          3641.938
        49   01 Jun 2027 14:35:46.370   01 Jun 2027 14:36:18.452            32.082                Anadyr1          1002.563
        50   01 Jun 2027 15:29:51.567   01 Jun 2027 15:30:17.598            26.031               CapeTown           813.469
        51   01 Jun 2027 15:33:51.825   01 Jun 2027 15:34:04.782            12.957               CapeTown           404.906
        52   01 Jun 2027 15:34:22.778   01 Jun 2027 15:34:36.192            13.414               CapeTown           419.188
        53   01 Jun 2027 16:01:28.483   01 Jun 2027 16:03:13.723           105.240              Murmansk1          3288.750
        54   01 Jun 2027 16:03:13.723   01 Jun 2027 16:03:43.545            29.822              Murmansk2           931.938
        55   01 Jun 2027 16:08:56.495   01 Jun 2027 16:11:38.277           161.782                Anadyr1          5055.688
        56   01 Jun 2027 16:11:39.454   01 Jun 2027 16:14:23.363           163.909               Magadan1          5122.156
        57   01 Jun 2027 16:14:30.410   01 Jun 2027 16:16:36.123           125.713               Magadan2          3928.531
        58   01 Jun 2027 17:44:51.731   01 Jun 2027 17:46:23.685            91.954                Anadyr2          2873.562
        59   01 Jun 2027 17:46:38.152   01 Jun 2027 17:47:19.374            41.222                Anadyr1          1288.187
        60   01 Jun 2027 17:47:39.973   01 Jun 2027 17:47:53.557            13.584                Anadyr1           424.500
        61   01 Jun 2027 17:48:22.945   01 Jun 2027 17:48:41.146            18.201                Anadyr1           568.781
        62   01 Jun 2027 17:49:05.599   01 Jun 2027 17:51:05.325           119.726               Magadan2          3741.438
        63   01 Jun 2027 17:52:50.920   01 Jun 2027 17:53:06.345            15.425               Magadan2           482.031
        64   01 Jun 2027 18:39:47.971   01 Jun 2027 18:46:18.582           390.611            RioGallegos         12206.594
        65   01 Jun 2027 19:23:08.423   01 Jun 2027 19:24:25.420            76.997               Magadan1          2406.156
        66   01 Jun 2027 19:25:37.653   01 Jun 2027 19:26:52.854            75.201                Norilsk          2350.031
        67   01 Jun 2027 19:27:09.309   01 Jun 2027 19:30:56.521           227.212                Irkutsk          7100.375
        68   01 Jun 2027 19:41:11.624   01 Jun 2027 19:44:37.173           205.549                Sumatra          6423.406
        69   01 Jun 2027 19:46:59.641   01 Jun 2027 19:47:41.320            41.679                Sumatra          1302.469
        70   01 Jun 2027 21:02:29.365   01 Jun 2027 21:02:42.712            13.347                Irkutsk           417.094
        71   01 Jun 2027 21:02:49.503   01 Jun 2027 21:05:25.634           156.131                Novosib          4879.094
        72   01 Jun 2027 21:11:09.038   01 Jun 2027 21:13:14.135           125.097                  Delhi          3909.281
        73   01 Jun 2027 21:13:49.637   01 Jun 2027 21:14:19.122            29.485                  Delhi           921.406
        74   01 Jun 2027 21:16:44.347   01 Jun 2027 21:18:13.274            88.927                  Delhi          2778.969
        75   01 Jun 2027 22:34:59.272   01 Jun 2027 22:35:12.367            13.095               Magadan2           409.219
        76   01 Jun 2027 22:35:21.225   01 Jun 2027 22:35:36.712            15.487               Magadan2           483.969
        77   01 Jun 2027 22:37:10.267   01 Jun 2027 22:41:08.217           237.950              Murmansk2          7435.937
        78   01 Jun 2027 22:42:04.896   01 Jun 2027 22:44:44.203           159.307              Murmansk1          4978.344
        79   01 Jun 2027 22:45:00.697   01 Jun 2027 22:45:49.382            48.685                 Moscow          1521.406
        80   02 Jun 2027 00:08:09.761   02 Jun 2027 00:09:01.553            51.792               Magadan2          1618.500
        81   02 Jun 2027 00:09:25.514   02 Jun 2027 00:10:04.717            39.203               Magadan1          1225.094
        82   02 Jun 2027 00:12:46.362   02 Jun 2027 00:13:23.041            36.679              Murmansk2          1146.219
        83   02 Jun 2027 00:13:38.411   02 Jun 2027 00:14:23.017            44.606              Murmansk1          1393.937
        84   02 Jun 2027 00:14:39.159   02 Jun 2027 00:15:50.500            71.341                Novosib          2229.406
        85   02 Jun 2027 00:16:16.136   02 Jun 2027 00:16:47.446            31.310                 Moscow           978.438
        86   02 Jun 2027 00:18:10.613   02 Jun 2027 00:19:09.970            59.357                 Moscow          1854.906
        87   02 Jun 2027 00:24:28.725   02 Jun 2027 00:25:08.057            39.332                 Moscow          1229.125
        88   02 Jun 2027 00:41:08.034   02 Jun 2027 00:44:19.076           191.042               CapeTown          5970.063
        89   02 Jun 2027 01:39:51.349   02 Jun 2027 01:40:11.772            20.423               Magadan1           638.219
        90   02 Jun 2027 01:40:11.772   02 Jun 2027 01:40:54.487            42.715               Magadan2          1334.844
        91   02 Jun 2027 01:46:20.407   02 Jun 2027 01:46:22.842             2.435                Norilsk            76.094
        92   02 Jun 2027 01:48:43.806   02 Jun 2027 01:50:13.441            89.635              Murmansk2          2801.094
        93   02 Jun 2027 01:51:50.041   02 Jun 2027 01:52:25.132            35.091                Novosib          1096.594
        94   02 Jun 2027 01:52:51.983   02 Jun 2027 01:53:22.181            30.198              Murmansk2           943.688
        95   02 Jun 2027 01:55:10.510   02 Jun 2027 01:55:39.505            28.995                 Moscow           906.094
        96   02 Jun 2027 02:16:05.935   02 Jun 2027 02:17:31.669            85.734               CapeTown          2679.187
        97   02 Jun 2027 02:18:51.406   02 Jun 2027 02:19:07.396            15.990               CapeTown           499.688
        98   02 Jun 2027 03:12:48.853   02 Jun 2027 03:12:54.546             5.693                Anadyr1           177.906
        99   02 Jun 2027 03:12:55.507   02 Jun 2027 03:13:16.318            20.811                Anadyr2           650.344
       100   02 Jun 2027 03:14:09.449   02 Jun 2027 03:14:28.251            18.802               Magadan1           587.563
       101   02 Jun 2027 03:15:28.659   02 Jun 2027 03:15:52.792            24.133                Anadyr2           754.156
       102   02 Jun 2027 03:16:11.104   02 Jun 2027 03:16:37.510            26.406               Magadan2           825.187
       103   02 Jun 2027 03:18:40.664   02 Jun 2027 03:19:00.919            20.255               Magadan1           632.969
       104   02 Jun 2027 03:19:05.532   02 Jun 2027 03:21:19.933           134.401                Anadyr1          4200.031
       105   02 Jun 2027 03:21:19.933   02 Jun 2027 03:22:15.129            55.196                Anadyr2          1724.875
       106   02 Jun 2027 03:22:19.648   02 Jun 2027 03:22:22.764             3.116               Magadan1            97.375
       107   02 Jun 2027 03:22:28.402   02 Jun 2027 03:22:34.283             5.881               Magadan1           183.781
       108   02 Jun 2027 03:23:19.058   02 Jun 2027 03:24:00.478            41.420               Magadan1          1294.375
       109   02 Jun 2027 03:24:12.468   02 Jun 2027 03:25:27.947            75.479                Anadyr1          2358.719
       110   02 Jun 2027 04:57:34.882   02 Jun 2027 04:58:40.536            65.654                Anadyr1          2051.687
       111   02 Jun 2027 06:34:02.195   02 Jun 2027 06:34:23.769            21.574                Irkutsk           674.187
       112   02 Jun 2027 06:34:36.912   02 Jun 2027 06:34:51.662            14.750               Magadan1           460.937
       113   02 Jun 2027 06:34:51.662   02 Jun 2027 06:36:25.448            93.786               Magadan2          2930.812
       114   02 Jun 2027 06:36:39.564   02 Jun 2027 06:37:48.691            69.127                Novosib          2160.219
       115   02 Jun 2027 08:09:39.950   02 Jun 2027 08:10:12.562            32.612                Irkutsk          1019.125
       116   02 Jun 2027 08:11:06.361   02 Jun 2027 08:12:45.944            99.583                Irkutsk          3111.969
       117   02 Jun 2027 08:12:57.968   02 Jun 2027 08:13:22.787            24.819              Murmansk2           775.594
       118   02 Jun 2027 08:13:22.787   02 Jun 2027 08:14:10.992            48.205              Murmansk1          1506.406
       119   02 Jun 2027 08:14:38.814   02 Jun 2027 08:15:06.693            27.879              Murmansk2           871.219
       120   02 Jun 2027 08:49:09.130   02 Jun 2027 08:50:50.497           101.367            RioGallegos          3167.719
       121   02 Jun 2027 09:23:20.676   02 Jun 2027 09:23:50.734            30.058                Sumatra           939.312
       122   02 Jun 2027 09:24:23.723   02 Jun 2027 09:24:44.370            20.647                Sumatra           645.219
       123   02 Jun 2027 09:25:58.295   02 Jun 2027 09:26:43.352            45.057                Sumatra          1408.031
       124   02 Jun 2027 09:45:00.498   02 Jun 2027 09:45:01.804             1.306                Novosib            40.812
       125   02 Jun 2027 09:47:19.671   02 Jun 2027 09:47:21.486             1.815                Novosib            56.719
       126   02 Jun 2027 09:47:50.451   02 Jun 2027 09:47:51.510             1.059                Novosib            33.094
       127   02 Jun 2027 09:48:02.237   02 Jun 2027 09:48:16.185            13.948                Novosib           435.875
       128   02 Jun 2027 09:48:29.399   02 Jun 2027 09:48:30.938             1.539                Novosib            48.094
       129   02 Jun 2027 09:49:38.737   02 Jun 2027 09:49:55.904            17.167              Murmansk2           536.469
       130   02 Jun 2027 11:08:34.619   02 Jun 2027 11:10:14.240            99.621                  Delhi          3113.156
       131   02 Jun 2027 11:11:10.491   02 Jun 2027 11:12:51.342           100.851                  Delhi          3151.594
       132   02 Jun 2027 11:21:57.146   02 Jun 2027 11:22:12.472            15.326                Norilsk           478.938
       133   02 Jun 2027 11:25:27.665   02 Jun 2027 11:25:37.239             9.574                Norilsk           299.188
       134   02 Jun 2027 12:51:17.663   02 Jun 2027 12:52:12.228            54.565                 Moscow          1705.156
       135   02 Jun 2027 12:54:46.877   02 Jun 2027 12:56:37.715           110.838              Murmansk1          3463.688
       136   02 Jun 2027 12:56:37.715   02 Jun 2027 12:57:00.867            23.152              Murmansk2           723.500
       137   02 Jun 2027 12:57:50.774   02 Jun 2027 12:58:14.038            23.264              Murmansk1           727.000
       138   02 Jun 2027 12:59:30.873   02 Jun 2027 12:59:34.294             3.421              Murmansk1           106.906
       139   02 Jun 2027 13:00:40.865   02 Jun 2027 13:00:59.125            18.260              Murmansk1           570.625
       140   02 Jun 2027 13:04:09.369   02 Jun 2027 13:04:21.593            12.224              Murmansk2           382.000
       141   02 Jun 2027 13:04:21.593   02 Jun 2027 13:04:49.721            28.128              Murmansk1           879.000
       142   02 Jun 2027 13:10:11.128   02 Jun 2027 13:13:45.928           214.800                Anadyr2          6712.500
       143   02 Jun 2027 13:14:31.617   02 Jun 2027 13:16:35.719           124.102                Anadyr1          3878.187
       144   02 Jun 2027 14:33:02.858   02 Jun 2027 14:35:00.736           117.878              Murmansk1          3683.687
       145   02 Jun 2027 14:45:08.269   02 Jun 2027 14:47:03.177           114.908                Anadyr2          3590.875
       146   02 Jun 2027 14:47:45.181   02 Jun 2027 14:49:03.758            78.577                Anadyr2          2455.531
       147   02 Jun 2027 15:46:51.561   02 Jun 2027 15:47:02.533            10.972               CapeTown           342.875
       148   02 Jun 2027 16:14:36.247   02 Jun 2027 16:16:44.426           128.179              Murmansk2          4005.594
       149   02 Jun 2027 16:16:44.426   02 Jun 2027 16:16:53.702             9.276              Murmansk1           289.875
       150   02 Jun 2027 16:20:57.768   02 Jun 2027 16:22:30.626            92.858                Anadyr2          2901.812
       151   02 Jun 2027 16:22:53.452   02 Jun 2027 16:23:28.146            34.694                Anadyr1          1084.187
       152   02 Jun 2027 16:23:33.906   02 Jun 2027 16:25:59.488           145.582               Magadan1          4549.437
       153   02 Jun 2027 16:26:10.165   02 Jun 2027 16:27:32.067            81.902               Magadan2          2559.437
       154   02 Jun 2027 16:29:16.985   02 Jun 2027 16:29:51.276            34.291               Magadan1          1071.594
       155   02 Jun 2027 17:56:52.537   02 Jun 2027 17:59:30.143           157.606                Anadyr1          4925.187
       156   02 Jun 2027 17:59:50.474   02 Jun 2027 18:00:25.154            34.680                Anadyr1          1083.750
       157   02 Jun 2027 18:00:26.998   02 Jun 2027 18:02:54.600           147.602                Norilsk          4612.562
       158   02 Jun 2027 18:51:31.172   02 Jun 2027 18:55:07.677           216.505            RioGallegos          6765.781
       159   02 Jun 2027 18:55:20.135   02 Jun 2027 18:57:44.779           144.644            RioGallegos          4520.125
       160   02 Jun 2027 19:34:44.765   02 Jun 2027 19:36:06.865            82.100                Norilsk          2565.625
       161   02 Jun 2027 19:37:17.661   02 Jun 2027 19:38:02.322            44.661                Norilsk          1395.656
       162   02 Jun 2027 19:38:53.849   02 Jun 2027 19:40:03.537            69.688                Norilsk          2177.750
       163   02 Jun 2027 19:40:33.184   02 Jun 2027 19:41:51.950            78.766                Irkutsk          2461.437
       164   02 Jun 2027 19:42:03.472   02 Jun 2027 19:43:55.909           112.437                Novosib          3513.656
       165   02 Jun 2027 19:54:09.846   02 Jun 2027 19:55:10.084            60.238                Sumatra          1882.437
       166   02 Jun 2027 19:56:35.051   02 Jun 2027 19:57:53.949            78.898                Sumatra          2465.562
       167   02 Jun 2027 21:14:44.460   02 Jun 2027 21:15:25.539            41.079                Novosib          1283.719
       168   02 Jun 2027 21:15:47.396   02 Jun 2027 21:16:40.646            53.250                Novosib          1664.063
       169   02 Jun 2027 21:22:43.348   02 Jun 2027 21:25:24.789           161.441                  Delhi          5045.031
       170   02 Jun 2027 21:27:30.891   02 Jun 2027 21:29:00.882            89.991                  Delhi          2812.219
       171   02 Jun 2027 22:47:34.112   02 Jun 2027 22:48:18.975            44.863               Magadan2          1401.969
       172   02 Jun 2027 22:49:05.757   02 Jun 2027 22:53:07.162           241.405              Murmansk1          7543.906
       173   02 Jun 2027 22:54:23.341   02 Jun 2027 22:59:42.841           319.500                 Moscow          9984.375
       174   03 Jun 2027 00:24:47.506   03 Jun 2027 00:25:56.304            68.798              Murmansk2          2149.937
       175   03 Jun 2027 00:27:40.217   03 Jun 2027 00:28:07.521            27.304              Murmansk2           853.250
       176   03 Jun 2027 00:28:12.242   03 Jun 2027 00:28:45.386            33.144                 Moscow          1035.750
       177   03 Jun 2027 00:29:55.553   03 Jun 2027 00:30:24.312            28.759                 Moscow           898.719
       178   03 Jun 2027 00:31:15.824   03 Jun 2027 00:32:08.587            52.763                 Moscow          1648.844
       179   03 Jun 2027 00:52:43.499   03 Jun 2027 00:54:43.280           119.781               CapeTown          3743.156
       180   03 Jun 2027 00:55:58.896   03 Jun 2027 00:56:10.699            11.803               CapeTown           368.844
       181   03 Jun 2027 01:04:13.595   03 Jun 2027 01:04:27.820            14.225               CapeTown           444.531
       182   03 Jun 2027 01:51:25.309   03 Jun 2027 01:52:55.255            89.946               Magadan2          2810.813
       183   03 Jun 2027 01:54:05.144   03 Jun 2027 01:54:13.510             8.366               Magadan2           261.437
       184   03 Jun 2027 01:56:11.372   03 Jun 2027 01:56:38.195            26.823               Magadan1           838.219
       185   03 Jun 2027 01:59:52.581   03 Jun 2027 01:59:58.419             5.838                Norilsk           182.438
       186   03 Jun 2027 02:00:45.429   03 Jun 2027 02:01:11.094            25.665              Murmansk1           802.031
       187   03 Jun 2027 02:01:11.094   03 Jun 2027 02:02:15.127            64.033              Murmansk2          2001.031
       188   03 Jun 2027 02:03:41.479   03 Jun 2027 02:03:59.386            17.907              Murmansk1           559.594
       189   03 Jun 2027 02:04:06.214   03 Jun 2027 02:04:41.744            35.530                 Moscow          1110.312
       190   03 Jun 2027 02:07:23.714   03 Jun 2027 02:07:41.231            17.517                 Moscow           547.406
       191   03 Jun 2027 02:09:36.220   03 Jun 2027 02:10:10.362            34.142                 Moscow          1066.938
       192   03 Jun 2027 02:14:07.029   03 Jun 2027 02:14:35.916            28.887                 Moscow           902.719
       193   03 Jun 2027 02:28:24.117   03 Jun 2027 02:28:57.610            33.493               CapeTown          1046.656
       194   03 Jun 2027 02:34:48.226   03 Jun 2027 02:35:23.980            35.754               CapeTown          1117.312
       195   03 Jun 2027 03:28:58.629   03 Jun 2027 03:29:26.501            27.872               Magadan1           871.000
       196   03 Jun 2027 03:30:55.851   03 Jun 2027 03:31:10.752            14.901               Magadan1           465.656
       197   03 Jun 2027 03:31:10.752   03 Jun 2027 03:31:46.993            36.241               Magadan2          1132.531
       198   03 Jun 2027 03:31:52.571   03 Jun 2027 03:33:20.548            87.977                Anadyr2          2749.281
       199   03 Jun 2027 03:33:25.210   03 Jun 2027 03:34:44.390            79.180                Anadyr2          2474.375
       200   03 Jun 2027 03:35:13.846   03 Jun 2027 03:36:04.940            51.094               Magadan1          1596.687
       201   03 Jun 2027 04:19:09.619   03 Jun 2027 04:19:48.001            38.382            RioGallegos          1199.437
       202   03 Jun 2027 05:09:56.303   03 Jun 2027 05:10:45.940            49.637                Irkutsk          1551.156
       203   03 Jun 2027 05:11:47.631   03 Jun 2027 05:12:58.090            70.459                Anadyr1          2201.844
       204   03 Jun 2027 06:43:05.238   03 Jun 2027 06:43:30.864            25.626               Magadan2           800.813
       205   03 Jun 2027 06:44:38.377   03 Jun 2027 06:44:52.211            13.834               Magadan2           432.313
       206   03 Jun 2027 06:44:54.446   03 Jun 2027 06:45:47.634            53.188               Magadan1          1662.125
       207   03 Jun 2027 06:46:36.583   03 Jun 2027 06:46:54.642            18.059               Magadan1           564.344
       208   03 Jun 2027 06:47:30.857   03 Jun 2027 06:47:39.077             8.220               Magadan1           256.875
       209   03 Jun 2027 06:48:10.244   03 Jun 2027 06:48:27.638            17.394                Novosib           543.563
       210   03 Jun 2027 06:48:40.964   03 Jun 2027 06:49:12.242            31.278                Novosib           977.437
       211   03 Jun 2027 06:49:55.202   03 Jun 2027 06:49:56.474             1.272                Novosib            39.750
       212   03 Jun 2027 08:19:08.838   03 Jun 2027 08:19:32.996            24.158                Irkutsk           754.938
       213   03 Jun 2027 08:19:56.698   03 Jun 2027 08:20:00.363             3.665                Novosib           114.531
       214   03 Jun 2027 08:20:45.168   03 Jun 2027 08:20:56.455            11.287                Irkutsk           352.719
       215   03 Jun 2027 08:21:16.197   03 Jun 2027 08:21:29.317            13.120              Murmansk2           410.000
       216   03 Jun 2027 08:22:21.735   03 Jun 2027 08:22:46.275            24.540                Irkutsk           766.875
       217   03 Jun 2027 08:23:17.586   03 Jun 2027 08:23:32.762            15.176                Novosib           474.250
       218   03 Jun 2027 08:24:00.236   03 Jun 2027 08:24:44.307            44.071                Irkutsk          1377.219
       219   03 Jun 2027 09:01:45.689   03 Jun 2027 09:02:22.342            36.653            RioGallegos          1145.406
       220   03 Jun 2027 09:04:03.777   03 Jun 2027 09:04:19.283            15.506            RioGallegos           484.562
       221   03 Jun 2027 09:36:00.655   03 Jun 2027 09:38:19.110           138.455                Sumatra          4326.719
       222   03 Jun 2027 09:57:47.902   03 Jun 2027 09:58:12.380            24.478                Novosib           764.937
       223   03 Jun 2027 09:58:15.407   03 Jun 2027 09:59:30.171            74.764                Novosib          2336.375
       224   03 Jun 2027 09:59:36.760   03 Jun 2027 09:59:54.418            17.658                Novosib           551.812
       225   03 Jun 2027 10:00:03.346   03 Jun 2027 10:00:03.646             0.300                Norilsk             9.375
       226   03 Jun 2027 10:00:14.869   03 Jun 2027 10:00:23.430             8.561                Norilsk           267.531
       227   03 Jun 2027 11:21:36.254   03 Jun 2027 11:25:02.994           206.740                  Delhi          6460.625
       228   03 Jun 2027 11:39:42.982   03 Jun 2027 11:40:02.708            19.726                Norilsk           616.438
       229   03 Jun 2027 13:03:32.918   03 Jun 2027 13:04:27.619            54.701                 Moscow          1709.406
       230   03 Jun 2027 13:06:58.578   03 Jun 2027 13:08:51.471           112.893              Murmansk2          3527.906
       231   03 Jun 2027 13:09:19.897   03 Jun 2027 13:09:41.446            21.549              Murmansk1           673.406
       232   03 Jun 2027 13:09:45.818   03 Jun 2027 13:10:09.955            24.137              Murmansk2           754.281
       233   03 Jun 2027 13:11:30.772   03 Jun 2027 13:11:43.420            12.648              Murmansk2           395.250
       234   03 Jun 2027 13:22:20.257   03 Jun 2027 13:23:59.739            99.482                Anadyr2          3108.813
       235   03 Jun 2027 14:16:27.540   03 Jun 2027 14:17:36.552            69.012               CapeTown          2156.625
       236   03 Jun 2027 14:19:53.935   03 Jun 2027 14:20:00.208             6.273               CapeTown           196.031
       237   03 Jun 2027 14:44:44.630   03 Jun 2027 14:45:27.512            42.882                 Moscow          1340.062
       238   03 Jun 2027 14:45:32.225   03 Jun 2027 14:46:48.150            75.925              Murmansk1          2372.656
       239   03 Jun 2027 14:46:48.150   03 Jun 2027 14:47:13.665            25.515              Murmansk2           797.344
       240   03 Jun 2027 14:47:19.971   03 Jun 2027 14:47:38.699            18.728              Murmansk2           585.250
       241   03 Jun 2027 14:57:07.661   03 Jun 2027 14:59:43.419           155.758                Anadyr2          4867.438
       242   03 Jun 2027 15:00:21.065   03 Jun 2027 15:00:46.385            25.320                Anadyr2           791.250
       243   03 Jun 2027 15:01:57.461   03 Jun 2027 15:04:32.370           154.909               Magadan2          4840.906
       244   03 Jun 2027 15:04:49.298   03 Jun 2027 15:05:28.798            39.500               Magadan1          1234.375
       245   03 Jun 2027 16:32:59.115   03 Jun 2027 16:35:33.867           154.752                Anadyr1          4836.000
       246   03 Jun 2027 16:36:08.467   03 Jun 2027 16:40:04.796           236.329               Magadan2          7385.281
       247   03 Jun 2027 18:08:53.112   03 Jun 2027 18:10:26.493            93.381                Anadyr1          2918.156
       248   03 Jun 2027 18:10:37.824   03 Jun 2027 18:12:51.414           133.590                Anadyr2          4174.687
       249   03 Jun 2027 18:13:17.999   03 Jun 2027 18:15:37.564           139.565               Magadan1          4361.406
       250   03 Jun 2027 19:03:18.613   03 Jun 2027 19:06:57.865           219.252            RioGallegos          6851.625
       251   03 Jun 2027 19:13:16.171   03 Jun 2027 19:14:09.608            53.437            RioGallegos          1669.906
       252   03 Jun 2027 19:46:45.000   03 Jun 2027 19:48:27.662           102.662                Norilsk          3208.188
       253   03 Jun 2027 19:50:53.955   03 Jun 2027 19:51:26.317            32.362                Irkutsk          1011.313
       254   03 Jun 2027 19:52:43.366   03 Jun 2027 19:58:19.774           336.408                Novosib         10512.750
       255   03 Jun 2027 20:04:37.441   03 Jun 2027 20:05:53.743            76.302                Sumatra          2384.438
       256   03 Jun 2027 20:07:25.433   03 Jun 2027 20:08:35.883            70.450                Sumatra          2201.563
       257   03 Jun 2027 20:16:54.577   03 Jun 2027 20:17:07.595            13.018                Sumatra           406.812
       258   03 Jun 2027 21:26:33.796   03 Jun 2027 21:27:00.492            26.696                Irkutsk           834.250
       259   03 Jun 2027 21:27:11.488   03 Jun 2027 21:28:33.728            82.240                Novosib          2570.000
       260   03 Jun 2027 21:34:24.754   03 Jun 2027 21:38:05.114           220.360                  Delhi          6886.250
       261   03 Jun 2027 22:58:42.887   03 Jun 2027 22:59:53.195            70.308               Magadan2          2197.125
       262   03 Jun 2027 23:00:13.430   03 Jun 2027 23:00:44.667            31.237               Magadan1           976.156
       263   03 Jun 2027 23:01:02.782   03 Jun 2027 23:03:14.256           131.474              Murmansk1          4108.563
       264   03 Jun 2027 23:03:46.810   03 Jun 2027 23:06:39.896           173.086              Murmansk2          5408.937
       265   03 Jun 2027 23:07:00.518   03 Jun 2027 23:11:53.895           293.377                 Moscow          9168.031
       266   04 Jun 2027 00:36:48.855   04 Jun 2027 00:38:22.067            93.212              Murmansk2          2912.875
       267   04 Jun 2027 00:38:39.202   04 Jun 2027 00:38:56.721            17.519              Murmansk2           547.469
       268   04 Jun 2027 00:40:09.576   04 Jun 2027 00:40:29.250            19.674                 Moscow           614.812
       269   04 Jun 2027 00:42:35.534   04 Jun 2027 00:42:53.617            18.083                 Moscow           565.094
       270   04 Jun 2027 00:43:42.881   04 Jun 2027 00:44:14.336            31.455                 Moscow           982.969
       271   04 Jun 2027 00:52:37.221   04 Jun 2027 00:52:38.885             1.664                 Moscow            52.000
       272   04 Jun 2027 01:04:24.846   04 Jun 2027 01:05:56.392            91.546               CapeTown          2860.813
       273   04 Jun 2027 01:06:55.486   04 Jun 2027 01:08:07.276            71.790               CapeTown          2243.437
       274   04 Jun 2027 02:02:40.110   04 Jun 2027 02:02:50.128            10.018                Anadyr2           313.063
       275   04 Jun 2027 02:03:00.837   04 Jun 2027 02:04:56.635           115.798               Magadan1          3618.687
       276   04 Jun 2027 02:11:42.093   04 Jun 2027 02:11:44.150             2.057                Norilsk            64.281
       277   04 Jun 2027 02:11:53.901   04 Jun 2027 02:12:13.308            19.407                Norilsk           606.469
       278   04 Jun 2027 02:12:46.967   04 Jun 2027 02:13:55.000            68.033              Murmansk1          2126.031
       279   04 Jun 2027 02:15:59.024   04 Jun 2027 02:16:06.394             7.370              Murmansk2           230.313
       280   04 Jun 2027 02:16:08.198   04 Jun 2027 02:16:55.555            47.357              Murmansk1          1479.906
       281   04 Jun 2027 02:17:16.296   04 Jun 2027 02:18:58.074           101.778                 Moscow          3180.562
       282   04 Jun 2027 02:42:29.847   04 Jun 2027 02:44:02.449            92.602               CapeTown          2893.812
       283   04 Jun 2027 03:41:38.718   04 Jun 2027 03:42:13.413            34.695                Anadyr1          1084.219
       284   04 Jun 2027 03:42:13.413   04 Jun 2027 03:42:38.878            25.465                Anadyr2           795.781
       285   04 Jun 2027 03:42:44.692   04 Jun 2027 03:42:51.044             6.352               Magadan2           198.500
       286   04 Jun 2027 03:42:55.523   04 Jun 2027 03:43:18.048            22.525                Anadyr2           703.906
       287   04 Jun 2027 03:43:44.890   04 Jun 2027 03:49:12.081           327.191               Magadan1         10224.719
       288   04 Jun 2027 04:29:51.064   04 Jun 2027 04:32:24.776           153.712            RioGallegos          4803.500
       289   04 Jun 2027 05:19:55.693   04 Jun 2027 05:20:51.204            55.511                Irkutsk          1734.719
       290   04 Jun 2027 05:22:14.866   04 Jun 2027 05:25:04.283           169.417               Magadan1          5294.281
       291   04 Jun 2027 06:54:49.991   04 Jun 2027 06:55:08.400            18.409               Magadan1           575.281
       292   04 Jun 2027 06:56:02.235   04 Jun 2027 06:56:09.039             6.804               Magadan1           212.625
       293   04 Jun 2027 06:56:14.948   04 Jun 2027 06:56:30.876            15.928               Magadan2           497.750
       294   04 Jun 2027 06:56:54.205   04 Jun 2027 06:56:57.779             3.574               Magadan2           111.687
       295   04 Jun 2027 06:56:57.779   04 Jun 2027 06:57:22.228            24.449               Magadan1           764.031
       296   04 Jun 2027 06:58:35.611   04 Jun 2027 06:58:57.499            21.888               Magadan1           684.000
       297   04 Jun 2027 06:59:11.997   04 Jun 2027 06:59:16.078             4.081               Magadan2           127.531
       298   04 Jun 2027 06:59:33.436   04 Jun 2027 07:00:01.590            28.154               Magadan2           879.813
       299   04 Jun 2027 07:00:04.159   04 Jun 2027 07:00:23.006            18.847                Novosib           588.969
       300   04 Jun 2027 07:00:41.750   04 Jun 2027 07:01:16.134            34.384                Novosib          1074.500
       301   04 Jun 2027 08:14:08.162   04 Jun 2027 08:14:42.395            34.233                Sumatra          1069.781
       302   04 Jun 2027 08:31:02.514   04 Jun 2027 08:31:23.771            21.257                Irkutsk           664.281
       303   04 Jun 2027 08:32:06.045   04 Jun 2027 08:32:45.417            39.372                Irkutsk          1230.375
       304   04 Jun 2027 08:33:04.532   04 Jun 2027 08:33:18.713            14.181              Murmansk1           443.156
       305   04 Jun 2027 08:34:05.965   04 Jun 2027 08:34:24.358            18.393                Irkutsk           574.781
       306   04 Jun 2027 08:34:25.684   04 Jun 2027 08:34:39.077            13.393                Irkutsk           418.531
       307   04 Jun 2027 08:35:42.127   04 Jun 2027 08:35:55.169            13.042                Norilsk           407.562
       308   04 Jun 2027 08:35:57.556   04 Jun 2027 08:37:09.654            72.098                Novosib          2253.062
       309   04 Jun 2027 09:14:30.482   04 Jun 2027 09:14:49.639            19.157            RioGallegos           598.656
       310   04 Jun 2027 09:49:00.770   04 Jun 2027 09:50:02.397            61.627                Sumatra          1925.844
       311   04 Jun 2027 10:03:17.025   04 Jun 2027 10:03:44.155            27.130                  Delhi           847.813
       312   04 Jun 2027 10:04:53.800   04 Jun 2027 10:05:15.175            21.375                  Delhi           667.969
       313   04 Jun 2027 10:08:41.113   04 Jun 2027 10:09:43.363            62.250                Novosib          1945.312
       314   04 Jun 2027 10:09:53.732   04 Jun 2027 10:10:11.836            18.104                Novosib           565.750
       315   04 Jun 2027 10:11:39.278   04 Jun 2027 10:11:55.783            16.505                Novosib           515.781
       316   04 Jun 2027 10:12:00.325   04 Jun 2027 10:12:04.884             4.559                Novosib           142.469
       317   04 Jun 2027 10:12:24.629   04 Jun 2027 10:12:45.961            21.332                Norilsk           666.625
       318   04 Jun 2027 11:35:19.383   04 Jun 2027 11:37:53.781           154.398                  Delhi          4824.938
       319   04 Jun 2027 11:51:07.034   04 Jun 2027 11:51:22.588            15.554                Norilsk           486.062
       320   04 Jun 2027 13:15:51.920   04 Jun 2027 13:16:30.953            39.033                 Moscow          1219.781
       321   04 Jun 2027 13:17:43.475   04 Jun 2027 13:18:33.164            49.689                 Moscow          1552.781
       322   04 Jun 2027 13:19:34.046   04 Jun 2027 13:19:47.375            13.329                 Moscow           416.531
       323   04 Jun 2027 13:19:50.720   04 Jun 2027 13:20:07.689            16.969              Murmansk1           530.281
       324   04 Jun 2027 13:20:36.642   04 Jun 2027 13:20:50.804            14.162                 Moscow           442.562
       325   04 Jun 2027 13:21:20.706   04 Jun 2027 13:21:47.412            26.706              Murmansk1           834.563
       326   04 Jun 2027 13:30:55.924   04 Jun 2027 13:31:23.131            27.207              Murmansk1           850.219
       327   04 Jun 2027 13:33:45.964   04 Jun 2027 13:36:01.057           135.093                Anadyr2          4221.656
       328   04 Jun 2027 13:36:28.841   04 Jun 2027 13:37:36.314            67.473                Anadyr2          2108.531
       329   04 Jun 2027 13:39:06.464   04 Jun 2027 13:39:21.889            15.425                Anadyr1           482.031
       330   04 Jun 2027 13:40:58.371   04 Jun 2027 13:42:10.178            71.807                Anadyr1          2243.969
       331   04 Jun 2027 14:38:18.110   04 Jun 2027 14:39:32.326            74.216               CapeTown          2319.250
       332   04 Jun 2027 14:58:04.417   04 Jun 2027 14:59:14.829            70.412              Murmansk2          2200.375
       333   04 Jun 2027 15:01:34.813   04 Jun 2027 15:02:35.634            60.821              Murmansk1          1900.656
       334   04 Jun 2027 15:09:07.532   04 Jun 2027 15:10:50.765           103.233                Anadyr2          3226.031
       335   04 Jun 2027 15:11:36.356   04 Jun 2027 15:11:55.153            18.797                Anadyr1           587.406
       336   04 Jun 2027 15:13:09.902   04 Jun 2027 15:18:53.562           343.660               Magadan2         10739.375
       337   04 Jun 2027 16:45:00.491   04 Jun 2027 16:46:01.271            60.780                Anadyr2          1899.375
       338   04 Jun 2027 16:47:26.859   04 Jun 2027 16:50:15.367           168.508               Magadan1          5265.875
       339   04 Jun 2027 18:20:53.403   04 Jun 2027 18:22:27.788            94.385                Anadyr1          2949.531
       340   04 Jun 2027 18:22:38.316   04 Jun 2027 18:25:30.977           172.661                Anadyr2          5395.656
       341   04 Jun 2027 18:25:43.763   04 Jun 2027 18:27:10.385            86.622                Norilsk          2706.937
       342   04 Jun 2027 18:28:30.338   04 Jun 2027 18:28:57.609            27.271                Norilsk           852.219
       343   04 Jun 2027 18:29:32.412   04 Jun 2027 18:31:58.992           146.580                Irkutsk          4580.625
       344   04 Jun 2027 18:32:44.892   04 Jun 2027 18:34:01.572            76.680                Irkutsk          2396.250
       345   04 Jun 2027 19:16:40.833   04 Jun 2027 19:18:01.420            80.587            RioGallegos          2518.344
       346   04 Jun 2027 19:58:45.675   04 Jun 2027 20:00:20.566            94.891                Norilsk          2965.344
       347   04 Jun 2027 20:02:49.210   04 Jun 2027 20:04:33.525           104.315                Irkutsk          3259.844
       348   04 Jun 2027 20:05:30.286   04 Jun 2027 20:07:27.582           117.296                Novosib          3665.500
       349   04 Jun 2027 20:07:44.824   04 Jun 2027 20:08:36.747            51.923                Novosib          1622.594
       350   04 Jun 2027 20:10:24.052   04 Jun 2027 20:11:19.568            55.516                Novosib          1734.875
       351   04 Jun 2027 20:16:29.869   04 Jun 2027 20:17:30.320            60.451                Sumatra          1889.094
       352   04 Jun 2027 20:19:01.490   04 Jun 2027 20:19:21.637            20.147                Sumatra           629.594
       353   04 Jun 2027 21:35:20.097   04 Jun 2027 21:35:45.415            25.318               Magadan1           791.188
       354   04 Jun 2027 21:38:37.163   04 Jun 2027 21:40:05.943            88.780                Irkutsk          2774.375
       355   04 Jun 2027 21:40:42.054   04 Jun 2027 21:41:12.255            30.201                Novosib           943.781
       356   04 Jun 2027 21:41:25.856   04 Jun 2027 21:41:52.982            27.126                Novosib           847.687
       357   04 Jun 2027 21:46:11.575   04 Jun 2027 21:47:45.455            93.880                  Delhi          2933.750
       358   04 Jun 2027 21:48:37.945   04 Jun 2027 21:49:57.652            79.707                  Delhi          2490.844
       359   04 Jun 2027 21:57:09.995   04 Jun 2027 21:58:26.004            76.009                  Delhi          2375.281
       360   04 Jun 2027 23:10:29.152   04 Jun 2027 23:10:50.108            20.956               Magadan2           654.875
       361   04 Jun 2027 23:11:06.932   04 Jun 2027 23:11:21.896            14.964               Magadan1           467.625
       362   04 Jun 2027 23:12:10.117   04 Jun 2027 23:12:46.285            36.168               Magadan1          1130.250
       363   04 Jun 2027 23:13:00.932   04 Jun 2027 23:15:00.671           119.739              Murmansk2          3741.844
       364   04 Jun 2027 23:15:47.103   04 Jun 2027 23:18:06.913           139.810              Murmansk1          4369.062
       365   04 Jun 2027 23:18:18.294   04 Jun 2027 23:21:43.128           204.834                 Moscow          6401.062
       366   04 Jun 2027 23:22:01.624   04 Jun 2027 23:22:33.890            32.266                 Moscow          1008.313
       367   04 Jun 2027 23:46:12.828   04 Jun 2027 23:46:41.262            28.434               CapeTown           888.563
       368   04 Jun 2027 23:48:28.499   04 Jun 2027 23:49:16.843            48.344               CapeTown          1510.750
       369   05 Jun 2027 00:46:18.625   05 Jun 2027 00:46:39.328            20.703               Magadan1           646.969
       370   05 Jun 2027 00:48:50.346   05 Jun 2027 00:50:26.121            95.775              Murmansk2          2992.969
       371   05 Jun 2027 00:51:02.668   05 Jun 2027 00:51:25.157            22.489              Murmansk2           702.781
       372   05 Jun 2027 00:51:30.958   05 Jun 2027 00:51:40.334             9.376              Murmansk2           293.000
       373   05 Jun 2027 00:52:07.946   05 Jun 2027 00:53:46.588            98.642                 Moscow          3082.562
       374   05 Jun 2027 01:16:11.570   05 Jun 2027 01:17:50.015            98.445               CapeTown          3076.406
       375   05 Jun 2027 02:12:41.611   05 Jun 2027 02:13:40.390            58.779                Anadyr1          1836.844
       376   05 Jun 2027 02:14:38.044   05 Jun 2027 02:16:58.464           140.420               Magadan1          4388.125
       377   05 Jun 2027 02:24:48.402   05 Jun 2027 02:25:59.644            71.242              Murmansk1          2226.313
       378   05 Jun 2027 02:26:11.970   05 Jun 2027 02:26:18.640             6.670              Murmansk1           208.438
       379   05 Jun 2027 02:27:17.538   05 Jun 2027 02:27:58.284            40.746              Murmansk2          1273.313
       380   05 Jun 2027 02:28:05.133   05 Jun 2027 02:28:46.018            40.885                 Moscow          1277.656
       381   05 Jun 2027 02:34:52.048   05 Jun 2027 02:35:13.558            21.510                 Moscow           672.188
       382   05 Jun 2027 02:38:26.786   05 Jun 2027 02:39:06.918            40.132                 Moscow          1254.125
       383   05 Jun 2027 02:56:32.259   05 Jun 2027 02:56:36.544             4.285               CapeTown           133.906
       384   05 Jun 2027 02:58:14.896   05 Jun 2027 02:59:05.815            50.919               CapeTown          1591.219
       385   05 Jun 2027 03:02:18.729   05 Jun 2027 03:03:06.922            48.193               CapeTown          1506.031
       386   05 Jun 2027 03:53:20.111   05 Jun 2027 03:53:42.315            22.204               Magadan2           693.875
       387   05 Jun 2027 03:54:19.830   05 Jun 2027 03:56:43.783           143.953               Magadan2          4498.531
       388   05 Jun 2027 03:56:43.783   05 Jun 2027 04:00:50.955           247.172               Magadan1          7724.125
       389   05 Jun 2027 04:40:53.178   05 Jun 2027 04:42:06.946            73.768            RioGallegos          2305.250
       390   05 Jun 2027 04:42:18.657   05 Jun 2027 04:42:54.594            35.937            RioGallegos          1123.031
       391   05 Jun 2027 05:31:10.023   05 Jun 2027 05:31:57.359            47.336                Irkutsk          1479.250
       392   05 Jun 2027 05:32:07.182   05 Jun 2027 05:35:00.628           173.446                Anadyr2          5420.187
       393   05 Jun 2027 05:35:14.732   05 Jun 2027 05:36:05.130            50.398                Irkutsk          1574.937
       394   05 Jun 2027 05:36:41.470   05 Jun 2027 05:37:02.983            21.513               Magadan1           672.281
       395   05 Jun 2027 07:06:49.981   05 Jun 2027 07:07:11.472            21.491               Magadan2           671.594
       396   05 Jun 2027 07:07:32.557   05 Jun 2027 07:08:41.652            69.095                Irkutsk          2159.219
       397   05 Jun 2027 07:08:55.925   05 Jun 2027 07:09:01.140             5.215               Magadan2           162.969
       398   05 Jun 2027 07:09:28.434   05 Jun 2027 07:10:33.873            65.439               Magadan1          2044.969
       399   05 Jun 2027 07:10:55.112   05 Jun 2027 07:11:00.212             5.100               Magadan1           159.375
       400   05 Jun 2027 07:11:46.435   05 Jun 2027 07:12:33.476            47.041                Irkutsk          1470.031
       401   05 Jun 2027 07:13:23.245   05 Jun 2027 07:13:50.285            27.040              Murmansk1           845.000
       402   05 Jun 2027 07:52:20.253   05 Jun 2027 07:52:31.655            11.402            RioGallegos           356.313
       403   05 Jun 2027 07:53:03.646   05 Jun 2027 07:53:51.505            47.859            RioGallegos          1495.594
       404   05 Jun 2027 08:30:51.736   05 Jun 2027 08:32:02.999            71.263                Sumatra          2226.969
       405   05 Jun 2027 08:42:54.008   05 Jun 2027 08:43:12.909            18.901                Irkutsk           590.656
       406   05 Jun 2027 08:43:17.620   05 Jun 2027 08:44:15.271            57.651                Irkutsk          1801.594
       407   05 Jun 2027 08:44:44.695   05 Jun 2027 08:45:38.103            53.408                Irkutsk          1669.000
       408   05 Jun 2027 08:46:05.649   05 Jun 2027 08:46:17.836            12.187                Irkutsk           380.844
       409   05 Jun 2027 08:46:20.131   05 Jun 2027 08:46:21.001             0.870                Novosib            27.188
       410   05 Jun 2027 08:46:26.610   05 Jun 2027 08:47:08.484            41.874                Novosib          1308.563
       411   05 Jun 2027 08:47:28.486   05 Jun 2027 08:48:14.384            45.898                Irkutsk          1434.312
       412   05 Jun 2027 08:48:29.585   05 Jun 2027 08:48:37.166             7.581                Irkutsk           236.906
       413   05 Jun 2027 08:49:12.061   05 Jun 2027 08:49:19.425             7.364                Novosib           230.125
       414   05 Jun 2027 09:27:26.876   05 Jun 2027 09:28:17.274            50.398            RioGallegos          1574.938
       415   05 Jun 2027 09:29:57.710   05 Jun 2027 09:30:07.598             9.888            RioGallegos           309.000
       416   05 Jun 2027 09:30:55.546   05 Jun 2027 09:31:08.019            12.473            RioGallegos           389.781
       417   05 Jun 2027 10:03:03.743   05 Jun 2027 10:04:08.526            64.783                Sumatra          2024.469
       418   05 Jun 2027 10:06:42.784   05 Jun 2027 10:07:12.677            29.893                  Delhi           934.156
       419   05 Jun 2027 10:16:17.600   05 Jun 2027 10:16:25.236             7.636                  Delhi           238.625
       420   05 Jun 2027 10:21:06.960   05 Jun 2027 10:21:59.001            52.041                Novosib          1626.281
       421   05 Jun 2027 10:22:10.432   05 Jun 2027 10:23:05.685            55.253                Novosib          1726.656
       422   05 Jun 2027 10:23:35.774   05 Jun 2027 10:23:37.072             1.298                Novosib            40.563
       423   05 Jun 2027 10:23:47.011   05 Jun 2027 10:23:53.414             6.403                Norilsk           200.094
       424   05 Jun 2027 10:23:58.660   05 Jun 2027 10:24:18.889            20.229                Novosib           632.156
       425   05 Jun 2027 10:24:25.530   05 Jun 2027 10:24:40.156            14.626                Norilsk           457.063
       426   05 Jun 2027 12:00:57.450   05 Jun 2027 12:01:20.288            22.838                 Moscow           713.687
       427   05 Jun 2027 12:02:08.969   05 Jun 2027 12:02:19.410            10.441                Norilsk           326.281
       428   05 Jun 2027 12:02:31.073   05 Jun 2027 12:02:52.516            21.443                Norilsk           670.094
       429   05 Jun 2027 12:03:38.466   05 Jun 2027 12:04:17.064            38.598                Norilsk          1206.188
       430   05 Jun 2027 13:28:15.004   05 Jun 2027 13:29:11.257            56.253                 Moscow          1757.906
       431   05 Jun 2027 13:29:47.507   05 Jun 2027 13:29:57.654            10.147                 Moscow           317.094
       432   05 Jun 2027 13:30:02.906   05 Jun 2027 13:30:16.204            13.298                 Moscow           415.563
       433   05 Jun 2027 13:30:46.887   05 Jun 2027 13:31:40.272            53.385                 Moscow          1668.281
       434   05 Jun 2027 13:33:38.699   05 Jun 2027 13:34:00.343            21.644                 Moscow           676.375
       435   05 Jun 2027 13:35:30.510   05 Jun 2027 13:36:03.038            32.528              Murmansk2          1016.500
       436   05 Jun 2027 13:36:54.408   05 Jun 2027 13:37:08.855            14.447              Murmansk2           451.469
       437   05 Jun 2027 13:37:30.429   05 Jun 2027 13:38:11.202            40.773                 Moscow          1274.156
       438   05 Jun 2027 13:41:23.874   05 Jun 2027 13:42:04.598            40.724              Murmansk1          1272.625
       439   05 Jun 2027 13:45:38.458   05 Jun 2027 13:48:01.843           143.385                Anadyr2          4480.781
       440   05 Jun 2027 13:50:30.214   05 Jun 2027 13:51:20.137            49.923                Anadyr2          1560.094
       441   05 Jun 2027 13:52:59.503   05 Jun 2027 13:53:43.130            43.627                Anadyr2          1363.344
       442   05 Jun 2027 14:49:45.356   05 Jun 2027 14:50:10.602            25.246               CapeTown           788.938
       443   05 Jun 2027 15:10:39.706   05 Jun 2027 15:11:56.829            77.123              Murmansk2          2410.094
       444   05 Jun 2027 15:13:07.257   05 Jun 2027 15:13:28.246            20.989              Murmansk1           655.906
       445   05 Jun 2027 15:13:52.635   05 Jun 2027 15:15:01.331            68.696              Murmansk1          2146.750
       446   05 Jun 2027 15:21:07.782   05 Jun 2027 15:21:51.378            43.596                Anadyr1          1362.375
       447   05 Jun 2027 15:22:14.926   05 Jun 2027 15:23:19.584            64.658                Anadyr1          2020.562
       448   05 Jun 2027 15:24:42.859   05 Jun 2027 15:28:09.051           206.192               Magadan2          6443.500
       449   05 Jun 2027 15:28:20.984   05 Jun 2027 15:29:25.889            64.905               Magadan1          2028.281
       450   05 Jun 2027 15:31:02.129   05 Jun 2027 15:31:54.894            52.765               Magadan1          1648.906
       451   05 Jun 2027 16:57:01.859   05 Jun 2027 16:57:31.070            29.211                Anadyr2           912.844
       452   05 Jun 2027 16:58:21.745   05 Jun 2027 16:58:25.751             4.006                Anadyr1           125.188
       453   05 Jun 2027 16:58:27.874   05 Jun 2027 16:58:44.058            16.184                Anadyr1           505.750
       454   05 Jun 2027 16:59:24.858   05 Jun 2027 17:01:30.464           125.606               Magadan1          3925.187
       455   05 Jun 2027 17:01:55.597   05 Jun 2027 17:02:18.060            22.463               Magadan1           701.969
       456   05 Jun 2027 17:02:27.175   05 Jun 2027 17:02:36.392             9.217               Magadan1           288.031
       457   05 Jun 2027 17:11:34.660   05 Jun 2027 17:11:42.605             7.945               Magadan1           248.281
       458   05 Jun 2027 18:32:53.365   05 Jun 2027 18:36:20.052           206.687                Anadyr2          6458.969
       459   05 Jun 2027 18:36:49.024   05 Jun 2027 18:37:23.764            34.740                Anadyr1          1085.625
       460   05 Jun 2027 18:37:45.669   05 Jun 2027 18:39:08.267            82.598                Norilsk          2581.187
       461   05 Jun 2027 18:39:38.888   05 Jun 2027 18:39:57.909            19.021               Magadan1           594.406
       462   05 Jun 2027 18:40:00.601   05 Jun 2027 18:40:57.296            56.695               Magadan1          1771.719
       463   05 Jun 2027 18:41:10.419   05 Jun 2027 18:41:45.758            35.339                Norilsk          1104.344
       464   05 Jun 2027 18:42:05.820   05 Jun 2027 18:43:43.280            97.460                Irkutsk          3045.625
       465   05 Jun 2027 18:44:37.927   05 Jun 2027 18:45:03.090            25.163                Irkutsk           786.344
       466   05 Jun 2027 18:46:32.358   05 Jun 2027 18:47:22.773            50.415                Irkutsk          1575.469
       467   05 Jun 2027 18:57:02.615   05 Jun 2027 18:58:57.997           115.382                Sumatra          3605.687
       468   05 Jun 2027 19:01:09.329   05 Jun 2027 19:01:40.816            31.487                Sumatra           983.969
       469   05 Jun 2027 20:11:57.369   05 Jun 2027 20:12:23.182            25.813                Norilsk           806.656
       470   05 Jun 2027 20:14:45.955   05 Jun 2027 20:16:46.124           120.169                Irkutsk          3755.281
       471   05 Jun 2027 20:17:13.486   05 Jun 2027 20:19:18.459           124.973                Novosib          3905.406
       472   05 Jun 2027 20:22:27.027   05 Jun 2027 20:23:16.027            49.000                Novosib          1531.250
       473   05 Jun 2027 20:28:27.969   05 Jun 2027 20:29:24.420            56.451                Sumatra          1764.094
       474   05 Jun 2027 20:36:17.865   05 Jun 2027 20:36:58.644            40.779                Sumatra          1274.344
       475   05 Jun 2027 21:47:21.008   05 Jun 2027 21:48:20.555            59.547               Magadan2          1860.844
       476   05 Jun 2027 21:50:27.200   05 Jun 2027 21:53:16.421           169.221              Murmansk1          5288.156
       477   05 Jun 2027 21:58:02.823   05 Jun 2027 21:59:57.197           114.374                  Delhi          3574.187
       478   05 Jun 2027 22:00:10.835   05 Jun 2027 22:01:10.607            59.772                  Delhi          1867.875
       479   05 Jun 2027 23:22:11.109   05 Jun 2027 23:22:21.306            10.197               Magadan2           318.656
       480   05 Jun 2027 23:22:21.306   05 Jun 2027 23:22:50.273            28.967               Magadan1           905.219
       481   05 Jun 2027 23:23:24.574   05 Jun 2027 23:24:08.454            43.880               Magadan2          1371.250
       482   05 Jun 2027 23:24:29.415   05 Jun 2027 23:24:48.160            18.745               Magadan2           585.781
