uniorb/output/strategy_4/Drop/Drop_KinoSat_110907.txt

KinoSat_110907
-------------------------
    Access    *     Start Time (UTCG)     *     Stop Time (UTCG)  *   Duration (s)        *       Station  *  Data (Mbytes)
         1   01 Jun 2027 03:13:02.893   01 Jun 2027 03:13:27.124            24.231                Anadyr2           757.219
         2   01 Jun 2027 03:13:34.003   01 Jun 2027 03:13:49.494            15.491               Magadan1           484.094
         3   01 Jun 2027 03:13:52.608   01 Jun 2027 03:14:19.730            27.122                Anadyr2           847.562
         4   01 Jun 2027 03:14:36.605   01 Jun 2027 03:14:46.626            10.021               Magadan1           313.156
         5   01 Jun 2027 03:14:58.918   01 Jun 2027 03:15:05.988             7.070                Anadyr2           220.937
         6   01 Jun 2027 03:15:40.641   01 Jun 2027 03:17:09.075            88.434                Anadyr1          2763.562
         7   01 Jun 2027 03:18:23.118   01 Jun 2027 03:18:30.523             7.405               Magadan1           231.406
         8   01 Jun 2027 03:18:30.523   01 Jun 2027 03:18:32.992             2.469               Magadan2            77.156
         9   01 Jun 2027 03:18:54.211   01 Jun 2027 03:18:58.277             4.066                Anadyr1           127.063
        10   01 Jun 2027 04:49:32.374   01 Jun 2027 04:50:35.429            63.055                Anadyr1          1970.469
        11   01 Jun 2027 04:50:35.429   01 Jun 2027 04:50:51.728            16.299                Anadyr2           509.344
        12   01 Jun 2027 04:51:02.895   01 Jun 2027 04:51:20.420            17.525                Anadyr1           547.656
        13   01 Jun 2027 04:51:38.627   01 Jun 2027 04:54:30.482           171.855               Magadan2          5370.469
        14   01 Jun 2027 04:54:30.482   01 Jun 2027 04:54:35.835             5.353               Magadan1           167.281
        15   01 Jun 2027 06:23:29.352   01 Jun 2027 06:24:24.561            55.209                Norilsk          1725.281
        16   01 Jun 2027 06:24:27.212   01 Jun 2027 06:24:48.567            21.355                Norilsk           667.344
        17   01 Jun 2027 06:24:48.857   01 Jun 2027 06:26:58.713           129.856                Anadyr2          4058.000
        18   01 Jun 2027 06:27:04.081   01 Jun 2027 06:27:50.718            46.637                Anadyr2          1457.406
        19   01 Jun 2027 06:28:02.916   01 Jun 2027 06:28:37.322            34.406                Novosib          1075.187
        20   01 Jun 2027 06:28:42.304   01 Jun 2027 06:29:45.024            62.720                Norilsk          1960.000
        21   01 Jun 2027 06:29:49.743   01 Jun 2027 06:29:55.202             5.459                Norilsk           170.594
        22   01 Jun 2027 06:30:08.554   01 Jun 2027 06:30:16.562             8.008               Magadan1           250.250
        23   01 Jun 2027 06:30:19.697   01 Jun 2027 06:34:41.643           261.946              Murmansk2          8185.813
        24   01 Jun 2027 07:05:19.003   01 Jun 2027 07:08:32.023           193.020            RioGallegos          6031.875
        25   01 Jun 2027 07:42:20.615   01 Jun 2027 07:42:57.128            36.513                Sumatra          1141.031
        26   01 Jun 2027 08:01:20.342   01 Jun 2027 08:02:33.635            73.293               Magadan2          2290.406
        27   01 Jun 2027 08:02:33.635   01 Jun 2027 08:02:45.864            12.229               Magadan1           382.156
        28   01 Jun 2027 08:03:00.690   01 Jun 2027 08:04:08.412            67.722                Irkutsk          2116.313
        29   01 Jun 2027 08:04:24.369   01 Jun 2027 08:06:18.198           113.829                Irkutsk          3557.156
        30   01 Jun 2027 08:06:30.432   01 Jun 2027 08:06:53.604            23.172                Novosib           724.125
        31   01 Jun 2027 08:06:58.709   01 Jun 2027 08:07:08.848            10.139              Murmansk1           316.844
        32   01 Jun 2027 08:07:17.314   01 Jun 2027 08:08:23.542            66.228              Murmansk1          2069.625
        33   01 Jun 2027 08:41:27.661   01 Jun 2027 08:42:35.534            67.873            RioGallegos          2121.031
        34   01 Jun 2027 09:15:53.839   01 Jun 2027 09:17:05.128            71.289                Sumatra          2227.781
        35   01 Jun 2027 09:25:09.132   01 Jun 2027 09:27:32.397           143.265                  Delhi          4477.031
        36   01 Jun 2027 09:38:09.792   01 Jun 2027 09:39:09.905            60.113                Irkutsk          1878.531
        37   01 Jun 2027 09:40:05.194   01 Jun 2027 09:41:42.095            96.901                Irkutsk          3028.156
        38   01 Jun 2027 09:42:00.782   01 Jun 2027 09:43:12.648            71.866                Norilsk          2245.812
        39   01 Jun 2027 09:43:14.419   01 Jun 2027 09:43:46.533            32.114                Novosib          1003.562
        40   01 Jun 2027 09:44:02.065   01 Jun 2027 09:44:24.328            22.263              Murmansk2           695.719
        41   01 Jun 2027 09:44:26.934   01 Jun 2027 09:44:30.802             3.868                 Moscow           120.875
        42   01 Jun 2027 09:44:59.739   01 Jun 2027 09:45:56.217            56.478                Norilsk          1764.937
        43   01 Jun 2027 11:00:27.789   01 Jun 2027 11:03:21.181           173.392                  Delhi          5418.500
        44   01 Jun 2027 11:05:40.630   01 Jun 2027 11:05:59.153            18.523                  Delhi           578.844
        45   01 Jun 2027 11:07:20.375   01 Jun 2027 11:08:45.765            85.390                  Delhi          2668.438
        46   01 Jun 2027 11:15:30.107   01 Jun 2027 11:19:05.372           215.265                Novosib          6727.031
        47   01 Jun 2027 11:19:27.711   01 Jun 2027 11:19:55.437            27.726                 Moscow           866.438
        48   01 Jun 2027 11:21:06.700   01 Jun 2027 11:21:13.005             6.305                 Moscow           197.031
        49   01 Jun 2027 11:21:21.253   01 Jun 2027 11:21:42.168            20.915                Norilsk           653.594
        50   01 Jun 2027 11:24:52.740   01 Jun 2027 11:24:53.030             0.290              Murmansk2             9.062
        51   01 Jun 2027 12:44:25.213   01 Jun 2027 12:47:39.315           194.102                 Moscow          6065.687
        52   01 Jun 2027 12:47:55.762   01 Jun 2027 12:52:15.366           259.604              Murmansk2          8112.625
        53   01 Jun 2027 12:55:16.557   01 Jun 2027 12:55:51.318            34.761                Norilsk          1086.281
        54   01 Jun 2027 13:58:29.883   01 Jun 2027 14:01:08.110           158.227               CapeTown          4944.594
        55   01 Jun 2027 14:02:05.090   01 Jun 2027 14:02:57.263            52.173               CapeTown          1630.406
        56   01 Jun 2027 14:25:22.766   01 Jun 2027 14:25:58.555            35.789              Murmansk1          1118.406
        57   01 Jun 2027 14:26:10.426   01 Jun 2027 14:28:51.414           160.988              Murmansk2          5030.875
        58   01 Jun 2027 14:38:47.533   01 Jun 2027 14:41:29.954           162.421                Anadyr2          5075.656
        59   01 Jun 2027 15:34:04.782   01 Jun 2027 15:34:22.778            17.996               CapeTown           562.375
        60   01 Jun 2027 15:34:36.192   01 Jun 2027 15:35:34.486            58.294               CapeTown          1821.688
        61   01 Jun 2027 16:05:17.862   01 Jun 2027 16:06:45.784            87.922              Murmansk2          2747.562
        62   01 Jun 2027 16:08:32.681   01 Jun 2027 16:08:50.650            17.969              Murmansk2           561.531
        63   01 Jun 2027 16:08:50.650   01 Jun 2027 16:08:54.606             3.956              Murmansk1           123.625
        64   01 Jun 2027 16:11:34.318   01 Jun 2027 16:11:55.414            21.096              Murmansk2           659.250
        65   01 Jun 2027 16:14:27.629   01 Jun 2027 16:14:55.876            28.247                Anadyr1           882.719
        66   01 Jun 2027 16:16:07.843   01 Jun 2027 16:17:25.178            77.335                Anadyr1          2416.719
        67   01 Jun 2027 16:17:30.152   01 Jun 2027 16:21:09.414           219.262               Magadan2          6851.937
        68   01 Jun 2027 16:23:22.993   01 Jun 2027 16:24:05.765            42.772               Magadan1          1336.625
        69   01 Jun 2027 17:50:22.968   01 Jun 2027 17:53:37.869           194.901                Anadyr1          6090.656
        70   01 Jun 2027 17:54:02.774   01 Jun 2027 17:54:26.909            24.135                Anadyr1           754.219
        71   01 Jun 2027 17:54:36.992   01 Jun 2027 17:55:39.231            62.239               Magadan1          1944.969
        72   01 Jun 2027 17:55:41.406   01 Jun 2027 17:55:46.393             4.987               Magadan1           155.844
        73   01 Jun 2027 17:56:09.004   01 Jun 2027 17:57:11.989            62.985               Magadan1          1968.281
        74   01 Jun 2027 18:46:18.582   01 Jun 2027 18:49:08.686           170.104            RioGallegos          5315.750
        75   01 Jun 2027 18:52:37.180   01 Jun 2027 18:52:40.599             3.419            RioGallegos           106.844
        76   01 Jun 2027 19:26:10.759   01 Jun 2027 19:27:59.881           109.122                Anadyr1          3410.062
        77   01 Jun 2027 19:28:21.446   01 Jun 2027 19:32:02.569           221.123                Norilsk          6910.094
        78   01 Jun 2027 19:33:10.185   01 Jun 2027 19:34:23.491            73.306                Irkutsk          2290.813
        79   01 Jun 2027 19:34:59.278   01 Jun 2027 19:38:02.042           182.764                Irkutsk          5711.375
        80   01 Jun 2027 19:39:24.905   01 Jun 2027 19:40:28.284            63.379                Irkutsk          1980.594
        81   01 Jun 2027 19:47:54.749   01 Jun 2027 19:50:29.159           154.410                Sumatra          4825.313
        82   01 Jun 2027 19:52:40.642   01 Jun 2027 19:54:09.558            88.916                Sumatra          2778.625
        83   01 Jun 2027 21:09:32.448   01 Jun 2027 21:10:23.356            50.908                Novosib          1590.875
        84   01 Jun 2027 21:18:13.274   01 Jun 2027 21:20:22.397           129.123                  Delhi          4035.094
        85   01 Jun 2027 22:40:39.282   01 Jun 2027 22:41:02.535            23.253               Magadan2           726.656
        86   01 Jun 2027 22:41:02.535   01 Jun 2027 22:41:48.451            45.916               Magadan1          1434.875
        87   01 Jun 2027 22:42:22.710   01 Jun 2027 22:43:35.237            72.527               Magadan1          2266.469
        88   01 Jun 2027 22:43:55.078   01 Jun 2027 22:45:19.353            84.275                Novosib          2633.594
        89   01 Jun 2027 22:45:20.575   01 Jun 2027 22:48:43.475           202.900              Murmansk2          6340.625
        90   01 Jun 2027 22:54:11.138   01 Jun 2027 22:55:06.054            54.916                  Delhi          1716.125
        91   02 Jun 2027 00:08:45.400   02 Jun 2027 00:09:03.995            18.595                Anadyr2           581.094
        92   02 Jun 2027 00:11:13.840   02 Jun 2027 00:11:39.710            25.870                Anadyr1           808.437
        93   02 Jun 2027 00:14:43.114   02 Jun 2027 00:16:06.869            83.755               Magadan2          2617.344
        94   02 Jun 2027 00:16:24.133   02 Jun 2027 00:16:48.990            24.857               Magadan1           776.781
        95   02 Jun 2027 00:17:44.902   02 Jun 2027 00:18:23.544            38.642               Magadan1          1207.562
        96   02 Jun 2027 00:18:44.716   02 Jun 2027 00:22:41.847           237.131              Murmansk1          7410.344
        97   02 Jun 2027 00:22:54.674   02 Jun 2027 00:23:57.240            62.566                 Moscow          1955.188
        98   02 Jun 2027 00:24:15.993   02 Jun 2027 00:24:28.725            12.732                 Moscow           397.875
        99   02 Jun 2027 00:31:26.818   02 Jun 2027 00:31:30.750             3.932                 Moscow           122.875
       100   02 Jun 2027 00:47:52.895   02 Jun 2027 00:49:35.200           102.305               CapeTown          3197.031
       101   02 Jun 2027 00:51:09.567   02 Jun 2027 00:51:34.481            24.914               CapeTown           778.562
       102   02 Jun 2027 00:52:14.882   02 Jun 2027 00:53:28.442            73.560               CapeTown          2298.750
       103   02 Jun 2027 01:46:21.812   02 Jun 2027 01:47:12.254            50.442               Magadan1          1576.312
       104   02 Jun 2027 01:47:28.191   02 Jun 2027 01:48:01.008            32.817               Magadan2          1025.531
       105   02 Jun 2027 01:54:13.739   02 Jun 2027 01:55:46.064            92.325              Murmansk2          2885.156
       106   02 Jun 2027 01:56:24.927   02 Jun 2027 01:57:18.724            53.797              Murmansk1          1681.156
       107   02 Jun 2027 01:57:26.466   02 Jun 2027 01:58:32.454            65.988                 Moscow          2062.125
       108   02 Jun 2027 02:21:20.273   02 Jun 2027 02:21:28.335             8.062               CapeTown           251.937
       109   02 Jun 2027 02:22:19.892   02 Jun 2027 02:23:39.891            79.999               CapeTown          2499.969
       110   02 Jun 2027 03:18:07.177   02 Jun 2027 03:18:44.378            37.201                Anadyr2          1162.531
       111   02 Jun 2027 03:18:50.972   02 Jun 2027 03:18:52.958             1.986                Anadyr2            62.062
       112   02 Jun 2027 03:24:00.478   02 Jun 2027 03:26:08.077           127.599               Magadan1          3987.469
       113   02 Jun 2027 03:26:15.942   02 Jun 2027 03:28:04.478           108.536               Magadan1          3391.750
       114   02 Jun 2027 03:28:11.380   02 Jun 2027 03:28:35.712            24.332                Anadyr2           760.375
       115   02 Jun 2027 03:29:21.143   02 Jun 2027 03:29:57.860            36.717               Magadan2          1147.406
       116   02 Jun 2027 05:03:18.017   02 Jun 2027 05:04:17.342            59.325               Magadan2          1853.906
       117   02 Jun 2027 05:04:17.342   02 Jun 2027 05:04:31.976            14.634               Magadan1           457.313
       118   02 Jun 2027 05:04:46.432   02 Jun 2027 05:05:49.743            63.311                Anadyr2          1978.469
       119   02 Jun 2027 05:05:49.743   02 Jun 2027 05:06:43.762            54.019                Anadyr1          1688.094
       120   02 Jun 2027 06:36:41.785   02 Jun 2027 06:37:07.158            25.373                Irkutsk           792.906
       121   02 Jun 2027 06:37:41.760   02 Jun 2027 06:38:17.616            35.856                Irkutsk          1120.500
       122   02 Jun 2027 06:38:39.450   02 Jun 2027 06:38:49.129             9.679               Magadan1           302.469
       123   02 Jun 2027 06:38:59.706   02 Jun 2027 06:40:44.508           104.802                Anadyr2          3275.062
       124   02 Jun 2027 06:40:59.572   02 Jun 2027 06:42:12.384            72.812               Magadan1          2275.375
       125   02 Jun 2027 06:42:16.611   02 Jun 2027 06:43:02.444            45.833                Novosib          1432.281
       126   02 Jun 2027 08:15:37.514   02 Jun 2027 08:15:54.598            17.084                Irkutsk           533.875
       127   02 Jun 2027 08:16:44.417   02 Jun 2027 08:18:19.506            95.089                Irkutsk          2971.531
       128   02 Jun 2027 08:53:47.391   02 Jun 2027 08:54:38.313            50.922            RioGallegos          1591.312
       129   02 Jun 2027 08:57:32.783   02 Jun 2027 08:57:54.415            21.632            RioGallegos           676.000
       130   02 Jun 2027 08:59:31.591   02 Jun 2027 08:59:48.501            16.910            RioGallegos           528.438
       131   02 Jun 2027 09:01:36.483   02 Jun 2027 09:01:42.511             6.028            RioGallegos           188.375
       132   02 Jun 2027 09:02:04.193   02 Jun 2027 09:02:23.065            18.872            RioGallegos           589.750
       133   02 Jun 2027 09:03:39.890   02 Jun 2027 09:04:03.720            23.830            RioGallegos           744.687
       134   02 Jun 2027 09:28:06.249   02 Jun 2027 09:29:43.723            97.474                Sumatra          3046.063
       135   02 Jun 2027 09:37:48.795   02 Jun 2027 09:37:55.554             6.759                Sumatra           211.219
       136   02 Jun 2027 09:49:10.320   02 Jun 2027 09:49:58.720            48.400                Irkutsk          1512.500
       137   02 Jun 2027 09:51:44.319   02 Jun 2027 09:52:03.883            19.564                Norilsk           611.375
       138   02 Jun 2027 09:52:05.741   02 Jun 2027 09:53:04.193            58.452                Irkutsk          1826.625
       139   02 Jun 2027 09:53:32.904   02 Jun 2027 09:54:08.633            35.729                Novosib          1116.531
       140   02 Jun 2027 11:12:51.342   02 Jun 2027 11:14:40.242           108.900                  Delhi          3403.125
       141   02 Jun 2027 11:16:56.216   02 Jun 2027 11:17:27.970            31.754                  Delhi           992.313
       142   02 Jun 2027 11:29:14.501   02 Jun 2027 11:29:35.608            21.107                Norilsk           659.594
       143   02 Jun 2027 11:29:38.479   02 Jun 2027 11:29:49.859            11.380                Norilsk           355.625
       144   02 Jun 2027 12:56:30.583   02 Jun 2027 12:58:12.031           101.448                 Moscow          3170.250
       145   02 Jun 2027 12:58:16.959   02 Jun 2027 12:58:20.752             3.793                 Moscow           118.531
       146   02 Jun 2027 12:59:17.242   02 Jun 2027 13:00:58.673           101.431                 Moscow          3169.719
       147   02 Jun 2027 13:00:59.125   02 Jun 2027 13:01:33.966            34.841              Murmansk1          1088.781
       148   02 Jun 2027 13:04:09.369   02 Jun 2027 13:04:21.593            12.224              Murmansk1           382.000
       149   02 Jun 2027 13:05:59.796   02 Jun 2027 13:06:53.674            53.878                Norilsk          1683.687
       150   02 Jun 2027 13:07:18.696   02 Jun 2027 13:07:54.710            36.014                Norilsk          1125.437
       151   02 Jun 2027 13:16:49.565   02 Jun 2027 13:17:46.783            57.218                Anadyr1          1788.062
       152   02 Jun 2027 13:18:47.066   02 Jun 2027 13:19:43.799            56.733                Anadyr2          1772.906
       153   02 Jun 2027 14:10:17.205   02 Jun 2027 14:11:45.141            87.936               CapeTown          2748.000
       154   02 Jun 2027 14:12:36.325   02 Jun 2027 14:13:20.762            44.437               CapeTown          1388.656
       155   02 Jun 2027 14:37:44.677   02 Jun 2027 14:38:45.585            60.908              Murmansk1          1903.375
       156   02 Jun 2027 14:39:28.035   02 Jun 2027 14:40:53.157            85.122              Murmansk1          2660.062
       157   02 Jun 2027 14:50:44.714   02 Jun 2027 14:51:40.488            55.774                Anadyr2          1742.937
       158   02 Jun 2027 14:51:40.488   02 Jun 2027 14:52:35.733            55.245                Anadyr1          1726.406
       159   02 Jun 2027 14:52:51.373   02 Jun 2027 14:53:30.953            39.580                Anadyr2          1236.875
       160   02 Jun 2027 14:58:24.454   02 Jun 2027 14:58:49.850            25.396                Anadyr2           793.625
       161   02 Jun 2027 15:46:40.746   02 Jun 2027 15:46:51.561            10.815               CapeTown           337.969
       162   02 Jun 2027 16:18:05.572   02 Jun 2027 16:20:29.750           144.178              Murmansk2          4505.562
       163   02 Jun 2027 16:20:55.821   02 Jun 2027 16:21:30.022            34.201              Murmansk2          1068.781
       164   02 Jun 2027 16:26:28.670   02 Jun 2027 16:28:13.602           104.932                Anadyr1          3279.125
       165   02 Jun 2027 16:28:25.626   02 Jun 2027 16:29:26.281            60.655                Anadyr2          1895.469
       166   02 Jun 2027 16:29:51.276   02 Jun 2027 16:32:34.317           163.041               Magadan2          5095.031
       167   02 Jun 2027 16:35:46.735   02 Jun 2027 16:35:56.874            10.139               Magadan2           316.844
       168   02 Jun 2027 18:02:24.147   02 Jun 2027 18:06:03.882           219.735                Anadyr2          6866.719
       169   02 Jun 2027 18:06:24.195   02 Jun 2027 18:06:27.533             3.338                Anadyr2           104.312
       170   02 Jun 2027 18:06:29.617   02 Jun 2027 18:08:31.292           121.675               Magadan1          3802.344
       171   02 Jun 2027 18:57:44.779   02 Jun 2027 19:00:55.382           190.603            RioGallegos          5956.344
       172   02 Jun 2027 19:03:28.046   02 Jun 2027 19:04:39.752            71.706            RioGallegos          2240.812
       173   02 Jun 2027 19:38:09.429   02 Jun 2027 19:38:34.152            24.723                Anadyr1           772.594
       174   02 Jun 2027 19:38:58.784   02 Jun 2027 19:39:23.987            25.203                Anadyr1           787.594
       175   02 Jun 2027 19:39:28.663   02 Jun 2027 19:39:39.057            10.394                Anadyr1           324.812
       176   02 Jun 2027 19:40:19.411   02 Jun 2027 19:44:19.422           240.011                Norilsk          7500.344
       177   02 Jun 2027 19:45:05.243   02 Jun 2027 19:45:41.098            35.855                Irkutsk          1120.469
       178   02 Jun 2027 19:46:34.393   02 Jun 2027 19:47:03.923            29.530                Irkutsk           922.812
       179   02 Jun 2027 19:59:14.563   02 Jun 2027 20:02:14.201           179.638                Sumatra          5613.687
       180   02 Jun 2027 20:04:57.389   02 Jun 2027 20:06:03.125            65.736                Sumatra          2054.250
       181   02 Jun 2027 21:20:01.747   02 Jun 2027 21:20:54.411            52.664                Irkutsk          1645.750
       182   02 Jun 2027 21:20:57.354   02 Jun 2027 21:23:30.278           152.924                Novosib          4778.875
       183   02 Jun 2027 21:29:19.157   02 Jun 2027 21:32:02.538           163.381                  Delhi          5105.656
       184   02 Jun 2027 22:53:02.349   02 Jun 2027 22:53:11.295             8.946                Norilsk           279.563
       185   02 Jun 2027 22:53:12.239   02 Jun 2027 22:53:40.793            28.554               Magadan2           892.312
       186   02 Jun 2027 22:54:05.033   02 Jun 2027 22:55:03.418            58.385               Magadan2          1824.531
       187   02 Jun 2027 22:55:55.950   02 Jun 2027 22:57:10.100            74.150                Novosib          2317.188
       188   02 Jun 2027 22:57:21.138   02 Jun 2027 22:58:37.797            76.659              Murmansk1          2395.594
       189   02 Jun 2027 22:58:47.634   02 Jun 2027 23:01:21.217           153.583              Murmansk2          4799.469
       190   03 Jun 2027 00:20:27.921   03 Jun 2027 00:21:21.031            53.110                Anadyr2          1659.687
       191   03 Jun 2027 00:26:14.582   03 Jun 2027 00:26:20.670             6.088               Magadan2           190.250
       192   03 Jun 2027 00:27:14.648   03 Jun 2027 00:28:26.711            72.063               Magadan2          2251.969
       193   03 Jun 2027 00:28:47.262   03 Jun 2027 00:29:15.315            28.053               Magadan1           876.656
       194   03 Jun 2027 00:29:41.175   03 Jun 2027 00:29:56.686            15.511               Magadan1           484.719
       195   03 Jun 2027 00:30:18.747   03 Jun 2027 00:32:19.523           120.776              Murmansk2          3774.250
       196   03 Jun 2027 00:33:45.589   03 Jun 2027 00:34:19.208            33.619                Novosib          1050.594
       197   03 Jun 2027 00:34:22.795   03 Jun 2027 00:34:53.092            30.297                 Moscow           946.781
       198   03 Jun 2027 00:36:01.577   03 Jun 2027 00:36:25.121            23.544                 Moscow           735.750
       199   03 Jun 2027 00:39:48.007   03 Jun 2027 00:40:25.060            37.053                 Moscow          1157.906
       200   03 Jun 2027 00:41:48.804   03 Jun 2027 00:42:12.847            24.043                 Moscow           751.344
       201   03 Jun 2027 00:59:13.416   03 Jun 2027 01:01:00.899           107.483               CapeTown          3358.844
       202   03 Jun 2027 01:03:31.821   03 Jun 2027 01:04:13.595            41.774               CapeTown          1305.438
       203   03 Jun 2027 01:56:39.059   03 Jun 2027 01:56:53.645            14.586                Anadyr2           455.813
       204   03 Jun 2027 01:57:52.972   03 Jun 2027 01:58:37.589            44.617               Magadan1          1394.281
       205   03 Jun 2027 01:59:05.796   03 Jun 2027 01:59:30.347            24.551               Magadan2           767.219
       206   03 Jun 2027 02:00:04.268   03 Jun 2027 02:00:36.704            32.436               Magadan1          1013.625
       207   03 Jun 2027 02:03:16.275   03 Jun 2027 02:03:43.713            27.438               Magadan2           857.437
       208   03 Jun 2027 02:06:15.471   03 Jun 2027 02:07:55.686           100.215              Murmansk1          3131.719
       209   03 Jun 2027 02:08:17.214   03 Jun 2027 02:09:09.509            52.295              Murmansk2          1634.219
       210   03 Jun 2027 02:13:32.259   03 Jun 2027 02:14:17.006            44.747                Novosib          1398.344
       211   03 Jun 2027 02:19:43.390   03 Jun 2027 02:20:00.827            17.437                 Moscow           544.906
       212   03 Jun 2027 02:33:55.782   03 Jun 2027 02:34:12.320            16.538               CapeTown           516.812
       213   03 Jun 2027 02:38:06.513   03 Jun 2027 02:38:18.018            11.505               CapeTown           359.531
       214   03 Jun 2027 02:38:57.489   03 Jun 2027 02:39:11.154            13.665               CapeTown           427.031
       215   03 Jun 2027 02:42:10.989   03 Jun 2027 02:43:04.475            53.486               CapeTown          1671.438
       216   03 Jun 2027 03:36:04.940   03 Jun 2027 03:38:34.365           149.425               Magadan1          4669.531
       217   03 Jun 2027 03:38:34.365   03 Jun 2027 03:39:28.892            54.527               Magadan2          1703.969
       218   03 Jun 2027 05:12:27.069   03 Jun 2027 05:12:40.705            13.636                Irkutsk           426.125
       219   03 Jun 2027 05:15:48.261   03 Jun 2027 05:16:32.532            44.271                Irkutsk          1383.469
       220   03 Jun 2027 05:17:48.257   03 Jun 2027 05:18:07.266            19.009               Magadan1           594.031
       221   03 Jun 2027 06:49:12.242   03 Jun 2027 06:49:55.202            42.960                Novosib          1342.500
       222   03 Jun 2027 06:49:56.474   03 Jun 2027 06:50:21.579            25.105                Novosib           784.531
       223   03 Jun 2027 06:50:31.740   03 Jun 2027 06:50:33.032             1.292               Magadan1            40.375
       224   03 Jun 2027 06:50:42.047   03 Jun 2027 06:51:07.370            25.323               Magadan1           791.344
       225   03 Jun 2027 06:51:07.370   03 Jun 2027 06:52:24.360            76.990               Magadan2          2405.937
       226   03 Jun 2027 06:52:42.031   03 Jun 2027 06:53:30.005            47.974               Magadan1          1499.187
       227   03 Jun 2027 06:53:45.401   03 Jun 2027 06:53:53.927             8.526               Magadan1           266.437
       228   03 Jun 2027 06:57:09.720   03 Jun 2027 06:57:45.071            35.351                Norilsk          1104.719
       229   03 Jun 2027 08:14:13.056   03 Jun 2027 08:14:28.903            15.847                Sumatra           495.219
       230   03 Jun 2027 08:24:58.169   03 Jun 2027 08:25:14.354            16.185                Novosib           505.781
       231   03 Jun 2027 08:26:21.168   03 Jun 2027 08:26:54.699            33.531                Irkutsk          1047.844
       232   03 Jun 2027 08:27:40.169   03 Jun 2027 08:28:01.581            21.412                Norilsk           669.125
       233   03 Jun 2027 08:28:05.723   03 Jun 2027 08:28:17.507            11.784                Norilsk           368.250
       234   03 Jun 2027 08:28:38.473   03 Jun 2027 08:28:59.853            21.380                Irkutsk           668.125
       235   03 Jun 2027 08:29:19.592   03 Jun 2027 08:29:38.344            18.752                Irkutsk           586.000
       236   03 Jun 2027 08:29:44.492   03 Jun 2027 08:30:20.995            36.503                Novosib          1140.719
       237   03 Jun 2027 09:06:11.890   03 Jun 2027 09:06:44.532            32.642            RioGallegos          1020.062
       238   03 Jun 2027 09:08:00.061   03 Jun 2027 09:08:43.809            43.748            RioGallegos          1367.125
       239   03 Jun 2027 09:40:25.587   03 Jun 2027 09:41:36.224            70.637                Sumatra          2207.406
       240   03 Jun 2027 10:03:43.886   03 Jun 2027 10:04:13.769            29.883                Norilsk           933.844
       241   03 Jun 2027 10:04:19.400   03 Jun 2027 10:04:32.475            13.075                Norilsk           408.594
       242   03 Jun 2027 10:04:52.617   03 Jun 2027 10:05:04.802            12.185                Novosib           380.781
       243   03 Jun 2027 10:05:28.055   03 Jun 2027 10:05:36.685             8.630                Novosib           269.688
       244   03 Jun 2027 10:05:42.114   03 Jun 2027 10:06:21.583            39.469              Murmansk1          1233.406
       245   03 Jun 2027 11:25:23.472   03 Jun 2027 11:28:14.097           170.625                  Delhi          5332.031
       246   03 Jun 2027 11:40:48.904   03 Jun 2027 11:41:31.243            42.339                Novosib          1323.094
       247   03 Jun 2027 11:41:36.597   03 Jun 2027 11:41:37.293             0.696                Norilsk            21.750
       248   03 Jun 2027 11:43:01.922   03 Jun 2027 11:43:15.404            13.482                Norilsk           421.312
       249   03 Jun 2027 13:08:39.063   03 Jun 2027 13:08:48.703             9.640                 Moscow           301.250
       250   03 Jun 2027 13:09:01.035   03 Jun 2027 13:09:24.559            23.524                 Moscow           735.125
       251   03 Jun 2027 13:09:50.273   03 Jun 2027 13:09:58.502             8.229                 Moscow           257.156
       252   03 Jun 2027 13:11:22.100   03 Jun 2027 13:11:42.765            20.665                 Moscow           645.781
       253   03 Jun 2027 13:12:10.211   03 Jun 2027 13:13:11.811            61.600              Murmansk2          1925.000
       254   03 Jun 2027 13:18:54.920   03 Jun 2027 13:19:21.614            26.694              Murmansk1           834.188
       255   03 Jun 2027 13:19:59.608   03 Jun 2027 13:21:57.165           117.557                Norilsk          3673.656
       256   03 Jun 2027 14:22:08.528   03 Jun 2027 14:23:36.853            88.325               CapeTown          2760.156
       257   03 Jun 2027 14:25:13.410   03 Jun 2027 14:25:37.460            24.050               CapeTown           751.562
       258   03 Jun 2027 14:29:15.938   03 Jun 2027 14:29:53.413            37.475               CapeTown          1171.094
       259   03 Jun 2027 14:47:58.545   03 Jun 2027 14:48:09.928            11.383                 Moscow           355.719
       260   03 Jun 2027 14:49:37.891   03 Jun 2027 14:50:11.649            33.758                 Moscow          1054.937
       261   03 Jun 2027 14:50:25.916   03 Jun 2027 14:52:54.822           148.906              Murmansk2          4653.312
       262   03 Jun 2027 15:02:42.810   03 Jun 2027 15:04:47.594           124.784                Anadyr2          3899.500
       263   03 Jun 2027 15:04:52.592   03 Jun 2027 15:05:32.094            39.502                Anadyr1          1234.437
       264   03 Jun 2027 15:13:36.914   03 Jun 2027 15:14:01.485            24.571                Anadyr1           767.844
       265   03 Jun 2027 15:58:33.365   03 Jun 2027 15:58:39.151             5.786               CapeTown           180.812
       266   03 Jun 2027 15:59:35.107   03 Jun 2027 15:59:51.555            16.448               CapeTown           514.000
       267   03 Jun 2027 16:03:44.911   03 Jun 2027 16:03:45.109             0.198               CapeTown             6.187
       268   03 Jun 2027 16:04:16.131   03 Jun 2027 16:04:21.151             5.020               CapeTown           156.875
       269   03 Jun 2027 16:06:11.961   03 Jun 2027 16:07:58.068           106.107               CapeTown          3315.844
       270   03 Jun 2027 16:31:00.307   03 Jun 2027 16:32:54.492           114.185              Murmansk2          3568.281
       271   03 Jun 2027 16:34:32.566   03 Jun 2027 16:34:48.063            15.497              Murmansk2           484.281
       272   03 Jun 2027 16:38:29.868   03 Jun 2027 16:40:22.228           112.360                Anadyr2          3511.250
       273   03 Jun 2027 16:41:12.880   03 Jun 2027 16:43:44.261           151.381               Magadan1          4730.656
       274   03 Jun 2027 16:43:59.502   03 Jun 2027 16:45:01.886            62.384               Magadan2          1949.500
       275   03 Jun 2027 18:14:25.175   03 Jun 2027 18:18:05.197           220.022                Anadyr2          6875.687
       276   03 Jun 2027 18:18:28.702   03 Jun 2027 18:19:32.778            64.076               Magadan2          2002.375
       277   03 Jun 2027 18:19:57.903   03 Jun 2027 18:20:53.288            55.385               Magadan2          1730.781
       278   03 Jun 2027 18:28:47.462   03 Jun 2027 18:29:20.642            33.180               Magadan2          1036.875
       279   03 Jun 2027 19:09:21.625   03 Jun 2027 19:11:11.063           109.438            RioGallegos          3419.938
       280   03 Jun 2027 19:11:48.738   03 Jun 2027 19:12:45.375            56.637            RioGallegos          1769.906
       281   03 Jun 2027 19:14:24.161   03 Jun 2027 19:15:35.397            71.236            RioGallegos          2226.125
       282   03 Jun 2027 19:50:48.975   03 Jun 2027 19:52:06.639            77.664                Anadyr1          2427.000
       283   03 Jun 2027 19:52:18.360   03 Jun 2027 19:56:20.021           241.661                Norilsk          7551.906
       284   03 Jun 2027 19:56:42.824   03 Jun 2027 19:56:59.068            16.244                Irkutsk           507.625
       285   03 Jun 2027 19:57:35.661   03 Jun 2027 19:58:40.083            64.422                Irkutsk          2013.188
       286   03 Jun 2027 19:59:29.270   03 Jun 2027 20:00:08.991            39.721                Irkutsk          1241.281
       287   03 Jun 2027 20:10:45.507   03 Jun 2027 20:14:05.447           199.940                Sumatra          6248.125
       288   03 Jun 2027 21:32:22.951   03 Jun 2027 21:32:59.204            36.253                Novosib          1132.906
       289   03 Jun 2027 21:34:31.755   03 Jun 2027 21:34:56.422            24.667                Novosib           770.844
       290   03 Jun 2027 21:36:16.387   03 Jun 2027 21:36:32.913            16.526                Novosib           516.437
       291   03 Jun 2027 21:38:57.448   03 Jun 2027 21:39:26.114            28.666                Novosib           895.813
       292   03 Jun 2027 21:40:42.971   03 Jun 2027 21:42:24.568           101.597                  Delhi          3174.906
       293   03 Jun 2027 21:43:44.338   03 Jun 2027 21:43:48.364             4.026                  Delhi           125.812
       294   03 Jun 2027 21:46:08.355   03 Jun 2027 21:47:29.630            81.275                  Delhi          2539.844
       295   03 Jun 2027 23:04:11.276   03 Jun 2027 23:05:48.325            97.049                Norilsk          3032.781
       296   03 Jun 2027 23:06:43.558   03 Jun 2027 23:11:48.802           305.244              Murmansk2          9538.875
       297   03 Jun 2027 23:13:17.024   03 Jun 2027 23:14:53.962            96.938                 Moscow          3029.313
       298   03 Jun 2027 23:15:14.938   03 Jun 2027 23:15:19.637             4.699                 Moscow           146.844
       299   04 Jun 2027 00:37:37.226   04 Jun 2027 00:38:08.433            31.207                Anadyr1           975.219
       300   04 Jun 2027 00:38:50.192   04 Jun 2027 00:40:11.712            81.520               Magadan2          2547.500
       301   04 Jun 2027 00:40:11.712   04 Jun 2027 00:40:13.700             1.988               Magadan1            62.125
       302   04 Jun 2027 00:40:29.357   04 Jun 2027 00:41:16.788            47.431               Magadan1          1482.219
       303   04 Jun 2027 00:42:19.672   04 Jun 2027 00:43:05.040            45.368              Murmansk2          1417.750
       304   04 Jun 2027 00:43:19.025   04 Jun 2027 00:44:18.407            59.382              Murmansk1          1855.687
       305   04 Jun 2027 00:45:19.445   04 Jun 2027 00:46:24.550            65.105              Murmansk2          2034.531
       306   04 Jun 2027 00:47:02.919   04 Jun 2027 00:47:30.049            27.130                 Moscow           847.813
       307   04 Jun 2027 00:47:49.369   04 Jun 2027 00:48:06.415            17.046                 Moscow           532.687
       308   04 Jun 2027 00:51:05.297   04 Jun 2027 00:51:45.618            40.321                 Moscow          1260.031
       309   04 Jun 2027 00:57:14.865   04 Jun 2027 00:57:40.679            25.814                 Moscow           806.688
       310   04 Jun 2027 01:10:42.041   04 Jun 2027 01:11:20.514            38.473               CapeTown          1202.281
       311   04 Jun 2027 01:12:00.093   04 Jun 2027 01:12:09.625             9.532               CapeTown           297.875
       312   04 Jun 2027 01:15:26.102   04 Jun 2027 01:16:19.055            52.953               CapeTown          1654.781
       313   04 Jun 2027 02:06:24.582   04 Jun 2027 02:06:42.953            18.371                Anadyr1           574.094
       314   04 Jun 2027 02:07:27.568   04 Jun 2027 02:08:11.293            43.725                Anadyr1          1366.406
       315   04 Jun 2027 02:09:25.440   04 Jun 2027 02:09:31.585             6.145               Magadan2           192.031
       316   04 Jun 2027 02:10:33.309   04 Jun 2027 02:10:58.615            25.306               Magadan2           790.813
       317   04 Jun 2027 02:11:09.159   04 Jun 2027 02:11:31.283            22.124               Magadan1           691.375
       318   04 Jun 2027 02:12:06.795   04 Jun 2027 02:12:10.639             3.844               Magadan2           120.125
       319   04 Jun 2027 02:13:03.087   04 Jun 2027 02:13:23.825            20.738               Magadan2           648.062
       320   04 Jun 2027 02:14:32.538   04 Jun 2027 02:14:46.010            13.472               Magadan2           421.000
       321   04 Jun 2027 02:17:25.784   04 Jun 2027 02:17:36.516            10.732                Norilsk           335.375
       322   04 Jun 2027 02:18:17.175   04 Jun 2027 02:20:16.041           118.866              Murmansk1          3714.562
       323   04 Jun 2027 02:21:23.430   04 Jun 2027 02:21:50.865            27.435                Novosib           857.344
       324   04 Jun 2027 02:24:43.995   04 Jun 2027 02:24:50.636             6.641                 Moscow           207.531
       325   04 Jun 2027 02:27:03.408   04 Jun 2027 02:27:12.346             8.938                 Moscow           279.313
       326   04 Jun 2027 02:29:36.066   04 Jun 2027 02:30:24.323            48.257                 Moscow          1508.031
       327   04 Jun 2027 02:45:39.049   04 Jun 2027 02:46:25.768            46.719               CapeTown          1459.969
       328   04 Jun 2027 02:50:14.054   04 Jun 2027 02:50:35.325            21.271               CapeTown           664.719
       329   04 Jun 2027 02:55:27.458   04 Jun 2027 02:55:47.089            19.631               CapeTown           613.469
       330   04 Jun 2027 02:56:33.144   04 Jun 2027 02:56:42.870             9.726               CapeTown           303.938
       331   04 Jun 2027 03:48:05.626   04 Jun 2027 03:51:01.135           175.509               Magadan2          5484.656
       332   04 Jun 2027 03:51:03.071   04 Jun 2027 03:52:04.944            61.873                Anadyr1          1933.531
       333   04 Jun 2027 03:52:06.006   04 Jun 2027 03:52:11.613             5.607                Anadyr2           175.219
       334   04 Jun 2027 03:52:49.325   04 Jun 2027 03:53:24.404            35.079               Magadan1          1096.219
       335   04 Jun 2027 03:54:20.246   04 Jun 2027 03:54:30.135             9.889               Magadan1           309.031
       336   04 Jun 2027 05:27:46.780   04 Jun 2027 05:29:00.908            74.128                Irkutsk          2316.500
       337   04 Jun 2027 07:01:25.532   04 Jun 2027 07:02:03.226            37.694               Magadan1          1177.938
       338   04 Jun 2027 07:02:03.409   04 Jun 2027 07:02:30.618            27.209                Novosib           850.281
       339   04 Jun 2027 07:02:34.961   04 Jun 2027 07:02:40.986             6.025               Magadan1           188.281
       340   04 Jun 2027 07:02:44.455   04 Jun 2027 07:04:24.456           100.001               Magadan1          3125.031
       341   04 Jun 2027 07:04:45.124   04 Jun 2027 07:05:31.914            46.790               Magadan2          1462.187
       342   04 Jun 2027 07:05:36.361   04 Jun 2027 07:05:49.842            13.481               Magadan1           421.281
       343   04 Jun 2027 07:06:16.313   04 Jun 2027 07:07:22.634            66.321              Murmansk1          2072.531
       344   04 Jun 2027 08:25:54.567   04 Jun 2027 08:26:46.958            52.391                Sumatra          1637.219
       345   04 Jun 2027 08:37:28.540   04 Jun 2027 08:37:42.034            13.494                Irkutsk           421.687
       346   04 Jun 2027 08:38:23.077   04 Jun 2027 08:38:27.637             4.560                Irkutsk           142.500
       347   04 Jun 2027 08:40:06.593   04 Jun 2027 08:40:13.492             6.899                Norilsk           215.594
       348   04 Jun 2027 08:40:30.447   04 Jun 2027 08:40:52.430            21.983                Irkutsk           686.969
       349   04 Jun 2027 08:41:47.854   04 Jun 2027 08:42:19.425            31.571                Irkutsk           986.594
       350   04 Jun 2027 09:18:41.837   04 Jun 2027 09:19:40.187            58.350            RioGallegos          1823.437
       351   04 Jun 2027 09:52:53.478   04 Jun 2027 09:53:34.424            40.946                Sumatra          1279.563
       352   04 Jun 2027 09:56:44.067   04 Jun 2027 09:57:46.963            62.896                Sumatra          1965.500
       353   04 Jun 2027 10:13:47.599   04 Jun 2027 10:14:06.144            18.545                Novosib           579.531
       354   04 Jun 2027 10:14:27.245   04 Jun 2027 10:14:54.713            27.468                Irkutsk           858.375
       355   04 Jun 2027 10:15:22.642   04 Jun 2027 10:15:25.882             3.240                Norilsk           101.250
       356   04 Jun 2027 10:15:27.922   04 Jun 2027 10:15:43.829            15.907                Norilsk           497.094
       357   04 Jun 2027 10:15:51.124   04 Jun 2027 10:16:54.619            63.495                Novosib          1984.219
       358   04 Jun 2027 10:17:16.413   04 Jun 2027 10:17:25.341             8.928                Novosib           279.000
       359   04 Jun 2027 10:17:34.840   04 Jun 2027 10:17:39.978             5.138                Novosib           160.563
       360   04 Jun 2027 10:17:53.685   04 Jun 2027 10:18:03.083             9.398                Novosib           293.688
       361   04 Jun 2027 11:38:07.004   04 Jun 2027 11:39:59.729           112.725                  Delhi          3522.656
       362   04 Jun 2027 11:40:53.094   04 Jun 2027 11:42:07.803            74.709                  Delhi          2334.656
       363   04 Jun 2027 11:51:22.698   04 Jun 2027 11:51:56.015            33.317                Novosib          1041.156
       364   04 Jun 2027 11:52:03.594   04 Jun 2027 11:52:15.753            12.159              Murmansk1           379.969
       365   04 Jun 2027 11:53:40.348   04 Jun 2027 11:53:47.432             7.084              Murmansk2           221.375
       366   04 Jun 2027 11:54:03.558   04 Jun 2027 11:54:19.704            16.146              Murmansk2           504.563
       367   04 Jun 2027 11:55:00.159   04 Jun 2027 11:55:16.371            16.212                Norilsk           506.625
       368   04 Jun 2027 13:20:50.804   04 Jun 2027 13:21:21.397            30.593                 Moscow           956.031
       369   04 Jun 2027 13:21:49.982   04 Jun 2027 13:22:10.672            20.690                 Moscow           646.562
       370   04 Jun 2027 13:23:41.550   04 Jun 2027 13:24:38.698            57.148                 Moscow          1785.875
       371   04 Jun 2027 13:24:56.897   04 Jun 2027 13:25:37.369            40.472              Murmansk2          1264.750
       372   04 Jun 2027 13:29:40.807   04 Jun 2027 13:29:41.815             1.008              Murmansk1            31.500
       373   04 Jun 2027 13:30:11.265   04 Jun 2027 13:30:55.924            44.659              Murmansk1          1395.594
       374   04 Jun 2027 13:31:38.538   04 Jun 2027 13:31:51.418            12.880              Murmansk1           402.500
       375   04 Jun 2027 13:32:38.696   04 Jun 2027 13:32:53.251            14.555              Murmansk1           454.844
       376   04 Jun 2027 13:33:51.204   04 Jun 2027 13:34:03.732            12.528              Murmansk1           391.500
       377   04 Jun 2027 13:34:42.978   04 Jun 2027 13:35:14.900            31.922              Murmansk1           997.562
       378   04 Jun 2027 13:36:16.902   04 Jun 2027 13:36:46.910            30.008              Murmansk1           937.750
       379   04 Jun 2027 13:39:44.621   04 Jun 2027 13:41:43.727           119.106                Anadyr2          3722.063
       380   04 Jun 2027 13:43:54.377   04 Jun 2027 13:44:10.955            16.578                Anadyr1           518.062
       381   04 Jun 2027 13:45:36.232   04 Jun 2027 13:46:08.293            32.061                Anadyr2          1001.906
       382   04 Jun 2027 14:37:59.398   04 Jun 2027 14:38:18.110            18.712               CapeTown           584.750
       383   04 Jun 2027 14:39:32.326   04 Jun 2027 14:39:54.871            22.545               CapeTown           704.531
       384   04 Jun 2027 14:42:17.576   04 Jun 2027 14:42:37.276            19.700               CapeTown           615.625
       385   04 Jun 2027 14:44:43.480   04 Jun 2027 14:45:32.637            49.157               CapeTown          1536.156
       386   04 Jun 2027 15:02:35.634   04 Jun 2027 15:04:06.899            91.265              Murmansk1          2852.031
       387   04 Jun 2027 15:07:10.058   04 Jun 2027 15:07:26.070            16.012              Murmansk1           500.375
       388   04 Jun 2027 15:08:50.050   04 Jun 2027 15:09:11.035            20.985              Murmansk1           655.781
       389   04 Jun 2027 15:10:41.337   04 Jun 2027 15:11:02.431            21.094              Murmansk1           659.188
       390   04 Jun 2027 15:11:04.315   04 Jun 2027 15:11:20.363            16.048              Murmansk2           501.500
       391   04 Jun 2027 15:14:41.635   04 Jun 2027 15:16:10.188            88.553                Anadyr1          2767.281
       392   04 Jun 2027 15:16:21.255   04 Jun 2027 15:16:41.349            20.094                Anadyr1           627.937
       393   04 Jun 2027 15:20:47.829   04 Jun 2027 15:21:13.091            25.262                Anadyr2           789.438
       394   04 Jun 2027 15:21:23.936   04 Jun 2027 15:21:29.961             6.025                Anadyr2           188.281
       395   04 Jun 2027 15:21:48.121   04 Jun 2027 15:21:57.991             9.870                Anadyr2           308.437
       396   04 Jun 2027 15:25:12.984   04 Jun 2027 15:26:02.534            49.550                Anadyr2          1548.437
       397   04 Jun 2027 16:44:07.529   04 Jun 2027 16:46:51.594           164.065              Murmansk1          5127.031
       398   04 Jun 2027 16:47:00.261   04 Jun 2027 16:47:09.861             9.600              Murmansk2           300.000
       399   04 Jun 2027 16:50:31.168   04 Jun 2027 16:52:14.324           103.156                Anadyr1          3223.625
       400   04 Jun 2027 16:52:38.676   04 Jun 2027 16:53:27.973            49.297                Anadyr2          1540.531
       401   04 Jun 2027 16:53:49.440   04 Jun 2027 16:55:36.844           107.404               Magadan2          3356.375
       402   04 Jun 2027 16:59:52.045   04 Jun 2027 17:00:01.288             9.243               Magadan1           288.844
       403   04 Jun 2027 17:00:10.531   04 Jun 2027 17:01:04.657            54.126               Magadan1          1691.438
       404   04 Jun 2027 18:26:26.014   04 Jun 2027 18:30:06.622           220.608                Anadyr1          6894.000
       405   04 Jun 2027 18:30:17.662   04 Jun 2027 18:31:03.151            45.489               Magadan2          1421.531
       406   04 Jun 2027 18:31:12.765   04 Jun 2027 18:32:27.125            74.360                Norilsk          2323.750
       407   04 Jun 2027 19:21:04.766   04 Jun 2027 19:24:37.899           213.133            RioGallegos          6660.406
       408   04 Jun 2027 19:25:06.639   04 Jun 2027 19:26:02.756            56.117            RioGallegos          1753.656
       409   04 Jun 2027 20:02:48.275   04 Jun 2027 20:03:54.701            66.426                Anadyr1          2075.812
       410   04 Jun 2027 20:03:55.549   04 Jun 2027 20:04:00.016             4.467                Anadyr1           139.594
       411   04 Jun 2027 20:04:18.053   04 Jun 2027 20:06:14.212           116.159                Norilsk          3629.969
       412   04 Jun 2027 20:08:34.010   04 Jun 2027 20:10:46.649           132.639                Irkutsk          4144.969
       413   04 Jun 2027 20:11:06.823   04 Jun 2027 20:11:31.524            24.701                Irkutsk           771.906
       414   04 Jun 2027 20:11:33.159   04 Jun 2027 20:12:34.121            60.962                Novosib          1905.062
       415   04 Jun 2027 20:13:27.674   04 Jun 2027 20:14:22.768            55.094                Novosib          1721.687
       416   04 Jun 2027 20:23:34.593   04 Jun 2027 20:24:43.123            68.530                Sumatra          2141.563
       417   04 Jun 2027 21:40:50.338   04 Jun 2027 21:42:05.379            75.041               Magadan2          2345.031
       418   04 Jun 2027 21:44:04.595   04 Jun 2027 21:45:01.529            56.934                Irkutsk          1779.188
       419   04 Jun 2027 21:45:42.573   04 Jun 2027 21:47:07.481            84.908                Novosib          2653.375
       420   04 Jun 2027 21:52:17.142   04 Jun 2027 21:54:33.414           136.272                  Delhi          4258.500
       421   04 Jun 2027 21:58:26.004   04 Jun 2027 21:58:53.151            27.147                  Delhi           848.344
       422   04 Jun 2027 22:00:07.200   04 Jun 2027 22:00:39.857            32.657                  Delhi          1020.531
       423   04 Jun 2027 23:12:50.113   04 Jun 2027 23:13:04.802            14.689                Anadyr1           459.031
       424   04 Jun 2027 23:16:12.784   04 Jun 2027 23:17:53.055           100.271                Norilsk          3133.469
       425   04 Jun 2027 23:17:59.411   04 Jun 2027 23:18:46.434            47.023               Magadan1          1469.469
       426   04 Jun 2027 23:18:46.991   04 Jun 2027 23:21:23.152           156.161              Murmansk1          4880.031
       427   04 Jun 2027 23:22:32.816   04 Jun 2027 23:23:56.895            84.079              Murmansk1          2627.469
       428   04 Jun 2027 23:23:57.377   04 Jun 2027 23:24:47.435            50.058                 Moscow          1564.313
       429   04 Jun 2027 23:28:40.487   04 Jun 2027 23:29:02.802            22.315                 Moscow           697.344
       430   04 Jun 2027 23:29:04.826   04 Jun 2027 23:29:08.570             3.744                 Moscow           117.000
       431   05 Jun 2027 00:43:55.422   05 Jun 2027 00:44:00.228             4.806                Anadyr2           150.187
       432   05 Jun 2027 00:45:42.124   05 Jun 2027 00:46:03.204            21.080                Anadyr1           658.750
       433   05 Jun 2027 00:46:32.916   05 Jun 2027 00:46:38.391             5.475                Anadyr1           171.094
       434   05 Jun 2027 00:46:47.100   05 Jun 2027 00:47:00.261            13.161                Anadyr1           411.281
       435   05 Jun 2027 00:49:12.637   05 Jun 2027 00:50:04.731            52.094               Magadan2          1627.938
       436   05 Jun 2027 00:50:23.838   05 Jun 2027 00:50:54.341            30.503               Magadan1           953.219
       437   05 Jun 2027 00:51:43.587   05 Jun 2027 00:52:13.814            30.227               Magadan2           944.594
       438   05 Jun 2027 00:52:32.038   05 Jun 2027 00:52:58.810            26.772               Magadan2           836.625
       439   05 Jun 2027 00:54:20.845   05 Jun 2027 00:58:26.124           245.279              Murmansk2          7664.969
       440   05 Jun 2027 01:09:09.130   05 Jun 2027 01:09:30.374            21.244                 Moscow           663.875
       441   05 Jun 2027 01:22:17.386   05 Jun 2027 01:23:21.025            63.639               CapeTown          1988.719
       442   05 Jun 2027 01:28:43.870   05 Jun 2027 01:28:48.467             4.597               CapeTown           143.656
       443   05 Jun 2027 01:31:23.336   05 Jun 2027 01:31:36.477            13.141               CapeTown           410.656
       444   05 Jun 2027 02:18:19.685   05 Jun 2027 02:19:15.245            55.560                Anadyr2          1736.250
       445   05 Jun 2027 02:19:27.380   05 Jun 2027 02:20:05.407            38.027                Anadyr1          1188.344
       446   05 Jun 2027 02:20:59.361   05 Jun 2027 02:21:20.564            21.203               Magadan2           662.594
       447   05 Jun 2027 02:22:01.310   05 Jun 2027 02:22:26.443            25.133               Magadan1           785.406
       448   05 Jun 2027 02:23:32.369   05 Jun 2027 02:23:54.031            21.662               Magadan1           676.938
       449   05 Jun 2027 02:24:35.257   05 Jun 2027 02:24:43.185             7.928               Magadan1           247.750
       450   05 Jun 2027 02:25:18.716   05 Jun 2027 02:26:14.718            56.002               Magadan2          1750.063
       451   05 Jun 2027 02:30:18.828   05 Jun 2027 02:31:29.862            71.034              Murmansk2          2219.812
       452   05 Jun 2027 02:33:32.206   05 Jun 2027 02:34:52.048            79.842                 Moscow          2495.062
       453   05 Jun 2027 02:39:49.580   05 Jun 2027 02:40:12.240            22.660                 Moscow           708.125
       454   05 Jun 2027 02:43:54.076   05 Jun 2027 02:44:28.736            34.660                 Moscow          1083.125
       455   05 Jun 2027 03:00:16.341   05 Jun 2027 03:00:49.531            33.190               CapeTown          1037.187
       456   05 Jun 2027 03:06:08.773   05 Jun 2027 03:06:58.948            50.175               CapeTown          1567.969
       457   05 Jun 2027 04:00:50.955   05 Jun 2027 04:02:28.671            97.716               Magadan1          3053.625
       458   05 Jun 2027 04:02:40.856   05 Jun 2027 04:06:22.582           221.726               Magadan2          6928.937
       459   05 Jun 2027 04:48:45.712   05 Jun 2027 04:49:48.554            62.842            RioGallegos          1963.813
       460   05 Jun 2027 05:39:18.137   05 Jun 2027 05:39:22.418             4.281                Anadyr1           133.781
       461   05 Jun 2027 05:39:24.266   05 Jun 2027 05:41:20.962           116.696                Irkutsk          3646.750
       462   05 Jun 2027 07:12:40.329   05 Jun 2027 07:12:56.537            16.208               Magadan1           506.500
       463   05 Jun 2027 07:13:50.083   05 Jun 2027 07:13:59.142             9.059                Irkutsk           283.094
       464   05 Jun 2027 07:14:15.325   05 Jun 2027 07:14:16.225             0.900               Magadan1            28.125
       465   05 Jun 2027 07:14:46.640   05 Jun 2027 07:15:12.435            25.795               Magadan1           806.094
       466   05 Jun 2027 07:16:23.979   05 Jun 2027 07:16:48.117            24.138               Magadan1           754.313
       467   05 Jun 2027 07:17:08.874   05 Jun 2027 07:17:47.575            38.701                Novosib          1209.406
       468   05 Jun 2027 07:18:07.065   05 Jun 2027 07:18:18.160            11.095              Murmansk1           346.719
       469   05 Jun 2027 07:18:31.151   05 Jun 2027 07:19:13.018            41.867                Novosib          1308.344
       470   05 Jun 2027 07:53:51.505   05 Jun 2027 07:54:44.256            52.751            RioGallegos          1648.469
       471   05 Jun 2027 08:35:47.498   05 Jun 2027 08:36:44.051            56.553                Sumatra          1767.281
       472   05 Jun 2027 08:49:48.360   05 Jun 2027 08:49:53.807             5.447                Irkutsk           170.219
       473   05 Jun 2027 08:50:24.164   05 Jun 2027 08:51:00.930            36.766                Irkutsk          1148.937
       474   05 Jun 2027 08:51:24.239   05 Jun 2027 08:51:57.583            33.344                Irkutsk          1042.000
       475   05 Jun 2027 08:52:10.090   05 Jun 2027 08:52:47.137            37.047                Norilsk          1157.719
       476   05 Jun 2027 08:52:51.200   05 Jun 2027 08:53:18.867            27.667                Novosib           864.594
       477   05 Jun 2027 08:53:22.317   05 Jun 2027 08:54:35.374            73.057                Novosib          2283.031
       478   05 Jun 2027 09:32:09.093   05 Jun 2027 09:32:39.046            29.953            RioGallegos           936.031
       479   05 Jun 2027 10:05:33.221   05 Jun 2027 10:05:38.240             5.019                Sumatra           156.844
       480   05 Jun 2027 10:08:41.766   05 Jun 2027 10:09:34.908            53.142                Sumatra          1660.687
       481   05 Jun 2027 10:15:10.127   05 Jun 2027 10:15:22.067            11.940                  Delhi           373.125
       482   05 Jun 2027 10:16:15.910   05 Jun 2027 10:16:17.600             1.690                  Delhi            52.812
