uniorb/output/strategy_4/Drop/Drop_KinoSat_110307.txt

KinoSat_110307
-------------------------
    Access    *     Start Time (UTCG)     *     Stop Time (UTCG)  *   Duration (s)        *       Station  *  Data (Mbytes)
         1   01 Jun 2027 03:39:21.527   01 Jun 2027 03:41:13.471           111.944               Magadan1         13993.000
         2   01 Jun 2027 03:41:28.664   01 Jun 2027 03:42:08.333            39.669               Magadan1          4958.625
         3   01 Jun 2027 03:42:16.178   01 Jun 2027 03:43:17.507            61.329               Magadan2          7666.125
         4   01 Jun 2027 03:44:04.111   01 Jun 2027 03:44:08.954             4.843               Magadan2           605.375
         5   01 Jun 2027 03:46:41.047   01 Jun 2027 03:47:08.155            27.108                Norilsk          3388.500
         6   01 Jun 2027 04:19:14.903   01 Jun 2027 04:20:29.094            74.191            RioGallegos          9273.875
         7   01 Jun 2027 04:54:41.554   01 Jun 2027 04:54:47.662             6.108                Sumatra           763.500
         8   01 Jun 2027 04:56:38.620   01 Jun 2027 04:58:54.938           136.318                Sumatra         17039.750
         9   01 Jun 2027 05:16:18.481   01 Jun 2027 05:16:35.288            16.807                Irkutsk          2100.875
        10   01 Jun 2027 05:17:11.727   01 Jun 2027 05:18:39.007            87.280              Murmansk2         10910.000
        11   01 Jun 2027 05:18:52.484   01 Jun 2027 05:20:35.854           103.370                Norilsk         12921.250
        12   01 Jun 2027 05:23:51.861   01 Jun 2027 05:24:22.942            31.081                Norilsk          3885.125
        13   01 Jun 2027 05:57:43.054   01 Jun 2027 05:58:52.804            69.750            RioGallegos          8718.750
        14   01 Jun 2027 06:31:14.608   01 Jun 2027 06:32:02.211            47.603                Sumatra          5950.375
        15   01 Jun 2027 06:38:28.063   01 Jun 2027 06:39:47.453            79.390                  Delhi          9923.750
        16   01 Jun 2027 06:54:05.934   01 Jun 2027 06:55:21.199            75.265                 Moscow          9408.125
        17   01 Jun 2027 06:56:21.743   01 Jun 2027 06:58:09.929           108.186              Murmansk2         13523.250
        18   01 Jun 2027 06:58:14.321   01 Jun 2027 06:58:24.838            10.517                 Moscow          1314.625
        19   01 Jun 2027 06:58:45.409   01 Jun 2027 06:59:02.130            16.721                 Moscow          2090.125
        20   01 Jun 2027 08:16:32.996   01 Jun 2027 08:16:58.552            25.556                  Delhi          3194.500
        21   01 Jun 2027 08:29:57.779   01 Jun 2027 08:30:23.261            25.482                Novosib          3185.250
        22   01 Jun 2027 08:30:26.266   01 Jun 2027 08:30:35.316             9.050                Norilsk          1131.250
        23   01 Jun 2027 08:30:48.656   01 Jun 2027 08:31:57.257            68.601                Norilsk          8575.125
        24   01 Jun 2027 08:32:09.899   01 Jun 2027 08:36:10.387           240.488                Norilsk         30061.000
        25   01 Jun 2027 09:40:03.232   01 Jun 2027 09:41:54.279           111.047               CapeTown         13880.875
        26   01 Jun 2027 10:17:53.055   01 Jun 2027 10:21:58.855           245.800                Anadyr2         30725.000
        27   01 Jun 2027 11:56:06.680   01 Jun 2027 11:57:34.193            87.513                Anadyr1         10939.125
        28   01 Jun 2027 13:31:18.638   01 Jun 2027 13:33:15.957           117.319               Magadan1         14664.875
        29   01 Jun 2027 13:34:17.486   01 Jun 2027 13:35:49.491            92.005               Magadan2         11500.625
        30   01 Jun 2027 15:59:13.707   01 Jun 2027 16:05:15.164           361.457            RioGallegos         45182.125
        31   01 Jun 2027 16:46:44.587   01 Jun 2027 16:48:25.269           100.682                Irkutsk         12585.250
        32   01 Jun 2027 16:51:24.320   01 Jun 2027 16:53:05.664           101.344                Novosib         12668.000
        33   01 Jun 2027 17:00:33.040   01 Jun 2027 17:02:26.687           113.647                Sumatra         14205.875
        34   01 Jun 2027 18:22:29.284   01 Jun 2027 18:24:15.950           106.666                Novosib         13333.250
        35   01 Jun 2027 18:30:24.183   01 Jun 2027 18:32:38.617           134.434                  Delhi          9799.874
        36   02 Jun 2027 03:56:40.391   02 Jun 2027 03:57:44.023            63.632                Novosib          7954.000
        37   02 Jun 2027 03:57:53.833   02 Jun 2027 04:01:40.337           226.504                Norilsk         28313.000
        38   02 Jun 2027 04:01:50.984   02 Jun 2027 04:01:57.323             6.339              Murmansk1           792.375
        39   02 Jun 2027 05:06:26.178   02 Jun 2027 05:07:16.902            50.724                Sumatra          6340.500
        40   02 Jun 2027 05:08:12.591   02 Jun 2027 05:09:07.795            55.204                Sumatra          6900.500
        41   02 Jun 2027 05:19:49.674   02 Jun 2027 05:20:15.582            25.908                  Delhi          3238.500
        42   02 Jun 2027 05:21:47.372   02 Jun 2027 05:24:05.477           138.105                  Delhi         17263.125
        43   02 Jun 2027 05:29:53.227   02 Jun 2027 05:30:19.290            26.063                Novosib          3257.875
        44   02 Jun 2027 05:31:14.094   02 Jun 2027 05:32:29.460            75.366                Irkutsk          9420.750
        45   02 Jun 2027 05:32:44.742   02 Jun 2027 05:37:33.720           288.978                Norilsk         36122.250
        46   02 Jun 2027 05:37:38.109   02 Jun 2027 05:39:56.326           138.217              Murmansk2         17277.125
        47   02 Jun 2027 06:52:07.675   02 Jun 2027 06:52:18.773            11.098                Sumatra          1387.250
        48   02 Jun 2027 06:57:38.978   02 Jun 2027 06:59:17.263            98.285                Novosib         12285.625
        49   02 Jun 2027 06:59:48.807   02 Jun 2027 07:04:30.717           281.910                Irkutsk         35238.750
        50   02 Jun 2027 07:08:11.858   02 Jun 2027 07:09:54.549           102.691                Novosib         12836.375
        51   02 Jun 2027 07:10:25.534   02 Jun 2027 07:15:20.407           294.873              Murmansk1         36859.125
        52   02 Jun 2027 08:35:11.497   02 Jun 2027 08:35:40.477            28.980                 Moscow          3622.500
        53   02 Jun 2027 08:44:03.130   02 Jun 2027 08:44:50.545            47.415              Murmansk2          5926.875
        54   02 Jun 2027 08:45:24.478   02 Jun 2027 08:47:39.958           135.480                 Moscow         16935.000
        55   02 Jun 2027 08:47:48.182   02 Jun 2027 08:51:09.664           201.482              Murmansk1         25185.250
        56   02 Jun 2027 09:55:19.597   02 Jun 2027 09:57:59.733           160.136               CapeTown         20017.000
        57   02 Jun 2027 10:17:55.482   02 Jun 2027 10:19:47.225           111.743              Murmansk2         13967.875
        58   02 Jun 2027 10:20:25.037   02 Jun 2027 10:23:22.480           177.443                 Moscow         22180.375
        59   02 Jun 2027 10:23:25.200   02 Jun 2027 10:26:00.790           155.590              Murmansk2         19448.750
        60   02 Jun 2027 10:26:00.790   02 Jun 2027 10:27:07.681            66.891              Murmansk1          8361.375
        61   02 Jun 2027 10:29:39.459   02 Jun 2027 10:37:22.898           463.439                Anadyr2         57929.875
        62   02 Jun 2027 11:31:58.464   02 Jun 2027 11:37:01.531           303.067               CapeTown         37883.375
        63   02 Jun 2027 11:53:53.518   02 Jun 2027 11:54:02.976             9.458              Murmansk1          1182.250
        64   02 Jun 2027 11:54:45.170   02 Jun 2027 11:56:34.391           109.221                 Moscow         13652.625
        65   02 Jun 2027 11:56:48.084   02 Jun 2027 11:58:24.210            96.126              Murmansk2         12015.750
        66   02 Jun 2027 12:04:53.376   02 Jun 2027 12:05:43.586            50.210                Anadyr2          6276.250
        67   02 Jun 2027 12:09:28.764   02 Jun 2027 12:11:44.731           135.967               Magadan1         16995.875
        68   02 Jun 2027 13:43:14.803   02 Jun 2027 13:44:48.490            93.687               Magadan2         11710.875
        69   02 Jun 2027 13:46:21.425   02 Jun 2027 13:47:48.929            87.504               Magadan1         10938.000
        70   02 Jun 2027 16:11:01.942   02 Jun 2027 16:16:46.873           344.931            RioGallegos         43116.375
        71   02 Jun 2027 16:58:38.466   02 Jun 2027 17:00:48.667           130.201                Irkutsk         16275.125
        72   02 Jun 2027 17:03:45.928   02 Jun 2027 17:06:30.914           164.986                Novosib         20623.250
        73   02 Jun 2027 17:15:13.839   02 Jun 2027 17:17:06.943           113.104                Sumatra         14138.000
        74   02 Jun 2027 18:42:06.970   02 Jun 2027 18:44:06.546           119.576                  Delhi         14947.000
        75   02 Jun 2027 18:47:14.518   02 Jun 2027 18:48:14.573            60.055                  Delhi          7506.875
        76   02 Jun 2027 20:13:26.090   02 Jun 2027 20:17:09.338           223.248                 Moscow         24119.875
        77   03 Jun 2027 04:08:47.277   03 Jun 2027 04:09:50.743            63.466                Novosib          7933.250
        78   03 Jun 2027 04:09:54.923   03 Jun 2027 04:13:50.698           235.775              Murmansk2         29471.875
        79   03 Jun 2027 05:18:17.040   03 Jun 2027 05:19:36.566            79.526                Sumatra          9940.750
        80   03 Jun 2027 05:29:56.060   03 Jun 2027 05:31:52.624           116.564                  Delhi         14570.500
        81   03 Jun 2027 05:44:23.803   03 Jun 2027 05:45:08.594            44.791              Murmansk2          5598.875
        82   03 Jun 2027 05:45:10.800   03 Jun 2027 05:46:09.660            58.860                Novosib          7357.500
        83   03 Jun 2027 05:46:20.669   03 Jun 2027 05:49:35.456           194.787                Norilsk         24348.375
        84   03 Jun 2027 05:49:51.989   03 Jun 2027 05:51:51.626           119.637              Murmansk2         14954.625
        85   03 Jun 2027 07:09:46.980   03 Jun 2027 07:15:08.772           321.792                  Delhi         40224.000
        86   03 Jun 2027 07:15:44.736   03 Jun 2027 07:16:29.382            44.646                Irkutsk          5580.750
        87   03 Jun 2027 07:20:31.801   03 Jun 2027 07:21:03.470            31.669              Murmansk2          3958.625
        88   03 Jun 2027 07:21:09.940   03 Jun 2027 07:22:09.487            59.547                 Moscow          7443.375
        89   03 Jun 2027 07:22:25.989   03 Jun 2027 07:27:19.907           293.918              Murmansk1         36739.750
        90   03 Jun 2027 08:56:50.755   03 Jun 2027 08:58:01.051            70.296                Norilsk          8787.000
        91   03 Jun 2027 08:58:21.459   03 Jun 2027 09:03:11.079           289.620              Murmansk2         36202.500
        92   03 Jun 2027 10:07:44.284   03 Jun 2027 10:10:59.208           194.924               CapeTown         24365.500
        93   03 Jun 2027 10:29:56.979   03 Jun 2027 10:31:46.643           109.664              Murmansk1         13708.000
        94   03 Jun 2027 10:32:19.401   03 Jun 2027 10:35:17.647           178.246                 Moscow         22280.750
        95   03 Jun 2027 10:35:30.965   03 Jun 2027 10:37:58.814           147.849              Murmansk2         18481.125
        96   03 Jun 2027 10:37:58.814   03 Jun 2027 10:39:09.149            70.335              Murmansk1          8791.875
        97   03 Jun 2027 10:41:29.819   03 Jun 2027 10:50:05.335           515.516                Anadyr2         64439.500
        98   03 Jun 2027 11:39:26.654   03 Jun 2027 11:48:57.842           571.188               CapeTown         71398.500
        99   03 Jun 2027 12:05:58.262   03 Jun 2027 12:14:55.137           536.875              Murmansk1         67109.375
       100   03 Jun 2027 12:20:48.297   03 Jun 2027 12:24:25.372           217.075               Magadan2         27134.375
       101   03 Jun 2027 12:25:14.414   03 Jun 2027 12:26:55.000           100.586               Magadan1         12573.250
       102   03 Jun 2027 13:59:48.931   03 Jun 2027 14:00:23.534            34.603               Magadan2          4325.375
       103   03 Jun 2027 15:37:03.571   03 Jun 2027 15:40:01.535           177.964                Irkutsk         22245.500
       104   03 Jun 2027 15:40:07.286   03 Jun 2027 15:42:09.602           122.316                Irkutsk         15289.500
       105   03 Jun 2027 16:24:32.954   03 Jun 2027 16:25:46.754            73.800            RioGallegos          9225.000
       106   03 Jun 2027 17:10:34.073   03 Jun 2027 17:12:17.901           103.828                Irkutsk         12978.500
       107   03 Jun 2027 17:13:04.300   03 Jun 2027 17:15:36.908           152.608                Novosib         19076.000
       108   03 Jun 2027 17:16:38.732   03 Jun 2027 17:19:31.812           173.080                Novosib         21635.000
       109   03 Jun 2027 18:53:54.885   03 Jun 2027 18:56:08.806           133.921                  Delhi         16740.125
       110   03 Jun 2027 20:25:04.045   03 Jun 2027 20:29:02.133           238.088                 Moscow         24584.000
       111   04 Jun 2027 04:20:43.793   04 Jun 2027 04:21:56.785            72.992                Novosib          9124.000
       112   04 Jun 2027 04:22:04.650   04 Jun 2027 04:25:23.848           199.198                Norilsk         24899.750
       113   04 Jun 2027 05:30:13.646   04 Jun 2027 05:33:02.341           168.695                Sumatra         21086.875
       114   04 Jun 2027 05:40:33.784   04 Jun 2027 05:41:42.634            68.850                  Delhi          8606.250
       115   04 Jun 2027 05:46:16.165   04 Jun 2027 05:48:08.980           112.815                  Delhi         14101.875
       116   04 Jun 2027 05:56:12.416   04 Jun 2027 05:56:27.644            15.228                Novosib          1903.500
       117   04 Jun 2027 05:56:53.981   04 Jun 2027 05:58:27.712            93.731                 Moscow         11716.375
       118   04 Jun 2027 05:58:42.163   04 Jun 2027 06:01:37.276           175.113                Norilsk         21889.125
       119   04 Jun 2027 06:01:56.249   04 Jun 2027 06:03:47.585           111.336              Murmansk1         13917.000
       120   04 Jun 2027 07:21:28.045   04 Jun 2027 07:27:03.468           335.423                  Delhi         41927.875
       121   04 Jun 2027 07:27:09.829   04 Jun 2027 07:27:41.368            31.539                 Moscow          3942.375
       122   04 Jun 2027 07:27:41.514   04 Jun 2027 07:27:48.003             6.489                Novosib           811.125
       123   04 Jun 2027 07:28:01.014   04 Jun 2027 07:28:23.488            22.474                Norilsk          2809.250
       124   04 Jun 2027 07:32:28.446   04 Jun 2027 07:33:03.989            35.543              Murmansk2          4442.875
       125   04 Jun 2027 07:33:04.032   04 Jun 2027 07:37:36.657           272.625                Norilsk         34078.125
       126   04 Jun 2027 07:37:41.636   04 Jun 2027 07:39:19.759            98.123              Murmansk1         12265.375
       127   04 Jun 2027 09:01:54.344   04 Jun 2027 09:02:07.856            13.512                 Moscow          1689.000
       128   04 Jun 2027 09:08:50.528   04 Jun 2027 09:09:51.650            61.122                Norilsk          7640.250
       129   04 Jun 2027 09:09:58.913   04 Jun 2027 09:11:43.559           104.646                 Moscow         13080.750
       130   04 Jun 2027 09:11:53.064   04 Jun 2027 09:15:12.595           199.531              Murmansk2         24941.375
       131   04 Jun 2027 10:20:02.148   04 Jun 2027 10:23:42.510           220.362               CapeTown         27545.250
       132   04 Jun 2027 10:41:34.902   04 Jun 2027 10:49:57.326           502.424              Murmansk1         62803.000
       133   04 Jun 2027 10:49:57.326   04 Jun 2027 10:51:10.471            73.145              Murmansk2          9143.125
       134   04 Jun 2027 10:53:22.821   04 Jun 2027 11:02:42.726           559.905                Anadyr2         69988.125
       135   04 Jun 2027 11:56:23.277   04 Jun 2027 12:00:49.203           265.926               CapeTown         33240.750
       136   04 Jun 2027 12:18:34.314   04 Jun 2027 12:23:50.659           316.345              Murmansk2         39543.125
       137   04 Jun 2027 12:23:50.659   04 Jun 2027 12:26:09.788           139.129              Murmansk1         17391.125
       138   04 Jun 2027 12:32:23.806   04 Jun 2027 12:36:20.065           236.259               Magadan1         29532.375
       139   04 Jun 2027 14:07:10.242   04 Jun 2027 14:07:22.457            12.215               Magadan1          1526.875
       140   04 Jun 2027 14:10:15.366   04 Jun 2027 14:11:49.404            94.038               Magadan2         11754.750
       141   04 Jun 2027 15:48:20.172   04 Jun 2027 15:51:49.882           209.710                Irkutsk         26213.750
       142   04 Jun 2027 15:52:43.906   04 Jun 2027 15:55:23.623           159.717                Irkutsk         19964.625
       143   04 Jun 2027 16:04:20.869   04 Jun 2027 16:05:52.048            91.179                Sumatra         11397.375
       144   04 Jun 2027 16:07:28.188   04 Jun 2027 16:09:52.358           144.170                Sumatra         18021.250
       145   04 Jun 2027 17:23:29.570   04 Jun 2027 17:25:19.828           110.258                Novosib         13782.250
       146   04 Jun 2027 17:29:07.261   04 Jun 2027 17:29:59.034            51.773                Novosib          6471.625
       147   04 Jun 2027 17:37:46.573   04 Jun 2027 17:38:40.451            53.878                Sumatra          6734.750
       148   04 Jun 2027 19:02:59.404   04 Jun 2027 19:03:04.739             5.335                Novosib           666.875
       149   04 Jun 2027 19:05:47.052   04 Jun 2027 19:07:44.715           117.663                  Delhi         14707.875
       150   04 Jun 2027 19:08:42.886   04 Jun 2027 19:08:59.068            16.182                  Delhi          2022.750
       151   04 Jun 2027 19:12:44.155   04 Jun 2027 19:13:27.965            43.810                  Delhi          5476.250
       152   04 Jun 2027 20:35:19.224   04 Jun 2027 20:36:21.545            62.321              Murmansk1          7790.125
       153   04 Jun 2027 20:36:48.129   04 Jun 2027 20:38:21.993            93.864                 Moscow         10989.876
       154   05 Jun 2027 04:32:42.021   05 Jun 2027 04:32:43.943             1.922                Irkutsk           240.250
       155   05 Jun 2027 04:32:50.934   05 Jun 2027 04:37:31.257           280.323                Norilsk         35040.375
       156   05 Jun 2027 05:42:15.826   05 Jun 2027 05:44:12.462           116.636                Sumatra         14579.500
       157   05 Jun 2027 05:53:40.610   05 Jun 2027 05:55:24.755           104.145                  Delhi         13018.125
       158   05 Jun 2027 06:07:21.905   05 Jun 2027 06:07:47.527            25.622              Murmansk2          3202.750
       159   05 Jun 2027 06:08:39.639   05 Jun 2027 06:09:12.553            32.914              Murmansk2          4114.250
       160   05 Jun 2027 06:09:27.959   05 Jun 2027 06:10:13.027            45.068                Novosib          5633.500
       161   05 Jun 2027 06:10:36.297   05 Jun 2027 06:13:39.150           182.853                Norilsk         22856.625
       162   05 Jun 2027 06:13:45.195   05 Jun 2027 06:15:44.175           118.980              Murmansk1         14872.500
       163   05 Jun 2027 07:33:01.889   05 Jun 2027 07:33:56.830            54.941                  Delhi          6867.625
       164   05 Jun 2027 07:34:36.302   05 Jun 2027 07:38:54.305           258.003                  Delhi         32250.375
       165   05 Jun 2027 07:39:13.945   05 Jun 2027 07:39:17.431             3.486                 Moscow           435.750
       166   05 Jun 2027 07:44:15.153   05 Jun 2027 07:45:38.736            83.583                Novosib         10447.875
       167   05 Jun 2027 07:46:27.637   05 Jun 2027 07:47:52.199            84.562              Murmansk1         10570.250
       168   05 Jun 2027 07:47:52.199   05 Jun 2027 07:51:19.927           207.728              Murmansk2         25966.000
       169   05 Jun 2027 09:14:09.266   05 Jun 2027 09:14:25.709            16.443                 Moscow          2055.375
       170   05 Jun 2027 09:19:27.769   05 Jun 2027 09:23:44.482           256.713                 Moscow         32089.125
       171   05 Jun 2027 09:24:38.776   05 Jun 2027 09:27:14.193           155.417              Murmansk2         19427.125
       172   05 Jun 2027 10:28:36.324   05 Jun 2027 10:36:15.072           458.748               CapeTown         57343.500
       173   05 Jun 2027 10:54:00.192   05 Jun 2027 11:03:11.595           551.403              Murmansk2         68925.375
       174   05 Jun 2027 11:05:17.711   05 Jun 2027 11:15:15.873           598.162                Anadyr2         74770.250
       175   05 Jun 2027 12:03:22.621   05 Jun 2027 12:07:19.324           236.703               CapeTown         29587.875
       176   05 Jun 2027 12:40:54.236   05 Jun 2027 12:41:31.063            36.827                Anadyr1          4603.375
       177   05 Jun 2027 12:42:28.018   05 Jun 2027 12:43:10.593            42.575                Anadyr1          5321.875
       178   05 Jun 2027 12:44:06.887   05 Jun 2027 12:45:49.928           103.041               Magadan2         12880.125
       179   05 Jun 2027 12:47:54.920   05 Jun 2027 12:49:30.210            95.290               Magadan2         11911.250
       180   05 Jun 2027 14:19:09.168   05 Jun 2027 14:20:03.223            54.055               Magadan1          6756.875
       181   05 Jun 2027 14:26:11.391   05 Jun 2027 14:27:09.524            58.133               Magadan2          7266.625
       182   05 Jun 2027 14:28:42.924   05 Jun 2027 14:29:35.033            52.109               Magadan2          6513.625
       183   05 Jun 2027 15:13:24.359   05 Jun 2027 15:16:11.689           167.330            RioGallegos         20916.250
       184   05 Jun 2027 15:59:52.454   05 Jun 2027 16:01:28.510            96.056                Irkutsk         12007.000
       185   05 Jun 2027 16:15:01.228   05 Jun 2027 16:17:31.589           150.361                Sumatra         18795.125
       186   05 Jun 2027 16:19:50.967   05 Jun 2027 16:21:57.999           127.032                Sumatra         15879.000
       187   05 Jun 2027 17:41:31.111   05 Jun 2027 17:44:03.242           152.131                Novosib         19016.375
       188   05 Jun 2027 17:45:46.082   05 Jun 2027 17:47:23.792            97.710                  Delhi         12213.750
       189   05 Jun 2027 19:17:42.937   05 Jun 2027 19:20:05.118           142.181                  Delhi         17772.625
       190   05 Jun 2027 20:48:36.258   05 Jun 2027 20:51:09.830           153.572                 Moscow         18119.250
       191   06 Jun 2027 03:08:48.477   06 Jun 2027 03:08:51.894             3.417              Murmansk1           427.125
       192   06 Jun 2027 03:08:51.894   06 Jun 2027 03:18:08.426           556.532              Murmansk2         69566.500
       193   06 Jun 2027 04:20:33.091   06 Jun 2027 04:23:24.002           170.911                Sumatra         21363.875
       194   06 Jun 2027 04:44:28.838   06 Jun 2027 04:44:49.125            20.287              Murmansk2          2535.875
       195   06 Jun 2027 04:44:59.073   06 Jun 2027 04:46:07.146            68.073                Novosib          8509.125
       196   06 Jun 2027 04:46:14.085   06 Jun 2027 04:49:42.766           208.681                Norilsk         26085.125
       197   06 Jun 2027 04:49:53.420   06 Jun 2027 04:52:36.881           163.461              Murmansk2         20432.625
       198   06 Jun 2027 05:54:23.728   06 Jun 2027 06:06:40.531           736.803                Sumatra         92100.375
       199   06 Jun 2027 06:09:20.004   06 Jun 2027 06:11:55.800           155.796                Novosib         19474.500
       200   06 Jun 2027 06:12:17.472   06 Jun 2027 06:13:38.419            80.947                Novosib         10118.375
       201   06 Jun 2027 06:19:10.136   06 Jun 2027 06:19:46.228            36.092                Irkutsk          4511.500
       202   06 Jun 2027 06:20:39.562   06 Jun 2027 06:22:07.521            87.959                 Moscow         10994.875
       203   06 Jun 2027 06:22:28.413   06 Jun 2027 06:25:41.057           192.644                Norilsk         24080.500
       204   06 Jun 2027 06:25:44.136   06 Jun 2027 06:27:41.346           117.210              Murmansk1         14651.250
       205   06 Jun 2027 07:46:36.488   06 Jun 2027 07:50:40.640           244.152                  Delhi         30519.000
       206   06 Jun 2027 07:50:43.638   06 Jun 2027 07:51:25.960            42.322                 Moscow          5290.250
       207   06 Jun 2027 07:56:18.026   06 Jun 2027 07:57:04.005            45.979              Murmansk1          5747.375
       208   06 Jun 2027 07:57:13.854   06 Jun 2027 07:57:29.529            15.675                Novosib          1959.375
       209   06 Jun 2027 07:58:28.765   06 Jun 2027 08:00:05.230            96.465              Murmansk2         12058.125
       210   06 Jun 2027 08:00:05.230   06 Jun 2027 08:03:20.374           195.144              Murmansk1         24393.000
       211   06 Jun 2027 09:26:10.060   06 Jun 2027 09:26:29.743            19.683                 Moscow          2460.375
       212   06 Jun 2027 09:31:14.889   06 Jun 2027 09:33:26.230           131.341              Murmansk1         16417.625
       213   06 Jun 2027 09:33:35.044   06 Jun 2027 09:36:10.214           155.170                Norilsk         19396.250
       214   06 Jun 2027 09:36:36.603   06 Jun 2027 09:39:15.848           159.245              Murmansk1         19905.625
       215   06 Jun 2027 10:41:51.999   06 Jun 2027 10:48:39.447           407.448               CapeTown         50931.000
       216   06 Jun 2027 11:06:01.857   06 Jun 2027 11:06:53.985            52.128              Murmansk1          6516.000
       217   06 Jun 2027 11:07:00.259   06 Jun 2027 11:10:50.918           230.659                 Moscow         28832.375
       218   06 Jun 2027 11:10:53.549   06 Jun 2027 11:15:12.464           258.915              Murmansk2         32364.375
       219   06 Jun 2027 11:17:14.006   06 Jun 2027 11:26:35.929           561.923                Anadyr2         70240.375
       220   06 Jun 2027 12:55:54.568   06 Jun 2027 12:57:38.008           103.440               Magadan2         12930.000
       221   06 Jun 2027 13:01:55.973   06 Jun 2027 13:05:21.120           205.147               Magadan1         25643.375
       222   06 Jun 2027 15:24:35.392   06 Jun 2027 15:27:59.166           203.774            RioGallegos         25471.750
       223   06 Jun 2027 16:12:29.692   06 Jun 2027 16:13:40.293            70.601                Irkutsk          8825.125
       224   06 Jun 2027 16:15:34.569   06 Jun 2027 16:17:39.087           124.518                Irkutsk         15564.750
       225   06 Jun 2027 16:26:09.610   06 Jun 2027 16:27:26.940            77.330                Sumatra          9666.250
       226   06 Jun 2027 16:32:06.241   06 Jun 2027 16:34:07.030           120.789                Sumatra         15098.625
       227   06 Jun 2027 17:56:23.262   06 Jun 2027 17:59:05.262           162.000                  Delhi         20250.000
       228   06 Jun 2027 19:29:42.241   06 Jun 2027 19:30:33.020            50.779                  Delhi          6347.375
       229   06 Jun 2027 19:31:18.407   06 Jun 2027 19:31:28.980            10.573                  Delhi          1321.625
       230   06 Jun 2027 21:00:27.302   06 Jun 2027 21:01:30.328            63.026                 Moscow          7878.250
       231   06 Jun 2027 21:03:16.106   06 Jun 2027 21:04:03.814            47.708                 Moscow          5963.500
       232   06 Jun 2027 21:04:38.694   06 Jun 2027 21:04:50.229            11.535                 Moscow          1441.875
       233   06 Jun 2027 21:26:23.646   06 Jun 2027 21:27:06.053            42.407               CapeTown          5300.875
       234   07 Jun 2027 03:20:39.228   07 Jun 2027 03:21:05.756            26.528              Murmansk2          3316.000
       235   07 Jun 2027 03:21:07.559   07 Jun 2027 03:25:56.431           288.872                Norilsk         36109.000
       236   07 Jun 2027 03:26:15.940   07 Jun 2027 03:29:27.102           191.162              Murmansk2         23895.250
       237   07 Jun 2027 04:31:49.749   07 Jun 2027 04:33:23.297            93.548                Sumatra         11693.500
       238   07 Jun 2027 04:38:11.447   07 Jun 2027 04:39:58.593           107.146                Sumatra         13393.250
       239   07 Jun 2027 04:56:54.116   07 Jun 2027 05:01:43.943           289.827                Norilsk         36228.375
       240   07 Jun 2027 05:02:20.644   07 Jun 2027 05:04:29.288           128.644              Murmansk2         16080.500
       241   07 Jun 2027 06:14:24.014   07 Jun 2027 06:18:22.721           238.707                Sumatra         29838.375
       242   07 Jun 2027 06:21:23.782   07 Jun 2027 06:23:47.985           144.203                Novosib         18025.375
       243   07 Jun 2027 06:24:10.427   07 Jun 2027 06:27:52.912           222.485                Novosib         27810.625
       244   07 Jun 2027 06:31:14.863   07 Jun 2027 06:31:30.123            15.260              Murmansk2          1907.500
       245   07 Jun 2027 06:31:55.523   07 Jun 2027 06:33:16.043            80.520              Murmansk2         10065.000
       246   07 Jun 2027 06:33:37.675   07 Jun 2027 06:34:13.926            36.251                Novosib          4531.375
       247   07 Jun 2027 06:34:40.806   07 Jun 2027 06:39:39.066           298.260              Murmansk1         37282.500
       248   07 Jun 2027 07:59:52.811   07 Jun 2027 08:04:19.604           266.793                Novosib         33349.125
       249   07 Jun 2027 08:08:28.961   07 Jun 2027 08:09:17.327            48.366                Novosib          6045.750
       250   07 Jun 2027 08:10:30.056   07 Jun 2027 08:15:21.081           291.025              Murmansk1         36378.125
       251   07 Jun 2027 09:38:33.310   07 Jun 2027 09:39:07.546            34.236                 Moscow          4279.500
       252   07 Jun 2027 09:41:44.014   07 Jun 2027 09:42:06.390            22.376              Murmansk2          2797.000
       253   07 Jun 2027 09:42:30.011   07 Jun 2027 09:45:15.975           165.964              Murmansk1         20745.500
       254   07 Jun 2027 09:45:57.899   07 Jun 2027 09:47:44.251           106.352                 Moscow         13294.000
       255   07 Jun 2027 09:47:49.039   07 Jun 2027 09:51:17.531           208.492              Murmansk2         26061.500
       256   07 Jun 2027 09:56:42.383   07 Jun 2027 09:58:36.800           114.417                Anadyr2         14302.125
       257   07 Jun 2027 10:56:21.984   07 Jun 2027 11:00:57.045           275.061               CapeTown         34382.625
       258   07 Jun 2027 11:18:41.458   07 Jun 2027 11:19:17.433            35.975                 Moscow          4496.875
       259   07 Jun 2027 11:22:17.615   07 Jun 2027 11:27:13.007           295.392              Murmansk2         36924.000
       260   07 Jun 2027 11:32:08.011   07 Jun 2027 11:33:46.824            98.813                Anadyr2         12351.625
       261   07 Jun 2027 13:07:45.375   07 Jun 2027 13:14:17.947           392.572               Magadan2         49071.500
       262   07 Jun 2027 15:36:05.078   07 Jun 2027 15:39:49.747           224.669            RioGallegos         28083.625
       263   07 Jun 2027 16:38:24.443   07 Jun 2027 16:39:18.187            53.744                Sumatra          6718.000
       264   07 Jun 2027 16:39:52.684   07 Jun 2027 16:41:10.499            77.815                Sumatra          9726.875
       265   07 Jun 2027 16:44:15.155   07 Jun 2027 16:45:02.498            47.343                Sumatra          5917.875
       266   07 Jun 2027 17:58:54.972   07 Jun 2027 18:00:05.824            70.852                Novosib          8856.500
       267   07 Jun 2027 18:01:46.278   07 Jun 2027 18:02:06.718            20.440                Novosib          2555.000
       268   07 Jun 2027 18:07:35.270   07 Jun 2027 18:10:52.134           196.864                  Delhi         24608.000
       269   07 Jun 2027 18:15:24.902   07 Jun 2027 18:16:37.048            72.146                  Delhi          9018.250
       270   07 Jun 2027 21:10:54.078   07 Jun 2027 21:13:20.290           146.212              Murmansk1         18276.500
       271   07 Jun 2027 21:37:31.170   07 Jun 2027 21:39:06.195            95.025               CapeTown         11878.125
       272   07 Jun 2027 21:43:45.137   07 Jun 2027 21:44:43.450            58.313               CapeTown          7289.125
       273   08 Jun 2027 03:32:56.811   08 Jun 2027 03:34:20.552            83.741                Norilsk         10467.625
       274   08 Jun 2027 04:43:18.449   08 Jun 2027 04:44:40.648            82.199                Sumatra         10274.875
       275   08 Jun 2027 04:47:07.832   08 Jun 2027 04:47:08.881             1.049                Sumatra           131.125
       276   08 Jun 2027 04:50:17.420   08 Jun 2027 04:50:22.243             4.823                Sumatra           602.875
       277   08 Jun 2027 05:08:55.870   08 Jun 2027 05:13:45.305           289.435                Norilsk         36179.375
       278   08 Jun 2027 05:14:09.325   08 Jun 2027 05:16:22.444           133.119              Murmansk2         16639.875
       279   08 Jun 2027 06:26:21.983   08 Jun 2027 06:29:57.229           215.246                Sumatra         26905.750
       280   08 Jun 2027 06:33:30.594   08 Jun 2027 06:35:27.962           117.368                Novosib         14671.000
       281   08 Jun 2027 06:36:18.744   08 Jun 2027 06:39:19.092           180.348                  Delhi         22543.500
       282   08 Jun 2027 06:44:18.270   08 Jun 2027 06:45:19.811            61.541                 Moscow          7692.625
       283   08 Jun 2027 06:45:25.944   08 Jun 2027 06:46:13.274            47.330                Novosib          5916.250
       284   08 Jun 2027 06:46:40.317   08 Jun 2027 06:51:37.295           296.978              Murmansk1         37122.250
       285   08 Jun 2027 08:10:26.528   08 Jun 2027 08:11:03.661            37.133                  Delhi          4641.625
       286   08 Jun 2027 08:12:56.271   08 Jun 2027 08:16:20.715           204.444                Novosib         25555.500
       287   08 Jun 2027 08:20:34.845   08 Jun 2027 08:21:00.918            26.073                Novosib          3259.125
       288   08 Jun 2027 08:22:31.488   08 Jun 2027 08:27:22.000           290.512              Murmansk1         36314.000
       289   08 Jun 2027 09:50:09.525   08 Jun 2027 09:50:36.396            26.871                 Moscow          3358.875
       290   08 Jun 2027 09:54:07.478   08 Jun 2027 09:57:05.023           177.545              Murmansk1         22193.125
       291   08 Jun 2027 09:57:16.357   08 Jun 2027 09:59:42.918           146.561                 Moscow         18320.125
       292   08 Jun 2027 10:00:21.665   08 Jun 2027 10:03:19.206           177.541              Murmansk1         22192.625
       293   08 Jun 2027 10:06:27.662   08 Jun 2027 10:11:51.682           324.020                Anadyr1         40502.500
       294   08 Jun 2027 11:08:18.423   08 Jun 2027 11:13:08.729           290.306               CapeTown         36288.250
       295   08 Jun 2027 11:30:34.118   08 Jun 2027 11:31:30.799            56.681                 Moscow          7085.125
       296   08 Jun 2027 11:34:15.781   08 Jun 2027 11:36:14.901           119.120              Murmansk2         14890.000
       297   08 Jun 2027 11:36:14.901   08 Jun 2027 11:39:13.147           178.246              Murmansk1         22280.750
       298   08 Jun 2027 11:46:22.452   08 Jun 2027 11:48:24.560           122.108                Anadyr1         15263.500
       299   08 Jun 2027 13:19:38.460   08 Jun 2027 13:26:36.461           418.001               Magadan1         52250.125
       300   08 Jun 2027 15:48:14.939   08 Jun 2027 15:51:42.734           207.795            RioGallegos         25974.375
       301   08 Jun 2027 16:35:07.406   08 Jun 2027 16:36:11.463            64.057                Irkutsk          8007.125
       302   08 Jun 2027 16:37:53.247   08 Jun 2027 16:39:26.597            93.350                Irkutsk         11668.750
       303   08 Jun 2027 16:49:06.243   08 Jun 2027 16:50:54.260           108.017                Sumatra         13502.125
       304   08 Jun 2027 18:10:48.616   08 Jun 2027 18:12:33.155           104.539                Novosib         13067.375
       305   08 Jun 2027 18:19:02.315   08 Jun 2027 18:22:43.424           221.109                  Delhi         27638.625
       306   08 Jun 2027 19:51:37.783   08 Jun 2027 19:53:46.150           128.367                 Moscow         16045.875
       307   08 Jun 2027 21:49:01.740   08 Jun 2027 21:51:03.502           121.762               CapeTown         15220.250
       308   08 Jun 2027 21:54:18.828   08 Jun 2027 21:55:45.741            86.913               CapeTown          4442.751
       309   09 Jun 2027 03:45:00.113   09 Jun 2027 03:45:51.309            51.196                Novosib          6399.500
       310   09 Jun 2027 03:46:07.442   09 Jun 2027 03:47:04.089            56.647              Murmansk2          7080.875
       311   09 Jun 2027 04:54:55.996   09 Jun 2027 04:55:03.161             7.165                Sumatra           895.625
       312   09 Jun 2027 04:56:53.148   09 Jun 2027 04:59:09.831           136.683                Sumatra         17085.375
       313   09 Jun 2027 05:20:56.967   09 Jun 2027 05:22:18.944            81.977                Novosib         10247.125
       314   09 Jun 2027 05:22:26.089   09 Jun 2027 05:25:46.812           200.723                Norilsk         25090.375
       315   09 Jun 2027 05:25:57.037   09 Jun 2027 05:28:16.337           139.300              Murmansk1         17412.500
       316   09 Jun 2027 06:45:40.570   09 Jun 2027 06:47:48.633           128.063                Novosib         16007.875
       317   09 Jun 2027 06:48:13.216   09 Jun 2027 06:51:23.831           190.615                  Delhi         23826.875
       318   09 Jun 2027 06:51:38.143   09 Jun 2027 06:52:45.673            67.530                Irkutsk          8441.250
       319   09 Jun 2027 06:56:51.206   09 Jun 2027 06:57:34.681            43.475                 Moscow          5434.375
       320   09 Jun 2027 06:57:39.586   09 Jun 2027 06:58:11.751            32.165                Novosib          4020.625
       321   09 Jun 2027 06:58:40.180   09 Jun 2027 07:03:35.986           295.806              Murmansk1         36975.750
       322   09 Jun 2027 08:25:21.217   09 Jun 2027 08:27:55.832           154.615                Novosib         19326.875
       323   09 Jun 2027 08:32:07.919   09 Jun 2027 08:32:14.100             6.181                Novosib           772.625
       324   09 Jun 2027 08:33:04.366   09 Jun 2027 08:34:29.984            85.618                Norilsk         10702.250
       325   09 Jun 2027 08:34:33.022   09 Jun 2027 08:39:23.119           290.097              Murmansk1         36262.125
       326   09 Jun 2027 09:43:02.112   09 Jun 2027 09:44:42.937           100.825               CapeTown         12603.125
       327   09 Jun 2027 10:02:08.007   09 Jun 2027 10:02:59.118            51.111                 Moscow          6388.875
       328   09 Jun 2027 10:06:08.728   09 Jun 2027 10:08:26.227           137.499              Murmansk1         17187.375
       329   09 Jun 2027 10:08:33.900   09 Jun 2027 10:11:40.608           186.708                 Moscow         23338.500
       330   09 Jun 2027 10:11:53.182   09 Jun 2027 10:15:20.847           207.665              Murmansk1         25958.125
       331   09 Jun 2027 10:18:07.515   09 Jun 2027 10:24:49.537           402.022                Anadyr1         50252.750
       332   09 Jun 2027 11:20:09.910   09 Jun 2027 11:25:15.023           305.113               CapeTown         38139.125
       333   09 Jun 2027 11:42:24.392   09 Jun 2027 11:43:41.841            77.449                 Moscow          9681.125
       334   09 Jun 2027 11:46:12.838   09 Jun 2027 11:50:24.541           251.703              Murmansk2         31462.875
       335   09 Jun 2027 13:31:33.278   09 Jun 2027 13:34:32.579           179.301               Magadan1         22412.625
       336   09 Jun 2027 13:39:11.666   09 Jun 2027 13:41:04.664           112.998               Magadan2         14124.750
       337   09 Jun 2027 15:59:28.217   09 Jun 2027 16:01:56.212           147.995            RioGallegos         18499.375
       338   09 Jun 2027 16:02:08.205   09 Jun 2027 16:05:29.372           201.167            RioGallegos         25145.875
       339   09 Jun 2027 16:48:40.354   09 Jun 2027 16:49:53.264            72.910                Irkutsk          9113.750
       340   09 Jun 2027 16:51:39.910   09 Jun 2027 16:52:12.463            32.553                Novosib          4069.125
       341   09 Jun 2027 17:00:47.530   09 Jun 2027 17:06:52.103           364.573                Sumatra         45571.625
       342   09 Jun 2027 18:31:52.102   09 Jun 2027 18:32:53.404            61.302                  Delhi          7662.750
       343   09 Jun 2027 18:34:13.145   09 Jun 2027 18:34:38.529            25.384                  Delhi          3173.000
       344   09 Jun 2027 18:39:38.145   09 Jun 2027 18:39:59.003            20.858                  Delhi          2607.250
       345   09 Jun 2027 20:02:49.838   09 Jun 2027 20:05:33.522           163.684                 Moscow         20460.500
       346   09 Jun 2027 21:42:23.939   09 Jun 2027 21:42:54.165            30.226              Murmansk2          3778.250
       347   09 Jun 2027 21:45:40.423   09 Jun 2027 21:45:44.477             4.054                 Moscow           506.750
       348   09 Jun 2027 21:46:03.772   09 Jun 2027 21:48:29.299           145.527                 Moscow          9846.000
       349   10 Jun 2027 03:56:55.109   10 Jun 2027 03:57:58.823            63.714                Novosib          7964.250
       350   10 Jun 2027 03:58:10.558   10 Jun 2027 04:01:55.046           224.488                Norilsk         28061.000
       351   10 Jun 2027 04:02:07.794   10 Jun 2027 04:02:12.199             4.405              Murmansk2           550.625
       352   10 Jun 2027 05:06:40.714   10 Jun 2027 05:07:32.619            51.905                Sumatra          6488.125
       353   10 Jun 2027 05:08:26.939   10 Jun 2027 05:09:22.697            55.758                Sumatra          6969.750
       354   10 Jun 2027 05:19:59.891   10 Jun 2027 05:20:29.961            30.070                  Delhi          3758.750
       355   10 Jun 2027 05:22:02.517   10 Jun 2027 05:24:20.386           137.869                  Delhi         17233.625
       356   10 Jun 2027 05:32:36.297   10 Jun 2027 05:32:44.136             7.839                Irkutsk           979.875
       357   10 Jun 2027 05:32:49.042   10 Jun 2027 05:33:50.244            61.202                 Moscow          7650.250
       358   10 Jun 2027 05:33:54.072   10 Jun 2027 05:37:48.455           234.383                Norilsk         29297.875
       359   10 Jun 2027 05:37:57.082   10 Jun 2027 05:40:10.958           133.876              Murmansk1         16734.500
       360   10 Jun 2027 06:57:53.900   10 Jun 2027 06:59:31.867            97.967                Novosib         12245.875
       361   10 Jun 2027 07:00:12.972   10 Jun 2027 07:03:25.285           192.313                  Delhi         24039.125
       362   10 Jun 2027 07:03:27.449   10 Jun 2027 07:03:35.656             8.207                Novosib          1025.875
       363   10 Jun 2027 07:08:25.561   10 Jun 2027 07:10:09.218           103.657                Novosib         12957.125
       364   10 Jun 2027 07:10:40.361   10 Jun 2027 07:12:02.491            82.130              Murmansk1         10266.250
       365   10 Jun 2027 07:12:02.491   10 Jun 2027 07:15:35.103           212.612              Murmansk2         26576.500
       366   10 Jun 2027 08:35:26.771   10 Jun 2027 08:35:58.800            32.029                 Moscow          4003.625
       367   10 Jun 2027 08:44:02.948   10 Jun 2027 08:45:05.057            62.109              Murmansk1          7763.625
       368   10 Jun 2027 08:45:05.095   10 Jun 2027 08:45:44.325            39.230                Norilsk          4903.750
       369   10 Jun 2027 08:46:34.641   10 Jun 2027 08:51:24.392           289.751              Murmansk2         36218.875
       370   10 Jun 2027 09:55:34.908   10 Jun 2027 09:58:15.450           160.542               CapeTown         20067.750
       371   10 Jun 2027 10:18:10.118   10 Jun 2027 10:20:28.125           138.007              Murmansk1         17250.875
       372   10 Jun 2027 10:20:39.992   10 Jun 2027 10:23:37.135           177.143                 Moscow         22142.875
       373   10 Jun 2027 10:23:40.583   10 Jun 2027 10:26:15.948           155.365              Murmansk1         19420.625
       374   10 Jun 2027 10:26:15.948   10 Jun 2027 10:27:22.416            66.468              Murmansk2          8308.500
       375   10 Jun 2027 10:29:53.995   10 Jun 2027 10:37:38.266           464.271                Anadyr1         58033.875
       376   10 Jun 2027 11:32:13.333   10 Jun 2027 11:37:16.222           302.889               CapeTown         37861.125
       377   10 Jun 2027 11:54:08.150   10 Jun 2027 12:00:11.034           362.884              Murmansk1         45360.500
       378   10 Jun 2027 12:00:11.034   10 Jun 2027 12:03:11.722           180.688              Murmansk2         22586.000
       379   10 Jun 2027 12:05:08.082   10 Jun 2027 12:08:18.066           189.984                Anadyr2         23748.000
       380   10 Jun 2027 12:09:42.655   10 Jun 2027 12:12:51.886           189.231               Magadan1         23653.875
       381   10 Jun 2027 13:43:29.461   10 Jun 2027 13:45:21.299           111.838               Magadan1         13979.750
       382   10 Jun 2027 15:27:20.073   10 Jun 2027 15:27:49.186            29.113                Irkutsk          3639.125
       383   10 Jun 2027 16:11:16.501   10 Jun 2027 16:17:01.222           344.721            RioGallegos         43090.125
       384   10 Jun 2027 17:01:03.062   10 Jun 2027 17:04:00.562           177.500                Novosib         22187.500
       385   10 Jun 2027 17:12:35.448   10 Jun 2027 17:15:28.697           173.249                Sumatra         21656.125
       386   10 Jun 2027 17:17:21.985   10 Jun 2027 17:17:23.858             1.873                Sumatra           234.125
       387   10 Jun 2027 18:35:57.629   10 Jun 2027 18:36:07.841            10.212                Novosib          1276.500
       388   10 Jun 2027 18:39:54.357   10 Jun 2027 18:41:12.173            77.816                Novosib          9727.000
       389   10 Jun 2027 18:42:21.471   10 Jun 2027 18:44:21.615           120.144                  Delhi         15018.000
       390   10 Jun 2027 18:54:01.960   10 Jun 2027 18:54:13.849            11.889                  Delhi          1486.125
       391   10 Jun 2027 20:13:40.414   10 Jun 2027 20:17:24.011           223.597                 Moscow         27949.625
       392   10 Jun 2027 22:12:21.470   10 Jun 2027 22:14:48.495           147.025               CapeTown          2203.250
       393   11 Jun 2027 04:09:03.214   11 Jun 2027 04:13:27.131           263.917                Norilsk         32989.625
       394   11 Jun 2027 05:18:31.660   11 Jun 2027 05:20:14.725           103.065                Sumatra         12883.125
       395   11 Jun 2027 05:29:54.900   11 Jun 2027 05:32:07.114           132.214                  Delhi         16526.750
       396   11 Jun 2027 05:44:42.025   11 Jun 2027 05:45:25.918            43.893              Murmansk1          5486.625
       397   11 Jun 2027 05:45:29.394   11 Jun 2027 05:46:24.400            55.006                Novosib          6875.750
       398   11 Jun 2027 05:46:35.466   11 Jun 2027 05:49:50.192           194.726                Norilsk         24340.750
       399   11 Jun 2027 05:50:10.793   11 Jun 2027 05:52:06.265           115.472              Murmansk1         14434.000
       400   11 Jun 2027 07:10:01.538   11 Jun 2027 07:15:23.434           321.896                  Delhi         40237.000
       401   11 Jun 2027 07:16:01.859   11 Jun 2027 07:16:43.998            42.139                Irkutsk          5267.375
       402   11 Jun 2027 07:20:49.019   11 Jun 2027 07:21:20.676            31.657              Murmansk1          3957.125
       403   11 Jun 2027 07:21:24.327   11 Jun 2027 07:22:27.389            63.062                 Moscow          7882.750
       404   11 Jun 2027 07:22:40.822   11 Jun 2027 07:27:34.610           293.788              Murmansk2         36723.500
       405   11 Jun 2027 08:57:05.396   11 Jun 2027 08:58:17.032            71.636                Norilsk          8954.500
       406   11 Jun 2027 08:58:36.316   11 Jun 2027 09:03:25.806           289.490              Murmansk2         36186.250
       407   11 Jun 2027 10:07:59.468   11 Jun 2027 10:11:14.628           195.160               CapeTown         24395.000
       408   11 Jun 2027 10:29:48.192   11 Jun 2027 10:30:47.571            59.379              Murmansk1          7422.375
       409   11 Jun 2027 10:30:47.571   11 Jun 2027 10:32:01.287            73.716              Murmansk2          9214.500
       410   11 Jun 2027 10:32:33.449   11 Jun 2027 10:35:32.281           178.832                 Moscow         22354.000
       411   11 Jun 2027 10:35:47.560   11 Jun 2027 10:39:23.884           216.324              Murmansk1         27040.500
       412   11 Jun 2027 10:41:44.405   11 Jun 2027 10:50:20.613           516.208                Anadyr1         64526.000
       413   11 Jun 2027 11:39:41.334   11 Jun 2027 11:49:12.466           571.132               CapeTown         71391.500
       414   11 Jun 2027 12:06:13.453   11 Jun 2027 12:14:28.937           495.484              Murmansk1         61935.500
       415   11 Jun 2027 12:17:40.036   11 Jun 2027 12:17:52.579            12.543                Anadyr2          1567.875
       416   11 Jun 2027 12:21:02.567   11 Jun 2027 12:24:40.846           218.279               Magadan1         27284.875
       417   11 Jun 2027 13:55:26.744   11 Jun 2027 13:56:44.382            77.638               Magadan1          9704.750
       418   11 Jun 2027 13:58:37.842   11 Jun 2027 14:00:03.758            85.916               Magadan2         10739.500
       419   11 Jun 2027 15:37:17.451   11 Jun 2027 15:40:16.119           178.668                Irkutsk         22333.500
       420   11 Jun 2027 15:40:22.803   11 Jun 2027 15:42:25.594           122.791                Irkutsk         15348.875
       421   11 Jun 2027 16:26:01.726   11 Jun 2027 16:26:17.048            15.322            RioGallegos          1915.250
       422   11 Jun 2027 17:10:48.727   11 Jun 2027 17:12:32.223           103.496                Irkutsk         12937.000
       423   11 Jun 2027 17:13:19.646   11 Jun 2027 17:15:51.590           151.944                Novosib         18993.000
       424   11 Jun 2027 17:26:42.965   11 Jun 2027 17:27:36.165            53.200                Sumatra          6650.000
       425   11 Jun 2027 18:50:03.771   11 Jun 2027 18:51:18.124            74.353                Novosib          9294.125
       426   11 Jun 2027 18:53:38.572   11 Jun 2027 18:54:37.059            58.487                Novosib          7310.875
       427   11 Jun 2027 18:56:23.351   11 Jun 2027 18:58:57.429           154.078                  Delhi         19259.750
       428   11 Jun 2027 20:25:18.482   11 Jun 2027 20:29:16.844           238.362                 Moscow         25351.625
       429   12 Jun 2027 04:20:58.185   12 Jun 2027 04:22:11.571            73.386                Novosib          9173.250
       430   12 Jun 2027 04:22:19.257   12 Jun 2027 04:25:39.320           200.063                Norilsk         25007.875
       431   12 Jun 2027 05:30:28.345   12 Jun 2027 05:33:19.061           170.716                Sumatra         21339.500
       432   12 Jun 2027 05:40:47.912   12 Jun 2027 05:41:57.610            69.698                  Delhi          8712.250
       433   12 Jun 2027 05:46:31.160   12 Jun 2027 05:48:24.119           112.959                  Delhi         14119.875
       434   12 Jun 2027 05:56:14.686   12 Jun 2027 05:56:51.973            37.287                 Moscow          4660.875
       435   12 Jun 2027 05:57:08.732   12 Jun 2027 05:58:43.294            94.562                 Moscow         11820.250
       436   12 Jun 2027 05:58:56.764   12 Jun 2027 06:01:52.013           175.249                Norilsk         21906.125
       437   12 Jun 2027 06:02:12.076   12 Jun 2027 06:04:02.240           110.164              Murmansk1         13770.500
       438   12 Jun 2027 07:21:42.499   12 Jun 2027 07:27:18.077           335.578                  Delhi         41947.250
       439   12 Jun 2027 07:27:27.504   12 Jun 2027 07:27:56.603            29.099                 Moscow          3637.375
       440   12 Jun 2027 07:27:59.094   12 Jun 2027 07:28:03.935             4.841                Novosib           605.125
       441   12 Jun 2027 07:28:15.749   12 Jun 2027 07:28:23.255             7.506                Norilsk           938.250
       442   12 Jun 2027 07:32:45.288   12 Jun 2027 07:35:46.708           181.420                 Moscow         22677.500
       443   12 Jun 2027 07:35:49.882   12 Jun 2027 07:37:51.390           121.508                Norilsk         15188.500
       444   12 Jun 2027 07:37:56.339   12 Jun 2027 07:39:34.463            98.124              Murmansk1         12265.500
       445   12 Jun 2027 09:02:09.250   12 Jun 2027 09:02:22.589            13.339                 Moscow          1667.375
       446   12 Jun 2027 09:09:02.249   12 Jun 2027 09:11:58.286           176.037                 Moscow         22004.625
       447   12 Jun 2027 09:12:07.830   12 Jun 2027 09:15:27.326           199.496              Murmansk2         24937.000
       448   12 Jun 2027 10:20:17.225   12 Jun 2027 10:23:57.751           220.526               CapeTown         27565.750
       449   12 Jun 2027 10:41:49.631   12 Jun 2027 10:50:12.506           502.875              Murmansk2         62859.375
       450   12 Jun 2027 10:50:12.506   12 Jun 2027 10:51:25.197            72.691              Murmansk1          9086.375
       451   12 Jun 2027 10:53:37.435   12 Jun 2027 11:02:57.940           560.505                Anadyr2         70063.125
       452   12 Jun 2027 11:56:38.002   12 Jun 2027 12:01:03.753           265.751               CapeTown         33218.875
       453   12 Jun 2027 12:18:49.553   12 Jun 2027 12:26:25.601           456.048              Murmansk1         57006.000
       454   12 Jun 2027 12:32:38.217   12 Jun 2027 12:36:34.771           236.554               Magadan2         29569.250
       455   12 Jun 2027 14:07:24.933   12 Jun 2027 14:08:31.057            66.124               Magadan2          8265.500
       456   12 Jun 2027 14:12:04.239   12 Jun 2027 14:14:02.255           118.016               Magadan1         14752.000
       457   12 Jun 2027 15:48:34.396   12 Jun 2027 15:52:04.526           210.130                Irkutsk         26266.250
       458   12 Jun 2027 15:52:59.303   12 Jun 2027 15:55:39.227           159.924                Irkutsk         19990.500
       459   12 Jun 2027 16:04:34.084   12 Jun 2027 16:06:06.453            92.369                Sumatra         11546.125
       460   12 Jun 2027 17:23:44.025   12 Jun 2027 17:27:44.838           240.813                Novosib         30101.625
       461   12 Jun 2027 19:03:14.804   12 Jun 2027 19:06:00.544           165.740                Novosib         20717.500
       462   12 Jun 2027 19:06:36.441   12 Jun 2027 19:07:59.119            82.678                  Delhi         10334.750
       463   12 Jun 2027 20:35:22.860   12 Jun 2027 20:35:34.515            11.655              Murmansk1          1456.875
       464   12 Jun 2027 20:36:36.673   12 Jun 2027 20:37:41.885            65.212              Murmansk1          8151.500
       465   12 Jun 2027 20:39:15.621   12 Jun 2027 20:41:11.508           115.887                 Moscow          6900.126
       466   13 Jun 2027 04:32:57.064   13 Jun 2027 04:32:58.683             1.619                Irkutsk           202.375
       467   13 Jun 2027 04:33:05.785   13 Jun 2027 04:37:56.506           290.721                Norilsk         36340.125
       468   13 Jun 2027 05:42:30.607   13 Jun 2027 05:44:27.641           117.034                Sumatra         14629.250
       469   13 Jun 2027 05:53:55.518   13 Jun 2027 05:55:39.438           103.920                  Delhi         12990.000
       470   13 Jun 2027 06:07:36.430   13 Jun 2027 06:08:03.161            26.731              Murmansk2          3341.375
       471   13 Jun 2027 06:08:52.988   13 Jun 2027 06:10:27.752            94.764                Novosib         11845.500
       472   13 Jun 2027 06:10:51.140   13 Jun 2027 06:13:53.888           182.748                Norilsk         22843.500
       473   13 Jun 2027 06:13:59.734   13 Jun 2027 06:15:58.836           119.102              Murmansk1         14887.750
       474   13 Jun 2027 07:33:16.199   13 Jun 2027 07:34:10.984            54.785                  Delhi          6848.125
       475   13 Jun 2027 07:34:50.959   13 Jun 2027 07:39:08.856           257.897                  Delhi         32237.125
       476   13 Jun 2027 07:39:28.970   13 Jun 2027 07:39:35.159             6.189                 Moscow           773.625
       477   13 Jun 2027 07:44:30.587   13 Jun 2027 07:44:40.243             9.656                Novosib          1207.000
       478   13 Jun 2027 07:44:40.846   13 Jun 2027 07:45:19.770            38.924              Murmansk1          4865.500
       479   13 Jun 2027 07:45:21.224   13 Jun 2027 07:49:52.568           271.344                Norilsk         33918.000
       480   13 Jun 2027 07:50:12.480   13 Jun 2027 07:51:34.640            82.160              Murmansk1         10270.000
       481   13 Jun 2027 09:14:23.991   13 Jun 2027 09:14:40.379            16.388                 Moscow          2048.500
       482   13 Jun 2027 09:19:42.490   13 Jun 2027 09:23:59.200           256.710                 Moscow         32088.750
