uniorb/output/strategy_4/Drop/Drop_KinoSat_111603.txt

KinoSat_111603
-------------------------
    Access    *     Start Time (UTCG)     *     Stop Time (UTCG)  *   Duration (s)        *       Station  *  Data (Mbytes)
         1   01 Jun 2027 03:35:04.107   01 Jun 2027 03:35:21.319            17.212                Irkutsk           537.875
         2   01 Jun 2027 03:36:20.440   01 Jun 2027 03:36:41.932            21.492              Murmansk2           671.625
         3   01 Jun 2027 03:36:41.932   01 Jun 2027 03:37:11.808            29.876              Murmansk1           933.625
         4   01 Jun 2027 03:37:16.565   01 Jun 2027 03:39:03.334           106.769                Novosib          3336.531
         5   01 Jun 2027 03:39:07.148   01 Jun 2027 03:39:36.291            29.143                Norilsk           910.719
         6   01 Jun 2027 03:39:50.379   01 Jun 2027 03:42:27.642           157.263                Novosib          4914.469
         7   01 Jun 2027 03:42:35.578   01 Jun 2027 03:44:48.185           132.607                  Delhi          4143.969
         8   01 Jun 2027 05:12:31.209   01 Jun 2027 05:13:01.377            30.168                Novosib           942.750
         9   01 Jun 2027 05:14:29.664   01 Jun 2027 05:14:53.571            23.907              Murmansk2           747.094
        10   01 Jun 2027 05:15:11.946   01 Jun 2027 05:16:55.298           103.352              Murmansk2          3229.750
        11   01 Jun 2027 06:36:13.232   01 Jun 2027 06:37:15.501            62.269               Magadan1          1945.906
        12   01 Jun 2027 06:37:21.746   01 Jun 2027 06:38:02.262            40.516                Anadyr1          1266.125
        13   01 Jun 2027 08:13:57.513   01 Jun 2027 08:15:30.382            92.869                Norilsk          2902.156
        14   01 Jun 2027 08:15:31.178   01 Jun 2027 08:18:07.297           156.119                Anadyr2          4878.719
        15   01 Jun 2027 08:22:18.710   01 Jun 2027 08:22:49.534            30.824                 Moscow           963.250
        16   01 Jun 2027 08:23:05.962   01 Jun 2027 08:23:29.874            23.912                 Moscow           747.250
        17   01 Jun 2027 09:49:01.971   01 Jun 2027 09:50:35.220            93.249               Magadan1          2914.031
        18   01 Jun 2027 09:50:35.220   01 Jun 2027 09:52:07.507            92.287               Magadan2          2883.969
        19   01 Jun 2027 09:52:38.746   01 Jun 2027 09:53:33.005            54.259               Magadan2          1695.594
        20   01 Jun 2027 10:30:31.381   01 Jun 2027 10:30:38.272             6.891            RioGallegos           215.344
        21   01 Jun 2027 11:04:23.838   01 Jun 2027 11:05:06.538            42.700                Sumatra          1334.375
        22   01 Jun 2027 11:24:40.825   01 Jun 2027 11:25:02.824            21.999                Irkutsk           687.469
        23   01 Jun 2027 11:25:19.191   01 Jun 2027 11:27:25.219           126.028                Irkutsk          3938.375
        24   01 Jun 2027 11:28:22.561   01 Jun 2027 11:31:11.089           168.528                Novosib          5266.500
        25   01 Jun 2027 11:31:15.536   01 Jun 2027 11:31:49.339            33.803              Murmansk1          1056.344
        26   01 Jun 2027 11:32:23.872   01 Jun 2027 11:32:26.654             2.782                Norilsk            86.937
        27   01 Jun 2027 11:33:29.032   01 Jun 2027 11:34:29.126            60.094                Norilsk          1877.937
        28   01 Jun 2027 12:05:35.174   01 Jun 2027 12:06:01.153            25.979            RioGallegos           811.844
        29   01 Jun 2027 12:07:15.080   01 Jun 2027 12:08:17.419            62.339            RioGallegos          1948.094
        30   01 Jun 2027 12:09:37.770   01 Jun 2027 12:10:36.289            58.519            RioGallegos          1828.719
        31   01 Jun 2027 12:39:49.927   01 Jun 2027 12:41:16.724            86.797                Sumatra          2712.406
        32   01 Jun 2027 12:44:16.727   01 Jun 2027 12:44:55.627            38.900                Sumatra          1215.625
        33   01 Jun 2027 12:50:32.370   01 Jun 2027 12:50:40.380             8.010                  Delhi           250.312
        34   01 Jun 2027 12:54:15.422   01 Jun 2027 12:54:29.068            13.646                  Delhi           426.438
        35   01 Jun 2027 12:55:04.724   01 Jun 2027 12:57:57.315           172.591                Irkutsk          5393.469
        36   01 Jun 2027 12:58:19.697   01 Jun 2027 12:59:56.023            96.326                Irkutsk          3010.188
        37   01 Jun 2027 14:24:46.920   01 Jun 2027 14:29:52.794           305.874                  Delhi          9558.563
        38   01 Jun 2027 14:33:11.953   01 Jun 2027 14:37:23.838           251.885                Novosib          7871.406
        39   01 Jun 2027 16:08:03.224   01 Jun 2027 16:09:54.935           111.711                 Moscow          3490.969
        40   01 Jun 2027 16:11:07.838   01 Jun 2027 16:11:50.668            42.830                 Moscow          1338.437
        41   01 Jun 2027 16:12:16.275   01 Jun 2027 16:12:35.889            19.614              Murmansk1           612.937
        42   01 Jun 2027 16:12:49.179   01 Jun 2027 16:13:19.367            30.188              Murmansk1           943.375
        43   01 Jun 2027 16:16:40.813   01 Jun 2027 16:17:14.355            33.542              Murmansk1          1048.188
        44   01 Jun 2027 16:18:23.590   01 Jun 2027 16:21:31.787           188.197                Norilsk          5881.156
        45   01 Jun 2027 17:21:32.861   01 Jun 2027 17:22:42.070            69.209               CapeTown          2162.781
        46   01 Jun 2027 17:27:39.656   01 Jun 2027 17:27:41.277             1.621               CapeTown            50.656
        47   01 Jun 2027 17:30:25.776   01 Jun 2027 17:31:02.972            37.196               CapeTown          1162.375
        48   01 Jun 2027 17:47:20.162   01 Jun 2027 17:52:02.933           282.771                 Moscow          8836.594
        49   01 Jun 2027 17:54:19.054   01 Jun 2027 17:54:46.894            27.840              Murmansk1           870.000
        50   01 Jun 2027 18:09:28.769   01 Jun 2027 18:10:00.520            31.751                Anadyr2           992.219
        51   01 Jun 2027 18:11:05.159   01 Jun 2027 18:11:39.871            34.712                Anadyr2          1084.750
        52   01 Jun 2027 18:57:58.608   01 Jun 2027 18:59:16.582            77.974               CapeTown          2436.687
        53   01 Jun 2027 19:01:21.019   01 Jun 2027 19:02:28.017            66.998               CapeTown          2093.688
        54   01 Jun 2027 19:30:18.908   01 Jun 2027 19:35:23.727           304.819              Murmansk1          9525.594
        55   01 Jun 2027 19:40:36.186   01 Jun 2027 19:40:39.600             3.414               Magadan2           106.688
        56   01 Jun 2027 19:40:43.611   01 Jun 2027 19:40:59.554            15.943               Magadan2           498.219
        57   01 Jun 2027 19:43:11.313   01 Jun 2027 19:43:23.828            12.515               Magadan2           391.094
        58   01 Jun 2027 19:48:58.468   01 Jun 2027 19:49:28.836            30.368               Magadan1           949.000
        59   01 Jun 2027 21:13:50.414   01 Jun 2027 21:17:33.676           223.262                Anadyr2          6976.938
        60   01 Jun 2027 21:17:40.247   01 Jun 2027 21:19:01.172            80.925                Anadyr1          2528.906
        61   01 Jun 2027 21:19:09.124   01 Jun 2027 21:22:13.862           184.738               Magadan1          5773.062
        62   01 Jun 2027 21:22:13.862   01 Jun 2027 21:22:37.171            23.309               Magadan2           728.406
        63   01 Jun 2027 22:08:44.775   01 Jun 2027 22:11:54.088           189.313            RioGallegos          5916.031
        64   01 Jun 2027 22:14:12.606   01 Jun 2027 22:14:48.719            36.113            RioGallegos          1128.531
        65   01 Jun 2027 22:17:40.872   01 Jun 2027 22:17:55.790            14.918            RioGallegos           466.187
        66   01 Jun 2027 22:49:33.668   01 Jun 2027 22:51:08.347            94.679                Anadyr2          2958.719
        67   01 Jun 2027 22:51:33.734   01 Jun 2027 22:51:44.834            11.100                Anadyr2           346.875
        68   01 Jun 2027 22:51:44.917   01 Jun 2027 22:53:18.158            93.241                Norilsk          2913.781
        69   01 Jun 2027 22:53:30.529   01 Jun 2027 22:53:55.017            24.488               Magadan2           765.250
        70   01 Jun 2027 22:54:08.640   01 Jun 2027 22:54:27.114            18.474               Magadan1           577.313
        71   01 Jun 2027 22:55:11.219   01 Jun 2027 22:55:19.129             7.910                Norilsk           247.187
        72   01 Jun 2027 22:55:24.421   01 Jun 2027 22:55:52.647            28.226               Magadan2           882.062
        73   01 Jun 2027 22:55:52.647   01 Jun 2027 22:55:55.175             2.528               Magadan1            79.000
        74   01 Jun 2027 22:56:06.397   01 Jun 2027 22:58:20.680           134.283                Irkutsk          4196.344
        75   01 Jun 2027 23:10:10.448   01 Jun 2027 23:11:12.759            62.311                Sumatra          1947.219
        76   01 Jun 2027 23:11:43.624   01 Jun 2027 23:13:14.184            90.560                Sumatra          2830.000
        77   01 Jun 2027 23:43:33.465   01 Jun 2027 23:43:46.940            13.475            RioGallegos           421.094
        78   01 Jun 2027 23:47:16.494   01 Jun 2027 23:47:17.066             0.572            RioGallegos            17.875
        79   01 Jun 2027 23:47:54.540   01 Jun 2027 23:48:09.628            15.088            RioGallegos           471.500
        80   01 Jun 2027 23:48:48.545   01 Jun 2027 23:49:19.803            31.258            RioGallegos           976.812
        81   01 Jun 2027 23:54:03.975   01 Jun 2027 23:54:59.234            55.259            RioGallegos          1726.844
        82   02 Jun 2027 00:24:33.233   02 Jun 2027 00:24:50.710            17.477                Anadyr2           546.156
        83   02 Jun 2027 00:25:52.270   02 Jun 2027 00:27:11.447            79.177                Anadyr1          2474.281
        84   02 Jun 2027 00:27:25.279   02 Jun 2027 00:27:35.666            10.387                Anadyr2           324.594
        85   02 Jun 2027 00:28:11.081   02 Jun 2027 00:29:18.598            67.517                Norilsk          2109.906
        86   02 Jun 2027 00:30:10.990   02 Jun 2027 00:30:25.001            14.011               Magadan1           437.844
        87   02 Jun 2027 00:30:54.044   02 Jun 2027 00:31:16.479            22.435                Norilsk           701.094
        88   02 Jun 2027 00:31:27.440   02 Jun 2027 00:33:35.353           127.913                Irkutsk          3997.281
        89   02 Jun 2027 00:33:37.874   02 Jun 2027 00:34:19.932            42.058                Novosib          1314.312
        90   02 Jun 2027 00:38:28.763   02 Jun 2027 00:38:59.211            30.448                Novosib           951.500
        91   02 Jun 2027 00:40:07.158   02 Jun 2027 00:43:23.412           196.254                  Delhi          6132.937
        92   02 Jun 2027 01:26:22.897   02 Jun 2027 01:26:30.612             7.715            RioGallegos           241.094
        93   02 Jun 2027 01:26:54.035   02 Jun 2027 01:27:13.946            19.911            RioGallegos           622.219
        94   02 Jun 2027 01:30:30.845   02 Jun 2027 01:30:57.910            27.065            RioGallegos           845.781
        95   02 Jun 2027 01:58:19.070   02 Jun 2027 01:58:44.202            25.132                Anadyr2           785.375
        96   02 Jun 2027 01:58:59.327   02 Jun 2027 01:59:08.658             9.331                Anadyr2           291.594
        97   02 Jun 2027 01:59:45.541   02 Jun 2027 02:00:38.138            52.597                Anadyr1          1643.656
        98   02 Jun 2027 02:03:35.867   02 Jun 2027 02:04:45.809            69.942                Norilsk          2185.688
        99   02 Jun 2027 02:06:05.406   02 Jun 2027 02:07:27.991            82.585              Murmansk2          2580.781
       100   02 Jun 2027 02:07:31.799   02 Jun 2027 02:07:35.578             3.779                Novosib           118.094
       101   02 Jun 2027 02:07:50.346   02 Jun 2027 02:08:46.424            56.078                Irkutsk          1752.437
       102   02 Jun 2027 02:13:05.285   02 Jun 2027 02:13:11.589             6.304                Novosib           197.000
       103   02 Jun 2027 02:14:46.612   02 Jun 2027 02:16:12.444            85.832                  Delhi          2682.250
       104   02 Jun 2027 02:24:58.373   02 Jun 2027 02:26:23.030            84.657                  Delhi          2645.531
       105   02 Jun 2027 02:57:45.393   02 Jun 2027 02:58:17.374            31.981            RioGallegos           999.406
       106   02 Jun 2027 02:59:30.803   02 Jun 2027 02:59:54.091            23.288            RioGallegos           727.750
       107   02 Jun 2027 03:00:25.978   02 Jun 2027 03:00:58.992            33.014            RioGallegos          1031.688
       108   02 Jun 2027 03:48:04.696   02 Jun 2027 03:49:21.752            77.056                Novosib          2408.000
       109   02 Jun 2027 03:49:55.782   02 Jun 2027 03:54:04.252           248.470                Novosib          7764.687
       110   02 Jun 2027 03:54:11.649   02 Jun 2027 03:57:01.933           170.284                 Moscow          5321.375
       111   02 Jun 2027 06:47:58.210   02 Jun 2027 06:51:32.984           214.774               Magadan2          6711.687
       112   02 Jun 2027 06:51:42.515   02 Jun 2027 06:53:44.194           121.679               Magadan2          3802.469
       113   02 Jun 2027 08:26:28.193   02 Jun 2027 08:27:18.085            49.892                Anadyr1          1559.125
       114   02 Jun 2027 08:28:47.030   02 Jun 2027 08:29:44.785            57.755                Anadyr2          1804.844
       115   02 Jun 2027 10:01:13.451   02 Jun 2027 10:01:57.661            44.210               Magadan1          1381.562
       116   02 Jun 2027 10:02:09.598   02 Jun 2027 10:05:25.976           196.378               Magadan1          6136.813
       117   02 Jun 2027 10:05:39.975   02 Jun 2027 10:06:13.043            33.068                Norilsk          1033.375
       118   02 Jun 2027 10:40:27.508   02 Jun 2027 10:41:32.569            65.061            RioGallegos          2033.156
       119   02 Jun 2027 11:16:01.641   02 Jun 2027 11:16:24.195            22.554                Sumatra           704.813
       120   02 Jun 2027 11:17:56.580   02 Jun 2027 11:18:06.666            10.086                Sumatra           315.188
       121   02 Jun 2027 11:19:47.245   02 Jun 2027 11:21:02.594            75.349                Sumatra          2354.656
       122   02 Jun 2027 11:36:12.566   02 Jun 2027 11:36:44.865            32.299                Novosib          1009.344
       123   02 Jun 2027 11:36:51.981   02 Jun 2027 11:37:14.000            22.019                Novosib           688.094
       124   02 Jun 2027 11:37:54.722   02 Jun 2027 11:38:04.469             9.747                Novosib           304.594
       125   02 Jun 2027 11:38:39.472   02 Jun 2027 11:39:19.849            40.377                Irkutsk          1261.781
       126   02 Jun 2027 11:39:43.281   02 Jun 2027 11:40:13.987            30.706                Norilsk           959.563
       127   02 Jun 2027 11:40:17.033   02 Jun 2027 11:40:25.225             8.192                Novosib           256.000
       128   02 Jun 2027 11:40:34.888   02 Jun 2027 11:41:44.641            69.753                Irkutsk          2179.781
       129   02 Jun 2027 12:18:05.216   02 Jun 2027 12:18:43.681            38.465            RioGallegos          1202.031
       130   02 Jun 2027 12:52:18.122   02 Jun 2027 12:53:19.302            61.180                Sumatra          1911.875
       131   02 Jun 2027 12:56:27.546   02 Jun 2027 12:57:30.353            62.807                Sumatra          1962.719
       132   02 Jun 2027 13:06:34.857   02 Jun 2027 13:07:14.262            39.405                Novosib          1231.406
       133   02 Jun 2027 13:07:46.869   02 Jun 2027 13:09:37.144           110.275                Novosib          3446.094
       134   02 Jun 2027 13:11:03.910   02 Jun 2027 13:11:15.019            11.109                Norilsk           347.156
       135   02 Jun 2027 13:11:57.151   02 Jun 2027 13:12:36.076            38.925                Irkutsk          1216.406
       136   02 Jun 2027 14:37:30.481   02 Jun 2027 14:39:09.836            99.355                  Delhi          3104.844
       137   02 Jun 2027 14:39:31.961   02 Jun 2027 14:40:34.609            62.648                  Delhi          1957.750
       138   02 Jun 2027 14:44:38.966   02 Jun 2027 14:44:55.756            16.790                 Moscow           524.687
       139   02 Jun 2027 14:45:09.824   02 Jun 2027 14:45:42.681            32.857                 Moscow          1026.781
       140   02 Jun 2027 14:46:00.704   02 Jun 2027 14:46:18.560            17.856                Novosib           558.000
       141   02 Jun 2027 14:47:01.469   02 Jun 2027 14:49:24.119           142.650                Novosib          4457.813
       142   02 Jun 2027 14:49:35.558   02 Jun 2027 14:49:55.182            19.624                Norilsk           613.250
       143   02 Jun 2027 14:50:10.175   02 Jun 2027 14:50:55.087            44.912                Norilsk          1403.500
       144   02 Jun 2027 14:56:16.554   02 Jun 2027 14:56:52.204            35.650                Norilsk          1114.063
       145   02 Jun 2027 16:01:47.623   02 Jun 2027 16:02:52.847            65.224               CapeTown          2038.250
       146   02 Jun 2027 16:03:49.693   02 Jun 2027 16:05:00.085            70.392               CapeTown          2199.750
       147   02 Jun 2027 16:20:15.105   02 Jun 2027 16:20:40.160            25.055                 Moscow           782.969
       148   02 Jun 2027 16:21:20.105   02 Jun 2027 16:21:54.654            34.549                 Moscow          1079.656
       149   02 Jun 2027 16:23:44.354   02 Jun 2027 16:24:37.544            53.190              Murmansk2          1662.187
       150   02 Jun 2027 16:26:17.976   02 Jun 2027 16:26:35.856            17.880              Murmansk1           558.750
       151   02 Jun 2027 16:31:05.027   02 Jun 2027 16:32:07.051            62.024              Murmansk1          1938.250
       152   02 Jun 2027 16:39:06.132   02 Jun 2027 16:40:08.967            62.835                Anadyr1          1963.594
       153   02 Jun 2027 16:40:22.073   02 Jun 2027 16:40:56.141            34.068                Anadyr1          1064.625
       154   02 Jun 2027 17:33:27.896   02 Jun 2027 17:35:28.712           120.816               CapeTown          3775.500
       155   02 Jun 2027 18:00:17.993   02 Jun 2027 18:04:03.725           225.732                 Moscow          7054.125
       156   02 Jun 2027 18:06:57.304   02 Jun 2027 18:07:10.036            12.732              Murmansk2           397.875
       157   02 Jun 2027 18:10:56.110   02 Jun 2027 18:12:12.748            76.638              Murmansk1          2394.938
       158   02 Jun 2027 18:22:47.563   02 Jun 2027 18:22:57.150             9.587                Anadyr1           299.594
       159   02 Jun 2027 19:10:20.514   02 Jun 2027 19:11:28.183            67.669               CapeTown          2114.656
       160   02 Jun 2027 19:13:15.379   02 Jun 2027 19:14:19.954            64.575               CapeTown          2017.969
       161   02 Jun 2027 19:43:23.941   02 Jun 2027 19:47:02.298           218.357              Murmansk1          6823.656
       162   02 Jun 2027 19:52:31.034   02 Jun 2027 19:54:17.993           106.959               Magadan2          3342.469
       163   02 Jun 2027 19:55:11.992   02 Jun 2027 19:55:36.860            24.868               Magadan1           777.125
       164   02 Jun 2027 19:58:14.775   02 Jun 2027 19:58:23.267             8.492               Magadan1           265.375
       165   02 Jun 2027 19:58:31.737   02 Jun 2027 19:58:39.401             7.664               Magadan1           239.500
       166   02 Jun 2027 20:00:35.475   02 Jun 2027 20:00:58.342            22.867               Magadan2           714.594
       167   02 Jun 2027 21:25:51.602   02 Jun 2027 21:29:34.193           222.591                Anadyr1          6955.969
       168   02 Jun 2027 21:29:35.300   02 Jun 2027 21:30:59.040            83.740               Magadan2          2616.875
       169   02 Jun 2027 21:30:59.040   02 Jun 2027 21:31:56.361            57.321               Magadan1          1791.281
       170   02 Jun 2027 21:32:55.876   02 Jun 2027 21:33:26.779            30.903               Magadan1           965.719
       171   02 Jun 2027 21:33:43.509   02 Jun 2027 21:34:36.767            53.258               Magadan1          1664.312
       172   02 Jun 2027 21:38:37.925   02 Jun 2027 21:38:43.044             5.119               Magadan2           159.969
       173   02 Jun 2027 21:40:27.911   02 Jun 2027 21:41:03.184            35.273               Magadan2          1102.281
       174   02 Jun 2027 22:20:28.309   02 Jun 2027 22:22:32.389           124.080            RioGallegos          3877.500
       175   02 Jun 2027 22:23:21.240   02 Jun 2027 22:23:45.798            24.558            RioGallegos           767.438
       176   02 Jun 2027 23:01:31.429   02 Jun 2027 23:02:25.343            53.914                Anadyr2          1684.813
       177   02 Jun 2027 23:02:38.764   02 Jun 2027 23:02:50.033            11.269                Anadyr2           352.156
       178   02 Jun 2027 23:03:36.505   02 Jun 2027 23:03:44.898             8.393                Anadyr2           262.281
       179   02 Jun 2027 23:04:10.243   02 Jun 2027 23:05:57.814           107.571               Magadan1          3361.594
       180   02 Jun 2027 23:07:20.288   02 Jun 2027 23:07:41.107            20.819               Magadan1           650.594
       181   02 Jun 2027 23:07:57.954   02 Jun 2027 23:09:11.607            73.653                Irkutsk          2301.656
       182   02 Jun 2027 23:10:39.207   02 Jun 2027 23:12:38.044           118.837                Novosib          3713.656
       183   02 Jun 2027 23:21:49.812   02 Jun 2027 23:22:22.898            33.086                Sumatra          1033.937
       184   02 Jun 2027 23:23:14.229   02 Jun 2027 23:24:07.394            53.165                Sumatra          1661.406
       185   02 Jun 2027 23:31:52.258   02 Jun 2027 23:33:24.351            92.093                Sumatra          2877.906
       186   03 Jun 2027 00:36:22.561   03 Jun 2027 00:37:40.428            77.867                Anadyr1          2433.344
       187   03 Jun 2027 00:38:47.850   03 Jun 2027 00:39:05.728            17.878                Anadyr1           558.687
       188   03 Jun 2027 00:39:37.482   03 Jun 2027 00:41:20.509           103.027                Norilsk          3219.594
       189   03 Jun 2027 00:41:40.235   03 Jun 2027 00:41:49.480             9.245               Magadan2           288.906
       190   03 Jun 2027 00:43:29.659   03 Jun 2027 00:45:33.867           124.208                Irkutsk          3881.500
       191   03 Jun 2027 00:50:06.722   03 Jun 2027 00:50:40.647            33.925                Novosib          1060.156
       192   03 Jun 2027 00:51:41.498   03 Jun 2027 00:52:28.120            46.622                  Delhi          1456.937
       193   03 Jun 2027 00:54:48.009   03 Jun 2027 00:55:36.539            48.530                  Delhi          1516.562
       194   03 Jun 2027 01:00:46.063   03 Jun 2027 01:01:41.128            55.065                Sumatra          1720.781
       195   03 Jun 2027 01:31:53.589   03 Jun 2027 01:32:31.896            38.307            RioGallegos          1197.094
       196   03 Jun 2027 01:37:34.084   03 Jun 2027 01:38:14.528            40.444            RioGallegos          1263.875
       197   03 Jun 2027 01:42:28.423   03 Jun 2027 01:42:34.278             5.855            RioGallegos           182.969
       198   03 Jun 2027 02:10:00.449   03 Jun 2027 02:10:08.597             8.148                Anadyr1           254.625
       199   03 Jun 2027 02:10:53.756   03 Jun 2027 02:12:01.470            67.714                Anadyr2          2116.062
       200   03 Jun 2027 02:15:37.712   03 Jun 2027 02:16:52.542            74.830                Norilsk          2338.437
       201   03 Jun 2027 02:16:59.494   03 Jun 2027 02:17:13.343            13.849                Norilsk           432.781
       202   03 Jun 2027 02:18:01.492   03 Jun 2027 02:19:06.803            65.311              Murmansk1          2040.969
       203   03 Jun 2027 02:19:24.614   03 Jun 2027 02:19:43.650            19.036                Novosib           594.875
       204   03 Jun 2027 02:19:59.619   03 Jun 2027 02:20:40.782            41.163                Irkutsk          1286.344
       205   03 Jun 2027 02:22:10.261   03 Jun 2027 02:22:37.374            27.113                Novosib           847.281
       206   03 Jun 2027 02:25:58.656   03 Jun 2027 02:26:26.671            28.015                Irkutsk           875.469
       207   03 Jun 2027 02:26:55.530   03 Jun 2027 02:26:57.247             1.717                  Delhi            53.656
       208   03 Jun 2027 02:28:48.132   03 Jun 2027 02:29:34.829            46.697                  Delhi          1459.281
       209   03 Jun 2027 02:37:20.177   03 Jun 2027 02:38:21.315            61.138                  Delhi          1910.563
       210   03 Jun 2027 03:46:40.359   03 Jun 2027 03:47:03.282            22.923                Anadyr2           716.344
       211   03 Jun 2027 03:53:50.514   03 Jun 2027 03:54:01.521            11.007               Magadan2           343.969
       212   03 Jun 2027 04:01:09.911   03 Jun 2027 04:01:21.005            11.094              Murmansk1           346.688
       213   03 Jun 2027 04:01:27.484   03 Jun 2027 04:02:24.929            57.445                Novosib          1795.156
       214   03 Jun 2027 04:02:28.956   03 Jun 2027 04:02:47.252            18.296                 Moscow           571.750
       215   03 Jun 2027 04:02:52.892   03 Jun 2027 04:05:38.092           165.200                Novosib          5162.500
       216   03 Jun 2027 04:05:50.983   03 Jun 2027 04:09:23.284           212.301                 Moscow          6634.406
       217   03 Jun 2027 04:21:42.985   03 Jun 2027 04:23:40.311           117.326               CapeTown          3666.437
       218   03 Jun 2027 04:25:40.116   03 Jun 2027 04:26:16.020            35.904               CapeTown          1122.000
       219   03 Jun 2027 04:27:46.126   03 Jun 2027 04:28:16.658            30.532               CapeTown           954.125
       220   03 Jun 2027 05:26:40.187   03 Jun 2027 05:26:40.681             0.494               Magadan2            15.438
       221   03 Jun 2027 05:27:00.055   03 Jun 2027 05:27:20.234            20.179               Magadan2           630.594
       222   03 Jun 2027 05:38:45.524   03 Jun 2027 05:39:16.863            31.339                 Moscow           979.344
       223   03 Jun 2027 05:39:23.867   03 Jun 2027 05:40:38.580            74.713                 Moscow          2334.781
       224   03 Jun 2027 05:43:47.150   03 Jun 2027 05:44:10.893            23.743                 Moscow           741.969
       225   03 Jun 2027 05:57:21.632   03 Jun 2027 05:58:50.713            89.081               CapeTown          2783.781
       226   03 Jun 2027 07:00:08.482   03 Jun 2027 07:00:18.313             9.831               Magadan2           307.219
       227   03 Jun 2027 07:00:19.631   03 Jun 2027 07:00:20.590             0.959               Magadan1            29.969
       228   03 Jun 2027 07:00:35.056   03 Jun 2027 07:00:43.019             7.963                Anadyr1           248.844
       229   03 Jun 2027 07:00:43.019   03 Jun 2027 07:01:53.880            70.861                Anadyr2          2214.406
       230   03 Jun 2027 07:01:58.911   03 Jun 2027 07:02:18.771            19.860               Magadan2           620.625
       231   03 Jun 2027 07:02:36.922   03 Jun 2027 07:03:41.895            64.973                Anadyr2          2030.406
       232   03 Jun 2027 07:05:18.487   03 Jun 2027 07:06:27.683            69.196                Anadyr2          2162.375
       233   03 Jun 2027 08:35:53.946   03 Jun 2027 08:36:39.339            45.393                Anadyr2          1418.531
       234   03 Jun 2027 08:37:06.041   03 Jun 2027 08:37:12.038             5.997               Magadan2           187.406
       235   03 Jun 2027 08:37:42.778   03 Jun 2027 08:38:00.350            17.572                Anadyr2           549.125
       236   03 Jun 2027 08:38:09.228   03 Jun 2027 08:38:58.450            49.222                Anadyr2          1538.187
       237   03 Jun 2027 08:39:03.865   03 Jun 2027 08:39:46.102            42.237               Magadan1          1319.906
       238   03 Jun 2027 08:40:15.154   03 Jun 2027 08:40:17.280             2.126               Magadan1            66.437
       239   03 Jun 2027 09:18:06.305   03 Jun 2027 09:19:25.179            78.874            RioGallegos          2464.813
       240   03 Jun 2027 10:11:00.991   03 Jun 2027 10:12:16.151            75.160               Magadan2          2348.750
       241   03 Jun 2027 10:12:59.269   03 Jun 2027 10:13:25.611            26.342               Magadan1           823.187
       242   03 Jun 2027 10:13:27.914   03 Jun 2027 10:13:34.765             6.851               Magadan1           214.094
       243   03 Jun 2027 10:13:34.765   03 Jun 2027 10:13:53.091            18.326               Magadan2           572.688
       244   03 Jun 2027 10:15:09.202   03 Jun 2027 10:15:12.216             3.014                Irkutsk            94.187
       245   03 Jun 2027 10:15:46.300   03 Jun 2027 10:16:00.472            14.172                Irkutsk           442.875
       246   03 Jun 2027 10:16:05.491   03 Jun 2027 10:16:17.660            12.169                Irkutsk           380.281
       247   03 Jun 2027 10:16:41.836   03 Jun 2027 10:17:16.771            34.935                Irkutsk          1091.719
       248   03 Jun 2027 10:18:41.101   03 Jun 2027 10:18:45.337             4.236                Norilsk           132.375
       249   03 Jun 2027 10:52:28.631   03 Jun 2027 10:53:40.365            71.734            RioGallegos          2241.687
       250   03 Jun 2027 10:59:27.219   03 Jun 2027 11:00:14.054            46.835            RioGallegos          1463.594
       251   03 Jun 2027 11:33:49.683   03 Jun 2027 11:34:03.923            14.240                Sumatra           445.000
       252   03 Jun 2027 11:39:58.733   03 Jun 2027 11:40:02.225             3.492                  Delhi           109.125
       253   03 Jun 2027 11:44:18.354   03 Jun 2027 11:44:44.642            26.288                  Delhi           821.500
       254   03 Jun 2027 11:48:59.064   03 Jun 2027 11:49:29.861            30.797                Novosib           962.406
       255   03 Jun 2027 11:49:41.974   03 Jun 2027 11:50:10.350            28.376                Norilsk           886.750
       256   03 Jun 2027 11:50:48.852   03 Jun 2027 11:50:56.664             7.812                Irkutsk           244.125
       257   03 Jun 2027 11:51:04.095   03 Jun 2027 11:51:27.350            23.255                Novosib           726.719
       258   03 Jun 2027 11:51:38.119   03 Jun 2027 11:52:09.062            30.943                Norilsk           966.969
       259   03 Jun 2027 11:52:16.608   03 Jun 2027 11:52:19.933             3.325                Novosib           103.906
       260   03 Jun 2027 11:52:30.899   03 Jun 2027 11:52:50.685            19.786                Norilsk           618.313
       261   03 Jun 2027 11:52:56.046   03 Jun 2027 11:53:04.580             8.534                Norilsk           266.687
       262   03 Jun 2027 11:53:06.858   03 Jun 2027 11:53:07.303             0.445                Novosib            13.906
       263   03 Jun 2027 11:53:07.466   03 Jun 2027 11:53:43.209            35.743                Norilsk          1116.969
       264   03 Jun 2027 12:30:41.738   03 Jun 2027 12:32:14.751            93.013            RioGallegos          2906.656
       265   03 Jun 2027 13:04:58.235   03 Jun 2027 13:05:26.195            27.960                Sumatra           873.750
       266   03 Jun 2027 13:05:57.058   03 Jun 2027 13:07:32.654            95.596                Sumatra          2987.375
       267   03 Jun 2027 13:19:50.258   03 Jun 2027 13:21:36.136           105.878                Novosib          3308.688
       268   03 Jun 2027 13:21:47.565   03 Jun 2027 13:23:57.315           129.750                Irkutsk          4054.688
       269   03 Jun 2027 14:50:31.545   03 Jun 2027 14:54:32.506           240.961                  Delhi          7530.031
       270   03 Jun 2027 14:59:01.624   03 Jun 2027 15:01:23.566           141.942                Novosib          4435.688
       271   03 Jun 2027 15:01:53.802   03 Jun 2027 15:02:23.356            29.554                Norilsk           923.563
       272   03 Jun 2027 15:05:42.995   03 Jun 2027 15:06:50.540            67.545                Norilsk          2110.781
       273   03 Jun 2027 16:13:29.269   03 Jun 2027 16:14:08.419            39.150               CapeTown          1223.437
       274   03 Jun 2027 16:18:06.802   03 Jun 2027 16:18:09.630             2.828               CapeTown            88.375
       275   03 Jun 2027 16:18:19.656   03 Jun 2027 16:18:53.349            33.693               CapeTown          1052.906
       276   03 Jun 2027 16:32:30.486   03 Jun 2027 16:33:19.628            49.142                 Moscow          1535.688
       277   03 Jun 2027 16:36:39.018   03 Jun 2027 16:37:27.742            48.724              Murmansk2          1522.625
       278   03 Jun 2027 16:38:16.004   03 Jun 2027 16:38:45.011            29.007              Murmansk2           906.469
       279   03 Jun 2027 16:44:39.571   03 Jun 2027 16:45:10.063            30.492              Murmansk1           952.875
       280   03 Jun 2027 16:50:52.074   03 Jun 2027 16:52:28.090            96.016                Anadyr1          3000.500
       281   03 Jun 2027 16:52:46.387   03 Jun 2027 16:53:24.913            38.526                Anadyr2          1203.937
       282   03 Jun 2027 16:56:53.728   03 Jun 2027 16:57:20.286            26.558                Anadyr2           829.938
       283   03 Jun 2027 17:45:25.993   03 Jun 2027 17:46:05.223            39.230               CapeTown          1225.937
       284   03 Jun 2027 17:47:03.250   03 Jun 2027 17:47:49.034            45.784               CapeTown          1430.750
       285   03 Jun 2027 17:55:25.735   03 Jun 2027 17:57:25.007           119.272               CapeTown          3727.250
       286   03 Jun 2027 18:13:35.454   03 Jun 2027 18:14:52.974            77.520                 Moscow          2422.500
       287   03 Jun 2027 18:15:05.249   03 Jun 2027 18:15:39.442            34.193              Murmansk1          1068.531
       288   03 Jun 2027 18:18:03.283   03 Jun 2027 18:18:31.586            28.303              Murmansk2           884.469
       289   03 Jun 2027 18:27:03.879   03 Jun 2027 18:27:11.453             7.574                Anadyr1           236.688
       290   03 Jun 2027 18:27:40.722   03 Jun 2027 18:28:02.458            21.736                Anadyr1           679.250
       291   03 Jun 2027 18:30:50.875   03 Jun 2027 18:31:35.117            44.242               Magadan2          1382.563
       292   03 Jun 2027 18:33:08.267   03 Jun 2027 18:33:14.112             5.845               Magadan2           182.656
       293   03 Jun 2027 18:34:21.991   03 Jun 2027 18:34:30.228             8.237               Magadan2           257.406
       294   03 Jun 2027 19:22:49.765   03 Jun 2027 19:23:37.831            48.066               CapeTown          1502.062
       295   03 Jun 2027 19:26:06.693   03 Jun 2027 19:27:54.725           108.032               CapeTown          3376.000
       296   03 Jun 2027 19:57:10.908   03 Jun 2027 19:58:00.982            50.074              Murmansk2          1564.813
       297   03 Jun 2027 20:02:43.387   03 Jun 2027 20:05:23.073           159.686                Anadyr2          4990.188
       298   03 Jun 2027 20:05:26.290   03 Jun 2027 20:06:56.396            90.106               Magadan1          2815.813
       299   03 Jun 2027 20:14:12.583   03 Jun 2027 20:14:51.272            38.689               Magadan1          1209.031
       300   03 Jun 2027 21:37:52.558   03 Jun 2027 21:41:34.356           221.798                Anadyr1          6931.187
       301   03 Jun 2027 21:41:52.653   03 Jun 2027 21:43:46.808           114.155                Norilsk          3567.344
       302   03 Jun 2027 21:43:47.596   03 Jun 2027 21:45:14.082            86.486               Magadan2          2702.688
       303   03 Jun 2027 21:46:50.531   03 Jun 2027 21:47:05.295            14.764               Magadan2           461.375
       304   03 Jun 2027 21:47:22.338   03 Jun 2027 21:47:24.758             2.420               Magadan2            75.625
       305   03 Jun 2027 21:47:32.667   03 Jun 2027 21:48:00.532            27.865               Magadan2           870.781
       306   03 Jun 2027 21:51:44.661   03 Jun 2027 21:52:04.731            20.070               Magadan1           627.188
       307   03 Jun 2027 22:32:16.112   03 Jun 2027 22:34:18.544           122.432            RioGallegos          3826.000
       308   03 Jun 2027 22:35:26.652   03 Jun 2027 22:35:39.750            13.098            RioGallegos           409.312
       309   03 Jun 2027 22:37:47.628   03 Jun 2027 22:37:53.295             5.667            RioGallegos           177.094
       310   03 Jun 2027 22:37:58.174   03 Jun 2027 22:38:28.735            30.561            RioGallegos           955.031
       311   03 Jun 2027 22:40:49.247   03 Jun 2027 22:41:01.337            12.090            RioGallegos           377.812
       312   03 Jun 2027 23:13:28.434   03 Jun 2027 23:14:32.277            63.843                Anadyr2          1995.094
       313   03 Jun 2027 23:14:39.123   03 Jun 2027 23:15:41.275            62.152                Anadyr2          1942.250
       314   03 Jun 2027 23:15:41.779   03 Jun 2027 23:15:55.972            14.193                Norilsk           443.531
       315   03 Jun 2027 23:16:13.344   03 Jun 2027 23:18:06.025           112.681               Magadan2          3521.281
       316   03 Jun 2027 23:19:51.762   03 Jun 2027 23:20:41.240            49.478                Irkutsk          1546.187
       317   03 Jun 2027 23:21:39.046   03 Jun 2027 23:22:22.328            43.282                Novosib          1352.563
       318   03 Jun 2027 23:23:16.202   03 Jun 2027 23:24:22.335            66.133                Novosib          2066.656
       319   03 Jun 2027 23:33:36.202   03 Jun 2027 23:34:15.987            39.785                Sumatra          1243.281
       320   03 Jun 2027 23:36:23.470   03 Jun 2027 23:37:08.667            45.197                Sumatra          1412.406
       321   04 Jun 2027 00:12:33.356   04 Jun 2027 00:12:46.268            12.912            RioGallegos           403.500
       322   04 Jun 2027 00:12:50.529   04 Jun 2027 00:13:25.753            35.224            RioGallegos          1100.750
       323   04 Jun 2027 00:17:50.354   04 Jun 2027 00:17:57.186             6.832            RioGallegos           213.500
       324   04 Jun 2027 00:18:37.447   04 Jun 2027 00:19:13.639            36.192            RioGallegos          1131.000
       325   04 Jun 2027 00:48:10.563   04 Jun 2027 00:48:31.727            21.164                Anadyr1           661.375
       326   04 Jun 2027 00:48:57.549   04 Jun 2027 00:49:44.368            46.819                Anadyr1          1463.094
       327   04 Jun 2027 00:50:05.377   04 Jun 2027 00:50:15.726            10.349                Anadyr1           323.406
       328   04 Jun 2027 00:50:24.897   04 Jun 2027 00:50:29.280             4.383                Anadyr1           136.969
       329   04 Jun 2027 00:50:33.335   04 Jun 2027 00:50:58.874            25.539                Anadyr2           798.094
       330   04 Jun 2027 00:51:39.780   04 Jun 2027 00:53:22.297           102.517                Norilsk          3203.656
       331   04 Jun 2027 00:55:13.692   04 Jun 2027 00:55:35.206            21.514               Magadan2           672.313
       332   04 Jun 2027 00:55:38.751   04 Jun 2027 00:57:20.382           101.631                Novosib          3175.969
       333   04 Jun 2027 00:58:30.486   04 Jun 2027 00:59:36.585            66.099                Novosib          2065.594
       334   04 Jun 2027 01:05:12.499   04 Jun 2027 01:05:28.057            15.558                  Delhi           486.188
       335   04 Jun 2027 01:08:47.935   04 Jun 2027 01:09:38.153            50.218                  Delhi          1569.312
       336   04 Jun 2027 01:16:06.571   04 Jun 2027 01:17:05.794            59.223                Sumatra          1850.719
       337   04 Jun 2027 01:46:28.957   04 Jun 2027 01:47:21.752            52.795            RioGallegos          1649.844
       338   04 Jun 2027 02:21:41.545   04 Jun 2027 02:21:45.211             3.666                Anadyr2           114.562
       339   04 Jun 2027 02:22:52.781   04 Jun 2027 02:24:08.325            75.544                Anadyr1          2360.750
       340   04 Jun 2027 02:27:39.389   04 Jun 2027 02:28:48.311            68.922                Norilsk          2153.813
       341   04 Jun 2027 02:28:49.873   04 Jun 2027 02:29:13.247            23.374                Norilsk           730.438
       342   04 Jun 2027 02:29:59.063   04 Jun 2027 02:30:48.212            49.149              Murmansk1          1535.906
       343   04 Jun 2027 02:31:12.000   04 Jun 2027 02:31:44.237            32.237              Murmansk2          1007.406
       344   04 Jun 2027 02:31:58.834   04 Jun 2027 02:32:35.558            36.724                Novosib          1147.625
       345   04 Jun 2027 02:33:14.219   04 Jun 2027 02:33:43.834            29.615                Irkutsk           925.469
       346   04 Jun 2027 02:35:06.134   04 Jun 2027 02:35:18.763            12.629                Irkutsk           394.656
       347   04 Jun 2027 02:39:08.333   04 Jun 2027 02:39:49.609            41.276                  Delhi          1289.875
       348   04 Jun 2027 02:43:38.723   04 Jun 2027 02:43:54.091            15.368                  Delhi           480.250
       349   04 Jun 2027 02:44:51.689   04 Jun 2027 02:45:34.783            43.094                  Delhi          1346.688
       350   04 Jun 2027 03:58:18.131   04 Jun 2027 03:58:41.755            23.624                Anadyr1           738.250
       351   04 Jun 2027 03:59:10.306   04 Jun 2027 03:59:16.433             6.127                Anadyr1           191.469
       352   04 Jun 2027 04:13:17.649   04 Jun 2027 04:13:31.806            14.157              Murmansk1           442.406
       353   04 Jun 2027 04:13:33.809   04 Jun 2027 04:16:03.745           149.936                Novosib          4685.500
       354   04 Jun 2027 04:16:14.730   04 Jun 2027 04:16:54.201            39.471              Murmansk2          1233.469
       355   04 Jun 2027 04:16:57.800   04 Jun 2027 04:17:09.104            11.304                Novosib           353.250
       356   04 Jun 2027 04:17:12.386   04 Jun 2027 04:17:16.329             3.943                 Moscow           123.219
       357   04 Jun 2027 04:17:19.913   04 Jun 2027 04:17:55.489            35.576              Murmansk1          1111.750
       358   04 Jun 2027 04:18:29.605   04 Jun 2027 04:21:37.477           187.872                 Moscow          5871.000
       359   04 Jun 2027 04:36:40.547   04 Jun 2027 04:37:25.440            44.893               CapeTown          1402.906
       360   04 Jun 2027 04:37:34.305   04 Jun 2027 04:45:30.950           476.645               CapeTown         14895.156
       361   04 Jun 2027 05:37:11.587   04 Jun 2027 05:38:05.363            53.776               Magadan1          1680.500
       362   04 Jun 2027 05:40:07.555   04 Jun 2027 05:40:24.496            16.941                Anadyr2           529.406
       363   04 Jun 2027 05:41:54.425   04 Jun 2027 05:42:03.513             9.088               Magadan2           284.000
       364   04 Jun 2027 07:10:56.661   04 Jun 2027 07:11:43.137            46.476                Anadyr1          1452.375
       365   04 Jun 2027 07:12:11.787   04 Jun 2027 07:12:24.556            12.769               Magadan1           399.031
       366   04 Jun 2027 07:12:35.060   04 Jun 2027 07:13:19.953            44.893                Anadyr2          1402.906
       367   04 Jun 2027 07:13:47.105   04 Jun 2027 07:15:08.298            81.193                Anadyr1          2537.281
       368   04 Jun 2027 08:45:53.421   04 Jun 2027 08:46:44.734            51.313                Anadyr1          1603.531
       369   04 Jun 2027 08:47:42.423   04 Jun 2027 08:49:24.839           102.416                Anadyr1          3200.500
       370   04 Jun 2027 08:50:21.304   04 Jun 2027 08:50:46.653            25.349               Magadan1           792.156
       371   04 Jun 2027 08:50:53.114   04 Jun 2027 08:52:32.871            99.757                Anadyr2          3117.406
       372   04 Jun 2027 10:22:38.739   04 Jun 2027 10:24:16.750            98.011               Magadan2          3062.844
       373   04 Jun 2027 10:24:29.807   04 Jun 2027 10:25:10.233            40.426                Irkutsk          1263.313
       374   04 Jun 2027 10:25:32.943   04 Jun 2027 10:25:45.539            12.596               Magadan2           393.625
       375   04 Jun 2027 10:25:46.829   04 Jun 2027 10:26:42.771            55.942               Magadan2          1748.188
       376   04 Jun 2027 10:26:57.284   04 Jun 2027 10:27:21.828            24.544                Irkutsk           767.000
       377   04 Jun 2027 10:27:27.404   04 Jun 2027 10:27:37.294             9.890                Irkutsk           309.062
       378   04 Jun 2027 10:27:47.978   04 Jun 2027 10:28:26.085            38.107                Irkutsk          1190.844
       379   04 Jun 2027 10:29:08.847   04 Jun 2027 10:29:10.333             1.486                Irkutsk            46.438
       380   04 Jun 2027 10:29:10.611   04 Jun 2027 10:29:18.130             7.519                Novosib           234.969
       381   04 Jun 2027 10:30:08.506   04 Jun 2027 10:30:27.201            18.695                Novosib           584.219
       382   04 Jun 2027 11:04:33.168   04 Jun 2027 11:05:13.944            40.776            RioGallegos          1274.250
       383   04 Jun 2027 11:05:47.094   04 Jun 2027 11:06:42.848            55.754            RioGallegos          1742.313
       384   04 Jun 2027 11:40:10.292   04 Jun 2027 11:42:06.166           115.874                Sumatra          3621.062
       385   04 Jun 2027 12:00:45.727   04 Jun 2027 12:00:46.816             1.089                Novosib            34.031
       386   04 Jun 2027 12:00:49.821   04 Jun 2027 12:02:02.772            72.951                Irkutsk          2279.719
       387   04 Jun 2027 12:02:32.250   04 Jun 2027 12:03:58.890            86.640                Irkutsk          2707.500
       388   04 Jun 2027 12:06:08.452   04 Jun 2027 12:06:34.004            25.552                Novosib           798.500
       389   04 Jun 2027 12:09:27.863   04 Jun 2027 12:10:01.462            33.599                Norilsk          1049.969
       390   04 Jun 2027 12:48:12.795   04 Jun 2027 12:48:35.435            22.640            RioGallegos           707.500
       391   04 Jun 2027 12:48:54.293   04 Jun 2027 12:49:51.503            57.210            RioGallegos          1787.813
       392   04 Jun 2027 13:17:58.350   04 Jun 2027 13:19:20.694            82.344                Sumatra          2573.250
       393   04 Jun 2027 13:31:53.123   04 Jun 2027 13:33:34.129           101.006                Novosib          3156.437
       394   04 Jun 2027 13:33:53.400   04 Jun 2027 13:35:56.421           123.021                Irkutsk          3844.406
       395   04 Jun 2027 13:46:05.929   04 Jun 2027 13:46:14.783             8.854                Norilsk           276.687
       396   04 Jun 2027 15:04:11.849   04 Jun 2027 15:06:35.825           143.976                  Delhi          4499.250
       397   04 Jun 2027 15:07:34.973   04 Jun 2027 15:07:47.215            12.242                  Delhi           382.563
       398   04 Jun 2027 15:09:09.779   04 Jun 2027 15:09:32.647            22.868                 Moscow           714.625
       399   04 Jun 2027 15:10:04.649   04 Jun 2027 15:10:30.301            25.652                 Moscow           801.625
       400   04 Jun 2027 15:11:26.700   04 Jun 2027 15:12:31.801            65.101              Murmansk1          2034.406
       401   04 Jun 2027 15:13:22.050   04 Jun 2027 15:14:12.510            50.460                Novosib          1576.875
       402   04 Jun 2027 15:14:30.392   04 Jun 2027 15:15:11.697            41.305                Norilsk          1290.781
       403   04 Jun 2027 15:18:46.484   04 Jun 2027 15:19:33.780            47.296                Norilsk          1478.000
       404   04 Jun 2027 16:23:23.598   04 Jun 2027 16:25:45.210           141.612               CapeTown          4425.375
       405   04 Jun 2027 16:45:25.522   04 Jun 2027 16:46:02.980            37.458                 Moscow          1170.563
       406   04 Jun 2027 16:48:40.259   04 Jun 2027 16:48:54.749            14.490              Murmansk2           452.813
       407   04 Jun 2027 16:49:31.671   04 Jun 2027 16:50:13.745            42.074                 Moscow          1314.813
       408   04 Jun 2027 16:52:30.807   04 Jun 2027 16:52:47.043            16.236              Murmansk2           507.375
       409   04 Jun 2027 16:54:34.547   04 Jun 2027 16:55:11.298            36.751              Murmansk1          1148.469
       410   04 Jun 2027 17:02:42.306   04 Jun 2027 17:03:51.691            69.385                Anadyr1          2168.281
       411   04 Jun 2027 17:04:48.590   04 Jun 2027 17:05:23.076            34.486                Anadyr1          1077.688
       412   04 Jun 2027 17:06:40.008   04 Jun 2027 17:07:22.874            42.866                Anadyr2          1339.562
       413   04 Jun 2027 17:57:47.205   04 Jun 2027 17:59:48.585           121.380               CapeTown          3793.125
       414   04 Jun 2027 18:27:00.540   04 Jun 2027 18:30:13.767           193.227              Murmansk2          6038.344
       415   04 Jun 2027 18:32:27.361   04 Jun 2027 18:33:29.362            62.001              Murmansk2          1937.531
       416   04 Jun 2027 18:42:05.204   04 Jun 2027 18:43:09.600            64.396               Magadan1          2012.375
       417   04 Jun 2027 18:46:34.657   04 Jun 2027 18:47:10.796            36.139               Magadan1          1129.344
       418   04 Jun 2027 19:35:31.267   04 Jun 2027 19:35:50.892            19.625               CapeTown           613.281
       419   04 Jun 2027 19:37:13.338   04 Jun 2027 19:37:47.923            34.585               CapeTown          1080.781
       420   04 Jun 2027 20:13:59.406   04 Jun 2027 20:15:37.341            97.935                Anadyr1          3060.469
       421   04 Jun 2027 20:16:00.756   04 Jun 2027 20:17:44.220           103.464                Anadyr2          3233.250
       422   04 Jun 2027 20:18:29.794   04 Jun 2027 20:21:12.826           163.032               Magadan2          5094.750
       423   04 Jun 2027 20:21:50.883   04 Jun 2027 20:22:21.288            30.405               Magadan2           950.156
       424   04 Jun 2027 21:49:53.228   04 Jun 2027 21:51:57.304           124.076                Anadyr2          3877.375
       425   04 Jun 2027 21:52:02.198   04 Jun 2027 21:53:34.117            91.919                Anadyr1          2872.469
       426   04 Jun 2027 21:53:41.765   04 Jun 2027 21:56:11.598           149.833                Norilsk          4682.281
       427   04 Jun 2027 21:56:36.386   04 Jun 2027 21:57:05.327            28.941                Norilsk           904.406
       428   04 Jun 2027 21:57:43.061   04 Jun 2027 21:57:59.335            16.274                Norilsk           508.562
       429   04 Jun 2027 21:58:17.698   04 Jun 2027 21:58:27.936            10.238               Magadan1           319.938
       430   04 Jun 2027 21:58:30.728   04 Jun 2027 21:59:01.983            31.255                Irkutsk           976.719
       431   04 Jun 2027 21:59:23.574   04 Jun 2027 21:59:29.335             5.761                Irkutsk           180.031
       432   04 Jun 2027 22:00:25.214   04 Jun 2027 22:00:43.270            18.056                Irkutsk           564.250
       433   04 Jun 2027 22:02:28.393   04 Jun 2027 22:02:34.228             5.835                Irkutsk           182.344
       434   04 Jun 2027 22:44:07.043   04 Jun 2027 22:45:46.394            99.351            RioGallegos          3104.719
       435   04 Jun 2027 22:49:08.990   04 Jun 2027 22:49:30.313            21.323            RioGallegos           666.344
       436   04 Jun 2027 22:52:22.766   04 Jun 2027 22:53:06.111            43.345            RioGallegos          1354.531
       437   04 Jun 2027 23:25:24.592   04 Jun 2027 23:26:04.442            39.850                Anadyr1          1245.313
       438   04 Jun 2027 23:26:12.074   04 Jun 2027 23:26:15.241             3.167                Anadyr2            98.969
       439   04 Jun 2027 23:26:39.743   04 Jun 2027 23:27:43.606            63.863                Anadyr1          1995.719
       440   04 Jun 2027 23:27:45.059   04 Jun 2027 23:29:09.588            84.529                Norilsk          2641.531
       441   04 Jun 2027 23:29:27.157   04 Jun 2027 23:29:48.203            21.046               Magadan2           657.688
       442   04 Jun 2027 23:30:35.173   04 Jun 2027 23:31:17.133            41.960               Magadan2          1311.250
       443   04 Jun 2027 23:31:47.396   04 Jun 2027 23:32:33.842            46.446                Irkutsk          1451.438
       444   04 Jun 2027 23:33:06.645   04 Jun 2027 23:34:30.563            83.918                Novosib          2622.437
       445   04 Jun 2027 23:45:28.770   04 Jun 2027 23:46:02.990            34.220                Sumatra          1069.375
       446   04 Jun 2027 23:48:44.584   04 Jun 2027 23:48:45.812             1.228                Sumatra            38.375
       447   04 Jun 2027 23:50:04.787   04 Jun 2027 23:51:35.134            90.347                Sumatra          2823.344
       448   04 Jun 2027 23:57:12.822   04 Jun 2027 23:57:45.322            32.500                Sumatra          1015.625
       449   05 Jun 2027 00:29:24.074   05 Jun 2027 00:30:09.837            45.763            RioGallegos          1430.094
       450   05 Jun 2027 01:00:24.517   05 Jun 2027 01:00:56.264            31.747                Anadyr1           992.094
       451   05 Jun 2027 01:01:38.035   05 Jun 2027 01:02:11.210            33.175                Anadyr2          1036.719
       452   05 Jun 2027 01:02:34.620   05 Jun 2027 01:02:41.414             6.794                Anadyr1           212.312
       453   05 Jun 2027 01:03:42.094   05 Jun 2027 01:05:23.944           101.850                Norilsk          3182.813
       454   05 Jun 2027 01:06:35.756   05 Jun 2027 01:06:44.652             8.896               Magadan2           278.000
       455   05 Jun 2027 01:07:03.336   05 Jun 2027 01:08:04.950            61.614               Magadan2          1925.438
       456   05 Jun 2027 01:08:15.791   05 Jun 2027 01:10:24.737           128.946                Novosib          4029.562
       457   05 Jun 2027 01:15:55.838   05 Jun 2027 01:16:12.930            17.092                  Delhi           534.125
       458   05 Jun 2027 01:17:36.421   05 Jun 2027 01:18:37.307            60.886                  Delhi          1902.688
       459   05 Jun 2027 01:24:43.435   05 Jun 2027 01:25:17.026            33.591                Sumatra          1049.719
       460   05 Jun 2027 01:28:18.020   05 Jun 2027 01:28:43.831            25.811                Sumatra           806.594
       461   05 Jun 2027 01:56:26.585   05 Jun 2027 01:56:46.909            20.324            RioGallegos           635.125
       462   05 Jun 2027 01:58:46.627   05 Jun 2027 01:59:07.822            21.195            RioGallegos           662.344
       463   05 Jun 2027 01:59:24.126   05 Jun 2027 01:59:40.121            15.995            RioGallegos           499.844
       464   05 Jun 2027 02:00:35.069   05 Jun 2027 02:01:49.992            74.923            RioGallegos          2341.344
       465   05 Jun 2027 02:38:23.229   05 Jun 2027 02:38:29.327             6.098                Anadyr1           190.562
       466   05 Jun 2027 02:38:36.692   05 Jun 2027 02:38:50.136            13.444                Anadyr1           420.125
       467   05 Jun 2027 02:39:23.318   05 Jun 2027 02:39:35.139            11.821                Anadyr2           369.406
       468   05 Jun 2027 02:39:35.445   05 Jun 2027 02:40:16.497            41.052               Magadan1          1282.875
       469   05 Jun 2027 02:40:33.615   05 Jun 2027 02:40:39.293             5.678                Norilsk           177.437
       470   05 Jun 2027 02:40:59.082   05 Jun 2027 02:41:12.783            13.701                Norilsk           428.156
       471   05 Jun 2027 02:41:57.720   05 Jun 2027 02:42:48.088            50.368              Murmansk2          1574.000
       472   05 Jun 2027 02:43:15.583   05 Jun 2027 02:43:52.326            36.743              Murmansk1          1148.219
       473   05 Jun 2027 02:44:03.586   05 Jun 2027 02:44:46.668            43.082                Novosib          1346.313
       474   05 Jun 2027 02:45:30.644   05 Jun 2027 02:45:51.064            20.420                Irkutsk           638.125
       475   05 Jun 2027 02:46:32.360   05 Jun 2027 02:46:35.448             3.088                Irkutsk            96.500
       476   05 Jun 2027 02:46:48.331   05 Jun 2027 02:47:10.272            21.941                Irkutsk           685.656
       477   05 Jun 2027 02:49:43.481   05 Jun 2027 02:50:08.068            24.587                Irkutsk           768.344
       478   05 Jun 2027 02:52:49.491   05 Jun 2027 02:52:54.924             5.433                  Delhi           169.781
       479   05 Jun 2027 02:54:59.665   05 Jun 2027 02:55:11.614            11.949                  Delhi           373.406
       480   05 Jun 2027 02:55:59.322   05 Jun 2027 02:56:13.758            14.436                  Delhi           451.125
       481   05 Jun 2027 02:57:17.896   05 Jun 2027 02:59:20.291           122.395                  Delhi          3824.844
       482   05 Jun 2027 04:25:40.802   05 Jun 2027 04:28:37.172           176.370                Novosib          5511.562
