uniorb/output/strategy_4/Drop/Drop_KinoSat_111702.txt

KinoSat_111702
-------------------------
    Access    *     Start Time (UTCG)     *     Stop Time (UTCG)  *   Duration (s)        *       Station  *  Data (Mbytes)
         1   01 Jun 2027 03:41:57.982   01 Jun 2027 03:43:49.619           111.637                Norilsk          3488.656
         2   01 Jun 2027 03:44:00.331   01 Jun 2027 03:45:07.387            67.056              Murmansk1          2095.500
         3   01 Jun 2027 03:45:08.379   01 Jun 2027 03:46:54.921           106.542                Novosib          3329.438
         4   01 Jun 2027 03:47:38.382   01 Jun 2027 03:47:59.934            21.552                 Moscow           673.500
         5   01 Jun 2027 03:49:08.230   01 Jun 2027 03:51:57.381           169.151                  Delhi          5285.969
         6   01 Jun 2027 05:19:33.625   01 Jun 2027 05:20:42.899            69.274                Novosib          2164.813
         7   01 Jun 2027 05:21:03.729   01 Jun 2027 05:24:11.648           187.919              Murmansk1          5872.469
         8   01 Jun 2027 05:24:17.417   01 Jun 2027 05:25:11.094            53.677                 Moscow          1677.406
         9   01 Jun 2027 05:38:35.022   01 Jun 2027 05:41:14.720           159.698               CapeTown          4990.562
        10   01 Jun 2027 06:42:25.476   01 Jun 2027 06:43:13.593            48.117                Anadyr2          1503.656
        11   01 Jun 2027 06:43:13.593   01 Jun 2027 06:45:00.546           106.953                Anadyr1          3342.281
        12   01 Jun 2027 06:47:27.745   01 Jun 2027 06:48:15.368            47.623                Anadyr2          1488.219
        13   01 Jun 2027 08:19:23.830   01 Jun 2027 08:20:03.534            39.704               Magadan1          1240.750
        14   01 Jun 2027 08:20:03.534   01 Jun 2027 08:20:32.879            29.345               Magadan2           917.031
        15   01 Jun 2027 08:20:50.722   01 Jun 2027 08:21:02.679            11.957                Norilsk           373.656
        16   01 Jun 2027 08:21:37.826   01 Jun 2027 08:24:02.760           144.934                Anadyr1          4529.188
        17   01 Jun 2027 09:01:45.732   01 Jun 2027 09:01:50.491             4.759            RioGallegos           148.719
        18   01 Jun 2027 09:53:20.318   01 Jun 2027 09:53:32.392            12.074                Irkutsk           377.312
        19   01 Jun 2027 09:53:33.005   01 Jun 2027 09:59:32.718           359.713               Magadan2         11241.031
        20   01 Jun 2027 11:30:30.509   01 Jun 2027 11:32:29.568           119.059               Magadan2          3720.594
        21   01 Jun 2027 11:33:16.345   01 Jun 2027 11:35:16.014           119.669                Irkutsk          3739.656
        22   01 Jun 2027 12:13:16.176   01 Jun 2027 12:15:24.571           128.395            RioGallegos          4012.344
        23   01 Jun 2027 12:47:16.182   01 Jun 2027 12:49:45.777           149.595                Sumatra          4674.844
        24   01 Jun 2027 12:53:30.557   01 Jun 2027 12:54:02.045            31.488                Sumatra           984.000
        25   01 Jun 2027 13:00:03.787   01 Jun 2027 13:00:44.075            40.288                Irkutsk          1259.000
        26   01 Jun 2027 13:02:02.875   01 Jun 2027 13:03:00.661            57.786                Novosib          1805.812
        27   01 Jun 2027 13:03:47.900   01 Jun 2027 13:04:44.270            56.370                Irkutsk          1761.562
        28   01 Jun 2027 13:07:28.541   01 Jun 2027 13:09:31.197           122.656                Irkutsk          3833.000
        29   01 Jun 2027 14:29:52.794   01 Jun 2027 14:30:38.391            45.597                  Delhi          1424.906
        30   01 Jun 2027 14:34:25.788   01 Jun 2027 14:34:54.640            28.852                  Delhi           901.625
        31   01 Jun 2027 14:38:04.002   01 Jun 2027 14:39:06.634            62.632                Novosib          1957.250
        32   01 Jun 2027 14:41:13.773   01 Jun 2027 14:43:24.106           130.333                Novosib          4072.906
        33   01 Jun 2027 14:44:21.188   01 Jun 2027 14:44:49.922            28.734                Norilsk           897.938
        34   01 Jun 2027 14:44:53.091   01 Jun 2027 14:48:06.812           193.721                Novosib          6053.781
        35   01 Jun 2027 16:13:43.345   01 Jun 2027 16:15:48.825           125.480                 Moscow          3921.250
        36   01 Jun 2027 16:17:14.355   01 Jun 2027 16:18:04.932            50.577              Murmansk1          1580.531
        37   01 Jun 2027 16:22:37.086   01 Jun 2027 16:27:53.928           316.842                Norilsk          9901.313
        38   01 Jun 2027 17:37:55.356   01 Jun 2027 17:38:36.998            41.642               CapeTown          1301.313
        39   01 Jun 2027 17:52:02.933   01 Jun 2027 17:53:50.903           107.970                 Moscow          3374.063
        40   01 Jun 2027 17:54:46.894   01 Jun 2027 17:57:56.400           189.506              Murmansk1          5922.063
        41   01 Jun 2027 18:04:37.154   01 Jun 2027 18:05:23.309            46.155              Murmansk1          1442.344
        42   01 Jun 2027 19:03:26.611   01 Jun 2027 19:05:03.803            97.192               CapeTown          3037.250
        43   01 Jun 2027 19:05:44.136   01 Jun 2027 19:07:49.792           125.656               CapeTown          3926.750
        44   01 Jun 2027 19:34:49.698   01 Jun 2027 19:39:30.113           280.415              Murmansk2          8762.969
        45   01 Jun 2027 19:39:59.665   01 Jun 2027 19:40:43.410            43.745              Murmansk1          1367.031
        46   01 Jun 2027 21:19:40.420   01 Jun 2027 21:23:25.692           225.272                Anadyr1          7039.750
        47   01 Jun 2027 21:23:32.823   01 Jun 2027 21:27:03.000           210.177               Magadan1          6568.031
        48   01 Jun 2027 21:27:03.000   01 Jun 2027 21:27:16.258            13.258               Magadan2           414.313
        49   01 Jun 2027 21:29:00.682   01 Jun 2027 21:29:30.295            29.613               Magadan1           925.406
        50   01 Jun 2027 21:29:53.377   01 Jun 2027 21:29:57.947             4.570               Magadan1           142.813
        51   01 Jun 2027 21:29:59.058   01 Jun 2027 21:30:07.393             8.335               Magadan1           260.469
        52   01 Jun 2027 21:30:32.575   01 Jun 2027 21:30:54.704            22.129               Magadan1           691.531
        53   01 Jun 2027 21:32:43.723   01 Jun 2027 21:33:19.576            35.853               Magadan2          1120.406
        54   01 Jun 2027 22:15:15.971   01 Jun 2027 22:17:40.872           144.901            RioGallegos          4528.156
        55   01 Jun 2027 22:20:29.009   01 Jun 2027 22:20:54.734            25.725            RioGallegos           803.906
        56   01 Jun 2027 22:55:28.194   01 Jun 2027 22:56:37.442            69.248                Anadyr1          2164.000
        57   01 Jun 2027 22:56:42.235   01 Jun 2027 22:57:10.383            28.148                Anadyr1           879.625
        58   01 Jun 2027 22:57:16.628   01 Jun 2027 22:57:31.027            14.399                Anadyr2           449.969
        59   01 Jun 2027 22:57:33.976   01 Jun 2027 22:59:07.675            93.699                Norilsk          2928.094
        60   01 Jun 2027 22:59:13.711   01 Jun 2027 22:59:43.094            29.383               Magadan1           918.219
        61   01 Jun 2027 22:59:47.852   01 Jun 2027 23:00:36.962            49.110               Magadan2          1534.688
        62   01 Jun 2027 23:01:05.583   01 Jun 2027 23:01:53.294            47.711               Magadan2          1490.969
        63   01 Jun 2027 23:02:17.540   01 Jun 2027 23:04:15.147           117.607                Irkutsk          3675.219
        64   01 Jun 2027 23:19:27.775   01 Jun 2027 23:20:24.041            56.266                Sumatra          1758.313
        65   01 Jun 2027 23:21:00.534   01 Jun 2027 23:21:37.477            36.943                Sumatra          1154.469
        66   01 Jun 2027 23:25:49.084   01 Jun 2027 23:25:55.417             6.333                Sumatra           197.906
        67   01 Jun 2027 23:49:26.977   01 Jun 2027 23:50:33.968            66.991            RioGallegos          2093.469
        68   01 Jun 2027 23:57:17.206   01 Jun 2027 23:57:30.772            13.566            RioGallegos           423.937
        69   02 Jun 2027 00:00:43.252   02 Jun 2027 00:01:18.038            34.786            RioGallegos          1087.062
        70   02 Jun 2027 00:30:39.692   02 Jun 2027 00:30:53.989            14.297                Anadyr1           446.781
        71   02 Jun 2027 00:31:41.763   02 Jun 2027 00:32:46.369            64.606                Anadyr2          2018.938
        72   02 Jun 2027 00:32:51.920   02 Jun 2027 00:33:20.680            28.760                Anadyr2           898.750
        73   02 Jun 2027 00:33:23.876   02 Jun 2027 00:34:54.646            90.770                Norilsk          2836.563
        74   02 Jun 2027 00:35:06.570   02 Jun 2027 00:35:37.192            30.622               Magadan1           956.937
        75   02 Jun 2027 00:36:25.189   02 Jun 2027 00:36:44.961            19.772               Magadan2           617.875
        76   02 Jun 2027 00:37:17.810   02 Jun 2027 00:40:32.767           194.957                Irkutsk          6092.406
        77   02 Jun 2027 00:47:02.223   02 Jun 2027 00:48:43.743           101.520                  Delhi          3172.500
        78   02 Jun 2027 00:51:21.676   02 Jun 2027 00:51:26.259             4.583                Sumatra           143.219
        79   02 Jun 2027 00:53:11.168   02 Jun 2027 00:53:57.903            46.735                Sumatra          1460.469
        80   02 Jun 2027 00:59:19.421   02 Jun 2027 01:00:01.053            41.632                Sumatra          1301.000
        81   02 Jun 2027 01:02:40.528   02 Jun 2027 01:03:19.731            39.203                Sumatra          1225.094
        82   02 Jun 2027 01:33:38.589   02 Jun 2027 01:34:06.139            27.550            RioGallegos           860.938
        83   02 Jun 2027 01:36:09.475   02 Jun 2027 01:36:50.342            40.867            RioGallegos          1277.094
        84   02 Jun 2027 02:07:13.010   02 Jun 2027 02:07:37.001            23.991                Anadyr2           749.719
        85   02 Jun 2027 02:09:24.858   02 Jun 2027 02:11:18.086           113.228                Norilsk          3538.375
        86   02 Jun 2027 02:12:07.601   02 Jun 2027 02:13:19.556            71.955              Murmansk1          2248.594
        87   02 Jun 2027 02:13:30.566   02 Jun 2027 02:13:43.034            12.468                Irkutsk           389.625
        88   02 Jun 2027 02:14:31.828   02 Jun 2027 02:14:53.209            21.381                Irkutsk           668.156
        89   02 Jun 2027 02:17:31.907   02 Jun 2027 02:18:08.840            36.933                Irkutsk          1154.156
        90   02 Jun 2027 02:20:49.417   02 Jun 2027 02:21:08.315            18.898                Irkutsk           590.563
        91   02 Jun 2027 02:23:29.436   02 Jun 2027 02:23:44.353            14.917                  Delhi           466.156
        92   02 Jun 2027 02:27:11.882   02 Jun 2027 02:28:43.220            91.338                  Delhi          2854.312
        93   02 Jun 2027 03:02:44.799   02 Jun 2027 03:06:04.303           199.504            RioGallegos          6234.500
        94   02 Jun 2027 03:06:51.640   02 Jun 2027 03:07:56.474            64.834            RioGallegos          2026.063
        95   02 Jun 2027 03:53:53.627   02 Jun 2027 03:54:25.274            31.647              Murmansk2           988.969
        96   02 Jun 2027 03:54:25.274   02 Jun 2027 03:55:48.822            83.548              Murmansk1          2610.875
        97   02 Jun 2027 03:55:50.939   02 Jun 2027 03:56:40.391            49.452                Novosib          1545.375
        98   02 Jun 2027 03:56:47.380   02 Jun 2027 03:56:53.275             5.895                Norilsk           184.219
        99   02 Jun 2027 03:57:01.933   02 Jun 2027 03:58:21.677            79.744                 Moscow          2492.000
       100   02 Jun 2027 03:59:00.393   02 Jun 2027 03:59:59.701            59.308                Novosib          1853.375
       101   02 Jun 2027 04:00:49.656   02 Jun 2027 04:03:20.371           150.715                  Delhi          4709.844
       102   02 Jun 2027 05:31:49.276   02 Jun 2027 05:32:38.542            49.266              Murmansk1          1539.562
       103   02 Jun 2027 05:35:46.671   02 Jun 2027 05:38:11.884           145.213                 Moscow          4537.906
       104   02 Jun 2027 06:53:44.194   02 Jun 2027 06:54:04.954            20.760               Magadan2           648.750
       105   02 Jun 2027 06:54:26.702   02 Jun 2027 07:00:16.923           350.221                Anadyr2         10944.406
       106   02 Jun 2027 08:32:19.807   02 Jun 2027 08:33:30.207            70.400                Anadyr2          2200.000
       107   02 Jun 2027 08:34:13.266   02 Jun 2027 08:35:32.531            79.265                Anadyr1          2477.031
       108   02 Jun 2027 10:05:25.976   02 Jun 2027 10:05:42.116            16.140               Magadan1           504.375
       109   02 Jun 2027 10:06:38.226   02 Jun 2027 10:06:51.575            13.349               Magadan2           417.156
       110   02 Jun 2027 10:07:28.611   02 Jun 2027 10:09:42.344           133.733                Anadyr2          4179.156
       111   02 Jun 2027 10:10:03.875   02 Jun 2027 10:10:22.143            18.268                Irkutsk           570.875
       112   02 Jun 2027 10:10:27.173   02 Jun 2027 10:10:57.109            29.936               Magadan1           935.500
       113   02 Jun 2027 10:10:57.109   02 Jun 2027 10:10:58.867             1.758               Magadan2            54.938
       114   02 Jun 2027 10:11:00.932   02 Jun 2027 10:11:25.347            24.415                Norilsk           762.969
       115   02 Jun 2027 10:11:28.723   02 Jun 2027 10:11:48.729            20.006                Norilsk           625.188
       116   02 Jun 2027 10:46:24.503   02 Jun 2027 10:47:28.004            63.501            RioGallegos          1984.406
       117   02 Jun 2027 11:22:33.615   02 Jun 2027 11:22:53.881            20.266                Sumatra           633.312
       118   02 Jun 2027 11:23:54.325   02 Jun 2027 11:25:19.452            85.127                Sumatra          2660.219
       119   02 Jun 2027 11:41:46.452   02 Jun 2027 11:42:46.020            59.568                Novosib          1861.500
       120   02 Jun 2027 11:42:50.600   02 Jun 2027 11:43:14.537            23.937                Irkutsk           748.031
       121   02 Jun 2027 11:43:41.008   02 Jun 2027 11:44:39.776            58.768                Norilsk          1836.500
       122   02 Jun 2027 11:44:46.467   02 Jun 2027 11:44:46.968             0.501                Norilsk            15.656
       123   02 Jun 2027 11:44:53.695   02 Jun 2027 11:44:56.225             2.530                Norilsk            79.062
       124   02 Jun 2027 11:45:20.865   02 Jun 2027 11:45:23.355             2.490                Irkutsk            77.813
       125   02 Jun 2027 11:45:29.915   02 Jun 2027 11:45:41.159            11.244                Norilsk           351.375
       126   02 Jun 2027 11:45:46.571   02 Jun 2027 11:45:58.432            11.861                Novosib           370.656
       127   02 Jun 2027 11:46:19.735   02 Jun 2027 11:46:27.165             7.430                Novosib           232.188
       128   02 Jun 2027 11:46:30.851   02 Jun 2027 11:46:35.172             4.321                Norilsk           135.031
       129   02 Jun 2027 11:46:36.222   02 Jun 2027 11:47:03.680            27.458                Novosib           858.062
       130   02 Jun 2027 11:47:14.941   02 Jun 2027 11:47:45.982            31.041                Norilsk           970.031
       131   02 Jun 2027 12:23:13.007   02 Jun 2027 12:23:24.117            11.110            RioGallegos           347.187
       132   02 Jun 2027 12:24:39.741   02 Jun 2027 12:25:11.094            31.353            RioGallegos           979.781
       133   02 Jun 2027 12:27:25.132   02 Jun 2027 12:28:07.899            42.767            RioGallegos          1336.469
       134   02 Jun 2027 12:57:30.353   02 Jun 2027 12:58:06.221            35.868                Sumatra          1120.875
       135   02 Jun 2027 12:59:50.542   02 Jun 2027 13:02:09.499           138.957                Sumatra          4342.406
       136   02 Jun 2027 13:12:36.076   02 Jun 2027 13:12:59.460            23.384                Irkutsk           730.750
       137   02 Jun 2027 13:14:16.996   02 Jun 2027 13:15:29.243            72.247                Novosib          2257.719
       138   02 Jun 2027 13:15:46.301   02 Jun 2027 13:16:25.895            39.594                Irkutsk          1237.312
       139   02 Jun 2027 13:19:38.705   02 Jun 2027 13:20:12.204            33.499                Norilsk          1046.844
       140   02 Jun 2027 14:42:20.042   02 Jun 2027 14:44:57.090           157.048                  Delhi          4907.750
       141   02 Jun 2027 14:46:56.452   02 Jun 2027 14:47:51.231            54.779                  Delhi          1711.844
       142   02 Jun 2027 14:50:40.669   02 Jun 2027 14:52:47.806           127.137                Novosib          3973.031
       143   02 Jun 2027 14:53:46.552   02 Jun 2027 14:55:39.997           113.445                Novosib          3545.156
       144   02 Jun 2027 15:04:22.470   02 Jun 2027 15:04:30.798             8.328                Norilsk           260.250
       145   02 Jun 2027 16:25:50.219   02 Jun 2027 16:29:23.303           213.084                 Moscow          6658.875
       146   02 Jun 2027 16:30:00.821   02 Jun 2027 16:31:05.027            64.206              Murmansk2          2006.438
       147   02 Jun 2027 16:35:35.860   02 Jun 2027 16:39:38.938           243.078                Norilsk          7596.188
       148   02 Jun 2027 17:42:41.977   02 Jun 2027 17:42:49.590             7.613               CapeTown           237.906
       149   02 Jun 2027 17:43:42.613   02 Jun 2027 17:45:19.436            96.823               CapeTown          3025.719
       150   02 Jun 2027 18:04:45.102   02 Jun 2027 18:06:39.547           114.445                 Moscow          3576.406
       151   02 Jun 2027 18:07:10.036   02 Jun 2027 18:07:25.957            15.921              Murmansk2           497.531
       152   02 Jun 2027 18:10:25.867   02 Jun 2027 18:10:56.110            30.243              Murmansk1           945.094
       153   02 Jun 2027 18:12:16.441   02 Jun 2027 18:12:23.999             7.558              Murmansk1           236.188
       154   02 Jun 2027 18:15:57.159   02 Jun 2027 18:16:55.753            58.594              Murmansk1          1831.062
       155   02 Jun 2027 18:29:32.299   02 Jun 2027 18:29:42.231             9.932                Anadyr1           310.375
       156   02 Jun 2027 18:30:11.777   02 Jun 2027 18:30:34.462            22.685                Anadyr1           708.906
       157   02 Jun 2027 19:15:41.103   02 Jun 2027 19:17:05.768            84.665               CapeTown          2645.781
       158   02 Jun 2027 19:22:47.385   02 Jun 2027 19:23:44.150            56.765               CapeTown          1773.906
       159   02 Jun 2027 19:47:39.646   02 Jun 2027 19:49:29.058           109.412              Murmansk2          3419.125
       160   02 Jun 2027 19:49:29.058   02 Jun 2027 19:53:24.179           235.121              Murmansk1          7347.531
       161   02 Jun 2027 21:31:41.938   02 Jun 2027 21:35:26.694           224.756                Anadyr1          7023.625
       162   02 Jun 2027 21:35:33.629   02 Jun 2027 21:36:53.236            79.607                Anadyr2          2487.719
       163   02 Jun 2027 21:37:11.131   02 Jun 2027 21:40:01.271           170.140               Magadan1          5316.875
       164   02 Jun 2027 22:26:48.248   02 Jun 2027 22:29:52.657           184.409            RioGallegos          5762.781
       165   02 Jun 2027 22:32:59.962   02 Jun 2027 22:33:18.364            18.402            RioGallegos           575.063
       166   02 Jun 2027 23:07:27.009   02 Jun 2027 23:09:45.897           138.888                Anadyr2          4340.250
       167   02 Jun 2027 23:09:46.828   02 Jun 2027 23:11:09.411            82.583                Norilsk          2580.719
       168   02 Jun 2027 23:11:12.842   02 Jun 2027 23:11:26.023            13.181               Magadan1           411.906
       169   02 Jun 2027 23:11:37.761   02 Jun 2027 23:11:46.104             8.343               Magadan2           260.719
       170   02 Jun 2027 23:12:34.479   02 Jun 2027 23:12:54.562            20.083               Magadan1           627.594
       171   02 Jun 2027 23:14:04.233   02 Jun 2027 23:15:04.396            60.163                Irkutsk          1880.094
       172   02 Jun 2027 23:20:49.141   02 Jun 2027 23:20:59.639            10.498                Irkutsk           328.062
       173   02 Jun 2027 23:22:05.946   02 Jun 2027 23:22:37.986            32.040                Irkutsk          1001.250
       174   02 Jun 2027 23:23:30.443   02 Jun 2027 23:23:50.535            20.092                Irkutsk           627.875
       175   02 Jun 2027 23:28:17.547   02 Jun 2027 23:29:18.477            60.930                Sumatra          1904.063
       176   02 Jun 2027 23:33:24.351   02 Jun 2027 23:33:53.104            28.753                Sumatra           898.531
       177   02 Jun 2027 23:37:52.089   02 Jun 2027 23:38:43.221            51.132                Sumatra          1597.875
       178   03 Jun 2027 00:10:04.516   03 Jun 2027 00:10:12.710             8.194            RioGallegos           256.063
       179   03 Jun 2027 00:11:47.261   03 Jun 2027 00:12:01.369            14.108            RioGallegos           440.875
       180   03 Jun 2027 00:14:13.465   03 Jun 2027 00:14:14.108             0.643            RioGallegos            20.094
       181   03 Jun 2027 00:42:31.083   03 Jun 2027 00:44:46.772           135.689                Anadyr1          4240.281
       182   03 Jun 2027 00:45:45.731   03 Jun 2027 00:47:09.886            84.155                Norilsk          2629.844
       183   03 Jun 2027 00:47:22.104   03 Jun 2027 00:48:19.797            57.693               Magadan1          1802.906
       184   03 Jun 2027 00:49:18.755   03 Jun 2027 00:50:11.274            52.519                Irkutsk          1641.219
       185   03 Jun 2027 00:50:40.647   03 Jun 2027 00:51:00.795            20.148                Novosib           629.625
       186   03 Jun 2027 00:52:19.369   03 Jun 2027 00:52:36.092            16.723                Novosib           522.594
       187   03 Jun 2027 00:52:36.906   03 Jun 2027 00:53:21.198            44.292                Irkutsk          1384.125
       188   03 Jun 2027 00:58:17.540   03 Jun 2027 00:58:54.331            36.791                  Delhi          1149.719
       189   03 Jun 2027 01:01:00.698   03 Jun 2027 01:01:29.298            28.600                  Delhi           893.750
       190   03 Jun 2027 01:05:05.790   03 Jun 2027 01:05:30.874            25.084                  Delhi           783.875
       191   03 Jun 2027 01:09:03.592   03 Jun 2027 01:11:02.724           119.132                Sumatra          3722.875
       192   03 Jun 2027 02:16:21.672   03 Jun 2027 02:16:40.693            19.021                Anadyr2           594.406
       193   03 Jun 2027 02:16:40.693   03 Jun 2027 02:17:25.119            44.426                Anadyr1          1388.312
       194   03 Jun 2027 02:18:33.670   03 Jun 2027 02:18:47.974            14.304                Anadyr1           447.000
       195   03 Jun 2027 02:21:26.959   03 Jun 2027 02:23:05.330            98.371                Norilsk          3074.094
       196   03 Jun 2027 02:24:00.117   03 Jun 2027 02:24:07.503             7.386              Murmansk1           230.813
       197   03 Jun 2027 02:24:31.268   03 Jun 2027 02:25:19.870            48.602              Murmansk2          1518.813
       198   03 Jun 2027 02:25:24.874   03 Jun 2027 02:25:27.168             2.294              Murmansk1            71.687
       199   03 Jun 2027 02:25:29.214   03 Jun 2027 02:26:02.128            32.914                Novosib          1028.562
       200   03 Jun 2027 02:26:26.671   03 Jun 2027 02:27:00.103            33.432                Irkutsk          1044.750
       201   03 Jun 2027 02:29:39.855   03 Jun 2027 02:30:00.193            20.338                Irkutsk           635.563
       202   03 Jun 2027 02:31:52.602   03 Jun 2027 02:31:58.444             5.842                Irkutsk           182.563
       203   03 Jun 2027 02:32:35.419   03 Jun 2027 02:34:36.408           120.989                  Delhi          3780.906
       204   03 Jun 2027 03:15:14.455   03 Jun 2027 03:15:55.806            41.351            RioGallegos          1292.219
       205   03 Jun 2027 03:17:00.980   03 Jun 2027 03:18:11.173            70.193            RioGallegos          2193.531
       206   03 Jun 2027 03:19:32.837   03 Jun 2027 03:19:45.150            12.313            RioGallegos           384.781
       207   03 Jun 2027 04:05:02.180   03 Jun 2027 04:05:39.117            36.937              Murmansk1          1154.281
       208   03 Jun 2027 04:05:48.815   03 Jun 2027 04:06:00.617            11.802              Murmansk1           368.812
       209   03 Jun 2027 04:06:09.490   03 Jun 2027 04:06:20.472            10.982                Norilsk           343.188
       210   03 Jun 2027 04:06:21.374   03 Jun 2027 04:06:25.406             4.032              Murmansk1           126.000
       211   03 Jun 2027 04:06:33.122   03 Jun 2027 04:07:05.998            32.876              Murmansk1          1027.375
       212   03 Jun 2027 04:07:19.743   03 Jun 2027 04:07:37.864            18.121              Murmansk1           566.281
       213   03 Jun 2027 04:08:06.639   03 Jun 2027 04:09:07.634            60.995                Norilsk          1906.094
       214   03 Jun 2027 04:09:09.947   03 Jun 2027 04:09:54.923            44.976              Murmansk1          1405.500
       215   03 Jun 2027 04:11:55.907   03 Jun 2027 04:12:09.603            13.696                Novosib           428.000
       216   03 Jun 2027 05:34:08.220   03 Jun 2027 05:34:43.999            35.779               Magadan1          1118.094
       217   03 Jun 2027 05:43:39.435   03 Jun 2027 05:44:00.909            21.474              Murmansk1           671.062
       218   03 Jun 2027 05:46:12.776   03 Jun 2027 05:46:24.649            11.873                 Moscow           371.031
       219   03 Jun 2027 05:47:51.242   03 Jun 2027 05:48:21.829            30.587                 Moscow           955.844
       220   03 Jun 2027 05:48:47.588   03 Jun 2027 05:49:05.790            18.202                 Moscow           568.812
       221   03 Jun 2027 05:50:16.188   03 Jun 2027 05:51:14.795            58.607                 Moscow          1831.469
       222   03 Jun 2027 06:02:48.098   03 Jun 2027 06:03:22.427            34.329               CapeTown          1072.781
       223   03 Jun 2027 06:07:15.262   03 Jun 2027 06:07:42.845            27.583               CapeTown           861.969
       224   03 Jun 2027 06:08:23.488   03 Jun 2027 06:09:07.159            43.671               CapeTown          1364.719
       225   03 Jun 2027 06:13:49.397   03 Jun 2027 06:14:14.579            25.182               CapeTown           786.937
       226   03 Jun 2027 07:05:43.594   03 Jun 2027 07:06:07.733            24.139               Magadan1           754.344
       227   03 Jun 2027 07:06:10.413   03 Jun 2027 07:06:39.878            29.465               Magadan1           920.781
       228   03 Jun 2027 07:07:00.067   03 Jun 2027 07:07:48.850            48.783               Magadan1          1524.469
       229   03 Jun 2027 07:07:51.733   03 Jun 2027 07:08:02.117            10.384                Anadyr2           324.500
       230   03 Jun 2027 07:08:02.117   03 Jun 2027 07:08:30.561            28.444                Anadyr1           888.875
       231   03 Jun 2027 07:09:15.220   03 Jun 2027 07:10:09.446            54.226                Anadyr1          1694.563
       232   03 Jun 2027 08:42:03.935   03 Jun 2027 08:42:47.716            43.781               Magadan1          1368.156
       233   03 Jun 2027 08:43:01.606   03 Jun 2027 08:43:16.620            15.014               Magadan1           469.188
       234   03 Jun 2027 08:43:19.368   03 Jun 2027 08:44:04.235            44.867               Magadan2          1402.094
       235   03 Jun 2027 08:44:07.859   03 Jun 2027 08:44:41.787            33.928               Magadan1          1060.250
       236   03 Jun 2027 08:45:19.499   03 Jun 2027 08:46:14.520            55.021                Anadyr1          1719.406
       237   03 Jun 2027 08:46:14.520   03 Jun 2027 08:47:03.572            49.052                Anadyr2          1532.875
       238   03 Jun 2027 10:17:16.481   03 Jun 2027 10:18:04.775            48.294               Magadan1          1509.187
       239   03 Jun 2027 10:18:09.326   03 Jun 2027 10:18:47.533            38.207               Magadan1          1193.969
       240   03 Jun 2027 10:19:50.010   03 Jun 2027 10:21:50.878           120.868               Magadan1          3777.125
       241   03 Jun 2027 10:22:53.534   03 Jun 2027 10:23:11.254            17.720                Irkutsk           553.750
       242   03 Jun 2027 10:23:15.813   03 Jun 2027 10:23:22.580             6.767               Magadan2           211.469
       243   03 Jun 2027 10:28:00.548   03 Jun 2027 10:28:15.599            15.051                Norilsk           470.344
       244   03 Jun 2027 10:58:20.532   03 Jun 2027 10:59:27.219            66.687            RioGallegos          2083.969
       245   03 Jun 2027 11:34:03.923   03 Jun 2027 11:35:02.933            59.010                Sumatra          1844.063
       246   03 Jun 2027 11:54:25.144   03 Jun 2027 11:54:59.216            34.072                Irkutsk          1064.750
       247   03 Jun 2027 11:55:11.131   03 Jun 2027 11:55:11.548             0.417                Irkutsk            13.031
       248   03 Jun 2027 11:55:50.196   03 Jun 2027 11:56:25.171            34.975                Irkutsk          1092.969
       249   03 Jun 2027 11:56:41.958   03 Jun 2027 11:56:46.728             4.770                Norilsk           149.063
       250   03 Jun 2027 11:56:56.998   03 Jun 2027 11:57:08.363            11.365                Norilsk           355.156
       251   03 Jun 2027 11:57:09.377   03 Jun 2027 11:58:08.843            59.466                Novosib          1858.313
       252   03 Jun 2027 11:58:16.088   03 Jun 2027 11:58:23.422             7.334                Novosib           229.188
       253   03 Jun 2027 11:58:24.974   03 Jun 2027 11:58:36.245            11.271                Novosib           352.219
       254   03 Jun 2027 11:58:46.234   03 Jun 2027 11:59:22.254            36.020                Norilsk          1125.625
       255   03 Jun 2027 11:59:34.544   03 Jun 2027 12:00:28.824            54.280                Norilsk          1696.250
       256   03 Jun 2027 12:35:39.974   03 Jun 2027 12:36:22.350            42.376            RioGallegos          1324.250
       257   03 Jun 2027 12:40:49.272   03 Jun 2027 12:41:51.615            62.343            RioGallegos          1948.219
       258   03 Jun 2027 12:45:08.024   03 Jun 2027 12:45:39.733            31.709            RioGallegos           990.906
       259   03 Jun 2027 13:09:53.587   03 Jun 2027 13:11:05.001            71.414                Sumatra          2231.687
       260   03 Jun 2027 13:15:10.246   03 Jun 2027 13:15:17.782             7.536                Sumatra           235.500
       261   03 Jun 2027 13:16:56.884   03 Jun 2027 13:17:49.358            52.474                Sumatra          1639.812
       262   03 Jun 2027 13:19:53.078   03 Jun 2027 13:20:41.151            48.073                Sumatra          1502.281
       263   03 Jun 2027 13:25:15.126   03 Jun 2027 13:27:43.380           148.254                Irkutsk          4632.937
       264   03 Jun 2027 14:54:56.906   03 Jun 2027 14:57:40.854           163.948                  Delhi          5123.375
       265   03 Jun 2027 15:03:02.259   03 Jun 2027 15:03:31.331            29.072                 Moscow           908.500
       266   03 Jun 2027 15:05:08.174   03 Jun 2027 15:08:39.364           211.190                Novosib          6599.688
       267   03 Jun 2027 15:11:27.955   03 Jun 2027 15:11:58.164            30.209                Norilsk           944.031
       268   03 Jun 2027 16:38:00.290   03 Jun 2027 16:39:41.627           101.337                 Moscow          3166.781
       269   03 Jun 2027 16:40:59.875   03 Jun 2027 16:42:19.656            79.781                 Moscow          2493.156
       270   03 Jun 2027 16:42:30.245   03 Jun 2027 16:43:07.370            37.125              Murmansk2          1160.156
       271   03 Jun 2027 16:45:10.063   03 Jun 2027 16:45:14.015             3.952              Murmansk1           123.500
       272   03 Jun 2027 16:46:14.402   03 Jun 2027 16:46:28.555            14.153              Murmansk2           442.281
       273   03 Jun 2027 16:47:48.054   03 Jun 2027 16:48:20.905            32.851              Murmansk1          1026.594
       274   03 Jun 2027 16:48:52.778   03 Jun 2027 16:50:26.795            94.017                Norilsk          2938.031
       275   03 Jun 2027 16:50:57.241   03 Jun 2027 16:51:07.687            10.446                Norilsk           326.437
       276   03 Jun 2027 16:57:08.342   03 Jun 2027 16:57:40.983            32.641                Anadyr1          1020.031
       277   03 Jun 2027 17:00:51.389   03 Jun 2027 17:01:01.746            10.357                Anadyr2           323.656
       278   03 Jun 2027 17:51:22.401   03 Jun 2027 17:52:42.740            80.339               CapeTown          2510.594
       279   03 Jun 2027 17:57:25.007   03 Jun 2027 17:57:41.311            16.304               CapeTown           509.500
       280   03 Jun 2027 17:58:14.501   03 Jun 2027 17:58:18.071             3.570               CapeTown           111.563
       281   03 Jun 2027 17:58:53.303   03 Jun 2027 17:59:38.970            45.667               CapeTown          1427.094
       282   03 Jun 2027 18:17:36.256   03 Jun 2027 18:22:00.943           264.687                 Moscow          8271.469
       283   03 Jun 2027 18:22:01.785   03 Jun 2027 18:22:08.707             6.922                 Moscow           216.312
       284   03 Jun 2027 18:38:44.480   03 Jun 2027 18:39:22.548            38.068                Anadyr1          1189.625
       285   03 Jun 2027 19:28:00.062   03 Jun 2027 19:29:09.477            69.415               CapeTown          2169.219
       286   03 Jun 2027 19:31:01.212   03 Jun 2027 19:31:08.366             7.154               CapeTown           223.562
       287   03 Jun 2027 19:32:13.049   03 Jun 2027 19:32:55.542            42.493               CapeTown          1327.906
       288   03 Jun 2027 19:35:26.560   03 Jun 2027 19:35:53.446            26.886               CapeTown           840.188
       289   03 Jun 2027 20:00:37.526   03 Jun 2027 20:04:58.440           260.914              Murmansk2          8153.562
       290   03 Jun 2027 20:10:25.688   03 Jun 2027 20:10:41.055            15.367               Magadan1           480.219
       291   03 Jun 2027 20:13:49.672   03 Jun 2027 20:13:57.006             7.334               Magadan1           229.188
       292   03 Jun 2027 20:14:55.183   03 Jun 2027 20:15:02.346             7.163               Magadan1           223.844
       293   03 Jun 2027 20:16:14.824   03 Jun 2027 20:16:24.249             9.425               Magadan2           294.531
       294   03 Jun 2027 20:16:36.090   03 Jun 2027 20:17:05.160            29.070               Magadan2           908.437
       295   03 Jun 2027 20:18:47.470   03 Jun 2027 20:19:25.509            38.039               Magadan1          1188.719
       296   03 Jun 2027 20:20:50.318   03 Jun 2027 20:20:58.813             8.495               Magadan1           265.469
       297   03 Jun 2027 21:43:43.294   03 Jun 2027 21:48:50.804           307.510                Anadyr1          9609.687
       298   03 Jun 2027 21:49:03.217   03 Jun 2027 21:49:04.022             0.805                Norilsk            25.156
       299   03 Jun 2027 21:49:11.746   03 Jun 2027 21:51:44.661           152.915               Magadan1          4778.594
       300   03 Jun 2027 21:56:53.150   03 Jun 2027 21:56:59.001             5.851               Magadan1           182.844
       301   03 Jun 2027 21:58:20.837   03 Jun 2027 21:58:54.336            33.499               Magadan1          1046.844
       302   03 Jun 2027 22:38:28.735   03 Jun 2027 22:40:22.058           113.323            RioGallegos          3541.344
       303   03 Jun 2027 22:43:07.978   03 Jun 2027 22:43:25.954            17.976            RioGallegos           561.750
       304   03 Jun 2027 22:43:53.988   03 Jun 2027 22:44:13.867            19.879            RioGallegos           621.219
       305   03 Jun 2027 23:19:25.206   03 Jun 2027 23:21:06.654           101.448                Anadyr1          3170.250
       306   03 Jun 2027 23:21:06.654   03 Jun 2027 23:21:32.132            25.478                Anadyr2           796.188
       307   03 Jun 2027 23:21:32.848   03 Jun 2027 23:23:11.318            98.470                Norilsk          3077.187
       308   03 Jun 2027 23:23:15.597   03 Jun 2027 23:24:21.871            66.274               Magadan2          2071.062
       309   03 Jun 2027 23:24:47.009   03 Jun 2027 23:24:49.665             2.656               Magadan2            83.000
       310   03 Jun 2027 23:25:54.343   03 Jun 2027 23:26:18.982            24.639                Irkutsk           769.969
       311   03 Jun 2027 23:27:55.040   03 Jun 2027 23:28:05.813            10.773                Irkutsk           336.656
       312   03 Jun 2027 23:35:22.648   03 Jun 2027 23:36:02.581            39.933                Irkutsk          1247.906
       313   03 Jun 2027 23:39:52.452   03 Jun 2027 23:41:12.231            79.779                Sumatra          2493.094
       314   03 Jun 2027 23:41:47.480   03 Jun 2027 23:43:04.138            76.658                Sumatra          2395.562
       315   04 Jun 2027 00:21:00.877   04 Jun 2027 00:21:31.426            30.549            RioGallegos           954.656
       316   04 Jun 2027 00:54:21.175   04 Jun 2027 00:54:43.071            21.896                Anadyr2           684.250
       317   04 Jun 2027 00:54:43.071   04 Jun 2027 00:55:04.430            21.359                Anadyr1           667.469
       318   04 Jun 2027 00:55:44.261   04 Jun 2027 00:56:37.898            53.637                Anadyr2          1676.156
       319   04 Jun 2027 00:56:37.898   04 Jun 2027 00:57:03.989            26.091                Anadyr1           815.344
       320   04 Jun 2027 00:57:28.333   04 Jun 2027 00:59:10.325           101.992                Norilsk          3187.250
       321   04 Jun 2027 00:59:22.634   04 Jun 2027 00:59:24.191             1.557               Magadan1            48.656
       322   04 Jun 2027 00:59:42.722   04 Jun 2027 01:00:28.986            46.264               Magadan1          1445.750
       323   04 Jun 2027 01:01:20.568   04 Jun 2027 01:03:17.241           116.673                Irkutsk          3646.031
       324   04 Jun 2027 01:08:32.399   04 Jun 2027 01:09:57.483            85.084                Novosib          2658.875
       325   04 Jun 2027 01:19:46.554   04 Jun 2027 01:19:56.285             9.731                  Delhi           304.094
       326   04 Jun 2027 01:20:14.870   04 Jun 2027 01:21:18.589            63.719                Sumatra          1991.219
       327   04 Jun 2027 01:26:13.007   04 Jun 2027 01:26:26.018            13.011                Sumatra           406.594
       328   04 Jun 2027 01:54:22.732   04 Jun 2027 01:54:59.694            36.962            RioGallegos          1155.062
       329   04 Jun 2027 01:57:42.000   04 Jun 2027 01:57:58.025            16.025            RioGallegos           500.781
       330   04 Jun 2027 02:00:13.803   04 Jun 2027 02:00:32.826            19.023            RioGallegos           594.469
       331   04 Jun 2027 02:28:03.289   04 Jun 2027 02:28:42.038            38.749                Anadyr2          1210.906
       332   04 Jun 2027 02:33:28.930   04 Jun 2027 02:35:22.981           114.051                Norilsk          3564.094
       333   04 Jun 2027 02:35:55.246   04 Jun 2027 02:36:08.304            13.058              Murmansk2           408.062
       334   04 Jun 2027 02:36:39.685   04 Jun 2027 02:37:20.617            40.932              Murmansk1          1279.125
       335   04 Jun 2027 02:37:25.851   04 Jun 2027 02:37:50.563            24.712                Novosib           772.250
       336   04 Jun 2027 02:38:03.471   04 Jun 2027 02:38:28.620            25.149                Irkutsk           785.906
       337   04 Jun 2027 02:38:35.825   04 Jun 2027 02:39:36.647            60.822                Irkutsk          1900.688
       338   04 Jun 2027 02:41:07.069   04 Jun 2027 02:41:08.781             1.712                Irkutsk            53.500
       339   04 Jun 2027 02:42:05.921   04 Jun 2027 02:43:14.759            68.838                Irkutsk          2151.187
       340   04 Jun 2027 02:54:47.284   04 Jun 2027 02:56:09.170            81.886                  Delhi          2558.938
       341   04 Jun 2027 03:28:08.987   04 Jun 2027 03:28:09.414             0.427            RioGallegos            13.344
       342   04 Jun 2027 03:29:08.626   04 Jun 2027 03:29:31.513            22.887            RioGallegos           715.219
       343   04 Jun 2027 04:17:47.733   04 Jun 2027 04:19:03.490            75.757                Novosib          2367.406
       344   04 Jun 2027 04:19:31.452   04 Jun 2027 04:20:43.793            72.341                Novosib          2260.656
       345   04 Jun 2027 04:20:51.833   04 Jun 2027 04:21:11.607            19.774              Murmansk2           617.938
       346   04 Jun 2027 04:21:56.785   04 Jun 2027 04:23:44.969           108.184                Novosib          3380.750
       347   04 Jun 2027 04:24:09.857   04 Jun 2027 04:25:38.439            88.582                 Moscow          2768.187
       348   04 Jun 2027 04:45:30.950   04 Jun 2027 04:49:04.521           213.571               CapeTown          6674.094
       349   04 Jun 2027 05:55:30.304   04 Jun 2027 05:55:54.761            24.457              Murmansk1           764.281
       350   04 Jun 2027 05:57:23.279   04 Jun 2027 05:58:27.712            64.433                 Moscow          2013.531
       351   04 Jun 2027 05:59:31.610   04 Jun 2027 05:59:59.876            28.266              Murmansk1           883.313
       352   04 Jun 2027 06:02:18.898   04 Jun 2027 06:02:23.317             4.419                 Moscow           138.094
       353   04 Jun 2027 06:15:02.975   04 Jun 2027 06:15:36.644            33.669               CapeTown          1052.156
       354   04 Jun 2027 06:15:56.083   04 Jun 2027 06:16:39.403            43.320               CapeTown          1353.750
       355   04 Jun 2027 06:19:46.875   04 Jun 2027 06:20:32.044            45.169               CapeTown          1411.531
       356   04 Jun 2027 07:18:10.342   04 Jun 2027 07:18:36.103            25.761               Magadan2           805.031
       357   04 Jun 2027 07:18:37.928   04 Jun 2027 07:19:49.404            71.476               Magadan2          2233.625
       358   04 Jun 2027 07:20:04.559   04 Jun 2027 07:20:32.220            27.661                Anadyr1           864.406
       359   04 Jun 2027 07:20:40.343   04 Jun 2027 07:20:56.293            15.950               Magadan1           498.438
       360   04 Jun 2027 07:21:26.723   04 Jun 2027 07:22:09.043            42.320                Anadyr2          1322.500
       361   04 Jun 2027 08:54:03.729   04 Jun 2027 08:54:53.793            50.064               Magadan1          1564.500
       362   04 Jun 2027 08:55:08.804   04 Jun 2027 08:55:24.433            15.629               Magadan1           488.406
       363   04 Jun 2027 08:55:29.053   04 Jun 2027 08:57:03.940            94.887                Anadyr2          2965.219
       364   04 Jun 2027 08:57:38.395   04 Jun 2027 08:57:56.308            17.913               Magadan2           559.781
       365   04 Jun 2027 08:58:15.487   04 Jun 2027 08:59:54.497            99.010                Anadyr2          3094.062
       366   04 Jun 2027 10:30:31.295   04 Jun 2027 10:30:58.082            26.787               Magadan1           837.094
       367   04 Jun 2027 10:30:59.711   04 Jun 2027 10:31:46.346            46.635               Magadan1          1457.344
       368   04 Jun 2027 10:31:46.618   04 Jun 2027 10:33:51.043           124.425               Magadan1          3888.281
       369   04 Jun 2027 10:34:12.283   04 Jun 2027 10:35:07.720            55.437                Irkutsk          1732.406
       370   04 Jun 2027 10:35:18.440   04 Jun 2027 10:35:33.649            15.209                Irkutsk           475.281
       371   04 Jun 2027 10:35:43.746   04 Jun 2027 10:35:47.187             3.441                Norilsk           107.531
       372   04 Jun 2027 11:10:19.843   04 Jun 2027 11:11:54.811            94.968            RioGallegos          2967.750
       373   04 Jun 2027 11:45:42.911   04 Jun 2027 11:46:16.465            33.554                Sumatra          1048.562
       374   04 Jun 2027 11:47:58.546   04 Jun 2027 11:48:28.795            30.249                Sumatra           945.281
       375   04 Jun 2027 12:05:41.067   04 Jun 2027 12:06:04.905            23.838                Irkutsk           744.937
       376   04 Jun 2027 12:07:52.004   04 Jun 2027 12:08:01.956             9.952                Irkutsk           311.000
       377   04 Jun 2027 12:09:54.273   04 Jun 2027 12:10:13.318            19.045                Novosib           595.156
       378   04 Jun 2027 12:11:31.219   04 Jun 2027 12:12:30.884            59.665                Norilsk          1864.531
       379   04 Jun 2027 12:51:57.687   04 Jun 2027 12:53:13.154            75.467            RioGallegos          2358.344
       380   04 Jun 2027 13:23:02.000   04 Jun 2027 13:24:41.751            99.751                Sumatra          3117.219
       381   04 Jun 2027 13:26:13.815   04 Jun 2027 13:27:28.788            74.973                Sumatra          2342.906
       382   04 Jun 2027 13:38:02.878   04 Jun 2027 13:39:20.029            77.151                Irkutsk          2410.969
       383   04 Jun 2027 13:44:53.466   04 Jun 2027 13:45:29.070            35.604                Irkutsk          1112.625
       384   04 Jun 2027 13:49:14.776   04 Jun 2027 13:49:31.220            16.444                Norilsk           513.875
       385   04 Jun 2027 13:52:02.801   04 Jun 2027 13:52:16.159            13.358                Norilsk           417.437
       386   04 Jun 2027 15:07:47.215   04 Jun 2027 15:10:19.524           152.309                  Delhi          4759.656
       387   04 Jun 2027 15:14:33.839   04 Jun 2027 15:15:04.004            30.165                 Moscow           942.656
       388   04 Jun 2027 15:16:18.029   04 Jun 2027 15:20:28.697           250.668                Novosib          7833.375
       389   04 Jun 2027 16:30:46.353   04 Jun 2027 16:30:54.405             8.052               CapeTown           251.625
       390   04 Jun 2027 16:31:03.362   04 Jun 2027 16:31:52.403            49.041               CapeTown          1532.531
       391   04 Jun 2027 16:35:23.380   04 Jun 2027 16:35:35.881            12.501               CapeTown           390.656
       392   04 Jun 2027 16:50:13.745   04 Jun 2027 16:51:04.052            50.307                 Moscow          1572.094
       393   04 Jun 2027 16:52:58.703   04 Jun 2027 16:53:45.296            46.593                 Moscow          1456.031
       394   04 Jun 2027 16:54:31.882   04 Jun 2027 16:55:06.891            35.009              Murmansk2          1094.031
       395   04 Jun 2027 16:56:36.225   04 Jun 2027 16:57:03.209            26.984              Murmansk2           843.250
       396   04 Jun 2027 17:01:57.699   04 Jun 2027 17:02:21.365            23.666              Murmansk1           739.563
       397   04 Jun 2027 17:08:50.912   04 Jun 2027 17:09:45.549            54.637                Anadyr1          1707.406
       398   04 Jun 2027 17:10:10.287   04 Jun 2027 17:10:14.607             4.320                Anadyr1           135.000
       399   04 Jun 2027 17:10:46.298   04 Jun 2027 17:11:14.662            28.364                Anadyr1           886.375
       400   04 Jun 2027 17:11:24.642   04 Jun 2027 17:11:44.223            19.581                Anadyr1           611.906
       401   04 Jun 2027 17:13:02.716   04 Jun 2027 17:13:47.246            44.530                Anadyr1          1391.562
       402   04 Jun 2027 18:04:05.960   04 Jun 2027 18:05:31.360            85.400               CapeTown          2668.750
       403   04 Jun 2027 18:30:41.068   04 Jun 2027 18:34:22.343           221.275                 Moscow          6914.844
       404   04 Jun 2027 18:36:11.328   04 Jun 2027 18:36:35.645            24.317              Murmansk2           759.906
       405   04 Jun 2027 18:37:39.067   04 Jun 2027 18:37:47.139             8.072              Murmansk2           252.250
       406   04 Jun 2027 18:43:57.390   04 Jun 2027 18:44:07.868            10.478                Anadyr2           327.437
       407   04 Jun 2027 18:44:27.700   04 Jun 2027 18:44:38.745            11.045                Anadyr2           345.156
       408   04 Jun 2027 18:44:48.191   04 Jun 2027 18:45:11.284            23.093                Anadyr2           721.656
       409   04 Jun 2027 18:49:41.644   04 Jun 2027 18:50:27.776            46.132               Magadan1          1441.625
       410   04 Jun 2027 18:50:59.940   04 Jun 2027 18:51:01.473             1.533               Magadan1            47.906
       411   04 Jun 2027 19:40:25.003   04 Jun 2027 19:41:18.154            53.151               CapeTown          1660.969
       412   04 Jun 2027 19:43:59.313   04 Jun 2027 19:45:38.348            99.035               CapeTown          3094.844
       413   04 Jun 2027 20:13:51.298   04 Jun 2027 20:16:39.163           167.865              Murmansk1          5245.781
       414   04 Jun 2027 20:22:21.288   04 Jun 2027 20:24:17.829           116.541               Magadan2          3641.906
       415   04 Jun 2027 20:28:54.394   04 Jun 2027 20:29:37.484            43.090               Magadan1          1346.563
       416   04 Jun 2027 21:55:44.431   04 Jun 2027 21:59:31.118           226.687                Anadyr2          7083.969
       417   04 Jun 2027 22:00:02.230   04 Jun 2027 22:01:40.813            98.583               Magadan1          3080.719
       418   04 Jun 2027 22:01:40.813   04 Jun 2027 22:03:13.865            93.052               Magadan2          2907.875
       419   04 Jun 2027 22:04:31.758   04 Jun 2027 22:04:41.054             9.296               Magadan1           290.500
       420   04 Jun 2027 22:05:00.846   04 Jun 2027 22:05:25.737            24.891               Magadan1           777.844
       421   04 Jun 2027 22:50:14.431   04 Jun 2027 22:52:18.355           123.924            RioGallegos          3872.625
       422   04 Jun 2027 22:53:35.905   04 Jun 2027 22:54:05.438            29.533            RioGallegos           922.906
       423   04 Jun 2027 22:59:09.746   04 Jun 2027 22:59:40.043            30.297            RioGallegos           946.781
       424   04 Jun 2027 23:31:22.687   04 Jun 2027 23:33:22.476           119.789                Anadyr1          3743.406
       425   04 Jun 2027 23:33:33.327   04 Jun 2027 23:35:13.351           100.024                Norilsk          3125.750
       426   04 Jun 2027 23:35:15.859   04 Jun 2027 23:35:18.462             2.603               Magadan1            81.344
       427   04 Jun 2027 23:35:21.656   04 Jun 2027 23:36:07.177            45.521               Magadan2          1422.531
       428   04 Jun 2027 23:37:47.033   04 Jun 2027 23:38:31.218            44.185                Irkutsk          1380.781
       429   04 Jun 2027 23:39:57.535   04 Jun 2027 23:40:54.126            56.591                Novosib          1768.469
       430   04 Jun 2027 23:42:41.514   04 Jun 2027 23:43:19.726            38.212                Novosib          1194.125
       431   04 Jun 2027 23:51:35.134   04 Jun 2027 23:52:13.844            38.710                Sumatra          1209.688
       432   04 Jun 2027 23:53:31.696   04 Jun 2027 23:54:07.676            35.980                Sumatra          1124.375
       433   04 Jun 2027 23:55:01.294   04 Jun 2027 23:55:22.186            20.892                Sumatra           652.875
       434   04 Jun 2027 23:59:21.336   05 Jun 2027 00:01:00.414            99.078                Sumatra          3096.187
       435   05 Jun 2027 01:06:40.844   05 Jun 2027 01:07:45.591            64.747                Anadyr1          2023.344
       436   05 Jun 2027 01:08:24.500   05 Jun 2027 01:08:53.247            28.747                Anadyr2           898.344
       437   05 Jun 2027 01:09:30.668   05 Jun 2027 01:10:42.069            71.401                Norilsk          2231.281
       438   05 Jun 2027 01:11:09.156   05 Jun 2027 01:11:13.819             4.663                Norilsk           145.719
       439   05 Jun 2027 01:11:18.316   05 Jun 2027 01:11:41.224            22.908               Magadan2           715.875
       440   05 Jun 2027 01:13:23.203   05 Jun 2027 01:16:35.391           192.188                Irkutsk          6005.875
       441   05 Jun 2027 01:21:24.603   05 Jun 2027 01:21:46.817            22.214                  Delhi           694.188
       442   05 Jun 2027 01:22:47.999   05 Jun 2027 01:24:04.689            76.690                  Delhi          2396.562
       443   05 Jun 2027 01:29:53.612   05 Jun 2027 01:32:11.323           137.711                Sumatra          4303.469
       444   05 Jun 2027 02:42:09.644   05 Jun 2027 02:42:41.554            31.910                Anadyr1           997.188
       445   05 Jun 2027 02:45:30.756   05 Jun 2027 02:47:05.937            95.181                Norilsk          2974.406
       446   05 Jun 2027 02:47:52.149   05 Jun 2027 02:48:46.388            54.239              Murmansk1          1694.969
       447   05 Jun 2027 02:49:18.178   05 Jun 2027 02:50:07.974            49.796                Novosib          1556.125
       448   05 Jun 2027 02:50:08.068   05 Jun 2027 02:50:53.705            45.637                Irkutsk          1426.156
       449   05 Jun 2027 02:53:41.187   05 Jun 2027 02:54:09.252            28.065                Irkutsk           877.031
       450   05 Jun 2027 02:56:53.100   05 Jun 2027 02:57:17.896            24.796                  Delhi           774.875
       451   05 Jun 2027 04:30:15.441   05 Jun 2027 04:30:21.464             6.023              Murmansk1           188.219
       452   05 Jun 2027 04:30:29.504   05 Jun 2027 04:30:42.372            12.868                Norilsk           402.125
       453   05 Jun 2027 04:30:51.838   05 Jun 2027 04:32:42.582           110.744                Novosib          3460.750
       454   05 Jun 2027 04:32:50.934   05 Jun 2027 04:33:06.617            15.683                Norilsk           490.094
       455   05 Jun 2027 04:33:47.037   05 Jun 2027 04:34:37.820            50.783                 Moscow          1586.969
       456   05 Jun 2027 04:35:05.893   05 Jun 2027 04:35:16.587            10.694                 Moscow           334.188
       457   05 Jun 2027 04:36:14.139   05 Jun 2027 04:39:22.394           188.255                 Moscow          5882.969
       458   05 Jun 2027 04:51:26.162   05 Jun 2027 05:00:47.099           560.937               CapeTown         17529.281
       459   05 Jun 2027 05:47:35.666   05 Jun 2027 05:50:05.382           149.716                Anadyr1          4678.625
       460   05 Jun 2027 05:50:05.382   05 Jun 2027 05:51:15.306            69.924                Anadyr2          2185.125
       461   05 Jun 2027 05:52:06.185   05 Jun 2027 05:52:07.823             1.638               Magadan1            51.188
       462   05 Jun 2027 05:52:07.823   05 Jun 2027 05:52:12.492             4.669               Magadan2           145.906
       463   05 Jun 2027 05:52:55.956   05 Jun 2027 05:53:58.807            62.851               Magadan2          1964.094
       464   05 Jun 2027 05:55:04.259   05 Jun 2027 05:56:08.172            63.913                Anadyr2          1997.281
       465   05 Jun 2027 05:56:08.200   05 Jun 2027 05:56:34.222            26.022               Magadan1           813.187
       466   05 Jun 2027 06:08:02.381   05 Jun 2027 06:08:24.953            22.572                 Moscow           705.375
       467   05 Jun 2027 06:08:25.497   05 Jun 2027 06:08:39.639            14.142              Murmansk1           441.938
       468   05 Jun 2027 06:11:37.753   05 Jun 2027 06:11:51.519            13.766                 Moscow           430.188
       469   05 Jun 2027 06:27:24.219   05 Jun 2027 06:28:37.907            73.688               CapeTown          2302.750
       470   05 Jun 2027 06:31:51.690   05 Jun 2027 06:32:43.468            51.778               CapeTown          1618.063
       471   05 Jun 2027 07:30:12.754   05 Jun 2027 07:30:38.390            25.636               Magadan2           801.125
       472   05 Jun 2027 07:31:02.066   05 Jun 2027 07:32:33.741            91.675                Anadyr2          2864.844
       473   05 Jun 2027 07:32:43.056   05 Jun 2027 07:32:47.638             4.582                Anadyr2           143.188
       474   05 Jun 2027 07:32:47.638   05 Jun 2027 07:33:40.600            52.962                Anadyr1          1655.062
       475   05 Jun 2027 07:42:54.569   05 Jun 2027 07:43:20.890            26.321                 Moscow           822.531
       476   05 Jun 2027 09:05:42.852   05 Jun 2027 09:07:45.039           122.187                Anadyr1          3818.344
       477   05 Jun 2027 09:08:03.385   05 Jun 2027 09:08:07.354             3.969               Magadan1           124.031
       478   05 Jun 2027 09:08:10.926   05 Jun 2027 09:09:01.480            50.554               Magadan2          1579.812
       479   05 Jun 2027 09:09:16.888   05 Jun 2027 09:10:16.098            59.210                Anadyr2          1850.312
       480   05 Jun 2027 09:10:16.098   05 Jun 2027 09:10:33.580            17.482                Anadyr1           546.313
       481   05 Jun 2027 10:40:04.323   05 Jun 2027 10:40:45.432            41.109               Magadan2          1284.656
       482   05 Jun 2027 10:42:39.225   05 Jun 2027 10:43:02.113            22.888               Magadan2           715.250
