uniorb/output/strategy_4/Drop/Drop_KinoSat_110106.txt

KinoSat_110106
-------------------------
    Access    *     Start Time (UTCG)     *     Stop Time (UTCG)  *   Duration (s)        *       Station  *  Data (Mbytes)
         1   01 Jun 2027 03:59:23.560   01 Jun 2027 03:59:48.571            25.011                Norilsk          3126.375
         2   01 Jun 2027 03:59:52.612   01 Jun 2027 04:00:30.734            38.122                Novosib          4765.250
         3   01 Jun 2027 04:00:48.752   01 Jun 2027 04:01:16.044            27.292                Irkutsk          3411.500
         4   01 Jun 2027 04:01:18.655   01 Jun 2027 04:01:34.439            15.784              Murmansk2          1973.000
         5   01 Jun 2027 04:01:44.472   01 Jun 2027 04:02:29.136            44.664              Murmansk2          5583.000
         6   01 Jun 2027 04:02:40.091   01 Jun 2027 04:03:20.289            40.198                Norilsk          5024.750
         7   01 Jun 2027 04:03:24.154   01 Jun 2027 04:03:56.980            32.826                Norilsk          4103.250
         8   01 Jun 2027 04:05:18.842   01 Jun 2027 04:05:28.537             9.695                Norilsk          1211.875
         9   01 Jun 2027 04:06:57.442   01 Jun 2027 04:07:02.873             5.431                Norilsk           678.875
        10   01 Jun 2027 04:08:23.080   01 Jun 2027 04:08:48.416            25.336                Norilsk          3167.000
        11   01 Jun 2027 04:40:35.600   01 Jun 2027 04:40:59.626            24.026            RioGallegos          3003.250
        12   01 Jun 2027 04:41:42.864   01 Jun 2027 04:41:59.600            16.736            RioGallegos          2092.000
        13   01 Jun 2027 04:48:08.595   01 Jun 2027 04:48:39.386            30.791            RioGallegos          3848.875
        14   01 Jun 2027 05:14:48.907   01 Jun 2027 05:16:23.895            94.988                Sumatra         11873.500
        15   01 Jun 2027 05:21:40.806   01 Jun 2027 05:22:31.367            50.561                  Delhi          6320.125
        16   01 Jun 2027 05:27:10.136   01 Jun 2027 05:29:06.927           116.791                  Delhi         14598.875
        17   01 Jun 2027 05:38:43.675   01 Jun 2027 05:38:59.162            15.487                Norilsk          1935.875
        18   01 Jun 2027 05:39:11.890   01 Jun 2027 05:39:53.221            41.331              Murmansk1          5166.375
        19   01 Jun 2027 05:39:54.926   01 Jun 2027 05:40:04.540             9.614                Norilsk          1201.750
        20   01 Jun 2027 05:44:32.866   01 Jun 2027 05:44:54.895            22.029              Murmansk1          2753.625
        21   01 Jun 2027 07:00:17.182   01 Jun 2027 07:02:50.535           153.353                  Delhi         19169.125
        22   01 Jun 2027 07:05:31.346   01 Jun 2027 07:07:09.651            98.305                  Delhi         12288.125
        23   01 Jun 2027 07:13:43.001   01 Jun 2027 07:14:00.887            17.886              Murmansk1          2235.750
        24   01 Jun 2027 07:14:00.887   01 Jun 2027 07:14:08.278             7.391              Murmansk2           923.875
        25   01 Jun 2027 07:14:21.725   01 Jun 2027 07:14:47.150            25.425                Novosib          3178.125
        26   01 Jun 2027 07:14:49.003   01 Jun 2027 07:15:46.345            57.342                 Moscow          7167.750
        27   01 Jun 2027 07:16:03.513   01 Jun 2027 07:16:39.990            36.477                Norilsk          4559.625
        28   01 Jun 2027 07:16:58.858   01 Jun 2027 07:17:31.857            32.999              Murmansk1          4124.875
        29   01 Jun 2027 08:22:35.754   01 Jun 2027 08:28:33.252           357.498               CapeTown         44687.250
        30   01 Jun 2027 12:16:09.348   01 Jun 2027 12:16:10.817             1.469               Magadan1           183.625
        31   01 Jun 2027 12:19:18.774   01 Jun 2027 12:20:31.397            72.623               Magadan1          9077.875
        32   01 Jun 2027 12:21:36.266   01 Jun 2027 12:23:14.353            98.087               Magadan1         12260.875
        33   01 Jun 2027 13:50:11.747   01 Jun 2027 13:50:22.111            10.364               Magadan2          1295.500
        34   01 Jun 2027 13:53:31.575   01 Jun 2027 13:54:57.906            86.331               Magadan2         10791.375
        35   01 Jun 2027 14:45:09.700   01 Jun 2027 14:46:06.771            57.071            RioGallegos          7133.875
        36   01 Jun 2027 15:30:13.610   01 Jun 2027 15:31:52.806            99.196                Irkutsk         12399.500
        37   01 Jun 2027 15:43:42.023   01 Jun 2027 15:46:22.983           160.960                Sumatra         20120.000
        38   01 Jun 2027 15:49:44.354   01 Jun 2027 15:49:48.004             3.650                Sumatra           456.250
        39   01 Jun 2027 16:29:26.660   01 Jun 2027 16:30:18.709            52.049            RioGallegos          6506.125
        40   01 Jun 2027 17:05:42.994   01 Jun 2027 17:06:12.463            29.469                Novosib          3683.625
        41   01 Jun 2027 17:06:24.608   01 Jun 2027 17:08:05.974           101.366                Novosib         12670.750
        42   01 Jun 2027 17:10:49.282   01 Jun 2027 17:11:34.782            45.500                Novosib          5687.500
        43   01 Jun 2027 17:13:30.748   01 Jun 2027 17:17:16.954           226.206                  Delhi         22238.000
        44   02 Jun 2027 04:15:48.656   02 Jun 2027 04:16:02.693            14.037                 Moscow          1754.625
        45   02 Jun 2027 04:53:57.897   02 Jun 2027 04:54:04.587             6.690            RioGallegos           836.250
        46   02 Jun 2027 05:27:41.788   02 Jun 2027 05:28:39.888            58.100                Sumatra          7262.500
        47   02 Jun 2027 05:33:38.808   02 Jun 2027 05:36:00.246           141.438                  Delhi         17679.750
        48   02 Jun 2027 05:41:20.783   02 Jun 2027 05:43:15.537           114.754                  Delhi         14344.250
        49   02 Jun 2027 05:51:37.698   02 Jun 2027 05:52:18.354            40.656              Murmansk2          5082.000
        50   02 Jun 2027 05:52:36.168   02 Jun 2027 05:54:38.590           122.422                 Moscow         15302.750
        51   02 Jun 2027 05:54:43.236   02 Jun 2027 05:58:35.626           232.390              Murmansk2         29048.750
        52   02 Jun 2027 07:18:10.706   02 Jun 2027 07:18:51.834            41.128                 Moscow          5141.000
        53   02 Jun 2027 07:26:21.807   02 Jun 2027 07:27:41.806            79.999                 Moscow          9999.875
        54   02 Jun 2027 07:29:26.780   02 Jun 2027 07:30:56.576            89.796                 Moscow         11224.500
        55   02 Jun 2027 07:31:03.906   02 Jun 2027 07:34:25.912           202.006              Murmansk2         25250.750
        56   02 Jun 2027 08:33:38.880   02 Jun 2027 08:41:46.291           487.411               CapeTown         60926.375
        57   02 Jun 2027 09:00:48.343   02 Jun 2027 09:04:02.201           193.858              Murmansk1         24232.250
        58   02 Jun 2027 09:04:38.942   02 Jun 2027 09:05:30.905            51.963                 Moscow          6495.375
        59   02 Jun 2027 09:05:31.510   02 Jun 2027 09:10:24.096           292.586              Murmansk2         36573.250
        60   02 Jun 2027 09:12:49.706   02 Jun 2027 09:19:43.907           414.201                Anadyr1         51775.125
        61   02 Jun 2027 10:50:10.809   02 Jun 2027 10:50:32.902            22.093                Anadyr2          2761.625
        62   02 Jun 2027 12:26:28.843   02 Jun 2027 12:27:41.559            72.716               Magadan1          9089.500
        63   02 Jun 2027 12:32:08.252   02 Jun 2027 12:37:00.016           291.764               Magadan2         36470.500
        64   02 Jun 2027 14:54:41.511   02 Jun 2027 14:59:39.982           298.471            RioGallegos         37308.875
        65   02 Jun 2027 15:50:05.915   02 Jun 2027 15:51:23.164            77.249                Irkutsk          9656.125
        66   02 Jun 2027 15:55:32.773   02 Jun 2027 15:58:33.751           180.978                Sumatra         22622.250
        67   02 Jun 2027 17:17:40.259   02 Jun 2027 17:18:46.079            65.820                Novosib          8227.500
        68   02 Jun 2027 17:25:16.158   02 Jun 2027 17:31:11.391           355.233                  Delhi         44404.125
        69   02 Jun 2027 20:31:09.606   02 Jun 2027 20:32:03.027            53.421                 Moscow          6677.625
        70   02 Jun 2027 20:32:45.942   02 Jun 2027 20:34:04.662            78.720                 Moscow          8861.500
        71   03 Jun 2027 04:27:59.394   03 Jun 2027 04:28:43.824            44.430                Norilsk          5553.750
        72   03 Jun 2027 05:41:13.487   03 Jun 2027 05:42:38.685            85.198                Sumatra         10649.750
        73   03 Jun 2027 05:45:14.650   03 Jun 2027 05:45:25.233            10.583                Sumatra          1322.875
        74   03 Jun 2027 05:45:42.147   03 Jun 2027 05:46:34.975            52.828                  Delhi          6603.500
        75   03 Jun 2027 05:47:49.776   03 Jun 2027 05:48:50.838            61.062                  Delhi          7632.750
        76   03 Jun 2027 05:50:29.661   03 Jun 2027 05:50:37.610             7.949                  Delhi           993.625
        77   03 Jun 2027 05:53:30.609   03 Jun 2027 05:54:48.855            78.246                  Delhi          9780.750
        78   03 Jun 2027 06:03:32.323   03 Jun 2027 06:03:53.752            21.429                Novosib          2678.625
        79   03 Jun 2027 06:03:54.413   03 Jun 2027 06:06:44.531           170.118                 Moscow         21264.750
        80   03 Jun 2027 06:07:01.221   03 Jun 2027 06:10:35.342           214.121              Murmansk2         26765.125
        81   03 Jun 2027 07:30:06.726   03 Jun 2027 07:31:48.208           101.482                 Moscow         12685.250
        82   03 Jun 2027 07:40:59.753   03 Jun 2027 07:42:58.448           118.695                 Moscow         14836.875
        83   03 Jun 2027 07:42:59.233   03 Jun 2027 07:46:27.429           208.196              Murmansk1         26024.500
        84   03 Jun 2027 08:45:01.904   03 Jun 2027 08:54:37.087           575.183               CapeTown         71897.875
        85   03 Jun 2027 09:12:49.901   03 Jun 2027 09:14:07.366            77.465              Murmansk2          9683.125
        86   03 Jun 2027 09:14:07.366   03 Jun 2027 09:21:17.808           430.442              Murmansk1         53805.250
        87   03 Jun 2027 09:22:22.598   03 Jun 2027 09:22:25.555             2.957              Murmansk2           369.625
        88   03 Jun 2027 09:24:41.522   03 Jun 2027 09:33:39.565           538.043                Anadyr2         67255.375
        89   03 Jun 2027 10:23:00.764   03 Jun 2027 10:24:21.166            80.402               CapeTown         10050.250
        90   03 Jun 2027 12:38:26.616   03 Jun 2027 12:39:09.290            42.674               Magadan2          5334.250
        91   03 Jun 2027 12:40:51.979   03 Jun 2027 12:43:25.607           153.628               Magadan1         19203.500
        92   03 Jun 2027 14:14:15.000   03 Jun 2027 14:14:56.668            41.668               Magadan1          5208.500
        93   03 Jun 2027 14:18:06.277   03 Jun 2027 14:18:58.926            52.649               Magadan2          6581.125
        94   03 Jun 2027 15:06:05.194   03 Jun 2027 15:08:00.744           115.550            RioGallegos         14443.750
        95   03 Jun 2027 15:11:05.239   03 Jun 2027 15:11:26.894            21.655            RioGallegos          2706.875
        96   03 Jun 2027 15:53:48.039   03 Jun 2027 15:55:11.454            83.415                Irkutsk         10426.875
        97   03 Jun 2027 15:56:31.672   03 Jun 2027 15:58:53.383           141.711                Irkutsk         17713.875
        98   03 Jun 2027 16:03:07.274   03 Jun 2027 16:03:20.612            13.338                Irkutsk          1667.250
        99   03 Jun 2027 16:07:29.289   03 Jun 2027 16:10:37.548           188.259                Sumatra         23532.375
       100   03 Jun 2027 17:29:38.581   03 Jun 2027 17:30:29.170            50.589                Novosib          6323.625
       101   03 Jun 2027 17:31:40.064   03 Jun 2027 17:32:36.413            56.349                Novosib          7043.625
       102   03 Jun 2027 17:36:31.046   03 Jun 2027 17:36:38.119             7.073                Novosib           884.125
       103   03 Jun 2027 17:37:06.234   03 Jun 2027 17:42:10.194           303.960                  Delhi         37995.000
       104   03 Jun 2027 20:39:52.756   03 Jun 2027 20:39:54.427             1.671              Murmansk2           208.875
       105   03 Jun 2027 20:42:36.472   03 Jun 2027 20:43:53.330            76.858              Murmansk2          9607.250
       106   03 Jun 2027 20:46:15.411   03 Jun 2027 20:48:03.328           107.917                 Moscow         13205.500
       107   04 Jun 2027 04:13:29.636   04 Jun 2027 04:16:04.385           154.749                Sumatra         19343.625
       108   04 Jun 2027 04:30:21.533   04 Jun 2027 04:31:24.449            62.916                Irkutsk          7864.500
       109   04 Jun 2027 04:39:11.287   04 Jun 2027 04:39:31.761            20.474                 Moscow          2559.250
       110   04 Jun 2027 04:40:02.429   04 Jun 2027 04:41:56.894           114.465                 Moscow         14308.125
       111   04 Jun 2027 04:42:02.913   04 Jun 2027 04:47:01.394           298.481              Murmansk2         37310.125
       112   04 Jun 2027 05:57:51.039   04 Jun 2027 06:03:43.002           351.963                  Delhi         43995.375
       113   04 Jun 2027 06:15:46.817   04 Jun 2027 06:18:49.893           183.076                 Moscow         22884.500
       114   04 Jun 2027 06:18:59.386   04 Jun 2027 06:22:35.389           216.003              Murmansk2         27000.375
       115   04 Jun 2027 07:51:41.125   04 Jun 2027 07:54:59.746           198.621                 Moscow         24827.625
       116   04 Jun 2027 07:55:19.105   04 Jun 2027 07:58:29.034           189.929              Murmansk1         23741.125
       117   04 Jun 2027 08:57:38.259   04 Jun 2027 09:07:14.888           576.629               CapeTown         72078.625
       118   04 Jun 2027 09:24:51.330   04 Jun 2027 09:26:10.393            79.063              Murmansk2          9882.875
       119   04 Jun 2027 09:26:10.393   04 Jun 2027 09:26:23.475            13.082              Murmansk1          1635.250
       120   04 Jun 2027 09:26:35.308   04 Jun 2027 09:28:43.194           127.886                 Moscow         15985.750
       121   04 Jun 2027 09:29:34.893   04 Jun 2027 09:33:08.350           213.457              Murmansk1         26682.125
       122   04 Jun 2027 09:34:24.235   04 Jun 2027 09:34:26.839             2.604              Murmansk2           325.500
       123   04 Jun 2027 09:36:35.563   04 Jun 2027 09:46:14.880           579.317                Anadyr2         72414.625
       124   04 Jun 2027 10:36:34.520   04 Jun 2027 10:38:20.210           105.690               CapeTown         13211.250
       125   04 Jun 2027 11:20:27.681   04 Jun 2027 11:21:44.569            76.888                Anadyr2          9611.000
       126   04 Jun 2027 12:50:25.213   04 Jun 2027 12:55:20.976           295.763               Magadan1         36970.375
       127   04 Jun 2027 12:56:55.091   04 Jun 2027 13:00:14.667           199.576               Magadan2         24947.000
       128   04 Jun 2027 16:05:45.744   04 Jun 2027 16:06:49.056            63.312                Irkutsk          7914.000
       129   04 Jun 2027 16:08:44.978   04 Jun 2027 16:10:46.009           121.031                Irkutsk         15128.875
       130   04 Jun 2027 16:19:31.391   04 Jun 2027 16:20:28.244            56.853                Sumatra          7106.625
       131   04 Jun 2027 16:27:09.929   04 Jun 2027 16:29:11.659           121.730                Sumatra         15216.250
       132   04 Jun 2027 17:45:05.640   04 Jun 2027 17:46:31.815            86.175                Novosib         10771.875
       133   04 Jun 2027 17:49:00.276   04 Jun 2027 17:51:59.012           178.736                  Delhi         22342.000
       134   04 Jun 2027 19:26:11.421   04 Jun 2027 19:26:51.092            39.671                  Delhi          4958.875
       135   04 Jun 2027 20:55:08.501   04 Jun 2027 20:55:39.671            31.170                 Moscow          3896.250
       136   04 Jun 2027 20:56:26.502   04 Jun 2027 20:58:22.940           116.438                 Moscow         14554.750
       137   04 Jun 2027 21:22:14.218   04 Jun 2027 21:24:21.233           127.015               CapeTown          7653.000
       138   05 Jun 2027 03:16:02.147   05 Jun 2027 03:19:58.511           236.364              Murmansk2         29545.500
       139   05 Jun 2027 04:25:34.568   05 Jun 2027 04:27:14.553            99.985                Sumatra         12498.125
       140   05 Jun 2027 04:33:16.399   05 Jun 2027 04:35:17.220           120.821                Sumatra         15102.625
       141   05 Jun 2027 04:50:27.400   05 Jun 2027 04:51:27.146            59.746                Irkutsk          7468.250
       142   05 Jun 2027 04:51:50.914   05 Jun 2027 04:52:03.899            12.985              Murmansk1          1623.125
       143   05 Jun 2027 04:52:10.298   05 Jun 2027 04:53:29.187            78.889                Novosib          9861.125
       144   05 Jun 2027 04:53:34.718   05 Jun 2027 04:54:10.659            35.941                 Moscow          4492.625
       145   05 Jun 2027 04:54:27.924   05 Jun 2027 04:58:58.306           270.382              Murmansk1         33797.750
       146   05 Jun 2027 06:12:38.932   05 Jun 2027 06:22:04.171           565.239                  Delhi         70654.875
       147   05 Jun 2027 06:27:46.121   05 Jun 2027 06:28:23.936            37.815              Murmansk2          4726.875
       148   05 Jun 2027 06:28:46.032   05 Jun 2027 06:30:54.727           128.695                 Moscow         16086.875
       149   05 Jun 2027 06:31:26.486   05 Jun 2027 06:34:35.742           189.256              Murmansk2         23657.000
       150   05 Jun 2027 07:57:25.432   05 Jun 2027 07:58:03.257            37.825                 Moscow          4728.125
       151   05 Jun 2027 07:58:24.466   05 Jun 2027 07:58:59.665            35.199                 Moscow          4399.875
       152   05 Jun 2027 08:02:49.532   05 Jun 2027 08:07:00.414           250.882                 Moscow         31360.250
       153   05 Jun 2027 08:07:06.525   05 Jun 2027 08:10:30.712           204.187              Murmansk1         25523.375
       154   05 Jun 2027 09:11:55.762   05 Jun 2027 09:19:43.357           467.595               CapeTown         58449.375
       155   05 Jun 2027 09:36:55.283   05 Jun 2027 09:37:58.317            63.034              Murmansk1          7879.250
       156   05 Jun 2027 09:38:17.315   05 Jun 2027 09:40:09.680           112.365                 Moscow         14045.625
       157   05 Jun 2027 09:41:36.522   05 Jun 2027 09:45:35.810           239.288              Murmansk1         29911.000
       158   05 Jun 2027 09:46:25.911   05 Jun 2027 09:46:27.907             1.996              Murmansk2           249.500
       159   05 Jun 2027 09:48:31.237   05 Jun 2027 09:51:32.523           181.286                Anadyr2         22660.750
       160   05 Jun 2027 11:25:14.188   05 Jun 2027 11:25:48.181            33.993                Anadyr2          4249.125
       161   05 Jun 2027 11:32:32.282   05 Jun 2027 11:32:40.213             7.931               Magadan1           991.375
       162   05 Jun 2027 13:02:24.508   05 Jun 2027 13:05:21.434           176.926               Magadan1         22115.750
       163   05 Jun 2027 13:05:29.726   05 Jun 2027 13:07:17.596           107.870               Magadan2         13483.750
       164   05 Jun 2027 13:09:18.549   05 Jun 2027 13:12:25.993           187.444               Magadan1         23430.500
       165   05 Jun 2027 14:58:17.504   05 Jun 2027 15:00:07.557           110.053                Sumatra         13756.625
       166   05 Jun 2027 16:20:44.140   05 Jun 2027 16:20:54.593            10.453                Irkutsk          1306.625
       167   05 Jun 2027 16:22:40.589   05 Jun 2027 16:24:37.425           116.836                Irkutsk         14604.500
       168   05 Jun 2027 16:31:39.217   05 Jun 2027 16:32:55.304            76.087                Sumatra          9510.875
       169   05 Jun 2027 16:33:19.289   05 Jun 2027 16:34:10.849            51.560                  Delhi          6445.000
       170   05 Jun 2027 16:39:21.314   05 Jun 2027 16:40:54.700            93.386                Sumatra         11673.250
       171   05 Jun 2027 17:58:06.655   05 Jun 2027 17:58:28.935            22.280                Novosib          2785.000
       172   05 Jun 2027 18:00:57.881   05 Jun 2027 18:03:01.315           123.434                  Delhi         15429.250
       173   05 Jun 2027 18:08:19.394   05 Jun 2027 18:10:32.867           133.473                  Delhi         16684.125
       174   05 Jun 2027 21:07:09.068   05 Jun 2027 21:07:32.101            23.033                 Moscow          2879.125
       175   05 Jun 2027 21:08:56.905   05 Jun 2027 21:10:15.204            78.299                 Moscow          9787.375
       176   05 Jun 2027 21:36:04.888   05 Jun 2027 21:36:05.884             0.996               CapeTown           124.500
       177   05 Jun 2027 21:38:50.966   05 Jun 2027 21:40:21.301            90.335               CapeTown         11291.875
       178   06 Jun 2027 03:03:46.400   06 Jun 2027 03:06:51.331           184.931                Sumatra          4978.000
       179   06 Jun 2027 03:27:44.447   06 Jun 2027 03:28:02.102            17.655                Irkutsk          2206.875
       180   06 Jun 2027 03:28:06.132   06 Jun 2027 03:29:11.462            65.330                Novosib          8166.250
       181   06 Jun 2027 04:37:45.414   06 Jun 2027 04:38:38.917            53.503                Sumatra          6687.875
       182   06 Jun 2027 04:40:26.035   06 Jun 2027 04:41:21.856            55.821                Sumatra          6977.625
       183   06 Jun 2027 04:45:24.736   06 Jun 2027 04:46:02.833            38.097                Sumatra          4762.125
       184   06 Jun 2027 05:02:23.219   06 Jun 2027 05:02:41.242            18.023                 Moscow          2252.875
       185   06 Jun 2027 05:03:39.076   06 Jun 2027 05:04:27.260            48.184              Murmansk2          6023.000
       186   06 Jun 2027 05:04:56.112   06 Jun 2027 05:06:21.892            85.780                 Moscow         10722.500
       187   06 Jun 2027 05:06:22.947   06 Jun 2027 05:10:55.787           272.840              Murmansk1         34105.000
       188   06 Jun 2027 06:31:48.495   06 Jun 2027 06:35:10.876           202.381                Novosib         25297.625
       189   06 Jun 2027 06:39:35.607   06 Jun 2027 06:42:59.064           203.457                 Moscow         25432.125
       190   06 Jun 2027 06:43:22.860   06 Jun 2027 06:46:36.368           193.508              Murmansk2         24188.500
       191   06 Jun 2027 08:06:11.815   06 Jun 2027 08:06:32.655            20.840                 Moscow          2605.000
       192   06 Jun 2027 08:09:25.962   06 Jun 2027 08:10:08.141            42.179                 Moscow          5272.375
       193   06 Jun 2027 08:12:56.556   06 Jun 2027 08:13:05.231             8.675              Murmansk1          1084.375
       194   06 Jun 2027 08:14:09.988   06 Jun 2027 08:19:00.383           290.395                 Moscow         36299.375
       195   06 Jun 2027 08:19:00.619   06 Jun 2027 08:22:32.435           211.816              Murmansk1         26477.000
       196   06 Jun 2027 08:26:52.345   06 Jun 2027 08:28:56.128           123.783                Anadyr2         15472.875
       197   06 Jun 2027 09:25:05.809   06 Jun 2027 09:32:04.398           418.589               CapeTown         52323.625
       198   06 Jun 2027 09:49:16.094   06 Jun 2027 09:50:04.777            48.683              Murmansk2          6085.375
       199   06 Jun 2027 09:50:18.832   06 Jun 2027 09:52:18.560           119.728                 Moscow         14966.000
       200   06 Jun 2027 09:53:38.059   06 Jun 2027 09:53:47.859             9.800              Murmansk1          1225.000
       201   06 Jun 2027 10:04:17.475   06 Jun 2027 10:05:20.508            63.033                Anadyr2          7879.125
       202   06 Jun 2027 13:14:24.390   06 Jun 2027 13:14:50.071            25.681               Magadan1          3210.125
       203   06 Jun 2027 13:15:23.711   06 Jun 2027 13:19:15.247           231.536               Magadan1         28942.000
       204   06 Jun 2027 13:21:38.426   06 Jun 2027 13:23:59.159           140.733               Magadan2         17591.625
       205   06 Jun 2027 15:09:07.085   06 Jun 2027 15:14:01.853           294.768                Sumatra         36846.000
       206   06 Jun 2027 15:16:58.751   06 Jun 2027 15:18:01.364            62.613                Sumatra          7826.625
       207   06 Jun 2027 16:35:48.196   06 Jun 2027 16:36:02.291            14.095                Novosib          1761.875
       208   06 Jun 2027 16:44:21.958   06 Jun 2027 16:47:24.633           182.675                  Delhi         22834.375
       209   06 Jun 2027 18:12:58.816   06 Jun 2027 18:14:23.323            84.507                  Delhi         10563.375
       210   06 Jun 2027 18:20:38.336   06 Jun 2027 18:22:26.091           107.755                  Delhi         13469.375
       211   06 Jun 2027 19:46:59.553   06 Jun 2027 19:47:26.855            27.302                 Moscow          3412.750
       212   06 Jun 2027 19:48:17.285   06 Jun 2027 19:49:01.429            44.144                 Moscow          5518.000
       213   06 Jun 2027 21:22:28.935   06 Jun 2027 21:23:57.108            88.173                 Moscow         11021.625
       214   06 Jun 2027 21:45:33.872   06 Jun 2027 21:46:13.951            40.079               CapeTown          5009.875
       215   06 Jun 2027 21:47:55.723   06 Jun 2027 21:49:10.223            74.500               CapeTown          9312.500
       216   06 Jun 2027 21:50:58.036   06 Jun 2027 21:51:16.136            18.100               CapeTown          2262.500
       217   07 Jun 2027 03:14:49.176   07 Jun 2027 03:15:39.389            50.213                Sumatra          2189.875
       218   07 Jun 2027 03:39:58.441   07 Jun 2027 03:40:02.766             4.325                Irkutsk           540.625
       219   07 Jun 2027 03:40:07.695   07 Jun 2027 03:40:30.942            23.247                Novosib          2905.875
       220   07 Jun 2027 04:50:02.915   07 Jun 2027 04:50:13.163            10.248                Sumatra          1281.000
       221   07 Jun 2027 04:52:05.695   07 Jun 2027 04:54:17.809           132.114                Sumatra         16514.250
       222   07 Jun 2027 05:15:27.747   07 Jun 2027 05:16:29.392            61.645              Murmansk1          7705.625
       223   07 Jun 2027 05:17:07.321   07 Jun 2027 05:17:29.525            22.204                Novosib          2775.500
       224   07 Jun 2027 05:17:36.193   07 Jun 2027 05:18:31.432            55.239                 Moscow          6904.875
       225   07 Jun 2027 05:19:09.317   07 Jun 2027 05:22:53.797           224.480              Murmansk1         28060.000
       226   07 Jun 2027 06:41:35.681   07 Jun 2027 06:43:23.865           108.184                  Delhi         13523.000
       227   07 Jun 2027 06:43:48.001   07 Jun 2027 06:46:55.109           187.108                Novosib         23388.500
       228   07 Jun 2027 06:51:41.273   07 Jun 2027 06:52:20.527            39.254              Murmansk2          4906.750
       229   07 Jun 2027 06:52:36.973   07 Jun 2027 06:55:02.922           145.949                 Moscow         18243.625
       230   07 Jun 2027 06:55:36.727   07 Jun 2027 06:58:37.222           180.495              Murmansk1         22561.875
       231   07 Jun 2027 08:21:25.778   07 Jun 2027 08:22:53.878            88.100                 Moscow         11012.500
       232   07 Jun 2027 08:24:58.284   07 Jun 2027 08:26:20.980            82.696              Murmansk1         10337.000
       233   07 Jun 2027 08:26:20.980   07 Jun 2027 08:28:10.139           109.159              Murmansk2         13644.875
       234   07 Jun 2027 08:28:32.823   07 Jun 2027 08:29:39.196            66.373                Norilsk          8296.625
       235   07 Jun 2027 08:29:41.425   07 Jun 2027 08:34:34.167           292.742              Murmansk1         36592.750
       236   07 Jun 2027 08:37:57.798   07 Jun 2027 08:42:32.346           274.548                Anadyr2         34318.500
       237   07 Jun 2027 10:16:56.907   07 Jun 2027 10:17:24.617            27.710                Anadyr2          3463.750
       238   07 Jun 2027 11:53:30.286   07 Jun 2027 11:53:40.739            10.453               Magadan2          1306.625
       239   07 Jun 2027 11:57:15.627   07 Jun 2027 11:57:54.550            38.923               Magadan1          4865.375
       240   07 Jun 2027 13:26:24.775   07 Jun 2027 13:26:44.243            19.468               Magadan1          2433.500
       241   07 Jun 2027 13:27:54.428   07 Jun 2027 13:31:13.738           199.310               Magadan2         24913.750
       242   07 Jun 2027 15:09:24.802   07 Jun 2027 15:10:48.908            84.106                Irkutsk         10513.250
       243   07 Jun 2027 15:20:34.700   07 Jun 2027 15:21:55.752            81.052                Sumatra         10131.500
       244   07 Jun 2027 15:23:29.547   07 Jun 2027 15:27:50.150           260.603                Sumatra         32575.375
       245   07 Jun 2027 16:45:22.564   07 Jun 2027 16:46:30.428            67.864                Novosib          8483.000
       246   07 Jun 2027 16:50:33.635   07 Jun 2027 16:52:32.142           118.507                  Delhi         14813.375
       247   07 Jun 2027 16:54:10.083   07 Jun 2027 16:59:45.074           334.991                  Delhi         41873.875
       248   07 Jun 2027 20:00:36.303   07 Jun 2027 20:02:39.428           123.125                 Moscow         15390.625
       249   07 Jun 2027 21:55:18.353   07 Jun 2027 21:55:56.342            37.989               CapeTown          4748.625
       250   07 Jun 2027 21:57:50.666   07 Jun 2027 21:59:50.547           119.881               CapeTown         12236.125
       251   08 Jun 2027 05:02:28.469   08 Jun 2027 05:03:47.590            79.121                Sumatra          9890.125
       252   08 Jun 2027 05:08:05.725   08 Jun 2027 05:08:07.468             1.743                Sumatra           217.875
       253   08 Jun 2027 05:15:40.628   08 Jun 2027 05:17:03.367            82.739                  Delhi         10342.375
       254   08 Jun 2027 05:27:39.970   08 Jun 2027 05:29:28.526           108.556                Novosib         13569.500
       255   08 Jun 2027 05:29:44.182   08 Jun 2027 05:30:39.739            55.557                 Moscow          6944.625
       256   08 Jun 2027 05:31:03.114   08 Jun 2027 05:34:52.294           229.180              Murmansk1         28647.500
       257   08 Jun 2027 06:53:28.251   08 Jun 2027 06:55:21.494           113.243                  Delhi         14155.375
       258   08 Jun 2027 06:56:08.506   08 Jun 2027 06:57:47.866            99.360                Novosib         12420.000
       259   08 Jun 2027 06:58:20.537   08 Jun 2027 06:59:22.955            62.418                 Moscow          7802.250
       260   08 Jun 2027 07:04:02.508   08 Jun 2027 07:07:06.309           183.801                 Moscow         22975.125
       261   08 Jun 2027 07:07:29.918   08 Jun 2027 07:10:38.292           188.374              Murmansk2         23546.750
       262   08 Jun 2027 08:13:11.555   08 Jun 2027 08:14:09.180            57.625               CapeTown          7203.125
       263   08 Jun 2027 08:33:24.783   08 Jun 2027 08:34:55.223            90.440                 Moscow         11305.000
       264   08 Jun 2027 08:37:00.014   08 Jun 2027 08:38:24.292            84.278              Murmansk2         10534.750
       265   08 Jun 2027 08:38:24.292   08 Jun 2027 08:39:16.899            52.607              Murmansk1          6575.875
       266   08 Jun 2027 08:39:31.833   08 Jun 2027 08:40:18.251            46.418              Murmansk1          5802.250
       267   08 Jun 2027 08:41:43.014   08 Jun 2027 08:43:11.701            88.687              Murmansk2         11085.875
       268   08 Jun 2027 08:43:11.701   08 Jun 2027 08:46:35.881           204.180              Murmansk1         25522.500
       269   08 Jun 2027 08:49:32.093   08 Jun 2027 08:55:37.168           365.075                Anadyr1         45634.375
       270   08 Jun 2027 10:33:58.572   08 Jun 2027 10:34:26.078            27.506                Anadyr2          3438.250
       271   08 Jun 2027 12:02:51.384   08 Jun 2027 12:03:57.949            66.565               Magadan2          8320.625
       272   08 Jun 2027 12:11:54.315   08 Jun 2027 12:12:22.246            27.931               Magadan1          3491.375
       273   08 Jun 2027 13:38:25.584   08 Jun 2027 13:38:39.913            14.329               Magadan2          1791.125
       274   08 Jun 2027 13:40:20.831   08 Jun 2027 13:40:21.508             0.677               Magadan1            84.625
       275   08 Jun 2027 13:41:44.204   08 Jun 2027 13:43:56.049           131.845               Magadan1         16480.625
       276   08 Jun 2027 13:46:59.295   08 Jun 2027 13:48:00.998            61.703               Magadan2          7712.875
       277   08 Jun 2027 15:19:28.433   08 Jun 2027 15:23:48.303           259.870                Irkutsk         32483.750
       278   08 Jun 2027 15:34:20.996   08 Jun 2027 15:38:43.785           262.789                Sumatra         32848.625
       279   08 Jun 2027 16:59:13.885   08 Jun 2027 16:59:13.997             0.112                Novosib            14.000
       280   08 Jun 2027 17:01:25.827   08 Jun 2027 17:03:17.005           111.178                Novosib         13897.250
       281   08 Jun 2027 17:17:15.918   08 Jun 2027 17:18:38.610            82.692                Sumatra         10336.500
       282   08 Jun 2027 18:37:10.668   08 Jun 2027 18:39:19.854           129.186                  Delhi         16148.250
       283   08 Jun 2027 18:44:57.557   08 Jun 2027 18:46:53.898           116.341                  Delhi         14542.625
       284   08 Jun 2027 20:08:56.843   08 Jun 2027 20:09:00.881             4.038                 Moscow           504.750
       285   08 Jun 2027 20:09:48.122   08 Jun 2027 20:12:36.566           168.444                 Moscow         21055.500
       286   08 Jun 2027 21:53:39.935   08 Jun 2027 21:54:03.522            23.587                 Moscow          2948.375
       287   08 Jun 2027 22:07:34.881   08 Jun 2027 22:10:01.682           146.801               CapeTown          3333.125
       288   09 Jun 2027 04:03:44.725   09 Jun 2027 04:04:12.595            27.870                Novosib          3483.750
       289   09 Jun 2027 05:15:04.802   09 Jun 2027 05:16:38.744            93.942                Sumatra         11742.750
       290   09 Jun 2027 05:26:10.138   09 Jun 2027 05:27:24.583            74.445                  Delhi          9305.625
       291   09 Jun 2027 05:29:22.018   09 Jun 2027 05:31:28.263           126.245                  Delhi         15780.625
       292   09 Jun 2027 05:39:27.650   09 Jun 2027 05:40:33.626            65.976              Murmansk2          8247.000
       293   09 Jun 2027 05:40:34.659   09 Jun 2027 05:41:26.591            51.932                Novosib          6491.500
       294   09 Jun 2027 05:41:48.323   09 Jun 2027 05:42:47.097            58.774                 Moscow          7346.750
       295   09 Jun 2027 05:42:55.828   09 Jun 2027 05:46:51.235           235.407              Murmansk1         29425.875
       296   09 Jun 2027 07:09:32.427   09 Jun 2027 07:11:20.096           107.669                 Moscow         13458.625
       297   09 Jun 2027 07:15:17.796   09 Jun 2027 07:15:39.891            22.095                Novosib          2761.875
       298   09 Jun 2027 07:16:48.055   09 Jun 2027 07:19:09.207           141.152                 Moscow         17644.000
       299   09 Jun 2027 07:19:18.445   09 Jun 2027 07:22:39.536           201.091              Murmansk1         25136.375
       300   09 Jun 2027 08:22:49.160   09 Jun 2027 08:28:50.152           360.992               CapeTown         45124.000
       301   09 Jun 2027 08:45:28.749   09 Jun 2027 08:45:55.048            26.299                 Moscow          3287.375
       302   09 Jun 2027 08:49:01.721   09 Jun 2027 08:50:24.955            83.234              Murmansk1         10404.250
       303   09 Jun 2027 08:50:24.955   09 Jun 2027 08:51:04.092            39.137              Murmansk2          4892.125
       304   09 Jun 2027 08:51:39.136   09 Jun 2027 08:52:59.840            80.704                 Moscow         10088.000
       305   09 Jun 2027 08:53:44.670   09 Jun 2027 08:57:53.568           248.898              Murmansk1         31112.250
       306   09 Jun 2027 10:45:13.272   09 Jun 2027 10:45:58.261            44.989                Anadyr1          5623.625
       307   09 Jun 2027 12:14:46.960   09 Jun 2027 12:19:54.760           307.800               Magadan2         38475.000
       308   09 Jun 2027 12:22:47.993   09 Jun 2027 12:23:38.139            50.146               Magadan1          6268.250
       309   09 Jun 2027 14:45:25.843   09 Jun 2027 14:46:31.739            65.896            RioGallegos          8237.000
       310   09 Jun 2027 15:30:22.007   09 Jun 2027 15:32:08.295           106.288                Irkutsk         13286.000
       311   09 Jun 2027 15:39:41.959   09 Jun 2027 15:41:41.195           119.236                Irkutsk         14904.500
       312   09 Jun 2027 15:43:56.744   09 Jun 2027 15:46:38.252           161.508                Sumatra         20188.500
       313   09 Jun 2027 17:05:57.893   09 Jun 2027 17:08:21.357           143.464                Novosib         17933.000
       314   09 Jun 2027 17:13:45.360   09 Jun 2027 17:20:06.910           381.550                  Delhi         47693.750
       315   09 Jun 2027 20:19:26.410   09 Jun 2027 20:20:35.475            69.065                 Moscow          8633.125
       316   09 Jun 2027 20:25:45.564   09 Jun 2027 20:27:46.334           120.770                 Moscow          5907.000
       317   10 Jun 2027 04:16:03.587   10 Jun 2027 04:16:27.198            23.611                 Moscow          2951.375
       318   10 Jun 2027 05:27:58.158   10 Jun 2027 05:28:53.712            55.554                Sumatra          6944.250
       319   10 Jun 2027 05:33:53.809   10 Jun 2027 05:36:14.312           140.503                  Delhi         17562.875
       320   10 Jun 2027 05:41:35.803   10 Jun 2027 05:43:30.620           114.817                  Delhi         14352.125
       321   10 Jun 2027 05:51:55.836   10 Jun 2027 05:52:35.676            39.840              Murmansk1          4980.000
       322   10 Jun 2027 05:52:39.017   10 Jun 2027 05:53:23.564            44.547                Novosib          5568.375
       323   10 Jun 2027 05:53:50.441   10 Jun 2027 05:54:53.687            63.246                 Moscow          7905.750
       324   10 Jun 2027 05:54:57.793   10 Jun 2027 05:58:50.592           232.799              Murmansk2         29099.875
       325   10 Jun 2027 07:18:25.579   10 Jun 2027 07:19:06.262            40.683                 Moscow          5085.375
       326   10 Jun 2027 07:27:24.003   10 Jun 2027 07:27:55.668            31.665              Murmansk1          3958.125
       327   10 Jun 2027 07:29:42.559   10 Jun 2027 07:31:11.602            89.043                 Moscow         11130.375
       328   10 Jun 2027 07:31:18.493   10 Jun 2027 07:34:40.925           202.432              Murmansk1         25304.000
       329   10 Jun 2027 08:33:52.915   10 Jun 2027 08:42:02.521           489.606               CapeTown         61200.750
       330   10 Jun 2027 09:01:03.368   10 Jun 2027 09:04:17.110           193.742              Murmansk1         24217.750
       331   10 Jun 2027 09:04:36.233   10 Jun 2027 09:05:45.953            69.720                 Moscow          8715.000
       332   10 Jun 2027 09:05:46.367   10 Jun 2027 09:10:39.120           292.753              Murmansk2         36594.125
       333   10 Jun 2027 09:13:04.458   10 Jun 2027 09:21:15.527           491.069                Anadyr1         61383.625
       334   10 Jun 2027 10:15:19.852   10 Jun 2027 10:16:52.572            92.720               CapeTown         11590.000
       335   10 Jun 2027 12:26:43.758   10 Jun 2027 12:31:46.520           302.762               Magadan1         37845.250
       336   10 Jun 2027 12:34:55.772   10 Jun 2027 12:36:16.425            80.653               Magadan1         10081.625
       337   10 Jun 2027 14:55:49.545   10 Jun 2027 15:00:00.267           250.722            RioGallegos         31340.250
       338   10 Jun 2027 15:55:47.623   10 Jun 2027 16:00:33.838           286.215                Sumatra         35776.875
       339   10 Jun 2027 17:17:55.189   10 Jun 2027 17:19:00.497            65.308                Novosib          8163.500
       340   10 Jun 2027 17:25:30.881   10 Jun 2027 17:31:25.620           354.739                  Delhi         44342.375
       341   10 Jun 2027 20:31:24.554   10 Jun 2027 20:32:17.508            52.954                 Moscow          6619.250
       342   10 Jun 2027 20:34:19.907   10 Jun 2027 20:36:22.501           122.594                 Moscow          9890.625
       343   11 Jun 2027 04:28:14.242   11 Jun 2027 04:29:00.378            46.136                Norilsk          5767.000
       344   11 Jun 2027 05:41:31.413   11 Jun 2027 05:42:53.156            81.743                Sumatra         10217.875
       345   11 Jun 2027 05:45:29.476   11 Jun 2027 05:45:37.137             7.661                Sumatra           957.625
       346   11 Jun 2027 05:45:57.254   11 Jun 2027 05:47:34.288            97.034                  Delhi         12129.250
       347   11 Jun 2027 05:49:05.777   11 Jun 2027 05:50:45.662            99.885                  Delhi         12485.625
       348   11 Jun 2027 06:03:51.441   11 Jun 2027 06:04:08.735            17.294                Novosib          2161.750
       349   11 Jun 2027 06:04:10.715   11 Jun 2027 06:06:59.617           168.902                 Moscow         21112.750
       350   11 Jun 2027 06:07:15.960   11 Jun 2027 06:10:50.316           214.356              Murmansk2         26794.500
       351   11 Jun 2027 07:30:21.652   11 Jun 2027 07:30:40.389            18.737                 Moscow          2342.125
       352   11 Jun 2027 07:41:12.906   11 Jun 2027 07:43:13.464           120.558                 Moscow         15069.750
       353   11 Jun 2027 07:43:13.828   11 Jun 2027 07:46:42.442           208.614              Murmansk2         26076.750
       354   11 Jun 2027 08:45:16.229   11 Jun 2027 08:54:52.983           576.754               CapeTown         72094.250
       355   11 Jun 2027 09:13:04.925   11 Jun 2027 09:19:51.501           406.576              Murmansk1         50822.000
       356   11 Jun 2027 09:19:51.501   11 Jun 2027 09:21:32.377           100.876              Murmansk2         12609.500
       357   11 Jun 2027 09:22:37.331   11 Jun 2027 09:22:40.577             3.246              Murmansk1           405.750
       358   11 Jun 2027 09:24:56.334   11 Jun 2027 09:33:55.349           539.015                Anadyr2         67376.875
       359   11 Jun 2027 10:23:17.031   11 Jun 2027 10:27:22.981           245.950               CapeTown         30743.750
       360   11 Jun 2027 12:38:41.553   11 Jun 2027 12:39:36.564            55.011               Magadan1          6876.375
       361   11 Jun 2027 12:43:42.914   11 Jun 2027 12:44:43.015            60.101               Magadan2          7512.625
       362   11 Jun 2027 12:47:46.972   11 Jun 2027 12:49:42.880           115.908               Magadan1         14488.500
       363   11 Jun 2027 15:06:20.034   11 Jun 2027 15:08:16.238           116.204            RioGallegos         14525.500
       364   11 Jun 2027 15:11:20.837   11 Jun 2027 15:11:41.430            20.593            RioGallegos          2574.125
       365   11 Jun 2027 15:17:59.012   11 Jun 2027 15:18:08.407             9.395            RioGallegos          1174.375
       366   11 Jun 2027 15:54:02.954   11 Jun 2027 15:55:25.779            82.825                Irkutsk         10353.125
       367   11 Jun 2027 15:56:46.977   11 Jun 2027 15:59:08.054           141.077                Irkutsk         17634.625
       368   11 Jun 2027 16:03:22.753   11 Jun 2027 16:03:35.550            12.797                Irkutsk          1599.625
       369   11 Jun 2027 16:07:44.259   11 Jun 2027 16:10:51.205           186.946                Sumatra         23368.250
       370   11 Jun 2027 17:30:43.666   11 Jun 2027 17:31:56.081            72.415                Novosib          9051.875
       371   11 Jun 2027 17:36:46.276   11 Jun 2027 17:36:52.239             5.963                Novosib           745.375
       372   11 Jun 2027 17:37:21.049   11 Jun 2027 17:42:20.153           299.104                  Delhi         37388.000
       373   11 Jun 2027 20:40:07.766   11 Jun 2027 20:40:39.083            31.317              Murmansk1          3914.625
       374   11 Jun 2027 20:43:23.616   11 Jun 2027 20:46:30.587           186.971                 Moscow         19312.875
       375   12 Jun 2027 04:13:44.665   12 Jun 2027 04:16:18.248           153.583                Sumatra         19197.875
       376   12 Jun 2027 04:39:25.584   12 Jun 2027 04:39:49.402            23.818                Irkutsk          2977.250
       377   12 Jun 2027 04:40:17.651   12 Jun 2027 04:47:16.296           418.645              Murmansk1         52330.625
       378   12 Jun 2027 05:58:06.270   12 Jun 2027 06:05:51.769           465.499                  Delhi         58187.375
       379   12 Jun 2027 06:16:03.382   12 Jun 2027 06:16:35.151            31.769              Murmansk2          3971.125
       380   12 Jun 2027 06:17:47.258   12 Jun 2027 06:19:04.971            77.713                 Moscow          9714.125
       381   12 Jun 2027 06:20:01.012   12 Jun 2027 06:22:50.372           169.360              Murmansk1         21170.000
       382   12 Jun 2027 07:45:25.282   12 Jun 2027 07:46:54.848            89.566                 Moscow         11195.750
       383   12 Jun 2027 07:51:46.054   12 Jun 2027 07:52:35.622            49.568              Murmansk1          6196.000
       384   12 Jun 2027 07:52:35.806   12 Jun 2027 07:56:44.350           248.544                Norilsk         31068.000
       385   12 Jun 2027 07:56:52.641   12 Jun 2027 07:58:44.054           111.413              Murmansk1         13926.625
       386   12 Jun 2027 08:57:58.031   12 Jun 2027 09:07:30.554           572.523               CapeTown         71565.375
       387   12 Jun 2027 09:25:06.351   12 Jun 2027 09:26:38.125            91.774              Murmansk2         11471.750
       388   12 Jun 2027 09:26:49.277   12 Jun 2027 09:28:57.398           128.121                 Moscow         16015.125
       389   12 Jun 2027 09:29:49.751   12 Jun 2027 09:33:22.931           213.180              Murmansk2         26647.500
       390   12 Jun 2027 09:34:38.968   12 Jun 2027 09:34:41.859             2.891              Murmansk1           361.375
       391   12 Jun 2027 09:36:50.420   12 Jun 2027 09:40:25.626           215.206                Anadyr2         26900.750
       392   12 Jun 2027 11:21:59.565   12 Jun 2027 11:22:11.117            11.552                Anadyr2          1444.000
       393   12 Jun 2027 12:50:40.168   12 Jun 2027 12:55:35.725           295.557               Magadan2         36944.625
       394   12 Jun 2027 12:57:10.353   12 Jun 2027 12:57:19.108             8.755               Magadan1          1094.375
       395   12 Jun 2027 14:26:32.027   12 Jun 2027 14:27:25.523            53.496               Magadan1          6687.000
       396   12 Jun 2027 14:36:07.004   12 Jun 2027 14:36:08.267             1.263               Magadan2           157.875
       397   12 Jun 2027 15:18:14.483   12 Jun 2027 15:20:14.941           120.458            RioGallegos         15057.250
       398   12 Jun 2027 15:24:01.304   12 Jun 2027 15:26:22.761           141.457            RioGallegos         17682.125
       399   12 Jun 2027 16:06:00.687   12 Jun 2027 16:07:03.490            62.803                Irkutsk          7850.375
       400   12 Jun 2027 16:09:00.203   12 Jun 2027 16:11:00.720           120.517                Irkutsk         15064.625
       401   12 Jun 2027 16:19:46.480   12 Jun 2027 16:21:51.268           124.788                Sumatra         15598.500
       402   12 Jun 2027 17:46:46.575   12 Jun 2027 17:49:07.521           140.946                Novosib         17618.250
       403   12 Jun 2027 17:49:15.171   12 Jun 2027 17:52:12.660           177.489                  Delhi         22186.125
       404   12 Jun 2027 20:52:48.848   12 Jun 2027 20:52:56.165             7.317              Murmansk1           914.625
       405   12 Jun 2027 20:55:23.487   12 Jun 2027 20:55:54.252            30.765                 Moscow          3845.625
       406   12 Jun 2027 20:56:41.685   12 Jun 2027 20:58:38.049           116.364                 Moscow         14545.500
       407   12 Jun 2027 21:22:29.255   12 Jun 2027 21:24:35.753           126.498               CapeTown          9499.500
       408   13 Jun 2027 03:16:22.903   13 Jun 2027 03:20:32.281           249.378              Murmansk1         31172.250
       409   13 Jun 2027 04:25:49.717   13 Jun 2027 04:27:28.665            98.948                Sumatra         12368.500
       410   13 Jun 2027 04:33:31.419   13 Jun 2027 04:35:32.474           121.055                Sumatra         15131.875
       411   13 Jun 2027 04:50:40.908   13 Jun 2027 04:51:41.963            61.055                Irkutsk          7631.875
       412   13 Jun 2027 04:52:05.390   13 Jun 2027 04:52:35.670            30.280              Murmansk2          3785.000
       413   13 Jun 2027 04:52:44.859   13 Jun 2027 04:53:44.190            59.331                Novosib          7416.375
       414   13 Jun 2027 04:53:51.434   13 Jun 2027 04:54:25.867            34.433                 Moscow          4304.125
       415   13 Jun 2027 04:54:42.651   13 Jun 2027 04:59:13.221           270.570              Murmansk1         33821.250
       416   13 Jun 2027 06:12:45.485   13 Jun 2027 06:22:18.879           573.394                  Delhi         71674.250
       417   13 Jun 2027 06:28:01.729   13 Jun 2027 06:28:41.221            39.492              Murmansk1          4936.500
       418   13 Jun 2027 06:29:00.674   13 Jun 2027 06:31:09.798           129.124                 Moscow         16140.500
       419   13 Jun 2027 06:32:01.620   13 Jun 2027 06:34:50.732           169.112              Murmansk2         21139.000
       420   13 Jun 2027 07:57:40.435   13 Jun 2027 07:58:17.476            37.041                 Moscow          4630.125
       421   13 Jun 2027 07:58:40.973   13 Jun 2027 07:59:14.396            33.423                 Moscow          4177.875
       422   13 Jun 2027 08:03:05.541   13 Jun 2027 08:04:29.382            83.841              Murmansk2         10480.125
       423   13 Jun 2027 08:04:34.369   13 Jun 2027 08:07:15.407           161.038                 Moscow         20129.750
       424   13 Jun 2027 08:07:22.149   13 Jun 2027 08:10:45.735           203.586              Murmansk1         25448.250
       425   13 Jun 2027 09:12:12.068   13 Jun 2027 09:19:58.855           466.787               CapeTown         58348.375
       426   13 Jun 2027 09:37:29.710   13 Jun 2027 09:38:14.206            44.496              Murmansk1          5562.000
       427   13 Jun 2027 09:38:31.977   13 Jun 2027 09:40:23.940           111.963                 Moscow         13995.375
       428   13 Jun 2027 09:41:51.380   13 Jun 2027 09:45:50.916           239.536              Murmansk2         29942.000
       429   13 Jun 2027 09:46:40.645   13 Jun 2027 09:46:42.923             2.278              Murmansk1           284.750
       430   13 Jun 2027 09:48:46.128   13 Jun 2027 09:51:48.185           182.057                Anadyr2         22757.125
       431   13 Jun 2027 11:28:55.415   13 Jun 2027 11:29:12.061            16.646                Anadyr2          2080.750
       432   13 Jun 2027 11:32:34.197   13 Jun 2027 11:33:01.137            26.940               Magadan1          3367.500
       433   13 Jun 2027 13:02:39.479   13 Jun 2027 13:05:36.666           177.187               Magadan1         22148.375
       434   13 Jun 2027 13:05:45.179   13 Jun 2027 13:07:32.371           107.192               Magadan2         13399.000
       435   13 Jun 2027 13:09:33.747   13 Jun 2027 13:12:13.854           160.107               Magadan1         20013.375
       436   13 Jun 2027 14:58:30.066   13 Jun 2027 15:00:32.592           122.526                Sumatra         15315.750
       437   13 Jun 2027 16:20:59.899   13 Jun 2027 16:22:55.332           115.433                Irkutsk         14429.125
       438   13 Jun 2027 16:31:54.433   13 Jun 2027 16:33:09.509            75.076                Sumatra          9384.500
       439   13 Jun 2027 16:33:32.875   13 Jun 2027 16:34:27.791            54.916                  Delhi          6864.500
       440   13 Jun 2027 16:39:36.279   13 Jun 2027 16:41:07.767            91.488                Sumatra         11436.000
       441   13 Jun 2027 17:58:21.966   13 Jun 2027 17:58:43.717            21.751                Novosib          2718.875
       442   13 Jun 2027 18:01:12.851   13 Jun 2027 18:03:15.374           122.523                  Delhi         15315.375
       443   13 Jun 2027 18:08:34.602   13 Jun 2027 18:10:47.892           133.290                  Delhi         16661.250
       444   13 Jun 2027 21:07:24.070   13 Jun 2027 21:07:46.714            22.644                 Moscow          2830.500
       445   13 Jun 2027 21:09:12.012   13 Jun 2027 21:10:29.072            77.060                 Moscow          9632.500
       446   13 Jun 2027 21:34:30.460   13 Jun 2027 21:36:20.494           110.034               CapeTown         13754.250
