uniorb/output/strategy_4/Drop/Drop_KinoSat_111810.txt

KinoSat_111810
-------------------------
    Access    *     Start Time (UTCG)     *     Stop Time (UTCG)  *   Duration (s)        *       Station  *  Data (Mbytes)
         1   01 Jun 2027 03:57:17.941   01 Jun 2027 04:00:20.508           182.567                Irkutsk          5705.219
         2   01 Jun 2027 04:00:30.734   01 Jun 2027 04:01:46.449            75.715                Novosib          2366.094
         3   01 Jun 2027 04:02:30.890   01 Jun 2027 04:04:38.050           127.160                  Delhi          3973.750
         4   01 Jun 2027 04:06:11.237   01 Jun 2027 04:07:41.517            90.280                  Delhi          2821.250
         5   01 Jun 2027 05:34:34.471   01 Jun 2027 05:35:00.801            26.330                Norilsk           822.812
         6   01 Jun 2027 05:35:07.545   01 Jun 2027 05:35:38.367            30.822              Murmansk2           963.188
         7   01 Jun 2027 05:35:57.083   01 Jun 2027 05:36:08.742            11.659                Norilsk           364.344
         8   01 Jun 2027 05:36:26.877   01 Jun 2027 05:39:28.094           181.217              Murmansk2          5663.031
         9   01 Jun 2027 05:39:35.402   01 Jun 2027 05:42:31.989           176.587                 Moscow          5518.344
        10   01 Jun 2027 05:53:59.923   01 Jun 2027 05:56:54.600           174.677               CapeTown          5458.656
        11   01 Jun 2027 06:02:48.009   01 Jun 2027 06:03:33.597            45.588               CapeTown          1424.625
        12   01 Jun 2027 06:06:10.251   01 Jun 2027 06:06:47.397            37.146               CapeTown          1160.813
        13   01 Jun 2027 06:58:22.224   01 Jun 2027 07:02:57.300           275.076               Magadan1          8596.125
        14   01 Jun 2027 07:03:01.790   01 Jun 2027 07:03:38.348            36.558                Anadyr1          1142.437
        15   01 Jun 2027 07:04:11.886   01 Jun 2027 07:04:19.346             7.460              Murmansk2           233.125
        16   01 Jun 2027 07:11:33.943   01 Jun 2027 07:11:43.686             9.743                 Moscow           304.469
        17   01 Jun 2027 07:11:50.883   01 Jun 2027 07:12:33.829            42.946                 Moscow          1342.062
        18   01 Jun 2027 08:34:16.345   01 Jun 2027 08:37:38.887           202.542                Anadyr2          6329.437
        19   01 Jun 2027 08:37:38.887   01 Jun 2027 08:38:27.755            48.868                Anadyr1          1527.125
        20   01 Jun 2027 10:08:19.964   01 Jun 2027 10:08:56.126            36.162               Magadan1          1130.063
        21   01 Jun 2027 10:08:56.126   01 Jun 2027 10:11:16.092           139.966               Magadan2          4373.937
        22   01 Jun 2027 10:11:42.871   01 Jun 2027 10:14:19.654           156.783                Anadyr2          4899.469
        23   01 Jun 2027 11:44:19.651   01 Jun 2027 11:48:56.811           277.160               Magadan1          8661.250
        24   01 Jun 2027 11:50:01.306   01 Jun 2027 11:50:57.713            56.407                Irkutsk          1762.719
        25   01 Jun 2027 13:15:05.973   01 Jun 2027 13:15:26.987            21.014                Irkutsk           656.687
        26   01 Jun 2027 13:15:54.273   01 Jun 2027 13:16:28.471            34.198                Irkutsk          1068.687
        27   01 Jun 2027 13:16:58.716   01 Jun 2027 13:19:05.786           127.070                Irkutsk          3970.938
        28   01 Jun 2027 13:23:20.521   01 Jun 2027 13:24:54.765            94.244                Irkutsk          2945.125
        29   01 Jun 2027 14:07:37.992   01 Jun 2027 14:11:03.219           205.227            RioGallegos          6413.344
        30   01 Jun 2027 14:53:02.751   01 Jun 2027 14:53:43.161            40.410                Novosib          1262.812
        31   01 Jun 2027 14:54:50.934   01 Jun 2027 14:55:45.280            54.346                  Delhi          1698.312
        32   01 Jun 2027 14:56:32.327   01 Jun 2027 14:57:44.478            72.151                Novosib          2254.719
        33   01 Jun 2027 15:00:39.671   01 Jun 2027 15:03:01.815           142.144                Novosib          4442.000
        34   01 Jun 2027 16:29:04.351   01 Jun 2027 16:32:00.276           175.925                 Moscow          5497.656
        35   01 Jun 2027 16:33:25.848   01 Jun 2027 16:33:52.797            26.949              Murmansk2           842.156
        36   01 Jun 2027 16:34:23.253   01 Jun 2027 16:35:13.998            50.745              Murmansk1          1585.781
        37   01 Jun 2027 16:37:19.255   01 Jun 2027 16:43:25.518           366.263                Norilsk         11445.719
        38   01 Jun 2027 17:53:58.838   01 Jun 2027 17:54:37.252            38.414               CapeTown          1200.438
        39   01 Jun 2027 18:06:57.965   01 Jun 2027 18:08:08.523            70.558                 Moscow          2204.938
        40   01 Jun 2027 18:09:54.000   01 Jun 2027 18:11:10.435            76.435              Murmansk1          2388.594
        41   01 Jun 2027 18:11:56.154   01 Jun 2027 18:12:22.290            26.136                 Moscow           816.750
        42   01 Jun 2027 18:13:26.112   01 Jun 2027 18:14:22.462            56.350              Murmansk2          1760.937
        43   01 Jun 2027 18:18:32.694   01 Jun 2027 18:19:39.379            66.685              Murmansk1          2083.906
        44   01 Jun 2027 18:21:01.688   01 Jun 2027 18:21:26.947            25.259              Murmansk2           789.344
        45   01 Jun 2027 19:18:41.945   01 Jun 2027 19:20:21.990           100.045               CapeTown          3126.406
        46   01 Jun 2027 19:24:16.423   01 Jun 2027 19:26:31.067           134.644               CapeTown          4207.625
        47   01 Jun 2027 19:49:37.156   01 Jun 2027 19:51:22.247           105.091              Murmansk2          3284.094
        48   01 Jun 2027 19:51:51.138   01 Jun 2027 19:57:03.611           312.473              Murmansk1          9764.781
        49   01 Jun 2027 21:35:03.477   01 Jun 2027 21:36:43.021            99.544                Anadyr1          3110.750
        50   01 Jun 2027 21:36:51.587   01 Jun 2027 21:38:05.003            73.416                Anadyr2          2294.250
        51   01 Jun 2027 21:38:22.351   01 Jun 2027 21:38:42.189            19.838                Anadyr2           619.937
        52   01 Jun 2027 21:39:06.914   01 Jun 2027 21:40:51.649           104.735               Magadan1          3272.969
        53   01 Jun 2027 21:41:45.037   01 Jun 2027 21:42:15.757            30.720               Magadan2           960.000
        54   01 Jun 2027 21:42:27.271   01 Jun 2027 21:42:40.839            13.568               Magadan1           424.000
        55   01 Jun 2027 21:44:23.534   01 Jun 2027 21:44:33.519             9.985               Magadan2           312.031
        56   01 Jun 2027 21:45:34.253   01 Jun 2027 21:45:39.238             4.985               Magadan2           155.781
        57   01 Jun 2027 21:45:41.687   01 Jun 2027 21:45:43.227             1.540               Magadan2            48.125
        58   01 Jun 2027 22:31:13.114   01 Jun 2027 22:33:44.631           151.517            RioGallegos          4734.906
        59   01 Jun 2027 22:35:31.495   01 Jun 2027 22:36:08.558            37.063            RioGallegos          1158.219
        60   01 Jun 2027 23:10:53.249   01 Jun 2027 23:12:09.624            76.375                Anadyr1          2386.719
        61   01 Jun 2027 23:12:26.744   01 Jun 2027 23:12:44.598            17.854                Anadyr2           557.938
        62   01 Jun 2027 23:12:47.504   01 Jun 2027 23:13:10.678            23.174                Anadyr1           724.187
        63   01 Jun 2027 23:13:17.150   01 Jun 2027 23:15:03.403           106.253               Magadan2          3320.406
        64   01 Jun 2027 23:15:03.403   01 Jun 2027 23:15:43.600            40.197               Magadan1          1256.156
        65   01 Jun 2027 23:16:02.410   01 Jun 2027 23:16:03.798             1.388                Norilsk            43.375
        66   01 Jun 2027 23:16:16.126   01 Jun 2027 23:16:57.326            41.200               Magadan2          1287.500
        67   01 Jun 2027 23:17:55.799   01 Jun 2027 23:18:34.441            38.642                Irkutsk          1207.563
        68   01 Jun 2027 23:19:40.199   01 Jun 2027 23:20:11.722            31.523                Irkutsk           985.094
        69   01 Jun 2027 23:21:21.923   01 Jun 2027 23:22:02.308            40.385                Irkutsk          1262.031
        70   01 Jun 2027 23:22:13.056   01 Jun 2027 23:23:16.975            63.919                Irkutsk          1997.469
        71   01 Jun 2027 23:32:55.334   01 Jun 2027 23:34:53.843           118.509                Sumatra          3703.406
        72   02 Jun 2027 00:07:18.386   02 Jun 2027 00:07:35.503            17.117            RioGallegos           534.906
        73   02 Jun 2027 00:07:49.172   02 Jun 2027 00:08:34.204            45.032            RioGallegos          1407.250
        74   02 Jun 2027 00:14:19.145   02 Jun 2027 00:14:25.560             6.415            RioGallegos           200.469
        75   02 Jun 2027 00:15:35.846   02 Jun 2027 00:15:56.309            20.463            RioGallegos           639.469
        76   02 Jun 2027 00:46:10.393   02 Jun 2027 00:46:33.414            23.021                Anadyr1           719.406
        77   02 Jun 2027 00:46:35.595   02 Jun 2027 00:47:03.214            27.619                Anadyr2           863.094
        78   02 Jun 2027 00:47:38.589   02 Jun 2027 00:48:00.022            21.433                Anadyr2           669.781
        79   02 Jun 2027 00:48:25.964   02 Jun 2027 00:48:47.132            21.168                Anadyr2           661.500
        80   02 Jun 2027 00:49:00.919   02 Jun 2027 00:49:33.606            32.687                Anadyr1          1021.469
        81   02 Jun 2027 00:49:43.207   02 Jun 2027 00:52:36.322           173.115               Magadan1          5409.844
        82   02 Jun 2027 00:52:42.037   02 Jun 2027 00:54:50.369           128.332                Irkutsk          4010.375
        83   02 Jun 2027 00:55:58.593   02 Jun 2027 00:56:17.496            18.903                Irkutsk           590.719
        84   02 Jun 2027 01:01:50.798   02 Jun 2027 01:01:52.665             1.867                Novosib            58.344
        85   02 Jun 2027 01:03:22.200   02 Jun 2027 01:04:15.231            53.031                  Delhi          1657.219
        86   02 Jun 2027 01:06:35.555   02 Jun 2027 01:08:39.856           124.301                Sumatra          3884.406
        87   02 Jun 2027 01:14:51.169   02 Jun 2027 01:16:20.034            88.865                Sumatra          2777.031
        88   02 Jun 2027 01:52:51.005   02 Jun 2027 01:52:56.604             5.599            RioGallegos           174.969
        89   02 Jun 2027 02:22:30.872   02 Jun 2027 02:22:51.920            21.048                Anadyr2           657.750
        90   02 Jun 2027 02:24:29.662   02 Jun 2027 02:25:10.111            40.449                Anadyr1          1264.031
        91   02 Jun 2027 02:25:25.556   02 Jun 2027 02:25:53.628            28.072               Magadan1           877.250
        92   02 Jun 2027 02:25:58.498   02 Jun 2027 02:26:33.002            34.504                Norilsk          1078.250
        93   02 Jun 2027 02:27:40.333   02 Jun 2027 02:28:51.262            70.929              Murmansk2          2216.531
        94   02 Jun 2027 02:28:53.883   02 Jun 2027 02:30:24.073            90.190                Novosib          2818.438
        95   02 Jun 2027 02:30:25.819   02 Jun 2027 02:30:59.969            34.150                Irkutsk          1067.187
        96   02 Jun 2027 02:38:29.690   02 Jun 2027 02:39:06.813            37.123                  Delhi          1160.094
        97   02 Jun 2027 02:41:11.254   02 Jun 2027 02:41:48.780            37.526                  Delhi          1172.687
        98   02 Jun 2027 02:47:50.509   02 Jun 2027 02:48:22.164            31.655                  Delhi           989.219
        99   02 Jun 2027 03:19:22.867   02 Jun 2027 03:20:06.479            43.612            RioGallegos          1362.875
       100   02 Jun 2027 03:21:07.598   02 Jun 2027 03:22:48.894           101.296            RioGallegos          3165.500
       101   02 Jun 2027 04:07:14.452   02 Jun 2027 04:07:43.003            28.551                Irkutsk           892.219
       102   02 Jun 2027 04:09:28.350   02 Jun 2027 04:10:18.155            49.805                Norilsk          1556.406
       103   02 Jun 2027 04:10:30.183   02 Jun 2027 04:10:47.764            17.581              Murmansk1           549.406
       104   02 Jun 2027 04:10:58.216   02 Jun 2027 04:11:27.226            29.010                Irkutsk           906.563
       105   02 Jun 2027 04:11:32.917   02 Jun 2027 04:13:38.885           125.968              Murmansk2          3936.500
       106   02 Jun 2027 04:13:38.885   02 Jun 2027 04:13:44.915             6.030              Murmansk1           188.438
       107   02 Jun 2027 04:14:14.428   02 Jun 2027 04:15:57.628           103.200                Novosib          3225.000
       108   02 Jun 2027 04:16:25.324   02 Jun 2027 04:21:05.666           280.342                  Delhi          8760.687
       109   02 Jun 2027 05:50:42.968   02 Jun 2027 05:51:37.698            54.730              Murmansk1          1710.313
       110   02 Jun 2027 05:51:42.082   02 Jun 2027 05:55:01.041           198.959                 Moscow          6217.469
       111   02 Jun 2027 06:06:44.173   02 Jun 2027 06:08:31.761           107.588               CapeTown          3362.125
       112   02 Jun 2027 06:09:40.877   02 Jun 2027 06:09:49.808             8.931               CapeTown           279.094
       113   02 Jun 2027 06:10:04.641   02 Jun 2027 06:10:39.579            34.938               CapeTown          1091.813
       114   02 Jun 2027 06:11:39.862   02 Jun 2027 06:12:51.058            71.196               CapeTown          2224.875
       115   02 Jun 2027 06:14:41.339   02 Jun 2027 06:15:37.416            56.077               CapeTown          1752.406
       116   02 Jun 2027 06:17:52.092   02 Jun 2027 06:18:47.421            55.329               CapeTown          1729.031
       117   02 Jun 2027 07:09:52.332   02 Jun 2027 07:15:40.056           347.724                Anadyr2         10866.375
       118   02 Jun 2027 07:26:21.807   02 Jun 2027 07:27:41.806            79.999                 Moscow          2499.969
       119   02 Jun 2027 08:47:41.296   02 Jun 2027 08:51:27.051           225.755                Anadyr2          7054.844
       120   02 Jun 2027 10:19:33.502   02 Jun 2027 10:20:26.920            53.418               Magadan1          1669.313
       121   02 Jun 2027 10:21:21.075   02 Jun 2027 10:25:28.269           247.194               Magadan2          7724.812
       122   02 Jun 2027 10:25:45.480   02 Jun 2027 10:26:02.670            17.190               Magadan1           537.187
       123   02 Jun 2027 10:28:25.440   02 Jun 2027 10:29:00.245            34.805              Murmansk2          1087.656
       124   02 Jun 2027 11:01:54.493   02 Jun 2027 11:02:55.224            60.731            RioGallegos          1897.844
       125   02 Jun 2027 11:40:25.321   02 Jun 2027 11:40:59.263            33.942                Sumatra          1060.687
       126   02 Jun 2027 11:58:05.812   02 Jun 2027 11:58:15.703             9.891                Irkutsk           309.094
       127   02 Jun 2027 11:58:50.540   02 Jun 2027 11:59:06.193            15.653               Magadan1           489.156
       128   02 Jun 2027 11:59:14.509   02 Jun 2027 11:59:21.456             6.947                Novosib           217.094
       129   02 Jun 2027 11:59:41.583   02 Jun 2027 12:01:22.804           101.221                Irkutsk          3163.156
       130   02 Jun 2027 12:02:34.051   02 Jun 2027 12:02:59.864            25.813                Irkutsk           806.656
       131   02 Jun 2027 12:04:05.372   02 Jun 2027 12:04:20.968            15.596                Novosib           487.375
       132   02 Jun 2027 12:10:39.128   02 Jun 2027 12:10:46.099             6.971              Murmansk1           217.844
       133   02 Jun 2027 12:42:42.027   02 Jun 2027 12:43:06.961            24.934            RioGallegos           779.188
       134   02 Jun 2027 12:43:37.948   02 Jun 2027 12:44:07.238            29.290            RioGallegos           915.312
       135   02 Jun 2027 12:47:15.304   02 Jun 2027 12:48:11.113            55.809            RioGallegos          1744.031
       136   02 Jun 2027 12:49:03.375   02 Jun 2027 12:49:39.219            35.844            RioGallegos          1120.125
       137   02 Jun 2027 13:18:14.524   02 Jun 2027 13:20:20.963           126.439                Sumatra          3951.219
       138   02 Jun 2027 13:27:33.669   02 Jun 2027 13:28:03.872            30.203                Irkutsk           943.844
       139   02 Jun 2027 13:31:05.350   02 Jun 2027 13:32:07.179            61.829                Irkutsk          1932.156
       140   02 Jun 2027 13:34:49.442   02 Jun 2027 13:37:33.921           164.479                Irkutsk          5139.969
       141   02 Jun 2027 14:57:21.654   02 Jun 2027 14:58:30.641            68.987                  Delhi          2155.844
       142   02 Jun 2027 15:01:43.259   02 Jun 2027 15:02:22.416            39.157                  Delhi          1223.656
       143   02 Jun 2027 15:05:30.803   02 Jun 2027 15:07:18.070           107.267                  Delhi          3352.094
       144   02 Jun 2027 15:09:26.850   02 Jun 2027 15:10:03.100            36.250                Norilsk          1132.813
       145   02 Jun 2027 15:11:48.419   02 Jun 2027 15:12:07.493            19.074                Norilsk           596.063
       146   02 Jun 2027 15:13:37.661   02 Jun 2027 15:13:56.949            19.288                Norilsk           602.750
       147   02 Jun 2027 15:14:05.865   02 Jun 2027 15:14:32.538            26.673                Norilsk           833.531
       148   02 Jun 2027 15:18:30.454   02 Jun 2027 15:19:15.249            44.795                Norilsk          1399.844
       149   02 Jun 2027 16:41:08.754   02 Jun 2027 16:44:24.191           195.437                 Moscow          6107.406
       150   02 Jun 2027 16:45:54.808   02 Jun 2027 16:47:03.269            68.461              Murmansk2          2139.406
       151   02 Jun 2027 16:50:11.128   02 Jun 2027 16:54:34.097           262.969                Norilsk          8217.781
       152   02 Jun 2027 18:19:34.517   02 Jun 2027 18:21:53.134           138.617                 Moscow          4331.781
       153   02 Jun 2027 18:22:15.320   02 Jun 2027 18:23:05.375            50.055              Murmansk1          1564.219
       154   02 Jun 2027 18:23:52.991   02 Jun 2027 18:25:23.800            90.809              Murmansk1          2837.781
       155   02 Jun 2027 18:31:58.005   02 Jun 2027 18:32:28.512            30.507              Murmansk1           953.344
       156   02 Jun 2027 18:40:27.388   02 Jun 2027 18:40:40.551            13.163                Anadyr1           411.344
       157   02 Jun 2027 19:30:53.523   02 Jun 2027 19:32:21.229            87.706               CapeTown          2740.812
       158   02 Jun 2027 19:33:46.875   02 Jun 2027 19:35:22.360            95.485               CapeTown          2983.906
       159   02 Jun 2027 20:02:22.576   02 Jun 2027 20:06:55.745           273.169              Murmansk2          8536.531
       160   02 Jun 2027 20:07:51.184   02 Jun 2027 20:08:39.866            48.682              Murmansk1          1521.312
       161   02 Jun 2027 21:47:05.153   02 Jun 2027 21:52:14.089           308.936                Anadyr1          9654.250
       162   02 Jun 2027 21:52:28.678   02 Jun 2027 21:54:22.548           113.870               Magadan1          3558.438
       163   02 Jun 2027 21:57:55.637   02 Jun 2027 21:58:35.172            39.535               Magadan2          1235.469
       164   02 Jun 2027 22:42:33.845   02 Jun 2027 22:45:13.851           160.006            RioGallegos          5000.188
       165   02 Jun 2027 22:47:42.905   02 Jun 2027 22:48:12.974            30.069            RioGallegos           939.656
       166   02 Jun 2027 23:22:52.573   02 Jun 2027 23:24:28.900            96.327                Anadyr2          3010.219
       167   02 Jun 2027 23:24:48.566   02 Jun 2027 23:26:06.799            78.233                Anadyr1          2444.781
       168   02 Jun 2027 23:26:26.418   02 Jun 2027 23:27:05.331            38.913               Magadan2          1216.031
       169   02 Jun 2027 23:27:33.300   02 Jun 2027 23:27:58.668            25.368               Magadan1           792.750
       170   02 Jun 2027 23:29:38.827   02 Jun 2027 23:31:39.656           120.829                Irkutsk          3775.906
       171   02 Jun 2027 23:35:35.545   02 Jun 2027 23:36:25.389            49.844                Irkutsk          1557.625
       172   02 Jun 2027 23:44:09.328   02 Jun 2027 23:45:50.095           100.767                Sumatra          3148.969
       173   03 Jun 2027 00:18:17.475   03 Jun 2027 00:18:34.291            16.816            RioGallegos           525.500
       174   03 Jun 2027 00:22:27.719   03 Jun 2027 00:22:42.399            14.680            RioGallegos           458.750
       175   03 Jun 2027 00:26:02.963   03 Jun 2027 00:26:24.407            21.444            RioGallegos           670.125
       176   03 Jun 2027 00:58:02.833   03 Jun 2027 00:58:36.626            33.793                Anadyr2          1056.031
       177   03 Jun 2027 00:59:12.238   03 Jun 2027 01:00:23.549            71.311                Anadyr1          2228.469
       178   03 Jun 2027 01:00:48.508   03 Jun 2027 01:02:36.054           107.546                Norilsk          3360.812
       179   03 Jun 2027 01:04:42.266   03 Jun 2027 01:06:45.019           122.753                Irkutsk          3836.031
       180   03 Jun 2027 01:07:00.669   03 Jun 2027 01:07:32.644            31.975                Novosib           999.219
       181   03 Jun 2027 01:09:35.698   03 Jun 2027 01:10:12.697            36.999                Novosib          1156.219
       182   03 Jun 2027 01:13:53.782   03 Jun 2027 01:14:17.377            23.595                Irkutsk           737.344
       183   03 Jun 2027 01:16:52.627   03 Jun 2027 01:17:26.896            34.269                  Delhi          1070.906
       184   03 Jun 2027 01:18:49.156   03 Jun 2027 01:19:13.740            24.584                Sumatra           768.250
       185   03 Jun 2027 01:23:22.407   03 Jun 2027 01:23:38.585            16.178                Sumatra           505.562
       186   03 Jun 2027 01:25:43.111   03 Jun 2027 01:27:21.966            98.855                Sumatra          3089.219
       187   03 Jun 2027 01:57:48.257   03 Jun 2027 01:58:05.330            17.073            RioGallegos           533.531
       188   03 Jun 2027 02:02:20.266   03 Jun 2027 02:02:32.746            12.480            RioGallegos           390.000
       189   03 Jun 2027 02:03:21.167   03 Jun 2027 02:04:07.025            45.858            RioGallegos          1433.062
       190   03 Jun 2027 02:34:04.527   03 Jun 2027 02:34:30.303            25.776                Anadyr2           805.500
       191   03 Jun 2027 02:36:49.612   03 Jun 2027 02:38:04.196            74.584                Norilsk          2330.750
       192   03 Jun 2027 02:39:29.768   03 Jun 2027 02:40:21.805            52.037              Murmansk1          1626.156
       193   03 Jun 2027 02:40:21.805   03 Jun 2027 02:40:38.654            16.849              Murmansk2           526.531
       194   03 Jun 2027 02:40:56.447   03 Jun 2027 02:41:57.294            60.847                Irkutsk          1901.469
       195   03 Jun 2027 02:42:17.692   03 Jun 2027 02:42:29.305            11.613                Irkutsk           362.906
       196   03 Jun 2027 02:45:00.198   03 Jun 2027 02:45:28.583            28.385                Irkutsk           887.031
       197   03 Jun 2027 02:47:56.617   03 Jun 2027 02:48:13.917            17.300                  Delhi           540.625
       198   03 Jun 2027 02:50:39.131   03 Jun 2027 02:51:06.533            27.402                  Delhi           856.313
       199   03 Jun 2027 02:54:35.179   03 Jun 2027 02:56:16.722           101.543                  Delhi          3173.219
       200   03 Jun 2027 03:30:14.472   03 Jun 2027 03:31:02.159            47.687            RioGallegos          1490.219
       201   03 Jun 2027 03:31:40.916   03 Jun 2027 03:33:01.060            80.144            RioGallegos          2504.500
       202   03 Jun 2027 03:34:08.360   03 Jun 2027 03:35:27.097            78.737            RioGallegos          2460.531
       203   03 Jun 2027 04:20:55.117   03 Jun 2027 04:22:19.876            84.759                Irkutsk          2648.719
       204   03 Jun 2027 04:22:25.821   03 Jun 2027 04:26:17.302           231.481                Novosib          7233.781
       205   03 Jun 2027 04:27:39.880   03 Jun 2027 04:27:51.826            11.946                Novosib           373.312
       206   03 Jun 2027 05:57:10.021   03 Jun 2027 05:58:37.136            87.115                Novosib          2722.344
       207   03 Jun 2027 06:02:34.273   03 Jun 2027 06:03:45.528            71.255              Murmansk1          2226.719
       208   03 Jun 2027 07:21:32.054   03 Jun 2027 07:21:47.425            15.371               Magadan2           480.344
       209   03 Jun 2027 07:21:53.561   03 Jun 2027 07:22:54.592            61.031                Anadyr2          1907.219
       210   03 Jun 2027 07:23:03.029   03 Jun 2027 07:23:15.018            11.989               Magadan2           374.656
       211   03 Jun 2027 07:23:15.018   03 Jun 2027 07:23:21.972             6.954               Magadan1           217.313
       212   03 Jun 2027 07:23:50.344   03 Jun 2027 07:23:57.909             7.565                Anadyr1           236.406
       213   03 Jun 2027 07:24:31.913   03 Jun 2027 07:25:37.207            65.294                Anadyr1          2040.437
       214   03 Jun 2027 08:57:29.712   03 Jun 2027 08:57:49.342            19.630                Anadyr2           613.438
       215   03 Jun 2027 08:58:21.734   03 Jun 2027 08:58:28.113             6.379               Magadan2           199.344
       216   03 Jun 2027 08:58:34.262   03 Jun 2027 08:58:48.255            13.993               Magadan2           437.281
       217   03 Jun 2027 08:59:27.396   03 Jun 2027 09:00:01.301            33.905               Magadan1          1059.531
       218   03 Jun 2027 09:00:55.812   03 Jun 2027 09:02:40.733           104.921                Anadyr2          3278.781
       219   03 Jun 2027 10:32:50.752   03 Jun 2027 10:33:03.668            12.916               Magadan2           403.625
       220   03 Jun 2027 10:33:05.810   03 Jun 2027 10:34:44.546            98.736               Magadan1          3085.500
       221   03 Jun 2027 10:34:57.310   03 Jun 2027 10:35:03.567             6.257                Irkutsk           195.531
       222   03 Jun 2027 10:35:13.731   03 Jun 2027 10:36:02.356            48.625               Magadan2          1519.531
       223   03 Jun 2027 10:36:10.319   03 Jun 2027 10:36:32.979            22.660                Norilsk           708.125
       224   03 Jun 2027 10:37:00.460   03 Jun 2027 10:37:04.821             4.361                Irkutsk           136.281
       225   03 Jun 2027 10:37:07.215   03 Jun 2027 10:37:31.328            24.113                Irkutsk           753.531
       226   03 Jun 2027 10:37:52.988   03 Jun 2027 10:38:04.551            11.563                Norilsk           361.344
       227   03 Jun 2027 10:38:12.942   03 Jun 2027 10:38:17.920             4.978                Novosib           155.563
       228   03 Jun 2027 10:38:18.879   03 Jun 2027 10:38:39.218            20.339                Norilsk           635.594
       229   03 Jun 2027 10:38:39.926   03 Jun 2027 10:38:52.070            12.144               Magadan2           379.500
       230   03 Jun 2027 11:13:47.913   03 Jun 2027 11:14:55.623            67.710            RioGallegos          2115.938
       231   03 Jun 2027 11:19:47.889   03 Jun 2027 11:20:30.801            42.912            RioGallegos          1341.000
       232   03 Jun 2027 11:53:21.917   03 Jun 2027 11:54:44.280            82.363                Sumatra          2573.844
       233   03 Jun 2027 12:07:32.073   03 Jun 2027 12:07:49.474            17.401                Novosib           543.781
       234   03 Jun 2027 12:12:25.547   03 Jun 2027 12:13:05.370            39.823                Novosib          1244.469
       235   03 Jun 2027 12:50:42.022   03 Jun 2027 12:51:06.170            24.148            RioGallegos           754.625
       236   03 Jun 2027 12:54:42.612   03 Jun 2027 12:55:43.751            61.139            RioGallegos          1910.594
       237   03 Jun 2027 12:59:54.071   03 Jun 2027 13:00:38.016            43.945            RioGallegos          1373.281
       238   03 Jun 2027 13:24:58.560   03 Jun 2027 13:26:01.835            63.275                Sumatra          1977.344
       239   03 Jun 2027 13:29:49.003   03 Jun 2027 13:30:00.773            11.770                Sumatra           367.813
       240   03 Jun 2027 13:30:20.922   03 Jun 2027 13:30:51.905            30.983                Sumatra           968.219
       241   03 Jun 2027 13:33:19.235   03 Jun 2027 13:34:51.828            92.593                Sumatra          2893.531
       242   03 Jun 2027 13:43:03.772   03 Jun 2027 13:43:47.410            43.638                Irkutsk          1363.688
       243   03 Jun 2027 13:46:43.918   03 Jun 2027 13:50:04.729           200.811                Irkutsk          6275.344
       244   03 Jun 2027 15:11:11.905   03 Jun 2027 15:13:44.634           152.729                  Delhi          4772.781
       245   03 Jun 2027 15:18:12.590   03 Jun 2027 15:20:29.080           136.490                Novosib          4265.312
       246   03 Jun 2027 15:22:27.792   03 Jun 2027 15:24:04.360            96.568                Novosib          3017.750
       247   03 Jun 2027 16:53:16.245   03 Jun 2027 16:54:08.602            52.357                 Moscow          1636.156
       248   03 Jun 2027 16:56:24.612   03 Jun 2027 16:57:00.157            35.545                 Moscow          1110.781
       249   03 Jun 2027 16:59:32.167   03 Jun 2027 16:59:51.363            19.196              Murmansk2           599.875
       250   03 Jun 2027 17:03:11.869   03 Jun 2027 17:07:00.309           228.440                Norilsk          7138.750
       251   03 Jun 2027 18:12:57.550   03 Jun 2027 18:13:39.297            41.747               CapeTown          1304.594
       252   03 Jun 2027 18:19:11.542   03 Jun 2027 18:19:15.754             4.212               CapeTown           131.625
       253   03 Jun 2027 18:32:18.193   03 Jun 2027 18:36:56.089           277.896                 Moscow          8684.250
       254   03 Jun 2027 18:52:09.699   03 Jun 2027 18:52:42.014            32.315                Anadyr1          1009.844
       255   03 Jun 2027 19:43:08.861   03 Jun 2027 19:44:42.734            93.873               CapeTown          2933.531
       256   03 Jun 2027 19:47:35.077   03 Jun 2027 19:47:52.043            16.966               CapeTown           530.188
       257   03 Jun 2027 19:48:17.299   03 Jun 2027 19:48:32.487            15.188               CapeTown           474.625
       258   03 Jun 2027 19:51:37.444   03 Jun 2027 19:52:58.536            81.092               CapeTown          2534.125
       259   03 Jun 2027 20:15:13.719   03 Jun 2027 20:20:46.904           333.185              Murmansk1         10412.031
       260   03 Jun 2027 21:59:06.694   03 Jun 2027 22:02:53.557           226.863                Anadyr1          7089.469
       261   03 Jun 2027 22:03:03.560   03 Jun 2027 22:04:57.683           114.123               Magadan1          3566.344
       262   03 Jun 2027 22:05:24.317   03 Jun 2027 22:06:02.367            38.050               Magadan1          1189.062
       263   03 Jun 2027 22:06:28.512   03 Jun 2027 22:06:35.695             7.183               Magadan2           224.469
       264   03 Jun 2027 22:08:29.945   03 Jun 2027 22:08:51.332            21.387               Magadan1           668.344
       265   03 Jun 2027 22:54:08.134   03 Jun 2027 22:56:19.861           131.727            RioGallegos          4116.469
       266   03 Jun 2027 22:56:23.418   03 Jun 2027 22:57:16.399            52.981            RioGallegos          1655.656
       267   03 Jun 2027 23:00:41.332   03 Jun 2027 23:00:44.830             3.498            RioGallegos           109.313
       268   03 Jun 2027 23:34:51.325   03 Jun 2027 23:36:49.334           118.009                Anadyr1          3687.781
       269   03 Jun 2027 23:36:56.999   03 Jun 2027 23:38:34.420            97.421                Norilsk          3044.406
       270   03 Jun 2027 23:38:44.085   03 Jun 2027 23:39:14.958            30.873               Magadan1           964.781
       271   03 Jun 2027 23:39:28.022   03 Jun 2027 23:40:38.083            70.061               Magadan2          2189.406
       272   03 Jun 2027 23:41:26.320   03 Jun 2027 23:42:04.453            38.133                Irkutsk          1191.656
       273   03 Jun 2027 23:43:40.013   03 Jun 2027 23:45:01.716            81.703                Irkutsk          2553.219
       274   03 Jun 2027 23:55:36.461   03 Jun 2027 23:56:29.292            52.831                Sumatra          1650.969
       275   03 Jun 2027 23:59:17.569   04 Jun 2027 00:01:21.636           124.067                Sumatra          3877.094
       276   04 Jun 2027 01:09:54.020   04 Jun 2027 01:10:09.147            15.127                Anadyr1           472.719
       277   04 Jun 2027 01:10:30.990   04 Jun 2027 01:11:23.498            52.508                Anadyr2          1640.875
       278   04 Jun 2027 01:11:23.498   04 Jun 2027 01:11:35.063            11.565                Anadyr1           361.406
       279   04 Jun 2027 01:12:15.125   04 Jun 2027 01:12:37.400            22.275                Anadyr1           696.094
       280   04 Jun 2027 01:12:50.765   04 Jun 2027 01:14:24.571            93.806                Norilsk          2931.438
       281   04 Jun 2027 01:16:43.438   04 Jun 2027 01:19:17.390           153.952                Irkutsk          4811.000
       282   04 Jun 2027 01:22:49.121   04 Jun 2027 01:22:52.742             3.621                Novosib           113.156
       283   04 Jun 2027 01:23:09.967   04 Jun 2027 01:23:22.774            12.807                Novosib           400.219
       284   04 Jun 2027 01:25:35.052   04 Jun 2027 01:26:15.705            40.653                  Delhi          1270.406
       285   04 Jun 2027 01:28:08.172   04 Jun 2027 01:28:23.287            15.115                  Delhi           472.344
       286   04 Jun 2027 01:30:14.298   04 Jun 2027 01:30:34.104            19.806                  Delhi           618.937
       287   04 Jun 2027 01:31:09.930   04 Jun 2027 01:32:23.016            73.086                Sumatra          2283.937
       288   04 Jun 2027 02:04:59.947   04 Jun 2027 02:05:47.772            47.825            RioGallegos          1494.531
       289   04 Jun 2027 02:07:07.150   04 Jun 2027 02:07:47.363            40.213            RioGallegos          1256.656
       290   04 Jun 2027 02:12:41.281   04 Jun 2027 02:12:47.401             6.120            RioGallegos           191.250
       291   04 Jun 2027 02:15:28.533   04 Jun 2027 02:15:36.938             8.405            RioGallegos           262.656
       292   04 Jun 2027 02:45:31.511   04 Jun 2027 02:46:32.909            61.398                Anadyr1          1918.688
       293   04 Jun 2027 02:48:51.739   04 Jun 2027 02:49:50.636            58.897                Norilsk          1840.531
       294   04 Jun 2027 02:50:07.411   04 Jun 2027 02:50:33.345            25.934                Norilsk           810.437
       295   04 Jun 2027 02:51:22.979   04 Jun 2027 02:51:49.623            26.644              Murmansk2           832.625
       296   04 Jun 2027 02:52:11.429   04 Jun 2027 02:52:40.373            28.944              Murmansk1           904.500
       297   04 Jun 2027 02:52:44.892   04 Jun 2027 02:52:57.582            12.690                Novosib           396.562
       298   04 Jun 2027 02:53:04.274   04 Jun 2027 02:54:20.052            75.778                Irkutsk          2368.063
       299   04 Jun 2027 02:58:40.209   04 Jun 2027 02:58:55.912            15.703                Irkutsk           490.719
       300   04 Jun 2027 03:00:00.927   04 Jun 2027 03:01:49.473           108.546                  Delhi          3392.063
       301   04 Jun 2027 03:42:46.976   04 Jun 2027 03:43:13.738            26.762            RioGallegos           836.313
       302   04 Jun 2027 03:46:08.771   04 Jun 2027 03:46:31.766            22.995            RioGallegos           718.594
       303   04 Jun 2027 04:33:16.389   04 Jun 2027 04:34:30.878            74.489                Novosib          2327.781
       304   04 Jun 2027 04:34:49.070   04 Jun 2027 04:35:16.143            27.073                Norilsk           846.031
       305   04 Jun 2027 04:35:25.625   04 Jun 2027 04:38:09.280           163.655                Novosib          5114.219
       306   04 Jun 2027 06:12:10.065   04 Jun 2027 06:12:40.826            30.761                 Moscow           961.281
       307   04 Jun 2027 06:12:57.262   04 Jun 2027 06:13:39.443            42.181                 Moscow          1318.156
       308   04 Jun 2027 06:30:14.880   04 Jun 2027 06:32:03.230           108.350               CapeTown          3385.938
       309   04 Jun 2027 07:33:05.465   04 Jun 2027 07:33:29.940            24.475               Magadan1           764.844
       310   04 Jun 2027 07:33:34.855   04 Jun 2027 07:33:57.159            22.304               Magadan2           697.000
       311   04 Jun 2027 07:34:12.417   04 Jun 2027 07:35:15.958            63.541               Magadan1          1985.656
       312   04 Jun 2027 07:35:21.411   04 Jun 2027 07:35:35.098            13.687                Anadyr2           427.719
       313   04 Jun 2027 07:35:35.098   04 Jun 2027 07:35:46.688            11.590                Anadyr1           362.188
       314   04 Jun 2027 07:36:41.605   04 Jun 2027 07:37:37.242            55.637                Anadyr1          1738.656
       315   04 Jun 2027 09:07:50.209   04 Jun 2027 09:09:24.559            94.350                Anadyr1          2948.437
       316   04 Jun 2027 09:10:13.041   04 Jun 2027 09:10:22.258             9.217                Anadyr1           288.031
       317   04 Jun 2027 09:10:22.828   04 Jun 2027 09:10:42.074            19.246               Magadan2           601.437
       318   04 Jun 2027 09:10:52.034   04 Jun 2027 09:11:29.444            37.410               Magadan2          1169.063
       319   04 Jun 2027 09:11:34.760   04 Jun 2027 09:12:07.580            32.820               Magadan2          1025.625
       320   04 Jun 2027 09:12:44.152   04 Jun 2027 09:14:09.528            85.376                Anadyr1          2668.000
       321   04 Jun 2027 10:43:24.930   04 Jun 2027 10:44:40.619            75.689               Magadan1          2365.281
       322   04 Jun 2027 10:45:28.929   04 Jun 2027 10:47:11.165           102.236               Magadan1          3194.875
       323   04 Jun 2027 10:47:39.700   04 Jun 2027 10:50:30.847           171.147               Magadan1          5348.344
       324   04 Jun 2027 10:50:44.168   04 Jun 2027 10:50:48.510             4.342                Norilsk           135.688
       325   04 Jun 2027 10:50:58.544   04 Jun 2027 10:51:10.558            12.014                Norilsk           375.437
       326   04 Jun 2027 11:25:44.582   04 Jun 2027 11:26:54.579            69.997            RioGallegos          2187.406
       327   04 Jun 2027 12:01:23.695   04 Jun 2027 12:02:36.276            72.581                Sumatra          2268.156
       328   04 Jun 2027 12:14:11.433   04 Jun 2027 12:16:13.825           122.392                Irkutsk          3824.750
       329   04 Jun 2027 12:29:44.060   04 Jun 2027 12:29:48.823             4.763                Norilsk           148.844
       330   04 Jun 2027 12:34:07.371   04 Jun 2027 12:34:32.834            25.463              Murmansk1           795.719
       331   04 Jun 2027 13:03:10.063   04 Jun 2027 13:04:11.899            61.836            RioGallegos          1932.375
       332   04 Jun 2027 13:06:42.093   04 Jun 2027 13:08:13.117            91.024            RioGallegos          2844.500
       333   04 Jun 2027 13:37:23.515   04 Jun 2027 13:41:00.498           216.983                Sumatra          6780.719
       334   04 Jun 2027 13:52:47.715   04 Jun 2027 13:55:00.867           133.152                Irkutsk          4161.000
       335   04 Jun 2027 15:22:29.661   04 Jun 2027 15:27:17.195           287.534                  Delhi          8985.437
       336   04 Jun 2027 15:30:58.042   04 Jun 2027 15:32:25.677            87.635                Novosib          2738.594
       337   04 Jun 2027 15:34:32.111   04 Jun 2027 15:35:59.857            87.746                Novosib          2742.063
       338   04 Jun 2027 17:05:26.979   04 Jun 2027 17:06:03.371            36.392                 Moscow          1137.250
       339   04 Jun 2027 17:06:59.099   04 Jun 2027 17:08:24.231            85.132                 Moscow          2660.375
       340   04 Jun 2027 17:11:31.591   04 Jun 2027 17:11:50.371            18.780              Murmansk2           586.875
       341   04 Jun 2027 17:15:48.053   04 Jun 2027 17:17:03.709            75.656              Murmansk1          2364.250
       342   04 Jun 2027 17:17:06.111   04 Jun 2027 17:18:22.621            76.510                Norilsk          2390.937
       343   04 Jun 2027 18:18:45.876   04 Jun 2027 18:19:41.391            55.515               CapeTown          1734.844
       344   04 Jun 2027 18:21:44.074   04 Jun 2027 18:21:47.404             3.330               CapeTown           104.062
       345   04 Jun 2027 18:24:45.061   04 Jun 2027 18:25:14.753            29.692               CapeTown           927.875
       346   04 Jun 2027 18:45:11.453   04 Jun 2027 18:49:04.866           233.413                 Moscow          7294.156
       347   04 Jun 2027 18:52:25.596   04 Jun 2027 18:52:30.575             4.979              Murmansk1           155.594
       348   04 Jun 2027 18:55:16.036   04 Jun 2027 18:56:28.679            72.643              Murmansk2          2270.094
       349   04 Jun 2027 19:55:28.905   04 Jun 2027 19:56:28.164            59.259               CapeTown          1851.844
       350   04 Jun 2027 19:58:14.107   04 Jun 2027 19:59:30.370            76.263               CapeTown          2383.219
       351   04 Jun 2027 20:04:12.934   04 Jun 2027 20:04:29.978            17.044               CapeTown           532.625
       352   04 Jun 2027 20:28:13.515   04 Jun 2027 20:32:25.162           251.647              Murmansk2          7863.969
       353   04 Jun 2027 20:37:48.975   04 Jun 2027 20:38:53.775            64.800               Magadan2          2025.000
       354   04 Jun 2027 20:44:42.248   04 Jun 2027 20:45:00.590            18.342               Magadan1           573.188
       355   04 Jun 2027 22:11:08.064   04 Jun 2027 22:14:54.274           226.210                Anadyr2          7069.063
       356   04 Jun 2027 22:15:02.033   04 Jun 2027 22:16:48.435           106.402                Norilsk          3325.062
       357   04 Jun 2027 22:17:04.591   04 Jun 2027 22:18:38.458            93.867               Magadan2          2933.344
       358   04 Jun 2027 22:18:38.458   04 Jun 2027 22:19:09.084            30.626               Magadan1           957.063
       359   04 Jun 2027 22:20:25.814   04 Jun 2027 22:20:29.421             3.607               Magadan1           112.719
       360   04 Jun 2027 22:24:00.942   04 Jun 2027 22:24:46.804            45.862               Magadan1          1433.188
       361   04 Jun 2027 23:05:49.852   04 Jun 2027 23:08:04.769           134.917            RioGallegos          4216.156
       362   04 Jun 2027 23:10:41.594   04 Jun 2027 23:11:14.721            33.127            RioGallegos          1035.219
       363   04 Jun 2027 23:46:49.442   04 Jun 2027 23:47:48.862            59.420                Anadyr1          1856.875
       364   04 Jun 2027 23:47:51.090   04 Jun 2027 23:48:24.010            32.920                Anadyr2          1028.750
       365   04 Jun 2027 23:48:57.053   04 Jun 2027 23:50:35.889            98.836                Norilsk          3088.625
       366   04 Jun 2027 23:51:10.550   04 Jun 2027 23:52:38.027            87.477               Magadan2          2733.656
       367   04 Jun 2027 23:53:17.040   04 Jun 2027 23:53:50.111            33.071                Irkutsk          1033.469
       368   04 Jun 2027 23:55:29.176   04 Jun 2027 23:56:21.970            52.794                Irkutsk          1649.812
       369   04 Jun 2027 23:57:20.083   04 Jun 2027 23:57:26.271             6.188                Novosib           193.375
       370   04 Jun 2027 23:57:32.484   04 Jun 2027 23:58:02.122            29.638                Novosib           926.187
       371   05 Jun 2027 00:07:44.925   05 Jun 2027 00:09:16.330            91.405                Sumatra          2856.406
       372   05 Jun 2027 00:18:06.614   05 Jun 2027 00:18:37.114            30.500                Sumatra           953.125
       373   05 Jun 2027 00:42:44.905   05 Jun 2027 00:42:53.766             8.861            RioGallegos           276.906
       374   05 Jun 2027 00:44:38.816   05 Jun 2027 00:45:04.267            25.451            RioGallegos           795.344
       375   05 Jun 2027 00:50:40.787   05 Jun 2027 00:50:48.976             8.189            RioGallegos           255.906
       376   05 Jun 2027 00:52:24.512   05 Jun 2027 00:52:49.168            24.656            RioGallegos           770.500
       377   05 Jun 2027 01:21:43.888   05 Jun 2027 01:23:20.689            96.801                Anadyr1          3025.031
       378   05 Jun 2027 01:24:00.310   05 Jun 2027 01:24:14.638            14.328                Anadyr2           447.750
       379   05 Jun 2027 01:24:53.107   05 Jun 2027 01:26:23.872            90.765                Norilsk          2836.406
       380   05 Jun 2027 01:26:29.652   05 Jun 2027 01:27:08.293            38.641               Magadan2          1207.531
       381   05 Jun 2027 01:28:45.470   05 Jun 2027 01:30:48.260           122.790                Irkutsk          3837.188
       382   05 Jun 2027 01:31:49.459   05 Jun 2027 01:32:01.975            12.516                Irkutsk           391.125
       383   05 Jun 2027 01:35:01.638   05 Jun 2027 01:35:12.827            11.189                Novosib           349.656
       384   05 Jun 2027 01:36:15.195   05 Jun 2027 01:36:31.548            16.353                Irkutsk           511.031
       385   05 Jun 2027 01:39:32.551   05 Jun 2027 01:40:21.816            49.265                Novosib          1539.531
       386   05 Jun 2027 01:43:39.672   05 Jun 2027 01:44:23.353            43.681                Sumatra          1365.031
       387   05 Jun 2027 01:47:32.349   05 Jun 2027 01:48:42.227            69.878                Sumatra          2183.687
       388   05 Jun 2027 02:21:10.333   05 Jun 2027 02:21:15.011             4.678            RioGallegos           146.188
       389   05 Jun 2027 02:21:26.271   05 Jun 2027 02:21:40.044            13.773            RioGallegos           430.406
       390   05 Jun 2027 02:23:45.914   05 Jun 2027 02:24:31.211            45.297            RioGallegos          1415.531
       391   05 Jun 2027 02:55:24.434   05 Jun 2027 02:55:55.294            30.860                Anadyr1           964.375
       392   05 Jun 2027 02:56:30.440   05 Jun 2027 02:57:29.589            59.149                Anadyr1          1848.406
       393   05 Jun 2027 03:04:51.783   05 Jun 2027 03:05:13.322            21.539               Magadan1           673.094
       394   05 Jun 2027 03:05:35.416   05 Jun 2027 03:05:49.236            13.820                Norilsk           431.875
       395   05 Jun 2027 03:06:10.375   05 Jun 2027 03:06:38.534            28.159                Novosib           879.969
       396   05 Jun 2027 03:06:50.872   05 Jun 2027 03:08:17.001            86.129                Novosib          2691.531
       397   05 Jun 2027 03:08:21.263   05 Jun 2027 03:09:13.914            52.651              Murmansk1          1645.344
       398   05 Jun 2027 03:09:13.914   05 Jun 2027 03:10:15.203            61.289              Murmansk2          1915.281
       399   05 Jun 2027 03:10:23.971   05 Jun 2027 03:11:24.768            60.797                Novosib          1899.906
       400   05 Jun 2027 03:11:25.476   05 Jun 2027 03:12:43.817            78.341                Irkutsk          2448.156
       401   05 Jun 2027 03:14:56.134   05 Jun 2027 03:16:27.463            91.329                  Delhi          2854.031
       402   05 Jun 2027 04:47:16.900   05 Jun 2027 04:48:21.898            64.998                 Moscow          2031.187
       403   05 Jun 2027 04:48:35.382   05 Jun 2027 04:51:03.302           147.920                Novosib          4622.500
       404   05 Jun 2027 05:07:08.000   05 Jun 2027 05:07:57.278            49.278               CapeTown          1539.937
       405   05 Jun 2027 06:03:03.249   05 Jun 2027 06:05:33.152           149.903                Anadyr2          4684.469
       406   05 Jun 2027 06:25:46.688   05 Jun 2027 06:25:58.717            12.029                 Moscow           375.906
       407   05 Jun 2027 06:42:30.946   05 Jun 2027 06:43:56.819            85.873               CapeTown          2683.531
       408   05 Jun 2027 06:47:06.244   05 Jun 2027 06:47:22.459            16.215               CapeTown           506.719
       409   05 Jun 2027 07:45:50.541   05 Jun 2027 07:46:05.551            15.010               Magadan1           469.063
       410   05 Jun 2027 07:47:13.852   05 Jun 2027 07:47:40.176            26.324                Anadyr1           822.625
       411   05 Jun 2027 07:47:53.845   05 Jun 2027 07:47:57.199             3.354                Anadyr2           104.813
       412   05 Jun 2027 07:48:38.998   05 Jun 2027 07:49:24.708            45.710               Magadan1          1428.438
       413   05 Jun 2027 08:02:49.532   05 Jun 2027 08:03:10.219            20.687                 Moscow           646.469
       414   05 Jun 2027 09:18:33.388   05 Jun 2027 09:18:36.067             2.679                Anadyr2            83.719
       415   05 Jun 2027 09:21:17.316   05 Jun 2027 09:22:39.850            82.534                Anadyr2          2579.188
       416   05 Jun 2027 09:23:00.960   05 Jun 2027 09:23:13.204            12.244               Magadan1           382.625
       417   05 Jun 2027 09:23:31.169   05 Jun 2027 09:24:16.574            45.405               Magadan2          1418.906
       418   05 Jun 2027 09:24:26.951   05 Jun 2027 09:25:34.066            67.115                Anadyr2          2097.344
       419   05 Jun 2027 10:56:26.734   05 Jun 2027 10:57:55.958            89.224               Magadan1          2788.250
       420   05 Jun 2027 10:57:55.958   05 Jun 2027 10:58:37.518            41.560               Magadan2          1298.750
       421   05 Jun 2027 10:58:56.818   05 Jun 2027 10:59:50.351            53.533                Irkutsk          1672.906
       422   05 Jun 2027 11:00:13.064   05 Jun 2027 11:00:34.255            21.191                Norilsk           662.219
       423   05 Jun 2027 11:01:07.709   05 Jun 2027 11:01:57.052            49.343                Norilsk          1541.969
       424   05 Jun 2027 11:02:19.772   05 Jun 2027 11:02:43.455            23.683                Norilsk           740.094
       425   05 Jun 2027 11:02:46.289   05 Jun 2027 11:02:46.478             0.189                Norilsk             5.906
       426   05 Jun 2027 11:03:11.869   05 Jun 2027 11:03:44.658            32.789                Norilsk          1024.656
       427   05 Jun 2027 11:37:44.550   05 Jun 2027 11:38:52.271            67.721            RioGallegos          2116.281
       428   05 Jun 2027 12:13:04.160   05 Jun 2027 12:13:42.998            38.838                Sumatra          1213.688
       429   05 Jun 2027 12:19:24.175   05 Jun 2027 12:19:28.547             4.372                Sumatra           136.625
       430   05 Jun 2027 12:24:47.219   05 Jun 2027 12:24:51.199             3.980                Sumatra           124.375
       431   05 Jun 2027 12:26:18.582   05 Jun 2027 12:28:07.231           108.649                Irkutsk          3395.281
       432   05 Jun 2027 12:28:09.298   05 Jun 2027 12:28:14.659             5.361                Novosib           167.531
       433   05 Jun 2027 12:29:27.225   05 Jun 2027 12:30:27.426            60.201                Irkutsk          1881.281
       434   05 Jun 2027 12:39:01.587   05 Jun 2027 12:39:14.254            12.667                Norilsk           395.844
       435   05 Jun 2027 12:40:10.387   05 Jun 2027 12:40:41.834            31.447                Norilsk           982.719
       436   05 Jun 2027 13:15:44.162   05 Jun 2027 13:17:51.938           127.776            RioGallegos          3993.000
       437   05 Jun 2027 13:49:58.932   05 Jun 2027 13:51:47.146           108.214                Sumatra          3381.687
       438   05 Jun 2027 13:53:31.251   05 Jun 2027 13:54:52.917            81.666                Sumatra          2552.062
       439   05 Jun 2027 14:05:37.488   05 Jun 2027 14:06:33.702            56.214                Irkutsk          1756.687
       440   05 Jun 2027 14:06:56.398   05 Jun 2027 14:09:45.465           169.067                Irkutsk          5283.344
       441   05 Jun 2027 15:35:23.361   05 Jun 2027 15:37:36.916           133.555                  Delhi          4173.594
       442   05 Jun 2027 15:43:53.866   05 Jun 2027 15:48:13.439           259.573                Novosib          8111.656
       443   05 Jun 2027 15:52:08.638   05 Jun 2027 15:52:12.289             3.651                Norilsk           114.094
       444   05 Jun 2027 17:03:26.417   05 Jun 2027 17:03:35.213             8.796               CapeTown           274.875
       445   05 Jun 2027 17:17:41.138   05 Jun 2027 17:18:06.595            25.457                 Moscow           795.531
       446   05 Jun 2027 17:20:22.929   05 Jun 2027 17:22:14.584           111.655                 Moscow          3489.219
       447   05 Jun 2027 17:23:40.231   05 Jun 2027 17:24:01.180            20.949              Murmansk2           654.656
       448   05 Jun 2027 17:29:24.809   05 Jun 2027 17:30:27.272            62.463              Murmansk1          1951.969
       449   05 Jun 2027 17:36:12.317   05 Jun 2027 17:37:12.842            60.525                Anadyr1          1891.406
       450   05 Jun 2027 17:38:46.568   05 Jun 2027 17:39:30.662            44.094                Anadyr1          1377.937
       451   05 Jun 2027 18:30:43.016   05 Jun 2027 18:31:30.162            47.146               CapeTown          1473.313
       452   05 Jun 2027 18:34:27.925   05 Jun 2027 18:34:31.793             3.868               CapeTown           120.875
       453   05 Jun 2027 18:36:36.674   05 Jun 2027 18:37:37.670            60.996               CapeTown          1906.125
       454   05 Jun 2027 18:58:19.873   05 Jun 2027 19:02:21.250           241.377                 Moscow          7543.031
       455   05 Jun 2027 19:04:02.284   05 Jun 2027 19:04:15.302            13.018              Murmansk2           406.813
       456   05 Jun 2027 19:08:52.041   05 Jun 2027 19:09:29.895            37.854              Murmansk1          1182.938
       457   05 Jun 2027 19:16:35.532   05 Jun 2027 19:17:07.867            32.335               Magadan1          1010.469
       458   05 Jun 2027 20:07:55.376   05 Jun 2027 20:08:35.922            40.546               CapeTown          1267.063
       459   05 Jun 2027 20:11:20.562   05 Jun 2027 20:13:02.102           101.540               CapeTown          3173.125
       460   05 Jun 2027 20:41:32.579   05 Jun 2027 20:43:56.245           143.666              Murmansk1          4489.562
       461   05 Jun 2027 20:48:55.729   05 Jun 2027 20:48:56.629             0.900                Anadyr2            28.125
       462   05 Jun 2027 20:49:44.908   05 Jun 2027 20:51:11.108            86.200               Magadan2          2693.750
       463   05 Jun 2027 20:52:53.787   05 Jun 2027 20:53:27.635            33.848               Magadan1          1057.750
       464   05 Jun 2027 20:56:19.860   05 Jun 2027 20:56:45.868            26.008               Magadan1           812.750
       465   05 Jun 2027 20:59:07.047   05 Jun 2027 20:59:22.008            14.961               Magadan1           467.531
       466   05 Jun 2027 22:23:09.207   05 Jun 2027 22:26:54.656           225.449                Anadyr2          7045.281
       467   05 Jun 2027 22:26:54.881   05 Jun 2027 22:30:01.297           186.416                Norilsk          5825.500
       468   05 Jun 2027 22:30:10.825   05 Jun 2027 22:31:04.695            53.870               Magadan1          1683.438
       469   05 Jun 2027 23:17:36.411   05 Jun 2027 23:19:38.603           122.192            RioGallegos          3818.500
       470   05 Jun 2027 23:20:28.871   05 Jun 2027 23:21:21.133            52.262            RioGallegos          1633.187
       471   05 Jun 2027 23:58:46.829   06 Jun 2027 00:00:20.411            93.582                Anadyr1          2924.437
       472   06 Jun 2027 00:00:57.699   06 Jun 2027 00:02:41.653           103.954                Norilsk          3248.563
       473   06 Jun 2027 00:02:44.069   06 Jun 2027 00:03:20.782            36.713               Magadan2          1147.281
       474   06 Jun 2027 00:03:45.339   06 Jun 2027 00:04:16.357            31.018               Magadan1           969.313
       475   06 Jun 2027 00:05:10.213   06 Jun 2027 00:06:18.569            68.356                Irkutsk          2136.125
       476   06 Jun 2027 00:07:10.901   06 Jun 2027 00:08:13.021            62.120                Novosib          1941.250
       477   06 Jun 2027 00:13:17.499   06 Jun 2027 00:13:25.815             8.316                Irkutsk           259.875
       478   06 Jun 2027 00:15:47.080   06 Jun 2027 00:16:09.695            22.615                Irkutsk           706.719
       479   06 Jun 2027 00:18:57.040   06 Jun 2027 00:19:39.620            42.580                Sumatra          1330.625
       480   06 Jun 2027 00:21:08.279   06 Jun 2027 00:22:28.061            79.782                Sumatra          2493.187
       481   06 Jun 2027 00:31:07.952   06 Jun 2027 00:31:19.384            11.432                Sumatra           357.250
       482   06 Jun 2027 00:56:42.179   06 Jun 2027 00:56:50.422             8.243            RioGallegos           257.594
