uniorb/output/strategy_4/Drop/Drop_KinoSat_110407.txt

KinoSat_110407
-------------------------
    Access    *     Start Time (UTCG)     *     Stop Time (UTCG)  *   Duration (s)        *       Station  *  Data (Mbytes)
         1   01 Jun 2027 03:32:38.405   01 Jun 2027 03:32:56.215            17.810               Magadan1          2226.250
         2   01 Jun 2027 03:33:15.128   01 Jun 2027 03:33:43.057            27.929               Magadan2          3491.125
         3   01 Jun 2027 03:33:43.057   01 Jun 2027 03:34:23.562            40.505               Magadan1          5063.125
         4   01 Jun 2027 03:34:41.142   01 Jun 2027 03:36:31.282           110.140               Magadan1         13767.500
         5   01 Jun 2027 03:36:47.461   01 Jun 2027 03:37:32.108            44.647               Magadan2          5580.875
         6   01 Jun 2027 03:37:46.269   01 Jun 2027 03:38:29.226            42.957               Magadan2          5369.625
         7   01 Jun 2027 03:38:29.226   01 Jun 2027 03:38:30.580             1.354               Magadan1           169.250
         8   01 Jun 2027 03:38:36.549   01 Jun 2027 03:38:52.668            16.119                Anadyr2          2014.875
         9   01 Jun 2027 03:39:21.527   01 Jun 2027 03:39:56.256            34.729               Magadan2          4341.125
        10   01 Jun 2027 04:52:20.267   01 Jun 2027 04:54:41.554           141.287                Sumatra         17660.875
        11   01 Jun 2027 05:10:57.613   01 Jun 2027 05:11:36.621            39.008                Irkutsk          4876.000
        12   01 Jun 2027 05:11:41.962   01 Jun 2027 05:11:52.678            10.716               Magadan2          1339.500
        13   01 Jun 2027 05:12:18.025   01 Jun 2027 05:13:31.014            72.989               Magadan2          9123.625
        14   01 Jun 2027 05:13:37.384   01 Jun 2027 05:13:43.477             6.093               Magadan2           761.625
        15   01 Jun 2027 05:13:59.529   01 Jun 2027 05:15:25.687            86.158                Novosib         10769.750
        16   01 Jun 2027 05:15:54.450   01 Jun 2027 05:17:15.771            81.321                Novosib         10165.125
        17   01 Jun 2027 05:51:00.673   01 Jun 2027 05:51:17.239            16.566            RioGallegos          2070.750
        18   01 Jun 2027 06:25:29.705   01 Jun 2027 06:26:11.163            41.458                Sumatra          5182.250
        19   01 Jun 2027 06:32:02.211   01 Jun 2027 06:33:35.231            93.020                Sumatra         11627.500
        20   01 Jun 2027 06:36:39.272   01 Jun 2027 06:38:28.063           108.791                  Delhi         13598.875
        21   01 Jun 2027 06:48:07.074   01 Jun 2027 06:48:14.768             7.694                Novosib           961.750
        22   01 Jun 2027 06:48:23.818   01 Jun 2027 06:48:51.539            27.721                Novosib          3465.125
        23   01 Jun 2027 06:49:03.621   01 Jun 2027 06:49:23.722            20.101                Norilsk          2512.625
        24   01 Jun 2027 06:49:32.694   01 Jun 2027 06:49:37.709             5.015                 Moscow           626.875
        25   01 Jun 2027 06:49:56.683   01 Jun 2027 06:51:49.504           112.821                Norilsk         14102.625
        26   01 Jun 2027 06:52:44.777   01 Jun 2027 06:53:13.866            29.089              Murmansk2          3636.125
        27   01 Jun 2027 08:10:00.117   01 Jun 2027 08:10:44.356            44.239                  Delhi          5529.875
        28   01 Jun 2027 08:25:05.699   01 Jun 2027 08:25:26.834            21.135                Novosib          2641.875
        29   01 Jun 2027 08:25:42.603   01 Jun 2027 08:26:51.315            68.712                Novosib          8589.000
        30   01 Jun 2027 08:27:22.248   01 Jun 2027 08:32:14.467           292.219              Murmansk2         36527.375
        31   01 Jun 2027 09:58:13.936   01 Jun 2027 09:59:29.328            75.392                 Moscow          9424.000
        32   01 Jun 2027 10:02:32.096   01 Jun 2027 10:04:31.228           119.132              Murmansk2         14891.500
        33   01 Jun 2027 10:04:31.228   01 Jun 2027 10:10:26.367           355.139              Murmansk1         44392.375
        34   01 Jun 2027 11:12:39.873   01 Jun 2027 11:17:03.349           263.476               CapeTown         32934.500
        35   01 Jun 2027 11:48:27.770   01 Jun 2027 11:50:28.335           120.565                Anadyr1         15070.625
        36   01 Jun 2027 11:50:45.458   01 Jun 2027 11:53:51.215           185.757                Anadyr2         23219.625
        37   01 Jun 2027 11:54:57.121   01 Jun 2027 11:56:06.680            69.559                Anadyr1          8694.875
        38   01 Jun 2027 13:27:13.377   01 Jun 2027 13:32:41.401           328.024               Magadan2         41003.000
        39   01 Jun 2027 15:56:13.832   01 Jun 2027 15:59:13.707           179.875            RioGallegos         22484.375
        40   01 Jun 2027 16:42:55.842   01 Jun 2027 16:46:21.812           205.970                Irkutsk         25746.250
        41   01 Jun 2027 16:57:50.814   01 Jun 2027 17:00:33.040           162.226                Sumatra         20278.250
        42   01 Jun 2027 17:03:00.103   01 Jun 2027 17:06:36.869           216.766                Sumatra         27095.750
        43   01 Jun 2027 18:28:18.739   01 Jun 2027 18:29:41.564            82.825                  Delhi          6364.501
        44   02 Jun 2027 03:50:10.084   02 Jun 2027 03:50:39.033            28.949                Anadyr1          3618.625
        45   02 Jun 2027 03:50:56.964   02 Jun 2027 03:51:16.415            19.451               Magadan1          2431.375
        46   02 Jun 2027 03:51:24.382   02 Jun 2027 03:51:52.441            28.059               Magadan2          3507.375
        47   02 Jun 2027 03:51:58.620   02 Jun 2027 03:53:19.623            81.003              Murmansk1         10125.375
        48   02 Jun 2027 04:26:56.801   02 Jun 2027 04:27:19.534            22.733            RioGallegos          2841.625
        49   02 Jun 2027 05:03:26.352   02 Jun 2027 05:06:26.178           179.826                Sumatra         22478.250
        50   02 Jun 2027 05:25:45.015   02 Jun 2027 05:27:57.824           132.809                Irkutsk         16601.125
        51   02 Jun 2027 05:27:57.871   02 Jun 2027 05:29:29.220            91.349                Norilsk         11418.625
        52   02 Jun 2027 05:30:26.042   02 Jun 2027 05:32:51.371           145.329              Murmansk1         18166.125
        53   02 Jun 2027 05:32:51.371   02 Jun 2027 05:35:45.490           174.119              Murmansk2         21764.875
        54   02 Jun 2027 06:10:51.978   02 Jun 2027 06:15:06.103           254.125            RioGallegos         31765.625
        55   02 Jun 2027 06:45:41.372   02 Jun 2027 06:48:10.258           148.886                Sumatra         18610.750
        56   02 Jun 2027 07:03:56.005   02 Jun 2027 07:06:17.213           141.208                 Moscow         17651.000
        57   02 Jun 2027 07:06:36.447   02 Jun 2027 07:10:52.000           255.553              Murmansk2         31944.125
        58   02 Jun 2027 08:27:19.811   02 Jun 2027 08:33:45.542           385.731                  Delhi         48216.375
        59   02 Jun 2027 08:33:49.672   02 Jun 2027 08:34:15.707            26.035                 Moscow          3254.375
        60   02 Jun 2027 08:34:25.301   02 Jun 2027 08:34:51.342            26.041                Novosib          3255.125
        61   02 Jun 2027 08:39:16.967   02 Jun 2027 08:40:36.751            79.784                Novosib          9973.000
        62   02 Jun 2027 08:40:52.673   02 Jun 2027 08:44:50.447           237.774                Norilsk         29721.750
        63   02 Jun 2027 08:44:50.545   02 Jun 2027 08:46:32.178           101.633              Murmansk2         12704.125
        64   02 Jun 2027 10:09:21.728   02 Jun 2027 10:10:45.705            83.977                 Moscow         10497.125
        65   02 Jun 2027 10:14:04.283   02 Jun 2027 10:18:56.178           291.895                 Moscow         36486.875
        66   02 Jun 2027 10:19:47.225   02 Jun 2027 10:22:28.022           160.797              Murmansk1         20099.625
        67   02 Jun 2027 10:27:09.985   02 Jun 2027 10:28:33.670            83.685                Anadyr2         10460.625
        68   02 Jun 2027 11:27:26.391   02 Jun 2027 11:31:58.464           272.073               CapeTown         34009.125
        69   02 Jun 2027 11:44:36.260   02 Jun 2027 11:53:57.036           560.776                 Moscow         70097.000
        70   02 Jun 2027 11:54:02.976   02 Jun 2027 11:54:45.185            42.209              Murmansk2          5276.125
        71   02 Jun 2027 12:01:10.457   02 Jun 2027 12:02:01.831            51.374                Anadyr1          6421.750
        72   02 Jun 2027 12:08:02.704   02 Jun 2027 12:09:35.013            92.309                Anadyr1         11538.625
        73   02 Jun 2027 13:39:02.368   02 Jun 2027 13:41:04.914           122.546               Magadan2         15318.250
        74   02 Jun 2027 13:41:35.386   02 Jun 2027 13:45:06.261           210.875               Magadan1         26359.375
        75   02 Jun 2027 16:07:34.028   02 Jun 2027 16:10:28.080           174.052            RioGallegos         21756.500
        76   02 Jun 2027 16:56:48.439   02 Jun 2027 16:58:38.466           110.027                Irkutsk         13753.375
        77   02 Jun 2027 17:09:05.702   02 Jun 2027 17:12:20.873           195.171                Sumatra         24396.375
        78   02 Jun 2027 17:13:35.866   02 Jun 2027 17:15:13.839            97.973                Sumatra         12246.625
        79   02 Jun 2027 18:39:02.424   02 Jun 2027 18:39:39.806            37.382                Novosib          4672.750
        80   02 Jun 2027 18:39:57.086   02 Jun 2027 18:42:06.970           129.884                  Delhi         16235.500
        81   02 Jun 2027 18:44:06.546   02 Jun 2027 18:44:26.585            20.039                  Delhi          2504.875
        82   02 Jun 2027 21:42:18.603   02 Jun 2027 21:45:04.857           166.254              Murmansk1         20781.750
        83   02 Jun 2027 21:46:15.427   02 Jun 2027 21:47:51.426            95.999                 Moscow         11999.875
        84   02 Jun 2027 22:09:04.579   02 Jun 2027 22:10:05.128            60.549               CapeTown           630.250
        85   03 Jun 2027 04:04:05.825   03 Jun 2027 04:06:09.490           123.665                Norilsk         15458.125
        86   03 Jun 2027 05:14:48.145   03 Jun 2027 05:15:31.753            43.608                Sumatra          5451.000
        87   03 Jun 2027 05:16:21.541   03 Jun 2027 05:17:20.719            59.178                Sumatra          7397.250
        88   03 Jun 2027 05:19:36.566   03 Jun 2027 05:19:58.677            22.111                Sumatra          2763.875
        89   03 Jun 2027 05:39:59.530   03 Jun 2027 05:44:55.985           296.455                Norilsk         37056.875
        90   03 Jun 2027 05:45:08.594   03 Jun 2027 05:47:38.178           149.584              Murmansk2         18698.000
        91   03 Jun 2027 06:22:49.987   03 Jun 2027 06:26:58.366           248.379            RioGallegos         31047.375
        92   03 Jun 2027 06:57:41.873   03 Jun 2027 07:01:25.501           223.628                Sumatra         27953.500
        93   03 Jun 2027 07:05:07.826   03 Jun 2027 07:05:37.076            29.250                Irkutsk          3656.250
        94   03 Jun 2027 07:06:56.000   03 Jun 2027 07:10:57.552           241.552                Irkutsk         30194.000
        95   03 Jun 2027 07:15:32.487   03 Jun 2027 07:17:25.303           112.816                Novosib         14102.000
        96   03 Jun 2027 07:17:34.351   03 Jun 2027 07:20:55.194           200.843                Norilsk         25105.375
        97   03 Jun 2027 07:21:03.470   03 Jun 2027 07:22:49.908           106.438              Murmansk2         13304.750
        98   03 Jun 2027 08:41:48.361   03 Jun 2027 08:45:23.800           215.439                  Delhi         26929.875
        99   03 Jun 2027 08:45:33.733   03 Jun 2027 08:48:03.377           149.644                Novosib         18705.500
       100   03 Jun 2027 08:51:16.251   03 Jun 2027 08:52:23.096            66.845                Novosib          8355.625
       101   03 Jun 2027 08:52:54.549   03 Jun 2027 08:56:50.755           236.206                Norilsk         29525.750
       102   03 Jun 2027 08:56:56.331   03 Jun 2027 08:58:32.955            96.624              Murmansk1         12078.000
       103   03 Jun 2027 10:21:21.545   03 Jun 2027 10:22:51.682            90.137                 Moscow         11267.125
       104   03 Jun 2027 10:24:42.948   03 Jun 2027 10:26:06.828            83.880              Murmansk1         10485.000
       105   03 Jun 2027 10:26:06.828   03 Jun 2027 10:28:25.870           139.042              Murmansk2         17380.250
       106   03 Jun 2027 10:28:29.603   03 Jun 2027 10:30:55.369           145.766                 Moscow         18220.750
       107   03 Jun 2027 10:31:02.698   03 Jun 2027 10:31:45.705            43.007                Norilsk          5375.875
       108   03 Jun 2027 10:31:46.643   03 Jun 2027 10:34:29.694           163.051              Murmansk1         20381.375
       109   03 Jun 2027 10:37:58.028   03 Jun 2027 10:42:19.874           261.846                Anadyr1         32730.750
       110   03 Jun 2027 13:50:54.106   03 Jun 2027 13:55:03.309           249.203               Magadan1         31150.375
       111   03 Jun 2027 13:56:33.769   03 Jun 2027 13:58:22.856           109.087               Magadan2         13635.875
       112   03 Jun 2027 16:19:07.772   03 Jun 2027 16:24:32.954           325.182            RioGallegos         40647.750
       113   03 Jun 2027 16:25:46.754   03 Jun 2027 16:26:03.440            16.686            RioGallegos          2085.750
       114   03 Jun 2027 17:10:04.177   03 Jun 2027 17:10:34.073            29.896                Irkutsk          3737.000
       115   03 Jun 2027 17:20:33.193   03 Jun 2027 17:21:48.632            75.439                Sumatra          9429.875
       116   03 Jun 2027 17:22:16.184   03 Jun 2027 17:24:14.640           118.456                Sumatra         14807.000
       117   03 Jun 2027 17:24:30.780   03 Jun 2027 17:27:37.438           186.658                Sumatra         23332.250
       118   03 Jun 2027 18:44:45.530   03 Jun 2027 18:46:21.261            95.731                Novosib         11966.375
       119   03 Jun 2027 18:50:32.928   03 Jun 2027 18:52:00.575            87.647                  Delhi         10955.875
       120   03 Jun 2027 21:55:30.038   03 Jun 2027 21:57:19.745           109.707                 Moscow         13713.375
       121   03 Jun 2027 21:58:18.447   03 Jun 2027 21:59:53.435            94.988                 Moscow         10741.250
       122   04 Jun 2027 04:16:14.730   04 Jun 2027 04:16:54.201            39.471              Murmansk2          4933.875
       123   04 Jun 2027 04:16:54.201   04 Jun 2027 04:17:19.913            25.712              Murmansk1          3214.000
       124   04 Jun 2027 05:26:20.488   04 Jun 2027 05:28:02.809           102.321                Sumatra         12790.125
       125   04 Jun 2027 05:52:01.289   04 Jun 2027 05:56:57.397           296.108                Norilsk         37013.500
       126   04 Jun 2027 05:57:10.620   04 Jun 2027 05:59:31.610           140.990              Murmansk1         17623.750
       127   04 Jun 2027 06:34:46.652   04 Jun 2027 06:38:48.039           241.387            RioGallegos         30173.375
       128   04 Jun 2027 07:09:36.788   04 Jun 2027 07:12:56.584           199.796                Sumatra         24974.500
       129   04 Jun 2027 07:16:45.564   04 Jun 2027 07:17:43.284            57.720                Novosib          7215.000
       130   04 Jun 2027 07:18:54.442   04 Jun 2027 07:22:59.995           245.553                Irkutsk         30694.125
       131   04 Jun 2027 07:27:41.368   04 Jun 2027 07:27:45.657             4.289                 Moscow           536.125
       132   04 Jun 2027 07:27:48.003   04 Jun 2027 07:29:24.314            96.311                Novosib         12038.875
       133   04 Jun 2027 07:29:31.616   04 Jun 2027 07:32:57.038           205.422                Norilsk         25677.750
       134   04 Jun 2027 07:33:03.989   04 Jun 2027 07:34:48.306           104.317              Murmansk2         13039.625
       135   04 Jun 2027 08:53:39.429   04 Jun 2027 08:56:53.725           194.296                  Delhi         24287.000
       136   04 Jun 2027 08:57:03.618   04 Jun 2027 08:59:00.252           116.634                Novosib         14579.250
       137   04 Jun 2027 09:04:22.177   04 Jun 2027 09:08:50.528           268.351                Norilsk         33543.875
       138   04 Jun 2027 09:08:51.223   04 Jun 2027 09:10:33.947           102.724              Murmansk1         12840.500
       139   04 Jun 2027 10:33:20.566   04 Jun 2027 10:34:36.506            75.940                 Moscow          9492.500
       140   04 Jun 2027 10:36:38.909   04 Jun 2027 10:37:54.080            75.171              Murmansk2          9396.375
       141   04 Jun 2027 10:37:54.080   04 Jun 2027 10:40:23.996           149.916              Murmansk1         18739.500
       142   04 Jun 2027 10:40:24.994   04 Jun 2027 10:42:53.664           148.670                 Moscow         18583.750
       143   04 Jun 2027 10:43:28.562   04 Jun 2027 10:46:31.347           182.785              Murmansk2         22848.125
       144   04 Jun 2027 10:49:30.597   04 Jun 2027 10:55:26.539           355.942                Anadyr1         44492.750
       145   04 Jun 2027 11:51:21.977   04 Jun 2027 11:56:23.277           301.300               CapeTown         37662.500
       146   04 Jun 2027 12:12:04.866   04 Jun 2027 12:12:50.083            45.217              Murmansk2          5652.125
       147   04 Jun 2027 14:02:47.886   04 Jun 2027 14:07:04.913           257.027               Magadan2         32128.375
       148   04 Jun 2027 14:07:04.913   04 Jun 2027 14:07:10.242             5.329               Magadan1           666.125
       149   04 Jun 2027 14:07:22.457   04 Jun 2027 14:08:16.570            54.113               Magadan1          6764.125
       150   04 Jun 2027 14:11:49.404   04 Jun 2027 14:13:47.290           117.886               Magadan2         14735.750
       151   04 Jun 2027 16:30:48.934   04 Jun 2027 16:37:04.897           375.963            RioGallegos         46995.375
       152   04 Jun 2027 17:19:34.657   04 Jun 2027 17:20:52.405            77.748                Irkutsk          9718.500
       153   04 Jun 2027 17:22:03.939   04 Jun 2027 17:22:43.313            39.374                Novosib          4921.750
       154   04 Jun 2027 17:32:09.793   04 Jun 2027 17:34:00.688           110.895                Sumatra         13861.875
       155   04 Jun 2027 17:34:14.681   04 Jun 2027 17:36:12.365           117.684                Sumatra         14710.500
       156   04 Jun 2027 18:53:58.219   04 Jun 2027 18:55:53.868           115.649                Novosib         14456.125
       157   04 Jun 2027 19:02:40.388   04 Jun 2027 19:03:58.721            78.333                  Delhi          9791.625
       158   04 Jun 2027 20:33:55.608   04 Jun 2027 20:36:00.108           124.500                 Moscow         15562.500
       159   04 Jun 2027 22:03:59.153   04 Jun 2027 22:05:56.739           117.586              Murmansk1          4674.500
       160   05 Jun 2027 04:23:20.821   05 Jun 2027 04:24:02.701            41.880                Irkutsk          5235.000
       161   05 Jun 2027 05:38:00.916   05 Jun 2027 05:38:03.961             3.045                Sumatra           380.625
       162   05 Jun 2027 05:39:50.319   05 Jun 2027 05:40:24.530            34.211                Sumatra          4276.375
       163   05 Jun 2027 05:41:28.926   05 Jun 2027 05:42:15.826            46.900                Sumatra          5862.500
       164   05 Jun 2027 05:44:12.462   05 Jun 2027 05:44:18.791             6.329                Sumatra           791.125
       165   05 Jun 2027 05:52:50.974   05 Jun 2027 05:53:40.610            49.636                  Delhi          6204.500
       166   05 Jun 2027 06:04:03.121   05 Jun 2027 06:08:58.942           295.821                Norilsk         36977.625
       167   05 Jun 2027 06:09:12.553   05 Jun 2027 06:11:25.771           133.218              Murmansk2         16652.250
       168   05 Jun 2027 06:46:41.752   05 Jun 2027 06:50:34.318           232.566            RioGallegos         29070.750
       169   05 Jun 2027 07:21:25.852   05 Jun 2027 07:24:16.643           170.791                Sumatra         21348.875
       170   05 Jun 2027 07:29:22.076   05 Jun 2027 07:30:16.269            54.193                Novosib          6774.125
       171   05 Jun 2027 07:30:38.470   05 Jun 2027 07:33:52.971           194.501                Irkutsk         24312.625
       172   05 Jun 2027 07:33:56.830   05 Jun 2027 07:34:36.302            39.472                  Delhi          4934.000
       173   05 Jun 2027 07:34:47.664   05 Jun 2027 07:35:53.450            65.786                Irkutsk          8223.250
       174   05 Jun 2027 07:40:00.353   05 Jun 2027 07:41:22.412            82.059                Novosib         10257.375
       175   05 Jun 2027 07:41:30.221   05 Jun 2027 07:44:58.813           208.592                Norilsk         26074.000
       176   05 Jun 2027 07:45:03.847   05 Jun 2027 07:46:47.150           103.303              Murmansk2         12912.875
       177   05 Jun 2027 09:05:26.043   05 Jun 2027 09:08:10.765           164.722                  Delhi         20590.250
       178   05 Jun 2027 09:08:55.931   05 Jun 2027 09:11:03.988           128.057                Novosib         16007.125
       179   05 Jun 2027 09:15:07.126   05 Jun 2027 09:15:38.220            31.094                Novosib          3886.750
       180   05 Jun 2027 09:16:23.057   05 Jun 2027 09:20:49.605           266.548                Norilsk         33318.500
       181   05 Jun 2027 09:21:35.697   05 Jun 2027 09:22:35.115            59.418              Murmansk2          7427.250
       182   05 Jun 2027 10:26:15.298   05 Jun 2027 10:28:36.324           141.026               CapeTown         17628.250
       183   05 Jun 2027 10:45:18.669   05 Jun 2027 10:46:05.595            46.926                 Moscow          5865.750
       184   05 Jun 2027 10:48:57.139   05 Jun 2027 10:52:22.599           205.460              Murmansk1         25682.500
       185   05 Jun 2027 10:52:23.153   05 Jun 2027 10:54:50.921           147.768                 Moscow         18471.000
       186   05 Jun 2027 10:54:52.812   05 Jun 2027 10:58:32.952           220.140              Murmansk1         27517.500
       187   05 Jun 2027 11:01:13.424   05 Jun 2027 11:07:36.688           383.264                Anadyr1         47908.000
       188   05 Jun 2027 12:41:44.741   05 Jun 2027 12:43:51.131           126.390               Magadan1         15798.750
       189   05 Jun 2027 14:14:43.251   05 Jun 2027 14:19:06.778           263.527               Magadan1         32940.875
       190   05 Jun 2027 16:42:34.929   05 Jun 2027 16:48:31.075           356.146            RioGallegos         44518.250
       191   05 Jun 2027 17:32:01.479   05 Jun 2027 17:32:39.688            38.209                Irkutsk          4776.125
       192   05 Jun 2027 17:34:29.160   05 Jun 2027 17:37:10.204           161.044                Novosib         20130.500
       193   05 Jun 2027 17:43:53.715   05 Jun 2027 17:45:37.977           104.262                Sumatra         13032.750
       194   05 Jun 2027 17:48:19.040   05 Jun 2027 17:49:36.074            77.034                Sumatra          9629.250
       195   05 Jun 2027 19:05:54.065   05 Jun 2027 19:07:38.667           104.602                Novosib         13075.250
       196   05 Jun 2027 19:13:42.938   05 Jun 2027 19:15:15.947            93.009                  Delhi         11626.125
       197   05 Jun 2027 20:41:05.638   05 Jun 2027 20:41:32.579            26.941              Murmansk1          3367.625
       198   05 Jun 2027 20:44:28.967   05 Jun 2027 20:44:44.420            15.453              Murmansk1          1931.625
       199   05 Jun 2027 20:45:10.431   05 Jun 2027 20:47:59.493           169.062                 Moscow         13756.625
       200   06 Jun 2027 04:40:02.112   06 Jun 2027 04:41:13.055            70.943                Novosib          8867.875
       201   06 Jun 2027 04:41:31.662   06 Jun 2027 04:45:06.623           214.961                Norilsk         26870.125
       202   06 Jun 2027 04:45:14.448   06 Jun 2027 04:48:36.612           202.164              Murmansk2         25270.500
       203   06 Jun 2027 05:14:44.627   06 Jun 2027 05:22:03.184           438.557            RioGallegos         54819.625
       204   06 Jun 2027 05:49:48.084   06 Jun 2027 05:50:34.173            46.089                Sumatra          5761.125
       205   06 Jun 2027 05:52:38.940   06 Jun 2027 05:54:23.728           104.788                Sumatra         13098.500
       206   06 Jun 2027 06:16:05.003   06 Jun 2027 06:16:09.084             4.081                Norilsk           510.125
       207   06 Jun 2027 06:16:18.047   06 Jun 2027 06:17:34.454            76.407                Novosib          9550.875
       208   06 Jun 2027 06:18:09.029   06 Jun 2027 06:18:42.862            33.833              Murmansk2          4229.125
       209   06 Jun 2027 06:18:57.415   06 Jun 2027 06:21:00.611           123.196                Norilsk         15399.500
       210   06 Jun 2027 06:21:06.990   06 Jun 2027 06:23:20.651           133.661              Murmansk1         16707.625
       211   06 Jun 2027 06:58:34.976   06 Jun 2027 07:02:15.890           220.914            RioGallegos         27614.250
       212   06 Jun 2027 07:33:08.453   06 Jun 2027 07:35:19.842           131.389                Sumatra         16423.625
       213   06 Jun 2027 07:41:11.446   06 Jun 2027 07:41:18.591             7.145                Novosib           893.125
       214   06 Jun 2027 07:41:54.778   06 Jun 2027 07:46:36.488           281.710                  Delhi         35213.750
       215   06 Jun 2027 07:46:40.099   06 Jun 2027 07:48:16.039            95.940                Irkutsk         11992.500
       216   06 Jun 2027 07:51:45.019   06 Jun 2027 07:53:19.428            94.409                Novosib         11801.125
       217   06 Jun 2027 07:53:35.301   06 Jun 2027 07:57:00.482           205.181                Norilsk         25647.625
       218   06 Jun 2027 07:57:04.005   06 Jun 2027 07:58:46.412           102.407              Murmansk1         12800.875
       219   06 Jun 2027 09:17:07.203   06 Jun 2027 09:19:01.886           114.683                  Delhi         14335.375
       220   06 Jun 2027 09:27:00.921   06 Jun 2027 09:27:21.742            20.821                 Moscow          2602.625
       221   06 Jun 2027 09:28:53.392   06 Jun 2027 09:32:47.769           234.377                Norilsk         29297.125
       222   06 Jun 2027 09:33:26.230   06 Jun 2027 09:34:36.430            70.200              Murmansk1          8775.000
       223   06 Jun 2027 10:38:46.056   06 Jun 2027 10:41:51.999           185.943               CapeTown         23242.875
       224   06 Jun 2027 10:57:15.691   06 Jun 2027 10:57:21.520             5.829                 Moscow           728.625
       225   06 Jun 2027 11:00:58.730   06 Jun 2027 11:01:28.962            30.232              Murmansk2          3779.000
       226   06 Jun 2027 11:01:35.636   06 Jun 2027 11:06:46.936           311.300                 Moscow         38912.500
       227   06 Jun 2027 11:06:53.985   06 Jun 2027 11:10:34.471           220.486              Murmansk2         27560.750
       228   06 Jun 2027 11:13:15.218   06 Jun 2027 11:21:06.514           471.296                Anadyr1         58912.000
       229   06 Jun 2027 12:12:34.846   06 Jun 2027 12:20:26.887           472.041               CapeTown         59005.125
       230   06 Jun 2027 12:37:04.315   06 Jun 2027 12:40:55.413           231.098              Murmansk2         28887.250
       231   06 Jun 2027 12:48:54.615   06 Jun 2027 12:50:42.066           107.451                Anadyr2         13431.375
       232   06 Jun 2027 12:52:36.089   06 Jun 2027 12:55:54.568           198.479               Magadan2         24809.875
       233   06 Jun 2027 14:26:39.865   06 Jun 2027 14:27:59.956            80.091               Magadan1         10011.375
       234   06 Jun 2027 16:09:15.920   06 Jun 2027 16:12:29.692           193.772                Irkutsk         24221.500
       235   06 Jun 2027 16:54:24.394   06 Jun 2027 16:55:42.064            77.670            RioGallegos          9708.750
       236   06 Jun 2027 16:56:59.738   06 Jun 2027 16:58:12.501            72.763            RioGallegos          9095.375
       237   06 Jun 2027 17:42:02.792   06 Jun 2027 17:44:23.401           140.609                Irkutsk         17576.125
       238   06 Jun 2027 17:46:28.712   06 Jun 2027 17:49:40.630           191.918                Novosib         23989.750
       239   06 Jun 2027 19:25:27.878   06 Jun 2027 19:29:42.241           254.363                  Delhi         31795.375
       240   06 Jun 2027 20:52:52.705   06 Jun 2027 20:53:49.457            56.752              Murmansk1          7094.000
       241   06 Jun 2027 20:56:42.749   06 Jun 2027 20:59:59.646           196.897                 Moscow         15504.375
       242   07 Jun 2027 03:14:39.739   07 Jun 2027 03:15:18.915            39.176               Magadan2          4897.000
       243   07 Jun 2027 03:15:41.274   07 Jun 2027 03:19:15.695           214.421              Murmansk2         26802.625
       244   07 Jun 2027 04:52:08.459   07 Jun 2027 04:52:27.335            18.876                Norilsk          2359.500
       245   07 Jun 2027 04:52:40.121   07 Jun 2027 04:53:35.549            55.428                Norilsk          6928.500
       246   07 Jun 2027 04:55:00.761   07 Jun 2027 04:57:17.466           136.705              Murmansk1         17088.125
       247   07 Jun 2027 04:57:17.466   07 Jun 2027 05:00:26.406           188.940              Murmansk2         23617.500
       248   07 Jun 2027 05:35:06.046   07 Jun 2027 05:39:32.955           266.909            RioGallegos         33363.625
       249   07 Jun 2027 06:09:18.909   07 Jun 2027 06:14:24.014           305.105                Sumatra         38138.125
       250   07 Jun 2027 06:18:19.384   07 Jun 2027 06:21:33.298           193.914                Irkutsk         24239.250
       251   07 Jun 2027 06:28:06.913   07 Jun 2027 06:28:10.301             3.388                Norilsk           423.500
       252   07 Jun 2027 06:28:12.480   07 Jun 2027 06:29:36.720            84.240                Novosib         10530.000
       253   07 Jun 2027 06:30:00.267   07 Jun 2027 06:33:02.372           182.105                Norilsk         22763.125
       254   07 Jun 2027 06:33:16.043   07 Jun 2027 06:35:16.207           120.164              Murmansk2         15020.500
       255   07 Jun 2027 07:10:25.870   07 Jun 2027 07:13:50.286           204.416            RioGallegos         25552.000
       256   07 Jun 2027 07:44:43.474   07 Jun 2027 07:45:46.957            63.483                Sumatra          7935.375
       257   07 Jun 2027 07:53:02.732   07 Jun 2027 07:58:33.315           330.583                  Delhi         41322.875
       258   07 Jun 2027 07:58:44.749   07 Jun 2027 07:59:46.984            62.235                Novosib          7779.375
       259   07 Jun 2027 08:03:35.667   07 Jun 2027 08:06:54.895           199.228                 Moscow         24903.500
       260   07 Jun 2027 08:06:56.464   07 Jun 2027 08:09:01.997           125.533                Norilsk         15691.625
       261   07 Jun 2027 08:09:03.417   07 Jun 2027 08:10:46.044           102.627              Murmansk2         12828.375
       262   07 Jun 2027 09:40:23.584   07 Jun 2027 09:44:44.690           261.106                Norilsk         32638.250
       263   07 Jun 2027 09:45:15.975   07 Jun 2027 09:46:37.879            81.904              Murmansk2         10238.000
       264   07 Jun 2027 11:09:11.427   07 Jun 2027 11:09:29.815            18.388                 Moscow          2298.500
       265   07 Jun 2027 11:13:00.228   07 Jun 2027 11:13:16.812            16.584              Murmansk1          2073.000
       266   07 Jun 2027 11:13:47.362   07 Jun 2027 11:18:41.458           294.096                 Moscow         36762.000
       267   07 Jun 2027 11:18:55.306   07 Jun 2027 11:22:35.874           220.568              Murmansk1         27571.000
       268   07 Jun 2027 11:24:53.088   07 Jun 2027 11:33:46.824           533.736                Anadyr1         66717.000
       269   07 Jun 2027 12:22:51.612   07 Jun 2027 12:32:21.242           569.630               CapeTown         71203.750
       270   07 Jun 2027 12:49:38.405   07 Jun 2027 12:58:20.224           521.819              Murmansk2         65227.375
       271   07 Jun 2027 13:00:19.641   07 Jun 2027 13:12:43.609           743.968                Anadyr1         92996.000
       272   07 Jun 2027 13:58:20.420   07 Jun 2027 13:59:00.504            40.084               CapeTown          5010.500
       273   07 Jun 2027 14:38:49.517   07 Jun 2027 14:41:01.025           131.508               Magadan2         16438.500
       274   07 Jun 2027 14:41:52.602   07 Jun 2027 14:43:53.539           120.937               Magadan1         15117.125
       275   07 Jun 2027 16:20:09.911   07 Jun 2027 16:26:08.212           358.301                Irkutsk         44787.625
       276   07 Jun 2027 16:37:17.493   07 Jun 2027 16:38:24.443            66.950                Sumatra          8368.750
       277   07 Jun 2027 16:39:18.187   07 Jun 2027 16:39:52.684            34.497                Sumatra          4312.125
       278   07 Jun 2027 17:55:07.442   07 Jun 2027 17:58:29.013           201.571                Novosib         25196.375
       279   07 Jun 2027 19:39:20.627   07 Jun 2027 19:40:59.628            99.001                  Delhi         12375.125
       280   07 Jun 2027 21:04:12.300   07 Jun 2027 21:05:30.584            78.284              Murmansk1          9785.500
       281   07 Jun 2027 21:08:23.459   07 Jun 2027 21:12:00.480           217.021                 Moscow         27127.625
       282   07 Jun 2027 21:13:20.290   07 Jun 2027 21:13:31.032            10.742              Murmansk1          1342.750
       283   07 Jun 2027 21:13:58.669   07 Jun 2027 21:15:19.370            80.701                 Moscow         10087.625
       284   08 Jun 2027 03:27:04.274   08 Jun 2027 03:27:16.966            12.692               Magadan1          1586.500
       285   08 Jun 2027 03:27:57.766   08 Jun 2027 03:38:03.024           605.258              Murmansk2         75657.250
       286   08 Jun 2027 04:03:28.755   08 Jun 2027 04:04:46.982            78.227            RioGallegos          9778.375
       287   08 Jun 2027 04:41:58.608   08 Jun 2027 04:42:42.624            44.016                Sumatra          5502.000
       288   08 Jun 2027 05:04:09.674   08 Jun 2027 05:05:40.947            91.273                Norilsk         11409.125
       289   08 Jun 2027 05:06:53.321   08 Jun 2027 05:12:16.887           323.566              Murmansk2         40445.750
       290   08 Jun 2027 05:47:07.211   08 Jun 2027 05:51:30.378           263.167            RioGallegos         32895.875
       291   08 Jun 2027 06:21:37.860   08 Jun 2027 06:26:21.983           284.123                Sumatra         35515.375
       292   08 Jun 2027 06:29:53.784   08 Jun 2027 06:33:27.460           213.676                Irkutsk         26709.500
       293   08 Jun 2027 06:40:31.140   08 Jun 2027 06:45:04.203           273.063                Norilsk         34132.875
       294   08 Jun 2027 06:45:17.534   08 Jun 2027 06:47:12.411           114.877              Murmansk2         14359.625
       295   08 Jun 2027 07:22:13.770   08 Jun 2027 07:25:11.828           178.058            RioGallegos         22257.250
       296   08 Jun 2027 08:03:05.267   08 Jun 2027 08:10:26.528           441.261                  Delhi         55157.625
       297   08 Jun 2027 08:10:35.273   08 Jun 2027 08:11:16.854            41.581              Murmansk1          5197.625
       298   08 Jun 2027 08:11:27.744   08 Jun 2027 08:11:29.816             2.072                Norilsk           259.000
       299   08 Jun 2027 08:15:45.402   08 Jun 2027 08:19:00.222           194.820                 Moscow         24352.500
       300   08 Jun 2027 08:19:10.234   08 Jun 2027 08:20:41.565            91.331              Murmansk1         11416.375
       301   08 Jun 2027 08:20:41.565   08 Jun 2027 08:22:46.013           124.448              Murmansk2         15556.000
       302   08 Jun 2027 09:45:07.703   08 Jun 2027 09:45:34.693            26.990                 Moscow          3373.750
       303   08 Jun 2027 09:51:44.216   08 Jun 2027 09:55:10.202           205.986                 Moscow         25748.250
       304   08 Jun 2027 09:55:17.220   08 Jun 2027 09:56:39.863            82.643                Norilsk         10330.375
       305   08 Jun 2027 09:57:05.023   08 Jun 2027 09:58:39.416            94.393              Murmansk1         11799.125
       306   08 Jun 2027 11:25:01.602   08 Jun 2027 11:26:42.643           101.041              Murmansk1         12630.125
       307   08 Jun 2027 11:26:58.410   08 Jun 2027 11:30:34.118           215.708                 Moscow         26963.500
       308   08 Jun 2027 11:30:56.759   08 Jun 2027 11:34:37.106           220.347              Murmansk1         27543.375
       309   08 Jun 2027 11:39:30.531   08 Jun 2027 11:46:22.452           411.921                Anadyr1         51490.125
       310   08 Jun 2027 12:36:46.977   08 Jun 2027 12:44:10.603           443.626               CapeTown         55453.250
       311   08 Jun 2027 13:02:15.814   08 Jun 2027 13:10:16.640           480.826              Murmansk1         60103.250
       312   08 Jun 2027 13:14:14.290   08 Jun 2027 13:24:55.272           640.982                Anadyr2         80122.750
       313   08 Jun 2027 14:48:14.587   08 Jun 2027 14:51:28.358           193.771                Anadyr2         24221.375
       314   08 Jun 2027 14:51:32.158   08 Jun 2027 14:53:17.497           105.339               Magadan2         13167.375
       315   08 Jun 2027 14:55:01.346   08 Jun 2027 14:57:34.059           152.713               Magadan1         19089.125
       316   08 Jun 2027 15:45:48.767   08 Jun 2027 15:48:14.939           146.172            RioGallegos         18271.500
       317   08 Jun 2027 16:31:34.255   08 Jun 2027 16:35:07.406           213.151                Irkutsk         26643.875
       318   08 Jun 2027 16:36:11.463   08 Jun 2027 16:37:53.247           101.784                Irkutsk         12723.000
       319   08 Jun 2027 16:47:10.454   08 Jun 2027 16:49:06.243           115.789                Sumatra         14473.625
       320   08 Jun 2027 16:50:54.260   08 Jun 2027 16:53:08.657           134.397                Sumatra         16799.625
       321   08 Jun 2027 18:12:33.155   08 Jun 2027 18:13:03.735            30.580                Novosib          3822.500
       322   08 Jun 2027 21:16:11.685   08 Jun 2027 21:17:19.053            67.368              Murmansk2          8421.000
       323   08 Jun 2027 21:22:15.258   08 Jun 2027 21:27:19.728           304.470                 Moscow         38058.750
       324   08 Jun 2027 21:46:55.930   08 Jun 2027 21:48:02.303            66.373               CapeTown          8296.625
       325   08 Jun 2027 21:51:03.502   08 Jun 2027 21:52:44.003           100.501               CapeTown          5909.125
       326   09 Jun 2027 03:39:01.460   09 Jun 2027 03:39:24.689            23.229                Norilsk          2903.625
       327   09 Jun 2027 03:40:12.246   09 Jun 2027 03:47:04.089           411.843              Murmansk1         51480.375
       328   09 Jun 2027 04:52:34.089   09 Jun 2027 04:54:55.996           141.907                Sumatra         17738.375
       329   09 Jun 2027 05:16:11.069   09 Jun 2027 05:17:32.882            81.813                Norilsk         10226.625
       330   09 Jun 2027 05:18:46.626   09 Jun 2027 05:21:00.903           134.277              Murmansk2         16784.625
       331   09 Jun 2027 05:21:00.903   09 Jun 2027 05:24:08.090           187.187              Murmansk1         23398.375
       332   09 Jun 2027 05:59:07.423   09 Jun 2027 06:03:26.364           258.941            RioGallegos         32367.625
       333   09 Jun 2027 06:33:49.958   09 Jun 2027 06:38:14.278           264.320                Sumatra         33040.000
       334   09 Jun 2027 06:41:38.409   09 Jun 2027 06:46:01.369           262.960                Irkutsk         32870.000
       335   09 Jun 2027 06:50:39.002   09 Jun 2027 06:51:02.654            23.652                Irkutsk          2956.500
       336   09 Jun 2027 06:52:09.823   09 Jun 2027 06:53:39.610            89.787                Novosib         11223.375
       337   09 Jun 2027 06:54:02.466   09 Jun 2027 06:57:06.592           184.126              Murmansk1         23015.750
       338   09 Jun 2027 06:57:06.592   09 Jun 2027 06:59:09.225           122.633              Murmansk2         15329.125
       339   09 Jun 2027 07:33:57.637   09 Jun 2027 07:35:56.242           118.605            RioGallegos         14825.625
       340   09 Jun 2027 08:18:09.706   09 Jun 2027 08:22:15.663           245.957                  Delhi         30744.625
       341   09 Jun 2027 08:22:37.135   09 Jun 2027 08:23:03.724            26.589                 Moscow          3323.625
       342   09 Jun 2027 08:27:45.038   09 Jun 2027 08:31:05.021           199.983                 Moscow         24997.875
       343   09 Jun 2027 08:31:13.418   09 Jun 2027 08:34:46.281           212.863              Murmansk2         26607.875
       344   09 Jun 2027 09:57:35.849   09 Jun 2027 09:58:08.368            32.519                 Moscow          4064.875
       345   09 Jun 2027 09:58:38.422   09 Jun 2027 09:58:54.036            15.614                 Moscow          1951.750
       346   09 Jun 2027 09:59:21.638   09 Jun 2027 09:59:44.981            23.343                 Moscow          2917.875
       347   09 Jun 2027 10:02:47.267   09 Jun 2027 10:04:40.878           113.611              Murmansk1         14201.375
       348   09 Jun 2027 10:04:52.465   09 Jun 2027 10:07:10.855           138.390                 Moscow         17298.750
       349   09 Jun 2027 10:07:13.917   09 Jun 2027 10:08:32.432            78.515                Norilsk          9814.375
       350   09 Jun 2027 10:08:35.210   09 Jun 2027 10:10:41.028           125.818              Murmansk2         15727.250
       351   09 Jun 2027 11:37:02.793   09 Jun 2027 11:38:40.004            97.211              Murmansk2         12151.375
       352   09 Jun 2027 11:39:29.119   09 Jun 2027 11:42:24.392           175.273                 Moscow         21909.125
       353   09 Jun 2027 11:42:44.388   09 Jun 2027 11:46:38.123           233.735              Murmansk1         29216.875
       354   09 Jun 2027 11:52:19.732   09 Jun 2027 11:58:54.072           394.340                Anadyr1         49292.500
       355   09 Jun 2027 12:52:00.707   09 Jun 2027 12:55:54.764           234.057               CapeTown         29257.125
       356   09 Jun 2027 13:14:57.054   09 Jun 2027 13:22:11.301           434.247              Murmansk1         54280.875
       357   09 Jun 2027 13:24:20.759   09 Jun 2027 13:28:58.570           277.811                Anadyr1         34726.375
       358   09 Jun 2027 13:29:05.281   09 Jun 2027 13:31:16.045           130.764               Magadan1         16345.500
       359   09 Jun 2027 13:34:32.579   09 Jun 2027 13:36:04.295            91.716               Magadan1         11464.500
       360   09 Jun 2027 15:56:27.824   09 Jun 2027 15:59:28.217           180.393            RioGallegos         22549.125
       361   09 Jun 2027 16:01:56.212   09 Jun 2027 16:02:08.205            11.993            RioGallegos          1499.125
       362   09 Jun 2027 16:43:10.225   09 Jun 2027 16:48:40.354           330.129                Irkutsk         41266.125
       363   09 Jun 2027 16:58:04.782   09 Jun 2027 17:00:47.530           162.748                Sumatra         20343.500
       364   09 Jun 2027 18:21:26.527   09 Jun 2027 18:22:31.546            65.019                Novosib          8127.375
       365   09 Jun 2027 18:28:32.306   09 Jun 2027 18:31:52.102           199.796                  Delhi         24974.500
       366   09 Jun 2027 18:32:53.404   09 Jun 2027 18:34:13.145            79.741                  Delhi          9967.625
       367   09 Jun 2027 21:31:58.669   09 Jun 2027 21:34:24.360           145.691                 Moscow         18211.375
       368   09 Jun 2027 21:58:01.338   09 Jun 2027 22:00:15.292           133.954               CapeTown         13120.750
       369   10 Jun 2027 03:52:13.099   10 Jun 2027 04:00:03.008           469.909              Murmansk1         58738.625
       370   10 Jun 2027 05:03:40.430   10 Jun 2027 05:06:40.714           180.284                Sumatra         22535.500
       371   10 Jun 2027 05:29:33.470   10 Jun 2027 05:29:35.170             1.700                Novosib           212.500
       372   10 Jun 2027 05:30:40.668   10 Jun 2027 05:33:05.995           145.327              Murmansk2         18165.875
       373   10 Jun 2027 05:33:05.995   10 Jun 2027 05:36:00.031           174.036              Murmansk1         21754.500
       374   10 Jun 2027 06:11:06.578   10 Jun 2027 06:15:20.661           254.083            RioGallegos         31760.375
       375   10 Jun 2027 06:45:56.029   10 Jun 2027 06:50:00.506           244.477                Sumatra         30559.625
       376   10 Jun 2027 06:53:21.060   10 Jun 2027 06:53:57.805            36.745                Irkutsk          4593.125
       377   10 Jun 2027 06:55:11.150   10 Jun 2027 06:58:24.282           193.132                Irkutsk         24141.500
       378   10 Jun 2027 07:04:13.684   10 Jun 2027 07:06:31.978           138.294                 Moscow         17286.750
       379   10 Jun 2027 07:06:51.014   10 Jun 2027 07:09:19.884           148.870              Murmansk1         18608.750
       380   10 Jun 2027 07:09:19.884   10 Jun 2027 07:11:06.609           106.725              Murmansk2         13340.625
       381   10 Jun 2027 08:30:08.044   10 Jun 2027 08:33:59.951           231.907                  Delhi         28988.375
       382   10 Jun 2027 08:34:04.146   10 Jun 2027 08:34:29.933            25.787                 Moscow          3223.375
       383   10 Jun 2027 08:34:40.058   10 Jun 2027 08:35:06.690            26.632                Novosib          3329.000
       384   10 Jun 2027 08:39:31.657   10 Jun 2027 08:40:51.240            79.583                Novosib          9947.875
       385   10 Jun 2027 08:41:07.881   10 Jun 2027 08:45:05.095           237.214                Norilsk         29651.750
       386   10 Jun 2027 08:45:17.048   10 Jun 2027 08:46:46.828            89.780              Murmansk1         11222.500
       387   10 Jun 2027 10:09:36.370   10 Jun 2027 10:11:00.665            84.295                 Moscow         10536.875
       388   10 Jun 2027 10:12:56.690   10 Jun 2027 10:13:01.387             4.697              Murmansk1           587.125
       389   10 Jun 2027 10:14:36.137   10 Jun 2027 10:16:43.415           127.278              Murmansk2         15909.750
       390   10 Jun 2027 10:16:51.458   10 Jun 2027 10:19:10.813           139.355                 Moscow         17419.375
       391   10 Jun 2027 10:19:11.204   10 Jun 2027 10:20:20.659            69.455                Norilsk          8681.875
       392   10 Jun 2027 10:20:28.125   10 Jun 2027 10:22:42.686           134.561              Murmansk1         16820.125
       393   10 Jun 2027 10:27:25.433   10 Jun 2027 10:28:50.652            85.219                Anadyr1         10652.375
       394   10 Jun 2027 11:31:56.290   10 Jun 2027 11:32:13.333            17.043               CapeTown          2130.375
       395   10 Jun 2027 11:49:03.760   10 Jun 2027 11:50:33.324            89.564              Murmansk1         11195.500
       396   10 Jun 2027 11:50:33.324   10 Jun 2027 11:58:38.857           485.533              Murmansk2         60691.625
       397   10 Jun 2027 12:01:25.463   10 Jun 2027 12:11:22.144           596.681                Anadyr1         74585.125
       398   10 Jun 2027 13:03:57.255   10 Jun 2027 13:05:51.772           114.517               CapeTown         14314.625
       399   10 Jun 2027 13:39:16.887   10 Jun 2027 13:41:19.967           123.080               Magadan2         15385.000
       400   10 Jun 2027 13:41:19.967   10 Jun 2027 13:43:17.015           117.048               Magadan1         14631.000
       401   10 Jun 2027 15:26:36.386   10 Jun 2027 15:26:54.339            17.953               Magadan2          2244.125
       402   10 Jun 2027 16:07:48.273   10 Jun 2027 16:11:16.501           208.228            RioGallegos         26028.500
       403   10 Jun 2027 16:56:55.001   10 Jun 2027 17:01:02.840           247.839                Irkutsk         30979.875
       404   10 Jun 2027 17:09:19.865   10 Jun 2027 17:12:35.448           195.583                Sumatra         24447.875
       405   10 Jun 2027 17:15:28.697   10 Jun 2027 17:17:21.985           113.288                Sumatra         14161.000
       406   10 Jun 2027 18:39:28.125   10 Jun 2027 18:42:05.778           157.653                  Delhi         19706.625
       407   10 Jun 2027 21:42:34.099   10 Jun 2027 21:44:49.696           135.597              Murmansk2         16949.625
       408   10 Jun 2027 21:44:59.444   10 Jun 2027 21:45:19.470            20.026              Murmansk2          2503.250
       409   10 Jun 2027 21:46:30.328   10 Jun 2027 21:48:06.471            96.143                 Moscow         12017.875
       410   10 Jun 2027 22:09:18.744   10 Jun 2027 22:10:19.974            61.230               CapeTown          1388.875
       411   11 Jun 2027 04:04:20.535   11 Jun 2027 04:06:24.133           123.598                Norilsk         15449.750
       412   11 Jun 2027 05:15:02.379   11 Jun 2027 05:15:46.853            44.474                Sumatra          5559.250
       413   11 Jun 2027 05:16:36.214   11 Jun 2027 05:17:37.786            61.572                Sumatra          7696.500
       414   11 Jun 2027 05:40:14.265   11 Jun 2027 05:45:10.641           296.376                Norilsk         37047.000
       415   11 Jun 2027 05:45:25.918   11 Jun 2027 05:47:52.728           146.810              Murmansk1         18351.250
       416   11 Jun 2027 06:23:04.571   11 Jun 2027 06:27:12.894           248.323            RioGallegos         31040.375
       417   11 Jun 2027 06:57:56.462   11 Jun 2027 07:01:39.834           223.372                Sumatra         27921.500
       418   11 Jun 2027 07:05:22.925   11 Jun 2027 07:05:51.569            28.644                Irkutsk          3580.500
       419   11 Jun 2027 07:07:10.279   11 Jun 2027 07:11:08.432           238.153                Novosib         29769.125
       420   11 Jun 2027 07:15:46.639   11 Jun 2027 07:17:39.931           113.292                Novosib         14161.500
       421   11 Jun 2027 07:17:50.001   11 Jun 2027 07:21:09.857           199.856                Norilsk         24982.000
       422   11 Jun 2027 07:21:20.676   11 Jun 2027 07:23:04.524           103.848              Murmansk1         12981.000
       423   11 Jun 2027 08:42:02.894   11 Jun 2027 08:45:38.122           215.228                  Delhi         26903.500
       424   11 Jun 2027 08:45:48.604   11 Jun 2027 08:48:18.195           149.591                Novosib         18698.875
       425   11 Jun 2027 08:51:31.098   11 Jun 2027 08:52:37.542            66.444                Novosib          8305.500
       426   11 Jun 2027 08:52:38.424   11 Jun 2027 08:57:05.396           266.972                Norilsk         33371.500
       427   11 Jun 2027 08:57:11.231   11 Jun 2027 08:58:47.609            96.378              Murmansk1         12047.250
       428   11 Jun 2027 10:20:46.656   11 Jun 2027 10:23:06.632           139.976                 Moscow         17497.000
       429   11 Jun 2027 10:24:57.799   11 Jun 2027 10:28:28.828           211.029              Murmansk1         26378.625
       430   11 Jun 2027 10:28:38.342   11 Jun 2027 10:31:59.990           201.648                Norilsk         25206.000
       431   11 Jun 2027 10:32:01.287   11 Jun 2027 10:34:44.354           163.067              Murmansk1         20383.375
       432   11 Jun 2027 10:38:12.210   11 Jun 2027 10:41:44.405           212.195                Anadyr1         26524.375
       433   11 Jun 2027 13:51:08.654   11 Jun 2027 13:54:49.505           220.851               Magadan2         27606.375
       434   11 Jun 2027 13:54:49.505   11 Jun 2027 13:55:26.744            37.239               Magadan1          4654.875
       435   11 Jun 2027 13:56:50.284   11 Jun 2027 13:57:42.403            52.119               Magadan2          6514.875
       436   11 Jun 2027 16:19:22.136   11 Jun 2027 16:26:01.726           399.590            RioGallegos         49948.750
       437   11 Jun 2027 17:10:19.550   11 Jun 2027 17:10:48.727            29.177                Irkutsk          3647.125
       438   11 Jun 2027 17:20:47.487   11 Jun 2027 17:22:30.797           103.310                Sumatra         12913.750
       439   11 Jun 2027 17:24:29.301   11 Jun 2027 17:26:42.965           133.664                Sumatra         16708.000
       440   11 Jun 2027 17:27:36.165   11 Jun 2027 17:27:51.227            15.062                Sumatra          1882.750
       441   11 Jun 2027 18:42:18.465   11 Jun 2027 18:43:43.336            84.871                Novosib         10608.875
       442   11 Jun 2027 18:45:00.422   11 Jun 2027 18:46:36.309            95.887                Novosib         11985.875
       443   11 Jun 2027 18:50:47.140   11 Jun 2027 18:54:18.774           211.634                  Delhi         26454.250
       444   11 Jun 2027 21:55:44.612   11 Jun 2027 21:57:34.687           110.075                 Moscow         13759.375
       445   11 Jun 2027 22:00:08.128   11 Jun 2027 22:00:09.509             1.381                 Moscow           172.625
       446   11 Jun 2027 22:20:44.887   11 Jun 2027 22:21:47.045            62.158               CapeTown           826.250
       447   12 Jun 2027 04:16:20.808   12 Jun 2027 04:17:12.547            51.739                Novosib          6467.375
       448   12 Jun 2027 04:17:20.072   12 Jun 2027 04:17:34.719            14.647              Murmansk1          1830.875
       449   12 Jun 2027 05:26:34.836   12 Jun 2027 05:28:17.772           102.936                Sumatra         12867.000
       450   12 Jun 2027 05:52:10.832   12 Jun 2027 05:53:43.102            92.270                Novosib         11533.750
       451   12 Jun 2027 05:53:50.602   12 Jun 2027 05:57:12.054           201.452                Norilsk         25181.500
       452   12 Jun 2027 05:57:27.936   12 Jun 2027 05:59:46.172           138.236              Murmansk1         17279.500
       453   12 Jun 2027 06:35:01.217   12 Jun 2027 06:39:02.530           241.313            RioGallegos         30164.125
       454   12 Jun 2027 07:09:51.308   12 Jun 2027 07:13:10.799           199.491                Sumatra         24936.375
       455   12 Jun 2027 07:17:00.323   12 Jun 2027 07:17:51.430            51.107                Novosib          6388.375
       456   12 Jun 2027 07:19:09.054   12 Jun 2027 07:23:14.519           245.465                Irkutsk         30683.125
       457   12 Jun 2027 07:27:56.603   12 Jun 2027 07:28:02.820             6.217                 Moscow           777.125
       458   12 Jun 2027 07:28:03.935   12 Jun 2027 07:29:38.935            95.000                Novosib         11875.000
       459   12 Jun 2027 07:29:47.383   12 Jun 2027 07:33:11.700           204.317                Norilsk         25539.625
       460   12 Jun 2027 07:33:21.174   12 Jun 2027 07:35:02.928           101.754              Murmansk2         12719.250
       461   12 Jun 2027 08:53:53.911   12 Jun 2027 08:57:07.923           194.012                  Delhi         24251.500
       462   12 Jun 2027 08:57:18.169   12 Jun 2027 08:59:15.568           117.399                Novosib         14674.875
       463   12 Jun 2027 09:04:36.801   12 Jun 2027 09:09:05.160           268.359                Norilsk         33544.875
       464   12 Jun 2027 09:09:06.136   12 Jun 2027 09:10:48.599           102.463              Murmansk2         12807.875
       465   12 Jun 2027 10:33:35.187   12 Jun 2027 10:34:50.580            75.393                 Moscow          9424.125
       466   12 Jun 2027 10:36:54.267   12 Jun 2027 10:38:10.672            76.405              Murmansk1          9550.625
       467   12 Jun 2027 10:38:10.672   12 Jun 2027 10:40:21.642           130.970              Murmansk2         16371.250
       468   12 Jun 2027 10:40:25.181   12 Jun 2027 10:43:08.276           163.095                 Moscow         20386.875
       469   12 Jun 2027 10:44:02.162   12 Jun 2027 10:46:46.006           163.844              Murmansk1         20480.500
       470   12 Jun 2027 10:49:44.973   12 Jun 2027 10:55:41.916           356.943                Anadyr1         44617.875
       471   12 Jun 2027 11:51:36.584   12 Jun 2027 11:56:38.002           301.418               CapeTown         37677.250
       472   12 Jun 2027 12:12:19.844   12 Jun 2027 12:13:45.997            86.153              Murmansk1         10769.125
       473   12 Jun 2027 14:03:02.458   12 Jun 2027 14:05:40.575           158.117               Magadan1         19764.625
       474   12 Jun 2027 14:05:40.575   12 Jun 2027 14:07:24.933           104.358               Magadan2         13044.750
       475   12 Jun 2027 14:10:30.954   12 Jun 2027 14:12:04.239            93.285               Magadan1         11660.625
       476   12 Jun 2027 16:31:03.371   12 Jun 2027 16:37:19.023           375.652            RioGallegos         46956.500
       477   12 Jun 2027 17:18:30.101   12 Jun 2027 17:19:49.665            79.564                Irkutsk          9945.500
       478   12 Jun 2027 17:21:07.279   12 Jun 2027 17:21:55.642            48.363                Irkutsk          6045.375
       479   12 Jun 2027 17:22:12.621   12 Jun 2027 17:23:04.383            51.762                Novosib          6470.250
       480   12 Jun 2027 17:32:24.189   12 Jun 2027 17:34:15.190           111.001                Sumatra         13875.125
       481   12 Jun 2027 17:36:25.767   12 Jun 2027 17:38:54.506           148.739                Sumatra         18592.375
       482   12 Jun 2027 19:02:18.259   12 Jun 2027 19:04:13.469           115.210                  Delhi         14401.250
