uniorb/output/strategy_4/Drop/Drop_KinoSat_111007.txt

KinoSat_111007
-------------------------
    Access    *     Start Time (UTCG)     *     Stop Time (UTCG)  *   Duration (s)        *       Station  *  Data (Mbytes)
         1   01 Jun 2027 03:09:22.741   01 Jun 2027 03:10:21.471            58.730                Anadyr1          1835.312
         2   01 Jun 2027 03:21:46.557   01 Jun 2027 03:22:12.552            25.995              Murmansk1           812.344
         3   01 Jun 2027 03:23:45.783   01 Jun 2027 03:23:49.250             3.467              Murmansk2           108.344
         4   01 Jun 2027 03:24:38.181   01 Jun 2027 03:25:08.315            30.134              Murmansk1           941.688
         5   01 Jun 2027 03:25:47.702   01 Jun 2027 03:25:57.846            10.144              Murmansk1           317.000
         6   01 Jun 2027 04:43:09.770   01 Jun 2027 04:43:24.691            14.921                Anadyr1           466.281
         7   01 Jun 2027 04:43:29.503   01 Jun 2027 04:46:59.583           210.080                Anadyr2          6565.000
         8   01 Jun 2027 04:47:06.286   01 Jun 2027 04:48:26.589            80.303                Anadyr1          2509.469
         9   01 Jun 2027 04:48:29.389   01 Jun 2027 04:48:42.422            13.033               Magadan1           407.281
        10   01 Jun 2027 04:49:04.545   01 Jun 2027 04:49:54.573            50.028               Magadan2          1563.375
        11   01 Jun 2027 04:49:54.573   01 Jun 2027 04:50:07.172            12.599               Magadan1           393.719
        12   01 Jun 2027 06:18:33.198   01 Jun 2027 06:19:20.342            47.144                Irkutsk          1473.250
        13   01 Jun 2027 06:20:44.539   01 Jun 2027 06:21:18.826            34.287               Magadan1          1071.469
        14   01 Jun 2027 06:21:18.826   01 Jun 2027 06:22:36.700            77.874               Magadan2          2433.562
        15   01 Jun 2027 06:22:37.101   01 Jun 2027 06:23:58.587            81.486                Anadyr1          2546.438
        16   01 Jun 2027 06:24:17.249   01 Jun 2027 06:24:48.857            31.608                Anadyr2           987.750
        17   01 Jun 2027 07:02:30.543   01 Jun 2027 07:02:44.507            13.964            RioGallegos           436.375
        18   01 Jun 2027 07:56:42.725   01 Jun 2027 07:57:51.624            68.899               Magadan2          2153.094
        19   01 Jun 2027 07:58:04.778   01 Jun 2027 07:58:51.927            47.149               Magadan2          1473.406
        20   01 Jun 2027 07:59:15.178   01 Jun 2027 08:00:47.551            92.373                Irkutsk          2886.656
        21   01 Jun 2027 08:00:50.923   01 Jun 2027 08:01:20.342            29.419               Magadan1           919.344
        22   01 Jun 2027 08:01:37.243   01 Jun 2027 08:02:19.292            42.049                Norilsk          1314.031
        23   01 Jun 2027 08:02:37.367   01 Jun 2027 08:03:18.956            41.589                Novosib          1299.656
        24   01 Jun 2027 08:05:28.973   01 Jun 2027 08:05:47.904            18.931              Murmansk1           591.594
        25   01 Jun 2027 08:36:59.245   01 Jun 2027 08:38:05.246            66.001            RioGallegos          2062.531
        26   01 Jun 2027 08:40:10.771   01 Jun 2027 08:40:55.243            44.472            RioGallegos          1389.750
        27   01 Jun 2027 09:11:53.843   01 Jun 2027 09:12:48.783            54.940                Sumatra          1716.875
        28   01 Jun 2027 09:14:11.258   01 Jun 2027 09:15:17.065            65.807                Sumatra          2056.469
        29   01 Jun 2027 09:33:04.569   01 Jun 2027 09:34:11.450            66.881                Irkutsk          2090.031
        30   01 Jun 2027 09:35:48.118   01 Jun 2027 09:36:38.754            50.636                Novosib          1582.375
        31   01 Jun 2027 09:36:42.672   01 Jun 2027 09:37:50.373            67.701              Murmansk2          2115.656
        32   01 Jun 2027 09:37:50.373   01 Jun 2027 09:38:07.328            16.955              Murmansk1           529.844
        33   01 Jun 2027 09:38:09.988   01 Jun 2027 09:39:36.680            86.692                 Moscow          2709.125
        34   01 Jun 2027 10:16:06.960   01 Jun 2027 10:16:43.852            36.892            RioGallegos          1152.875
        35   01 Jun 2027 10:20:00.258   01 Jun 2027 10:20:32.290            32.032            RioGallegos          1001.000
        36   01 Jun 2027 10:50:46.368   01 Jun 2027 10:51:44.642            58.274                Sumatra          1821.062
        37   01 Jun 2027 10:54:42.842   01 Jun 2027 10:54:45.068             2.226                Sumatra            69.563
        38   01 Jun 2027 10:58:59.698   01 Jun 2027 10:59:13.014            13.316                  Delhi           416.125
        39   01 Jun 2027 11:12:14.157   01 Jun 2027 11:12:19.149             4.992              Murmansk2           156.000
        40   01 Jun 2027 11:12:23.349   01 Jun 2027 11:13:56.441            93.092              Murmansk2          2909.125
        41   01 Jun 2027 11:13:56.441   01 Jun 2027 11:14:26.988            30.547              Murmansk1           954.594
        42   01 Jun 2027 11:14:44.970   01 Jun 2027 11:16:18.777            93.807                 Moscow          2931.469
        43   01 Jun 2027 12:37:36.714   01 Jun 2027 12:39:41.153           124.439                  Delhi          3888.719
        44   01 Jun 2027 12:43:10.831   01 Jun 2027 12:44:25.213            74.382                 Moscow          2324.438
        45   01 Jun 2027 12:44:25.846   01 Jun 2027 12:47:18.812           172.966              Murmansk1          5405.188
        46   01 Jun 2027 12:47:23.485   01 Jun 2027 12:49:09.112           105.627                Norilsk          3300.844
        47   01 Jun 2027 13:55:37.794   01 Jun 2027 13:58:29.883           172.089               CapeTown          5377.781
        48   01 Jun 2027 14:01:08.110   01 Jun 2027 14:02:05.090            56.980               CapeTown          1780.625
        49   01 Jun 2027 14:20:38.900   01 Jun 2027 14:21:47.946            69.046              Murmansk1          2157.688
        50   01 Jun 2027 14:22:16.572   01 Jun 2027 14:23:39.994            83.422              Murmansk2          2606.937
        51   01 Jun 2027 14:24:59.964   01 Jun 2027 14:25:08.560             8.596              Murmansk1           268.625
        52   01 Jun 2027 14:29:27.297   01 Jun 2027 14:29:47.648            20.351              Murmansk1           635.969
        53   01 Jun 2027 14:35:06.006   01 Jun 2027 14:37:14.698           128.692                Anadyr2          4021.625
        54   01 Jun 2027 14:37:20.336   01 Jun 2027 14:38:29.794            69.458                Anadyr1          2170.562
        55   01 Jun 2027 15:33:03.637   01 Jun 2027 15:33:51.825            48.188               CapeTown          1505.875
        56   01 Jun 2027 15:59:36.158   01 Jun 2027 16:00:24.263            48.105              Murmansk2          1503.281
        57   01 Jun 2027 16:00:57.084   01 Jun 2027 16:01:18.056            20.972              Murmansk2           655.375
        58   01 Jun 2027 16:02:46.705   01 Jun 2027 16:03:00.103            13.398              Murmansk2           418.687
        59   01 Jun 2027 16:03:13.723   01 Jun 2027 16:03:43.545            29.822              Murmansk1           931.938
        60   01 Jun 2027 16:10:30.208   01 Jun 2027 16:12:29.756           119.548                Anadyr2          3735.875
        61   01 Jun 2027 16:12:55.289   01 Jun 2027 16:13:07.561            12.272                Anadyr1           383.500
        62   01 Jun 2027 16:14:23.363   01 Jun 2027 16:16:36.123           132.760               Magadan1          4148.750
        63   01 Jun 2027 16:16:36.123   01 Jun 2027 16:17:30.152            54.029               Magadan2          1688.406
        64   01 Jun 2027 16:18:57.627   01 Jun 2027 16:19:43.777            46.150               Magadan1          1442.188
        65   01 Jun 2027 17:46:23.685   01 Jun 2027 17:50:19.008           235.323                Anadyr2          7353.844
        66   01 Jun 2027 17:50:24.590   01 Jun 2027 17:51:04.982            40.392               Magadan1          1262.250
        67   01 Jun 2027 17:51:05.325   01 Jun 2027 17:52:50.920           105.595               Magadan2          3299.844
        68   01 Jun 2027 17:53:06.345   01 Jun 2027 17:54:17.916            71.571               Magadan2          2236.594
        69   01 Jun 2027 19:22:16.401   01 Jun 2027 19:26:10.759           234.358                Anadyr1          7323.688
        70   01 Jun 2027 19:26:11.969   01 Jun 2027 19:27:50.851            98.882               Magadan1          3090.062
        71   01 Jun 2027 19:30:17.511   01 Jun 2027 19:30:50.151            32.640               Magadan1          1020.000
        72   01 Jun 2027 19:30:56.521   01 Jun 2027 19:33:10.185           133.664                Irkutsk          4177.000
        73   01 Jun 2027 19:34:23.491   01 Jun 2027 19:34:59.278            35.787                Irkutsk          1118.344
        74   01 Jun 2027 20:16:29.634   01 Jun 2027 20:17:08.966            39.332            RioGallegos          1229.125
        75   01 Jun 2027 20:17:48.080   01 Jun 2027 20:17:56.593             8.513            RioGallegos           266.031
        76   01 Jun 2027 20:57:45.565   01 Jun 2027 20:58:23.574            38.009                Anadyr2          1187.781
        77   01 Jun 2027 20:59:50.408   01 Jun 2027 20:59:55.514             5.106                Anadyr1           159.562
        78   01 Jun 2027 21:00:08.446   01 Jun 2027 21:03:26.384           197.938                Norilsk          6185.562
        79   01 Jun 2027 21:04:07.892   01 Jun 2027 21:04:34.145            26.253                Norilsk           820.406
        80   01 Jun 2027 21:05:25.634   01 Jun 2027 21:08:38.820           193.186                Novosib          6037.063
        81   01 Jun 2027 21:12:50.974   01 Jun 2027 21:13:02.583            11.609                Novosib           362.781
        82   01 Jun 2027 21:17:51.586   01 Jun 2027 21:19:21.518            89.932                Sumatra          2810.375
        83   01 Jun 2027 21:27:05.641   01 Jun 2027 21:27:25.367            19.726                Sumatra           616.438
        84   01 Jun 2027 22:32:15.048   01 Jun 2027 22:32:35.448            20.400                Anadyr2           637.500
        85   01 Jun 2027 22:33:28.828   01 Jun 2027 22:34:04.226            35.398                Anadyr1          1106.188
        86   01 Jun 2027 22:36:07.040   01 Jun 2027 22:36:40.629            33.589                Norilsk          1049.656
        87   01 Jun 2027 22:36:43.789   01 Jun 2027 22:37:50.063            66.274               Magadan2          2071.062
        88   01 Jun 2027 22:40:00.609   01 Jun 2027 22:42:03.673           123.064                Novosib          3845.750
        89   01 Jun 2027 22:47:31.487   01 Jun 2027 22:51:14.957           223.470                  Delhi          6983.438
        90   02 Jun 2027 00:05:39.501   02 Jun 2027 00:05:53.032            13.531                Anadyr2           422.844
        91   02 Jun 2027 00:06:46.529   02 Jun 2027 00:06:53.808             7.279                Anadyr1           227.469
        92   02 Jun 2027 00:07:19.520   02 Jun 2027 00:08:07.626            48.106                Anadyr1          1503.312
        93   02 Jun 2027 00:11:48.688   02 Jun 2027 00:12:48.904            60.216               Magadan1          1881.750
        94   02 Jun 2027 00:12:52.638   02 Jun 2027 00:13:09.551            16.913               Magadan2           528.531
        95   02 Jun 2027 00:13:20.031   02 Jun 2027 00:13:38.606            18.575               Magadan2           580.469
        96   02 Jun 2027 00:14:23.017   02 Jun 2027 00:17:26.021           183.004              Murmansk1          5718.875
        97   02 Jun 2027 00:17:47.849   02 Jun 2027 00:18:44.716            56.867              Murmansk1          1777.094
        98   02 Jun 2027 00:19:09.970   02 Jun 2027 00:20:15.139            65.169                 Moscow          2036.531
        99   02 Jun 2027 00:22:29.246   02 Jun 2027 00:22:54.674            25.428                 Moscow           794.625
       100   02 Jun 2027 00:23:57.240   02 Jun 2027 00:24:15.993            18.753                 Moscow           586.031
       101   02 Jun 2027 00:46:59.687   02 Jun 2027 00:47:52.895            53.208               CapeTown          1662.750
       102   02 Jun 2027 00:49:35.200   02 Jun 2027 00:50:22.471            47.271               CapeTown          1477.219
       103   02 Jun 2027 01:39:12.712   02 Jun 2027 01:39:29.909            17.197                Anadyr1           537.406
       104   02 Jun 2027 01:40:48.746   02 Jun 2027 01:41:26.001            37.255                Anadyr1          1164.219
       105   02 Jun 2027 01:42:19.233   02 Jun 2027 01:42:37.711            18.478                Anadyr1           577.438
       106   02 Jun 2027 01:43:49.024   02 Jun 2027 01:45:22.161            93.137               Magadan1          2910.531
       107   02 Jun 2027 01:47:48.481   02 Jun 2027 01:47:52.198             3.717                Norilsk           116.156
       108   02 Jun 2027 01:48:01.657   02 Jun 2027 01:48:48.239            46.582               Magadan1          1455.688
       109   02 Jun 2027 01:50:13.441   02 Jun 2027 01:50:35.156            21.715              Murmansk2           678.594
       110   02 Jun 2027 01:50:39.586   02 Jun 2027 01:52:03.992            84.406              Murmansk1          2637.688
       111   02 Jun 2027 01:53:18.852   02 Jun 2027 01:53:53.327            34.475                Novosib          1077.344
       112   02 Jun 2027 01:55:39.505   02 Jun 2027 01:56:05.439            25.934                 Moscow           810.437
       113   02 Jun 2027 02:17:31.669   02 Jun 2027 02:18:51.406            79.737               CapeTown          2491.781
       114   02 Jun 2027 02:19:07.396   02 Jun 2027 02:20:29.036            81.640               CapeTown          2551.250
       115   02 Jun 2027 03:20:41.743   02 Jun 2027 03:22:12.481            90.738               Magadan2          2835.562
       116   02 Jun 2027 03:22:15.129   02 Jun 2027 03:27:00.357           285.228                Anadyr2          8913.375
       117   02 Jun 2027 03:36:49.357   02 Jun 2027 03:36:58.378             9.021              Murmansk1           281.906
       118   02 Jun 2027 04:55:34.431   02 Jun 2027 04:55:48.283            13.852                Anadyr2           432.875
       119   02 Jun 2027 04:56:11.983   02 Jun 2027 04:57:10.788            58.805                Anadyr2          1837.656
       120   02 Jun 2027 04:57:13.706   02 Jun 2027 04:57:34.882            21.176                Anadyr1           661.750
       121   02 Jun 2027 04:57:50.572   02 Jun 2027 04:58:09.149            18.577               Magadan2           580.531
       122   02 Jun 2027 04:58:40.536   02 Jun 2027 05:02:51.565           251.029                Anadyr2          7844.656
       123   02 Jun 2027 06:32:32.703   02 Jun 2027 06:33:17.509            44.806               Magadan2          1400.188
       124   02 Jun 2027 06:33:25.578   02 Jun 2027 06:33:57.308            31.730                Anadyr2           991.562
       125   02 Jun 2027 06:34:23.769   02 Jun 2027 06:34:49.586            25.817                Irkutsk           806.781
       126   02 Jun 2027 06:34:51.662   02 Jun 2027 06:38:25.471           213.809               Magadan1          6681.531
       127   02 Jun 2027 08:09:45.264   02 Jun 2027 08:11:33.343           108.079               Magadan1          3377.469
       128   02 Jun 2027 08:11:33.343   02 Jun 2027 08:12:19.823            46.480               Magadan2          1452.500
       129   02 Jun 2027 08:12:45.944   02 Jun 2027 08:14:00.058            74.114                Irkutsk          2316.063
       130   02 Jun 2027 08:14:17.622   02 Jun 2027 08:14:51.125            33.503                Novosib          1046.969
       131   02 Jun 2027 08:49:08.216   02 Jun 2027 08:49:09.130             0.914            RioGallegos            28.563
       132   02 Jun 2027 09:23:50.734   02 Jun 2027 09:24:23.723            32.989                Sumatra          1030.906
       133   02 Jun 2027 09:24:44.370   02 Jun 2027 09:25:58.295            73.925                Sumatra          2310.156
       134   02 Jun 2027 09:44:05.690   02 Jun 2027 09:44:29.510            23.820                Irkutsk           744.375
       135   02 Jun 2027 09:44:44.038   02 Jun 2027 09:45:02.711            18.673                Irkutsk           583.531
       136   02 Jun 2027 09:46:19.524   02 Jun 2027 09:46:39.435            19.911                Irkutsk           622.219
       137   02 Jun 2027 09:47:14.615   02 Jun 2027 09:47:24.250             9.635                Irkutsk           301.094
       138   02 Jun 2027 09:47:31.241   02 Jun 2027 09:47:44.515            13.274                Irkutsk           414.813
       139   02 Jun 2027 09:47:46.564   02 Jun 2027 09:47:53.664             7.100                Irkutsk           221.875
       140   02 Jun 2027 09:48:18.950   02 Jun 2027 09:48:43.028            24.078                Irkutsk           752.437
       141   02 Jun 2027 09:48:47.533   02 Jun 2027 09:48:51.567             4.034                Irkutsk           126.062
       142   02 Jun 2027 09:49:08.783   02 Jun 2027 09:49:22.928            14.145              Murmansk2           442.031
       143   02 Jun 2027 09:49:37.690   02 Jun 2027 09:50:11.781            34.091                Novosib          1065.344
       144   02 Jun 2027 09:50:56.592   02 Jun 2027 09:51:23.238            26.646                Novosib           832.687
       145   02 Jun 2027 10:29:35.018   02 Jun 2027 10:30:17.169            42.151            RioGallegos          1317.219
       146   02 Jun 2027 11:08:32.765   02 Jun 2027 11:08:34.619             1.854                  Delhi            57.938
       147   02 Jun 2027 11:10:14.240   02 Jun 2027 11:11:10.491            56.251                  Delhi          1757.844
       148   02 Jun 2027 11:14:40.242   02 Jun 2027 11:16:34.471           114.229                  Delhi          3569.656
       149   02 Jun 2027 11:22:24.647   02 Jun 2027 11:22:29.247             4.600                Novosib           143.750
       150   02 Jun 2027 11:22:52.994   02 Jun 2027 11:23:27.345            34.351                Norilsk          1073.469
       151   02 Jun 2027 11:23:42.333   02 Jun 2027 11:23:59.856            17.523                Novosib           547.594
       152   02 Jun 2027 11:24:11.380   02 Jun 2027 11:24:58.281            46.901                Norilsk          1465.656
       153   02 Jun 2027 11:25:01.330   02 Jun 2027 11:25:44.913            43.583                Novosib          1361.969
       154   02 Jun 2027 11:25:47.788   02 Jun 2027 11:25:48.673             0.885                Novosib            27.656
       155   02 Jun 2027 11:26:13.895   02 Jun 2027 11:26:20.736             6.841                Norilsk           213.781
       156   02 Jun 2027 12:52:27.197   02 Jun 2027 12:53:08.591            41.394                 Moscow          1293.563
       157   02 Jun 2027 12:54:08.037   02 Jun 2027 12:54:52.915            44.878                 Moscow          1402.438
       158   02 Jun 2027 12:55:19.475   02 Jun 2027 12:56:21.235            61.760                 Moscow          1930.000
       159   02 Jun 2027 12:56:37.715   02 Jun 2027 12:57:19.350            41.635              Murmansk1          1301.094
       160   02 Jun 2027 12:57:44.153   02 Jun 2027 12:57:50.774             6.621              Murmansk1           206.906
       161   02 Jun 2027 12:58:14.038   02 Jun 2027 12:59:14.050            60.012              Murmansk1          1875.375
       162   02 Jun 2027 12:59:48.858   02 Jun 2027 13:00:48.283            59.425                Norilsk          1857.031
       163   02 Jun 2027 13:03:10.274   02 Jun 2027 13:03:32.676            22.402                Norilsk           700.063
       164   02 Jun 2027 13:03:57.887   02 Jun 2027 13:04:21.921            24.034                Norilsk           751.063
       165   02 Jun 2027 14:07:07.514   02 Jun 2027 14:10:17.205           189.691               CapeTown          5927.844
       166   02 Jun 2027 14:13:20.762   02 Jun 2027 14:13:53.404            32.642               CapeTown          1020.063
       167   02 Jun 2027 14:32:55.069   02 Jun 2027 14:33:56.171            61.102              Murmansk2          1909.437
       168   02 Jun 2027 14:35:00.736   02 Jun 2027 14:35:12.301            11.565              Murmansk1           361.406
       169   02 Jun 2027 14:35:40.451   02 Jun 2027 14:35:41.816             1.365              Murmansk1            42.656
       170   02 Jun 2027 14:36:58.406   02 Jun 2027 14:37:25.270            26.864              Murmansk2           839.500
       171   02 Jun 2027 14:37:42.164   02 Jun 2027 14:38:11.268            29.104              Murmansk2           909.500
       172   02 Jun 2027 14:46:59.224   02 Jun 2027 14:49:14.917           135.693                Anadyr1          4240.406
       173   02 Jun 2027 14:52:35.733   02 Jun 2027 14:52:51.373            15.640                Anadyr1           488.750
       174   02 Jun 2027 14:56:03.078   02 Jun 2027 14:56:21.531            18.453                Anadyr1           576.656
       175   02 Jun 2027 15:41:55.722   02 Jun 2027 15:43:19.239            83.517               CapeTown          2609.906
       176   02 Jun 2027 16:12:12.382   02 Jun 2027 16:14:01.932           109.550              Murmansk1          3423.438
       177   02 Jun 2027 16:22:30.626   02 Jun 2027 16:24:37.825           127.199                Anadyr2          3974.969
       178   02 Jun 2027 16:25:18.076   02 Jun 2027 16:25:55.178            37.102                Anadyr2          1159.438
       179   02 Jun 2027 16:25:59.488   02 Jun 2027 16:29:16.985           197.497               Magadan1          6171.781
       180   02 Jun 2027 16:31:00.357   02 Jun 2027 16:31:43.781            43.424               Magadan1          1357.000
       181   02 Jun 2027 17:58:25.112   02 Jun 2027 18:00:15.578           110.466                Anadyr2          3452.063
       182   02 Jun 2027 18:00:25.154   02 Jun 2027 18:01:00.429            35.275                Anadyr2          1102.344
       183   02 Jun 2027 18:01:40.458   02 Jun 2027 18:02:19.556            39.098                Anadyr1          1221.812
       184   02 Jun 2027 18:02:28.807   02 Jun 2027 18:03:45.675            76.868               Magadan1          2402.125
       185   02 Jun 2027 18:04:35.535   02 Jun 2027 18:06:29.617           114.082               Magadan2          3565.062
       186   02 Jun 2027 19:34:16.331   02 Jun 2027 19:36:11.173           114.842                Anadyr2          3588.812
       187   02 Jun 2027 19:36:11.271   02 Jun 2027 19:37:50.386            99.115                Anadyr1          3097.344
       188   02 Jun 2027 19:38:01.971   02 Jun 2027 19:38:27.786            25.815               Magadan1           806.719
       189   02 Jun 2027 19:38:37.771   02 Jun 2027 19:39:26.075            48.304               Magadan2          1509.500
       190   02 Jun 2027 19:40:03.537   02 Jun 2027 19:40:19.411            15.874                Norilsk           496.062
       191   02 Jun 2027 19:41:55.335   02 Jun 2027 19:45:05.243           189.908                Irkutsk          5934.625
       192   02 Jun 2027 19:45:41.098   02 Jun 2027 19:46:34.393            53.295                Irkutsk          1665.469
       193   02 Jun 2027 19:47:03.923   02 Jun 2027 19:48:29.636            85.713                Irkutsk          2678.531
       194   02 Jun 2027 19:57:53.949   02 Jun 2027 19:59:14.563            80.614                Sumatra          2519.188
       195   02 Jun 2027 21:13:26.929   02 Jun 2027 21:14:03.311            36.382                Norilsk          1136.938
       196   02 Jun 2027 21:16:08.041   02 Jun 2027 21:17:46.209            98.168                Irkutsk          3067.750
       197   02 Jun 2027 21:18:34.507   02 Jun 2027 21:20:57.354           142.847                Novosib          4463.969
       198   02 Jun 2027 21:29:51.272   02 Jun 2027 21:30:14.591            23.319                Sumatra           728.719
       199   02 Jun 2027 22:44:00.064   02 Jun 2027 22:44:36.097            36.033                Anadyr1          1126.031
       200   02 Jun 2027 22:48:09.017   02 Jun 2027 22:48:23.430            14.413                Norilsk           450.406
       201   02 Jun 2027 22:48:44.631   02 Jun 2027 22:49:46.824            62.193               Magadan2          1943.531
       202   02 Jun 2027 22:51:37.929   02 Jun 2027 22:55:03.359           205.430              Murmansk2          6419.687
       203   02 Jun 2027 22:59:23.897   02 Jun 2027 23:00:41.852            77.955                  Delhi          2436.094
       204   02 Jun 2027 23:02:19.804   02 Jun 2027 23:02:27.117             7.313                  Delhi           228.531
       205   02 Jun 2027 23:03:16.715   02 Jun 2027 23:03:33.474            16.759                  Delhi           523.719
       206   02 Jun 2027 23:07:33.546   02 Jun 2027 23:08:54.998            81.452                  Delhi          2545.375
       207   03 Jun 2027 00:17:20.705   03 Jun 2027 00:17:30.246             9.541                Anadyr1           298.156
       208   03 Jun 2027 00:18:44.741   03 Jun 2027 00:18:54.806            10.065                Anadyr2           314.531
       209   03 Jun 2027 00:18:54.806   03 Jun 2027 00:19:20.802            25.996                Anadyr1           812.375
       210   03 Jun 2027 00:19:51.792   03 Jun 2027 00:20:09.281            17.489                Anadyr2           546.531
       211   03 Jun 2027 00:23:29.457   03 Jun 2027 00:25:26.630           117.173               Magadan2          3661.656
       212   03 Jun 2027 00:25:49.791   03 Jun 2027 00:26:14.582            24.791               Magadan2           774.719
       213   03 Jun 2027 00:26:22.296   03 Jun 2027 00:29:36.627           194.331              Murmansk1          6072.844
       214   03 Jun 2027 00:30:24.312   03 Jun 2027 00:31:15.824            51.512                 Moscow          1609.750
       215   03 Jun 2027 00:32:08.587   03 Jun 2027 00:32:14.345             5.758                 Moscow           179.937
       216   03 Jun 2027 00:32:19.271   03 Jun 2027 00:34:05.830           106.559                 Moscow          3329.969
       217   03 Jun 2027 00:57:30.931   03 Jun 2027 00:57:56.865            25.934               CapeTown           810.438
       218   03 Jun 2027 01:01:00.899   03 Jun 2027 01:02:02.684            61.785               CapeTown          1930.781
       219   03 Jun 2027 01:54:13.201   03 Jun 2027 01:54:18.656             5.455                Anadyr1           170.469
       220   03 Jun 2027 01:55:17.560   03 Jun 2027 01:56:38.195            80.635               Magadan2          2519.844
       221   03 Jun 2027 01:56:55.726   03 Jun 2027 01:57:42.928            47.202               Magadan1          1475.063
       222   03 Jun 2027 02:02:15.127   03 Jun 2027 02:02:32.289            17.162              Murmansk2           536.313
       223   03 Jun 2027 02:02:51.475   03 Jun 2027 02:03:41.479            50.004              Murmansk1          1562.625
       224   03 Jun 2027 02:03:59.386   03 Jun 2027 02:04:06.347             6.961              Murmansk1           217.531
       225   03 Jun 2027 02:04:34.221   03 Jun 2027 02:05:12.661            38.440                Novosib          1201.250
       226   03 Jun 2027 02:05:20.941   03 Jun 2027 02:05:37.947            17.006                Novosib           531.437
       227   03 Jun 2027 02:07:46.523   03 Jun 2027 02:08:15.937            29.414                 Moscow           919.188
       228   03 Jun 2027 02:13:34.227   03 Jun 2027 02:13:59.258            25.031                 Moscow           782.219
       229   03 Jun 2027 02:29:24.874   03 Jun 2027 02:30:11.858            46.984               CapeTown          1468.250
       230   03 Jun 2027 02:36:30.273   03 Jun 2027 02:37:39.009            68.736               CapeTown          2148.000
       231   03 Jun 2027 03:32:16.866   03 Jun 2027 03:34:37.067           140.201               Magadan1          4381.281
       232   03 Jun 2027 03:34:37.067   03 Jun 2027 03:34:49.690            12.623               Magadan2           394.469
       233   03 Jun 2027 03:34:49.690   03 Jun 2027 03:35:13.846            24.156               Magadan1           754.875
       234   03 Jun 2027 03:35:42.087   03 Jun 2027 03:36:10.294            28.207                Anadyr2           881.469
       235   03 Jun 2027 03:36:57.939   03 Jun 2027 03:37:02.347             4.408               Magadan2           137.750
       236   03 Jun 2027 03:37:04.938   03 Jun 2027 03:37:06.029             1.091                Anadyr2            34.094
       237   03 Jun 2027 03:37:17.369   03 Jun 2027 03:37:28.523            11.154                Anadyr1           348.562
       238   03 Jun 2027 05:09:02.787   03 Jun 2027 05:10:06.087            63.300               Magadan2          1978.125
       239   03 Jun 2027 05:10:29.334   03 Jun 2027 05:10:36.584             7.250               Magadan2           226.563
       240   03 Jun 2027 05:10:43.170   03 Jun 2027 05:12:35.840           112.670               Magadan2          3520.938
       241   03 Jun 2027 05:12:58.090   03 Jun 2027 05:14:50.897           112.807                Anadyr2          3525.219
       242   03 Jun 2027 06:42:11.004   03 Jun 2027 06:42:49.498            38.494               Magadan1          1202.938
       243   03 Jun 2027 06:43:05.238   03 Jun 2027 06:43:30.864            25.626               Magadan1           800.813
       244   03 Jun 2027 06:43:36.338   03 Jun 2027 06:44:14.103            37.765                Anadyr1          1180.156
       245   03 Jun 2027 06:44:19.807   03 Jun 2027 06:44:36.871            17.064               Magadan1           533.250
       246   03 Jun 2027 06:44:38.377   03 Jun 2027 06:44:52.211            13.834               Magadan1           432.313
       247   03 Jun 2027 06:44:54.446   03 Jun 2027 06:46:36.583           102.137               Magadan2          3191.781
       248   03 Jun 2027 06:46:54.642   03 Jun 2027 06:47:30.857            36.215               Magadan1          1131.719
       249   03 Jun 2027 06:47:35.026   03 Jun 2027 06:47:51.470            16.444                Anadyr1           513.875
       250   03 Jun 2027 06:48:02.656   03 Jun 2027 06:48:46.827            44.171                Anadyr2          1380.344
       251   03 Jun 2027 06:48:49.977   03 Jun 2027 06:49:14.197            24.220               Magadan1           756.875
       252   03 Jun 2027 06:49:35.080   03 Jun 2027 06:49:59.656            24.576              Murmansk1           768.000
       253   03 Jun 2027 06:50:09.709   03 Jun 2027 06:50:39.939            30.230              Murmansk1           944.687
       254   03 Jun 2027 08:19:40.753   03 Jun 2027 08:20:41.040            60.287               Magadan1          1883.969
       255   03 Jun 2027 08:22:54.504   03 Jun 2027 08:23:18.818            24.314               Magadan2           759.813
       256   03 Jun 2027 08:23:32.762   03 Jun 2027 08:24:06.745            33.983                Novosib          1061.969
       257   03 Jun 2027 08:24:44.307   03 Jun 2027 08:25:00.545            16.238                Irkutsk           507.437
       258   03 Jun 2027 08:25:14.354   03 Jun 2027 08:25:59.183            44.829                Novosib          1400.906
       259   03 Jun 2027 08:26:20.745   03 Jun 2027 08:27:15.172            54.427                Novosib          1700.844
       260   03 Jun 2027 09:01:20.948   03 Jun 2027 09:01:45.689            24.741            RioGallegos           773.156
       261   03 Jun 2027 09:02:22.342   03 Jun 2027 09:02:48.425            26.083            RioGallegos           815.094
       262   03 Jun 2027 09:38:39.243   03 Jun 2027 09:38:59.130            19.887                Sumatra           621.469
       263   03 Jun 2027 09:44:40.759   03 Jun 2027 09:44:52.797            12.038                Sumatra           376.188
       264   03 Jun 2027 09:57:02.489   03 Jun 2027 09:57:53.426            50.937                Irkutsk          1591.781
       265   03 Jun 2027 09:58:57.183   03 Jun 2027 09:59:32.287            35.104                Irkutsk          1097.000
       266   03 Jun 2027 09:59:59.349   03 Jun 2027 10:00:09.516            10.167                Irkutsk           317.719
       267   03 Jun 2027 10:00:17.006   03 Jun 2027 10:00:36.946            19.940                Novosib           623.125
       268   03 Jun 2027 10:00:40.626   03 Jun 2027 10:00:52.751            12.125                Norilsk           378.906
       269   03 Jun 2027 10:00:57.479   03 Jun 2027 10:01:42.713            45.234                Novosib          1413.563
       270   03 Jun 2027 10:01:57.152   03 Jun 2027 10:02:14.966            17.814                Norilsk           556.687
       271   03 Jun 2027 10:42:33.717   03 Jun 2027 10:42:53.155            19.438            RioGallegos           607.437
       272   03 Jun 2027 10:43:57.972   03 Jun 2027 10:44:35.180            37.208            RioGallegos          1162.750
       273   03 Jun 2027 11:20:20.126   03 Jun 2027 11:21:36.254            76.128                  Delhi          2379.000
       274   03 Jun 2027 11:25:02.994   03 Jun 2027 11:25:23.472            20.478                  Delhi           639.938
       275   03 Jun 2027 11:35:39.431   03 Jun 2027 11:36:04.208            24.777                Novosib           774.281
       276   03 Jun 2027 11:36:13.734   03 Jun 2027 11:36:37.752            24.018                Novosib           750.563
       277   03 Jun 2027 11:37:25.550   03 Jun 2027 11:37:26.630             1.080                Norilsk            33.750
       278   03 Jun 2027 11:37:29.764   03 Jun 2027 11:37:37.830             8.066                Norilsk           252.062
       279   03 Jun 2027 11:37:47.455   03 Jun 2027 11:38:22.957            35.502                Norilsk          1109.438
       280   03 Jun 2027 13:04:27.619   03 Jun 2027 13:04:53.482            25.863                 Moscow           808.219
       281   03 Jun 2027 13:06:05.802   03 Jun 2027 13:06:41.695            35.893                 Moscow          1121.656
       282   03 Jun 2027 13:07:27.154   03 Jun 2027 13:08:39.063            71.909                 Moscow          2247.156
       283   03 Jun 2027 13:08:51.471   03 Jun 2027 13:09:19.897            28.426              Murmansk1           888.313
       284   03 Jun 2027 13:09:19.897   03 Jun 2027 13:09:45.818            25.921              Murmansk2           810.031
       285   03 Jun 2027 13:11:15.677   03 Jun 2027 13:11:30.772            15.095              Murmansk2           471.719
       286   03 Jun 2027 13:11:43.420   03 Jun 2027 13:12:10.211            26.791              Murmansk2           837.219
       287   03 Jun 2027 13:12:33.974   03 Jun 2027 13:13:29.874            55.900                Norilsk          1746.875
       288   03 Jun 2027 13:13:41.244   03 Jun 2027 13:15:08.577            87.333                Norilsk          2729.156
       289   03 Jun 2027 14:19:39.855   03 Jun 2027 14:19:53.935            14.080               CapeTown           440.000
       290   03 Jun 2027 14:42:13.857   03 Jun 2027 14:42:37.048            23.191                 Moscow           724.719
       291   03 Jun 2027 14:43:49.655   03 Jun 2027 14:44:16.818            27.163                 Moscow           848.844
       292   03 Jun 2027 14:45:13.309   03 Jun 2027 14:45:32.225            18.916              Murmansk1           591.125
       293   03 Jun 2027 14:45:37.906   03 Jun 2027 14:46:48.150            70.244              Murmansk2          2195.125
       294   03 Jun 2027 14:47:13.665   03 Jun 2027 14:47:19.971             6.306              Murmansk2           197.062
       295   03 Jun 2027 14:47:38.699   03 Jun 2027 14:47:50.446            11.747              Murmansk2           367.094
       296   03 Jun 2027 14:58:54.305   03 Jun 2027 15:01:28.377           154.072                Anadyr1          4814.750
       297   03 Jun 2027 15:04:08.183   03 Jun 2027 15:04:35.473            27.290                Anadyr1           852.812
       298   03 Jun 2027 15:54:02.692   03 Jun 2027 15:55:48.813           106.121               CapeTown          3316.281
       299   03 Jun 2027 16:24:52.220   03 Jun 2027 16:27:03.493           131.273              Murmansk2          4102.281
       300   03 Jun 2027 16:27:03.493   03 Jun 2027 16:27:17.033            13.540              Murmansk1           423.125
       301   03 Jun 2027 16:29:09.077   03 Jun 2027 16:29:27.463            18.386              Murmansk1           574.563
       302   03 Jun 2027 16:30:48.096   03 Jun 2027 16:31:00.307            12.211              Murmansk2           381.594
       303   03 Jun 2027 16:34:31.338   03 Jun 2027 16:35:17.311            45.973                Anadyr2          1436.656
       304   03 Jun 2027 16:35:33.867   03 Jun 2027 16:36:27.028            53.161                Anadyr1          1661.281
       305   03 Jun 2027 16:37:42.962   03 Jun 2027 16:39:30.802           107.840               Magadan1          3370.000
       306   03 Jun 2027 16:40:04.796   03 Jun 2027 16:41:51.548           106.752               Magadan2          3336.000
       307   03 Jun 2027 18:10:26.493   03 Jun 2027 18:14:14.036           227.543                Anadyr1          7110.719
       308   03 Jun 2027 18:14:18.470   03 Jun 2027 18:14:52.502            34.032               Magadan2          1063.500
       309   03 Jun 2027 18:15:37.564   03 Jun 2027 18:17:34.559           116.995               Magadan2          3656.094
       310   03 Jun 2027 19:06:57.865   03 Jun 2027 19:09:21.625           143.760            RioGallegos          4492.500
       311   03 Jun 2027 19:11:11.063   03 Jun 2027 19:11:48.738            37.675            RioGallegos          1177.344
       312   03 Jun 2027 19:46:15.854   03 Jun 2027 19:46:31.225            15.371                Anadyr1           480.344
       313   03 Jun 2027 19:48:27.662   03 Jun 2027 19:52:18.360           230.698                Norilsk          7209.312
       314   03 Jun 2027 19:53:28.206   03 Jun 2027 19:54:37.081            68.875                Irkutsk          2152.344
       315   03 Jun 2027 19:55:01.090   03 Jun 2027 19:56:42.824           101.734                Irkutsk          3179.188
       316   03 Jun 2027 19:56:59.068   03 Jun 2027 19:57:35.661            36.593                Irkutsk          1143.531
       317   03 Jun 2027 19:58:40.083   03 Jun 2027 19:59:29.270            49.187                Irkutsk          1537.094
       318   03 Jun 2027 20:08:35.883   03 Jun 2027 20:10:45.507           129.624                Sumatra          4050.750
       319   03 Jun 2027 20:15:10.230   03 Jun 2027 20:16:44.741            94.511                Sumatra          2953.469
       320   03 Jun 2027 21:28:50.887   03 Jun 2027 21:29:46.337            55.450                Novosib          1732.812
       321   03 Jun 2027 21:30:32.723   03 Jun 2027 21:30:52.861            20.138                Novosib           629.312
       322   03 Jun 2027 21:38:16.962   03 Jun 2027 21:38:39.468            22.506                Novosib           703.313
       323   03 Jun 2027 21:39:17.755   03 Jun 2027 21:40:42.971            85.216                  Delhi          2663.000
       324   03 Jun 2027 21:42:24.568   03 Jun 2027 21:43:44.338            79.770                  Delhi          2492.813
       325   03 Jun 2027 23:00:10.946   03 Jun 2027 23:00:30.139            19.193                Norilsk           599.781
       326   03 Jun 2027 23:00:44.667   03 Jun 2027 23:00:49.351             4.684               Magadan1           146.375
       327   03 Jun 2027 23:00:55.077   03 Jun 2027 23:01:03.020             7.943                Norilsk           248.219
       328   03 Jun 2027 23:01:20.055   03 Jun 2027 23:01:47.702            27.647                Norilsk           863.969
       329   03 Jun 2027 23:01:56.518   03 Jun 2027 23:02:06.388             9.870               Magadan1           308.438
       330   03 Jun 2027 23:02:25.568   03 Jun 2027 23:02:37.133            11.565               Magadan1           361.406
       331   03 Jun 2027 23:03:14.256   03 Jun 2027 23:05:06.769           112.513              Murmansk1          3516.031
       332   03 Jun 2027 23:05:33.537   03 Jun 2027 23:05:46.718            13.181                Novosib           411.906
       333   03 Jun 2027 23:06:09.078   03 Jun 2027 23:06:28.906            19.828                Irkutsk           619.625
       334   03 Jun 2027 23:06:39.896   03 Jun 2027 23:06:43.558             3.662              Murmansk2           114.437
       335   03 Jun 2027 23:06:52.890   03 Jun 2027 23:08:09.990            77.100              Murmansk1          2409.375
       336   03 Jun 2027 23:11:20.016   03 Jun 2027 23:11:36.885            16.869                  Delhi           527.156
       337   03 Jun 2027 23:12:18.873   03 Jun 2027 23:12:57.564            38.691                  Delhi          1209.094
       338   03 Jun 2027 23:18:20.964   03 Jun 2027 23:19:36.689            75.725                  Delhi          2366.406
       339   04 Jun 2027 00:29:02.261   04 Jun 2027 00:29:37.361            35.100                Anadyr1          1096.875
       340   04 Jun 2027 00:30:55.601   04 Jun 2027 00:31:22.124            26.523                Anadyr1           828.844
       341   04 Jun 2027 00:31:37.066   04 Jun 2027 00:31:50.333            13.267                Anadyr2           414.594
       342   04 Jun 2027 00:31:50.333   04 Jun 2027 00:32:00.678            10.345                Anadyr1           323.281
       343   04 Jun 2027 00:35:05.292   04 Jun 2027 00:35:18.989            13.697                Anadyr2           428.031
       344   04 Jun 2027 00:35:23.301   04 Jun 2027 00:36:53.462            90.161               Magadan2          2817.531
       345   04 Jun 2027 00:37:02.780   04 Jun 2027 00:38:50.192           107.412               Magadan1          3356.625
       346   04 Jun 2027 00:38:56.721   04 Jun 2027 00:41:00.664           123.943              Murmansk1          3873.219
       347   04 Jun 2027 00:42:12.695   04 Jun 2027 00:42:35.534            22.839                 Moscow           713.719
       348   04 Jun 2027 00:43:22.322   04 Jun 2027 00:43:42.881            20.559                 Moscow           642.469
       349   04 Jun 2027 00:47:30.049   04 Jun 2027 00:47:49.369            19.320                 Moscow           603.750
       350   04 Jun 2027 01:08:30.377   04 Jun 2027 01:09:36.453            66.076               CapeTown          2064.875
       351   04 Jun 2027 01:11:20.514   04 Jun 2027 01:12:00.093            39.579               CapeTown          1236.844
       352   04 Jun 2027 01:12:09.625   04 Jun 2027 01:12:42.902            33.277               CapeTown          1039.906
       353   04 Jun 2027 02:02:50.128   04 Jun 2027 02:03:02.784            12.656                Anadyr2           395.500
       354   04 Jun 2027 02:03:45.794   04 Jun 2027 02:04:42.574            56.780                Anadyr1          1774.375
       355   04 Jun 2027 02:06:46.877   04 Jun 2027 02:07:45.035            58.158               Magadan1          1817.437
       356   04 Jun 2027 02:07:45.035   04 Jun 2027 02:08:06.394            21.359               Magadan2           667.469
       357   04 Jun 2027 02:11:44.150   04 Jun 2027 02:11:53.901             9.751                Norilsk           304.719
       358   04 Jun 2027 02:12:09.862   04 Jun 2027 02:12:17.020             7.158               Magadan1           223.687
       359   04 Jun 2027 02:14:16.876   04 Jun 2027 02:14:30.604            13.728              Murmansk1           429.000
       360   04 Jun 2027 02:14:47.247   04 Jun 2027 02:15:59.024            71.777              Murmansk2          2243.031
       361   04 Jun 2027 02:15:59.024   04 Jun 2027 02:16:08.198             9.174              Murmansk1           286.687
       362   04 Jun 2027 02:16:44.815   04 Jun 2027 02:17:42.999            58.184                Novosib          1818.250
       363   04 Jun 2027 02:20:38.124   04 Jun 2027 02:20:47.360             9.236                 Moscow           288.625
       364   04 Jun 2027 02:21:20.433   04 Jun 2027 02:21:23.430             2.997                Novosib            93.656
       365   04 Jun 2027 02:22:17.001   04 Jun 2027 02:22:27.106            10.105                 Moscow           315.781
       366   04 Jun 2027 02:25:35.560   04 Jun 2027 02:26:18.535            42.975                 Moscow          1342.969
       367   04 Jun 2027 02:41:23.042   04 Jun 2027 02:42:29.847            66.805               CapeTown          2087.656
       368   04 Jun 2027 02:51:50.651   04 Jun 2027 02:53:21.701            91.050               CapeTown          2845.312
       369   04 Jun 2027 03:44:10.587   04 Jun 2027 03:45:21.436            70.849                Anadyr2          2214.031
       370   04 Jun 2027 03:45:26.235   04 Jun 2027 03:46:59.410            93.175                Anadyr2          2911.719
       371   04 Jun 2027 03:49:24.345   04 Jun 2027 03:49:48.667            24.322               Magadan1           760.063
       372   04 Jun 2027 05:24:50.659   04 Jun 2027 05:26:33.575           102.916                Anadyr1          3216.125
       373   04 Jun 2027 05:26:38.137   04 Jun 2027 05:26:40.644             2.507               Magadan1            78.344
       374   04 Jun 2027 06:56:01.275   04 Jun 2027 06:56:02.235             0.960               Magadan2            30.000
       375   04 Jun 2027 06:56:14.948   04 Jun 2027 06:56:30.876            15.928               Magadan1           497.750
       376   04 Jun 2027 06:56:30.876   04 Jun 2027 06:56:54.205            23.329               Magadan2           729.031
       377   04 Jun 2027 06:56:57.779   04 Jun 2027 06:58:35.611            97.832               Magadan2          3057.250
       378   04 Jun 2027 06:58:57.499   04 Jun 2027 06:59:11.997            14.498               Magadan2           453.063
       379   04 Jun 2027 06:59:16.078   04 Jun 2027 06:59:33.436            17.358               Magadan2           542.437
       380   04 Jun 2027 06:59:57.839   04 Jun 2027 07:00:03.288             5.449                Anadyr2           170.281
       381   04 Jun 2027 07:00:23.006   04 Jun 2027 07:00:41.750            18.744                Novosib           585.750
       382   04 Jun 2027 07:00:42.204   04 Jun 2027 07:01:19.119            36.915                Anadyr1          1153.594
       383   04 Jun 2027 07:01:25.532   04 Jun 2027 07:02:03.226            37.694               Magadan2          1177.938
       384   04 Jun 2027 07:02:03.226   04 Jun 2027 07:02:18.989            15.763               Magadan1           492.594
       385   04 Jun 2027 07:41:02.635   04 Jun 2027 07:41:47.286            44.651            RioGallegos          1395.344
       386   04 Jun 2027 08:22:03.033   04 Jun 2027 08:22:08.908             5.875                Sumatra           183.594
       387   04 Jun 2027 08:34:39.077   04 Jun 2027 08:34:43.487             4.410                Irkutsk           137.812
       388   04 Jun 2027 08:36:07.801   04 Jun 2027 08:36:11.227             3.426                Irkutsk           107.063
       389   04 Jun 2027 08:36:41.453   04 Jun 2027 08:36:55.019            13.566                Irkutsk           423.938
       390   04 Jun 2027 08:37:09.654   04 Jun 2027 08:37:13.645             3.991                Novosib           124.719
       391   04 Jun 2027 08:37:21.011   04 Jun 2027 08:38:15.302            54.291              Murmansk2          1696.594
       392   04 Jun 2027 09:13:37.720   04 Jun 2027 09:13:58.475            20.755            RioGallegos           648.594
       393   04 Jun 2027 09:20:27.244   04 Jun 2027 09:20:39.797            12.553            RioGallegos           392.281
       394   04 Jun 2027 09:48:01.455   04 Jun 2027 09:49:00.770            59.315                Sumatra          1853.594
       395   04 Jun 2027 10:02:13.894   04 Jun 2027 10:03:17.025            63.131                  Delhi          1972.844
       396   04 Jun 2027 10:08:28.447   04 Jun 2027 10:08:36.610             8.163                  Delhi           255.094
       397   04 Jun 2027 10:10:11.836   04 Jun 2027 10:11:17.942            66.106                Novosib          2065.813
       398   04 Jun 2027 10:11:55.783   04 Jun 2027 10:11:56.808             1.025                Novosib            32.031
       399   04 Jun 2027 10:12:02.395   04 Jun 2027 10:12:09.877             7.482                Norilsk           233.812
       400   04 Jun 2027 10:12:34.725   04 Jun 2027 10:12:59.365            24.640                Novosib           770.000
       401   04 Jun 2027 10:13:01.231   04 Jun 2027 10:13:43.605            42.374                Irkutsk          1324.188
       402   04 Jun 2027 10:13:47.228   04 Jun 2027 10:13:47.599             0.371                Novosib            11.594
       403   04 Jun 2027 10:13:57.465   04 Jun 2027 10:14:11.990            14.525                Norilsk           453.906
       404   04 Jun 2027 11:32:38.749   04 Jun 2027 11:34:43.003           124.254                  Delhi          3882.938
       405   04 Jun 2027 11:34:54.310   04 Jun 2027 11:35:19.383            25.073                  Delhi           783.531
       406   04 Jun 2027 11:47:35.222   04 Jun 2027 11:48:08.074            32.852                Novosib          1026.625
       407   04 Jun 2027 11:48:15.677   04 Jun 2027 11:49:09.145            53.468                Norilsk          1670.875
       408   04 Jun 2027 11:49:48.691   04 Jun 2027 11:49:57.609             8.918                Novosib           278.688
       409   04 Jun 2027 13:16:30.953   04 Jun 2027 13:17:43.475            72.522                 Moscow          2266.312
       410   04 Jun 2027 13:19:06.174   04 Jun 2027 13:19:34.046            27.872                 Moscow           871.000
       411   04 Jun 2027 13:19:47.375   04 Jun 2027 13:20:36.642            49.267                 Moscow          1539.594
       412   04 Jun 2027 13:22:06.540   04 Jun 2027 13:22:25.306            18.766              Murmansk1           586.437
       413   04 Jun 2027 13:25:24.524   04 Jun 2027 13:29:15.153           230.629                Norilsk          7207.156
       414   04 Jun 2027 14:30:29.724   04 Jun 2027 14:31:01.474            31.750               CapeTown           992.188
       415   04 Jun 2027 14:32:53.268   04 Jun 2027 14:34:03.248            69.980               CapeTown          2186.875
       416   04 Jun 2027 14:41:13.428   04 Jun 2027 14:41:17.937             4.509               CapeTown           140.906
       417   04 Jun 2027 14:54:48.430   04 Jun 2027 14:55:03.035            14.605                 Moscow           456.406
       418   04 Jun 2027 14:55:18.356   04 Jun 2027 14:55:52.281            33.925                 Moscow          1060.156
       419   04 Jun 2027 14:57:33.711   04 Jun 2027 14:58:14.116            40.405              Murmansk1          1262.656
       420   04 Jun 2027 14:59:21.670   04 Jun 2027 14:59:37.465            15.795              Murmansk2           493.594
       421   04 Jun 2027 14:59:50.176   04 Jun 2027 15:01:05.503            75.327              Murmansk1          2353.969
       422   04 Jun 2027 15:07:46.185   04 Jun 2027 15:08:06.839            20.654              Murmansk2           645.437
       423   04 Jun 2027 15:10:50.765   04 Jun 2027 15:13:14.092           143.327                Anadyr2          4478.969
       424   04 Jun 2027 15:16:53.703   04 Jun 2027 15:18:10.488            76.785                Anadyr2          2399.531
       425   04 Jun 2027 16:16:36.716   04 Jun 2027 16:16:43.796             7.080               CapeTown           221.250
       426   04 Jun 2027 16:17:21.709   04 Jun 2027 16:17:52.597            30.888               CapeTown           965.250
       427   04 Jun 2027 16:37:36.342   04 Jun 2027 16:39:54.734           138.392              Murmansk2          4324.750
       428   04 Jun 2027 16:46:32.288   04 Jun 2027 16:49:39.982           187.694                Anadyr2          5865.437
       429   04 Jun 2027 16:50:15.367   04 Jun 2027 16:52:12.475           117.108               Magadan1          3659.625
       430   04 Jun 2027 18:22:27.788   04 Jun 2027 18:24:18.518           110.730                Anadyr1          3460.313
       431   04 Jun 2027 18:24:45.880   04 Jun 2027 18:28:34.840           228.960               Magadan2          7155.000
       432   04 Jun 2027 18:37:16.498   04 Jun 2027 18:37:30.834            14.336               Magadan2           448.000
       433   04 Jun 2027 19:18:10.435   04 Jun 2027 19:21:04.766           174.331            RioGallegos          5447.844
       434   04 Jun 2027 19:24:37.899   04 Jun 2027 19:25:06.639            28.740            RioGallegos           898.125
       435   04 Jun 2027 19:58:14.914   04 Jun 2027 19:58:32.918            18.004                Anadyr1           562.625
       436   04 Jun 2027 20:00:24.821   04 Jun 2027 20:04:18.053           233.232                Norilsk          7288.500
       437   04 Jun 2027 20:05:08.970   04 Jun 2027 20:06:00.519            51.549                Irkutsk          1610.906
       438   04 Jun 2027 20:06:50.217   04 Jun 2027 20:08:20.777            90.560                Irkutsk          2830.000
       439   04 Jun 2027 20:10:46.649   04 Jun 2027 20:11:06.823            20.174                Irkutsk           630.438
       440   04 Jun 2027 20:20:47.778   04 Jun 2027 20:22:24.840            97.062                Sumatra          3033.187
       441   04 Jun 2027 20:22:27.461   04 Jun 2027 20:23:34.593            67.132                Sumatra          2097.875
       442   04 Jun 2027 20:24:43.123   04 Jun 2027 20:26:02.421            79.298                Sumatra          2478.063
       443   04 Jun 2027 21:40:05.943   04 Jun 2027 21:41:27.363            81.420                Irkutsk          2544.375
       444   04 Jun 2027 21:41:52.982   04 Jun 2027 21:44:00.030           127.048                Novosib          3970.250
       445   04 Jun 2027 21:49:57.652   04 Jun 2027 21:51:00.061            62.409                  Delhi          1950.281
       446   04 Jun 2027 21:54:33.414   04 Jun 2027 21:55:38.777            65.363                  Delhi          2042.594
       447   04 Jun 2027 23:11:47.324   04 Jun 2027 23:12:44.234            56.910                Anadyr1          1778.437
       448   04 Jun 2027 23:12:46.285   04 Jun 2027 23:13:30.811            44.526               Magadan1          1391.438
       449   04 Jun 2027 23:13:39.378   04 Jun 2027 23:14:00.881            21.503                Norilsk           671.969
       450   04 Jun 2027 23:15:00.671   04 Jun 2027 23:17:06.894           126.223              Murmansk2          3944.469
       451   04 Jun 2027 23:18:06.913   04 Jun 2027 23:18:46.991            40.078              Murmansk1          1252.438
       452   04 Jun 2027 23:19:09.936   04 Jun 2027 23:20:33.714            83.778              Murmansk2          2618.062
       453   04 Jun 2027 23:27:30.275   04 Jun 2027 23:28:09.278            39.003                  Delhi          1218.844
       454   05 Jun 2027 00:10:28.393   05 Jun 2027 00:10:39.023            10.630            RioGallegos           332.187
       455   05 Jun 2027 00:40:44.338   05 Jun 2027 00:41:09.126            24.788                Anadyr1           774.625
       456   05 Jun 2027 00:41:27.718   05 Jun 2027 00:41:49.631            21.913                Anadyr1           684.781
       457   05 Jun 2027 00:42:38.287   05 Jun 2027 00:43:55.422            77.135                Anadyr2          2410.469
       458   05 Jun 2027 00:46:39.328   05 Jun 2027 00:49:07.095           147.767               Magadan1          4617.719
       459   05 Jun 2027 00:50:22.560   05 Jun 2027 00:52:03.380           100.820              Murmansk1          3150.625
       460   05 Jun 2027 00:52:08.053   05 Jun 2027 00:52:52.416            44.363                Novosib          1386.344
       461   05 Jun 2027 00:54:03.952   05 Jun 2027 00:55:06.745            62.793                 Moscow          1962.281
       462   05 Jun 2027 00:59:49.089   05 Jun 2027 01:00:04.789            15.700                 Moscow           490.625
       463   05 Jun 2027 01:04:13.634   05 Jun 2027 01:04:24.198            10.564                 Moscow           330.125
       464   05 Jun 2027 01:05:06.167   05 Jun 2027 01:05:06.433             0.266                 Moscow             8.313
       465   05 Jun 2027 01:19:43.950   05 Jun 2027 01:21:07.816            83.866               CapeTown          2620.812
       466   05 Jun 2027 01:24:16.381   05 Jun 2027 01:25:01.675            45.294               CapeTown          1415.437
       467   05 Jun 2027 02:14:40.974   05 Jun 2027 02:15:44.493            63.519                Anadyr2          1984.969
       468   05 Jun 2027 02:16:53.784   05 Jun 2027 02:16:55.736             1.952                Anadyr2            61.000
       469   05 Jun 2027 02:18:17.206   05 Jun 2027 02:19:34.022            76.816               Magadan2          2400.500
       470   05 Jun 2027 02:21:00.515   05 Jun 2027 02:21:14.784            14.269               Magadan1           445.906
       471   05 Jun 2027 02:23:41.197   05 Jun 2027 02:23:49.987             8.790                Norilsk           274.687
       472   05 Jun 2027 02:25:26.694   05 Jun 2027 02:25:44.386            17.692                Norilsk           552.875
       473   05 Jun 2027 02:26:18.640   05 Jun 2027 02:28:07.913           109.273              Murmansk1          3414.781
       474   05 Jun 2027 02:28:57.566   05 Jun 2027 02:29:12.182            14.616                Novosib           456.750
       475   05 Jun 2027 02:29:39.322   05 Jun 2027 02:29:43.032             3.710                 Moscow           115.937
       476   05 Jun 2027 02:30:37.248   05 Jun 2027 02:30:39.497             2.249                 Moscow            70.281
       477   05 Jun 2027 02:32:03.449   05 Jun 2027 02:32:25.086            21.637                 Moscow           676.156
       478   05 Jun 2027 02:35:42.027   05 Jun 2027 02:36:39.197            57.170                 Moscow          1786.563
       479   05 Jun 2027 02:56:36.544   05 Jun 2027 02:57:57.129            80.585               CapeTown          2518.281
       480   05 Jun 2027 03:56:43.783   05 Jun 2027 04:02:40.856           357.073               Magadan2         11158.531
       481   05 Jun 2027 05:35:23.437   05 Jun 2027 05:38:41.817           198.380               Magadan2          6199.375
       482   05 Jun 2027 07:07:53.317   05 Jun 2027 07:08:00.455             7.138               Magadan2           223.063
