uniorb/output/strategy_4/Drop/Drop_KinoSat_111209.txt

KinoSat_111209
-------------------------
    Access    *     Start Time (UTCG)     *     Stop Time (UTCG)  *   Duration (s)        *       Station  *  Data (Mbytes)
         1   01 Jun 2027 04:18:32.801   01 Jun 2027 04:20:10.865            98.064                Anadyr2          3064.500
         2   01 Jun 2027 05:52:48.142   01 Jun 2027 05:53:51.061            62.919               Magadan1          1966.219
         3   01 Jun 2027 05:53:58.125   01 Jun 2027 05:54:34.444            36.319               Magadan2          1134.969
         4   01 Jun 2027 05:54:55.793   01 Jun 2027 05:55:15.658            19.865                Anadyr1           620.781
         5   01 Jun 2027 05:55:46.350   01 Jun 2027 05:57:44.242           117.892               Magadan1          3684.125
         6   01 Jun 2027 05:57:48.379   01 Jun 2027 05:59:49.449           121.070                Anadyr1          3783.437
         7   01 Jun 2027 07:28:29.929   01 Jun 2027 07:33:59.792           329.863                Anadyr2         10308.219
         8   01 Jun 2027 07:34:26.488   01 Jun 2027 07:35:27.512            61.024                Novosib          1907.000
         9   01 Jun 2027 09:06:39.508   01 Jun 2027 09:09:49.242           189.734               Magadan1          5929.187
        10   01 Jun 2027 09:09:52.551   01 Jun 2027 09:10:32.004            39.453                Irkutsk          1232.906
        11   01 Jun 2027 09:10:39.583   01 Jun 2027 09:10:56.335            16.752                Novosib           523.500
        12   01 Jun 2027 09:11:59.776   01 Jun 2027 09:12:52.301            52.525              Murmansk2          1641.406
        13   01 Jun 2027 09:12:52.301   01 Jun 2027 09:13:23.665            31.364              Murmansk1           980.125
        14   01 Jun 2027 09:14:47.749   01 Jun 2027 09:14:58.984            11.235              Murmansk1           351.094
        15   01 Jun 2027 09:46:09.695   01 Jun 2027 09:47:58.154           108.459            RioGallegos          3389.344
        16   01 Jun 2027 10:20:48.715   01 Jun 2027 10:22:58.730           130.015                Sumatra          4062.969
        17   01 Jun 2027 10:40:55.444   01 Jun 2027 10:41:03.746             8.302                  Delhi           259.437
        18   01 Jun 2027 10:42:55.643   01 Jun 2027 10:43:01.793             6.150                Norilsk           192.187
        19   01 Jun 2027 10:43:03.845   01 Jun 2027 10:43:25.464            21.619              Murmansk1           675.594
        20   01 Jun 2027 10:43:33.436   01 Jun 2027 10:46:03.869           150.433                Norilsk          4701.031
        21   01 Jun 2027 10:46:05.147   01 Jun 2027 10:46:11.156             6.009                Irkutsk           187.781
        22   01 Jun 2027 10:46:20.608   01 Jun 2027 10:47:17.666            57.058              Murmansk1          1783.062
        23   01 Jun 2027 10:47:29.398   01 Jun 2027 10:47:40.118            10.720              Murmansk1           335.000
        24   01 Jun 2027 10:48:28.544   01 Jun 2027 10:48:36.882             8.338              Murmansk2           260.563
        25   01 Jun 2027 12:05:09.048   01 Jun 2027 12:05:44.275            35.227                  Delhi          1100.844
        26   01 Jun 2027 12:06:37.341   01 Jun 2027 12:07:16.147            38.806                  Delhi          1212.687
        27   01 Jun 2027 12:08:06.783   01 Jun 2027 12:09:10.936            64.153                  Delhi          2004.781
        28   01 Jun 2027 12:12:59.861   01 Jun 2027 12:14:01.877            62.016                Novosib          1938.000
        29   01 Jun 2027 12:14:37.646   01 Jun 2027 12:14:49.032            11.386                Novosib           355.812
        30   01 Jun 2027 12:15:26.732   01 Jun 2027 12:17:07.462           100.730                Novosib          3147.813
        31   01 Jun 2027 12:17:25.250   01 Jun 2027 12:18:06.007            40.757              Murmansk2          1273.656
        32   01 Jun 2027 12:18:19.015   01 Jun 2027 12:19:54.947            95.932              Murmansk1          2997.875
        33   01 Jun 2027 13:49:24.824   01 Jun 2027 13:52:39.395           194.571                 Moscow          6080.344
        34   01 Jun 2027 13:52:51.859   01 Jun 2027 13:55:49.283           177.424              Murmansk2          5544.500
        35   01 Jun 2027 13:55:49.283   01 Jun 2027 13:56:12.409            23.126              Murmansk1           722.687
        36   01 Jun 2027 13:57:48.834   01 Jun 2027 13:58:42.544            53.710                Norilsk          1678.438
        37   01 Jun 2027 13:59:14.420   01 Jun 2027 14:00:00.852            46.432                Norilsk          1451.000
        38   01 Jun 2027 15:03:57.016   01 Jun 2027 15:05:04.667            67.651               CapeTown          2114.094
        39   01 Jun 2027 15:05:24.174   01 Jun 2027 15:07:05.104           100.930               CapeTown          3154.063
        40   01 Jun 2027 15:29:58.458   01 Jun 2027 15:30:26.888            28.430              Murmansk2           888.438
        41   01 Jun 2027 15:30:35.823   01 Jun 2027 15:32:10.818            94.995              Murmansk2          2968.594
        42   01 Jun 2027 15:43:54.702   01 Jun 2027 15:45:42.550           107.848                Anadyr2          3370.250
        43   01 Jun 2027 16:41:33.345   01 Jun 2027 16:41:53.930            20.585               CapeTown           643.281
        44   01 Jun 2027 16:43:57.627   01 Jun 2027 16:43:58.127             0.500               CapeTown            15.625
        45   01 Jun 2027 16:44:36.507   01 Jun 2027 16:44:39.023             2.516               CapeTown            78.625
        46   01 Jun 2027 16:47:03.639   01 Jun 2027 16:47:33.992            30.353               CapeTown           948.531
        47   01 Jun 2027 17:09:22.296   01 Jun 2027 17:13:49.030           266.734              Murmansk2          8335.438
        48   01 Jun 2027 17:19:28.477   01 Jun 2027 17:20:30.895            62.418                Anadyr1          1950.562
        49   01 Jun 2027 17:22:50.508   01 Jun 2027 17:24:00.534            70.026               Magadan2          2188.313
        50   01 Jun 2027 17:26:22.988   01 Jun 2027 17:26:50.692            27.704               Magadan1           865.750
        51   01 Jun 2027 18:55:23.451   01 Jun 2027 18:59:13.711           230.260                Anadyr1          7195.625
        52   01 Jun 2027 19:00:01.252   01 Jun 2027 19:01:11.433            70.181                Anadyr2          2193.156
        53   01 Jun 2027 19:01:56.928   01 Jun 2027 19:03:40.161           103.233               Magadan1          3226.031
        54   01 Jun 2027 19:06:22.789   01 Jun 2027 19:06:46.369            23.580               Magadan1           736.875
        55   01 Jun 2027 19:09:16.241   01 Jun 2027 19:09:34.120            17.879               Magadan2           558.719
        56   01 Jun 2027 19:52:56.717   01 Jun 2027 19:54:30.267            93.550            RioGallegos          2923.437
        57   01 Jun 2027 20:31:14.310   01 Jun 2027 20:32:24.619            70.309                Anadyr1          2197.156
        58   01 Jun 2027 20:32:40.042   01 Jun 2027 20:32:56.089            16.047                Anadyr1           501.469
        59   01 Jun 2027 20:33:24.595   01 Jun 2027 20:33:37.906            13.311                Anadyr2           415.969
        60   01 Jun 2027 20:33:42.457   01 Jun 2027 20:34:09.692            27.235               Magadan1           851.094
        61   01 Jun 2027 20:34:22.687   01 Jun 2027 20:34:58.841            36.154                Anadyr2          1129.813
        62   01 Jun 2027 20:35:02.172   01 Jun 2027 20:35:17.414            15.242               Magadan2           476.313
        63   01 Jun 2027 20:35:21.086   01 Jun 2027 20:36:29.490            68.404                Norilsk          2137.625
        64   01 Jun 2027 20:36:34.295   01 Jun 2027 20:37:08.010            33.715                Norilsk          1053.594
        65   01 Jun 2027 20:38:42.341   01 Jun 2027 20:39:22.133            39.792                Irkutsk          1243.500
        66   01 Jun 2027 20:41:10.715   01 Jun 2027 20:41:41.879            31.164                Irkutsk           973.875
        67   01 Jun 2027 20:41:53.227   01 Jun 2027 20:42:03.061             9.834                Irkutsk           307.312
        68   01 Jun 2027 20:42:10.530   01 Jun 2027 20:42:16.980             6.450                Irkutsk           201.563
        69   01 Jun 2027 20:43:19.167   01 Jun 2027 20:44:34.868            75.701                Irkutsk          2365.656
        70   01 Jun 2027 20:45:04.645   01 Jun 2027 20:45:09.446             4.801                Irkutsk           150.031
        71   01 Jun 2027 20:54:21.227   01 Jun 2027 20:55:59.722            98.495                Sumatra          3077.969
        72   01 Jun 2027 20:57:22.650   01 Jun 2027 20:58:54.897            92.247                Sumatra          2882.719
        73   01 Jun 2027 22:09:07.559   01 Jun 2027 22:10:02.329            54.770                Norilsk          1711.563
        74   01 Jun 2027 22:10:19.140   01 Jun 2027 22:10:27.802             8.662               Magadan1           270.688
        75   01 Jun 2027 22:10:32.653   01 Jun 2027 22:10:49.797            17.144                Norilsk           535.750
        76   01 Jun 2027 22:11:12.640   01 Jun 2027 22:11:20.297             7.657               Magadan2           239.281
        77   01 Jun 2027 22:13:05.084   01 Jun 2027 22:14:25.768            80.684                Irkutsk          2521.375
        78   01 Jun 2027 22:17:53.924   01 Jun 2027 22:18:14.863            20.939                Novosib           654.344
        79   01 Jun 2027 22:18:54.037   01 Jun 2027 22:20:19.537            85.500                Novosib          2671.875
        80   01 Jun 2027 22:33:19.385   01 Jun 2027 22:33:58.350            38.965                Sumatra          1217.656
        81   01 Jun 2027 23:12:39.123   01 Jun 2027 23:12:52.862            13.739            RioGallegos           429.344
        82   01 Jun 2027 23:40:53.244   01 Jun 2027 23:42:51.727           118.483                Anadyr2          3702.594
        83   01 Jun 2027 23:43:04.334   01 Jun 2027 23:43:10.950             6.616                Anadyr1           206.750
        84   01 Jun 2027 23:43:45.822   01 Jun 2027 23:43:55.382             9.560                Anadyr2           298.750
        85   01 Jun 2027 23:45:07.377   01 Jun 2027 23:45:45.933            38.556                Norilsk          1204.875
        86   01 Jun 2027 23:45:49.422   01 Jun 2027 23:46:55.006            65.584               Magadan2          2049.500
        87   01 Jun 2027 23:47:04.901   01 Jun 2027 23:47:16.986            12.085               Magadan1           377.656
        88   01 Jun 2027 23:48:24.422   01 Jun 2027 23:51:37.806           193.384              Murmansk1          6043.250
        89   01 Jun 2027 23:51:51.063   01 Jun 2027 23:52:26.738            35.675              Murmansk2          1114.844
        90   02 Jun 2027 00:04:18.814   02 Jun 2027 00:04:48.792            29.978                  Delhi           936.813
        91   02 Jun 2027 00:05:04.291   02 Jun 2027 00:05:52.030            47.739                  Delhi          1491.844
        92   02 Jun 2027 00:45:09.840   02 Jun 2027 00:45:58.458            48.618            RioGallegos          1519.312
        93   02 Jun 2027 01:14:12.739   02 Jun 2027 01:14:37.677            24.938                Anadyr1           779.313
        94   02 Jun 2027 01:15:21.861   02 Jun 2027 01:15:33.168            11.307                Anadyr2           353.344
        95   02 Jun 2027 01:16:12.216   02 Jun 2027 01:16:18.844             6.628                Anadyr2           207.125
        96   02 Jun 2027 01:16:18.844   02 Jun 2027 01:16:43.513            24.669                Anadyr1           770.906
        97   02 Jun 2027 01:17:00.508   02 Jun 2027 01:17:15.400            14.892                Anadyr1           465.375
        98   02 Jun 2027 01:20:02.186   02 Jun 2027 01:20:04.315             2.129                Anadyr2            66.531
        99   02 Jun 2027 01:20:21.646   02 Jun 2027 01:22:38.975           137.329               Magadan1          4291.531
       100   02 Jun 2027 01:23:19.588   02 Jun 2027 01:24:08.324            48.736              Murmansk1          1523.000
       101   02 Jun 2027 01:24:58.514   02 Jun 2027 01:26:26.887            88.373                Novosib          2761.656
       102   02 Jun 2027 01:31:23.314   02 Jun 2027 01:31:30.376             7.062                 Moscow           220.687
       103   02 Jun 2027 01:32:17.208   02 Jun 2027 01:32:53.194            35.986                 Moscow          1124.562
       104   02 Jun 2027 01:39:19.248   02 Jun 2027 01:39:27.658             8.410                  Delhi           262.813
       105   02 Jun 2027 01:40:05.515   02 Jun 2027 01:42:22.142           136.627                  Delhi          4269.594
       106   02 Jun 2027 02:47:55.049   02 Jun 2027 02:48:57.955            62.906                Anadyr1          1965.812
       107   02 Jun 2027 02:48:57.955   02 Jun 2027 02:50:14.456            76.501                Anadyr2          2390.656
       108   02 Jun 2027 02:54:35.048   02 Jun 2027 02:54:41.531             6.483               Magadan2           202.594
       109   02 Jun 2027 02:55:52.087   02 Jun 2027 02:56:03.268            11.181               Magadan2           349.406
       110   02 Jun 2027 02:56:17.848   02 Jun 2027 02:56:21.540             3.692               Magadan2           115.375
       111   02 Jun 2027 02:56:43.871   02 Jun 2027 02:56:56.666            12.795                Norilsk           399.844
       112   02 Jun 2027 02:58:26.068   02 Jun 2027 02:58:57.600            31.532                Norilsk           985.375
       113   02 Jun 2027 02:59:13.372   02 Jun 2027 02:59:41.762            28.390              Murmansk2           887.187
       114   02 Jun 2027 03:05:55.703   02 Jun 2027 03:06:16.342            20.639                Norilsk           644.969
       115   02 Jun 2027 03:06:17.375   02 Jun 2027 03:06:49.360            31.985                 Moscow           999.531
       116   02 Jun 2027 03:07:06.069   02 Jun 2027 03:07:18.081            12.012              Murmansk1           375.375
       117   02 Jun 2027 03:07:29.567   02 Jun 2027 03:08:47.694            78.127                Novosib          2441.469
       118   02 Jun 2027 03:09:35.242   02 Jun 2027 03:13:14.552           219.310                 Moscow          6853.437
       119   02 Jun 2027 03:26:21.562   02 Jun 2027 03:29:20.534           178.972               CapeTown          5592.875
       120   02 Jun 2027 04:23:03.983   02 Jun 2027 04:24:32.864            88.881                Anadyr1          2777.531
       121   02 Jun 2027 04:24:32.864   02 Jun 2027 04:25:16.509            43.645                Anadyr2          1363.906
       122   02 Jun 2027 04:29:40.609   02 Jun 2027 04:34:09.894           269.285               Magadan2          8415.156
       123   02 Jun 2027 06:08:30.230   02 Jun 2027 06:09:38.516            68.286                Anadyr2          2133.937
       124   02 Jun 2027 07:41:19.019   02 Jun 2027 07:41:40.195            21.176                Irkutsk           661.750
       125   02 Jun 2027 07:42:06.419   02 Jun 2027 07:44:04.222           117.803               Magadan1          3681.344
       126   02 Jun 2027 07:44:20.905   02 Jun 2027 07:44:56.366            35.461               Magadan1          1108.156
       127   02 Jun 2027 07:44:56.366   02 Jun 2027 07:45:46.366            50.000               Magadan2          1562.500
       128   02 Jun 2027 07:45:47.711   02 Jun 2027 07:45:58.040            10.329                Anadyr2           322.781
       129   02 Jun 2027 07:46:15.486   02 Jun 2027 07:46:36.319            20.833                Anadyr1           651.031
       130   02 Jun 2027 08:22:25.166   02 Jun 2027 08:24:23.730           118.564            RioGallegos          3705.125
       131   02 Jun 2027 09:18:19.977   02 Jun 2027 09:18:28.742             8.765                Irkutsk           273.906
       132   02 Jun 2027 09:18:36.183   02 Jun 2027 09:20:21.986           105.803               Magadan2          3306.344
       133   02 Jun 2027 09:20:21.986   02 Jun 2027 09:20:49.102            27.116               Magadan1           847.375
       134   02 Jun 2027 09:21:06.528   02 Jun 2027 09:21:10.769             4.241               Magadan2           132.531
       135   02 Jun 2027 09:21:23.943   02 Jun 2027 09:21:38.928            14.985                Irkutsk           468.281
       136   02 Jun 2027 09:22:03.044   02 Jun 2027 09:22:17.491            14.447                Novosib           451.469
       137   02 Jun 2027 09:22:33.515   02 Jun 2027 09:22:43.176             9.661                Irkutsk           301.906
       138   02 Jun 2027 09:22:48.523   02 Jun 2027 09:22:58.616            10.093                Irkutsk           315.406
       139   02 Jun 2027 09:22:59.590   02 Jun 2027 09:23:06.142             6.552                Novosib           204.750
       140   02 Jun 2027 09:23:12.680   02 Jun 2027 09:23:19.701             7.021                Irkutsk           219.406
       141   02 Jun 2027 09:58:23.790   02 Jun 2027 09:58:35.587            11.797            RioGallegos           368.656
       142   02 Jun 2027 09:59:20.635   02 Jun 2027 09:59:58.143            37.508            RioGallegos          1172.125
       143   02 Jun 2027 10:01:04.446   02 Jun 2027 10:01:19.955            15.509            RioGallegos           484.656
       144   02 Jun 2027 10:01:35.018   02 Jun 2027 10:02:28.354            53.336            RioGallegos          1666.750
       145   02 Jun 2027 10:37:15.901   02 Jun 2027 10:37:17.939             2.038                Sumatra            63.688
       146   02 Jun 2027 10:42:21.340   02 Jun 2027 10:43:23.034            61.694                  Delhi          1927.938
       147   02 Jun 2027 10:53:08.182   02 Jun 2027 10:53:23.838            15.656                  Delhi           489.250
       148   02 Jun 2027 10:54:16.332   02 Jun 2027 10:55:17.644            61.312                Irkutsk          1916.000
       149   02 Jun 2027 10:55:38.153   02 Jun 2027 10:55:40.877             2.724                Irkutsk            85.125
       150   02 Jun 2027 10:55:46.897   02 Jun 2027 10:56:07.286            20.389                Norilsk           637.156
       151   02 Jun 2027 10:56:13.917   02 Jun 2027 10:56:34.609            20.692                Novosib           646.625
       152   02 Jun 2027 10:56:39.924   02 Jun 2027 10:56:50.956            11.032                Norilsk           344.750
       153   02 Jun 2027 10:56:56.215   02 Jun 2027 10:56:58.054             1.839                Irkutsk            57.469
       154   02 Jun 2027 10:57:00.180   02 Jun 2027 10:57:25.890            25.710                Novosib           803.437
       155   02 Jun 2027 10:57:29.996   02 Jun 2027 10:57:39.792             9.796                Novosib           306.125
       156   02 Jun 2027 10:57:56.754   02 Jun 2027 10:58:31.048            34.294                Norilsk          1071.688
       157   02 Jun 2027 10:58:46.423   02 Jun 2027 10:59:09.369            22.946                Norilsk           717.062
       158   02 Jun 2027 11:40:12.847   02 Jun 2027 11:41:08.982            56.135            RioGallegos          1754.219
       159   02 Jun 2027 12:17:23.369   02 Jun 2027 12:18:06.554            43.185                  Delhi          1349.531
       160   02 Jun 2027 12:19:59.524   02 Jun 2027 12:20:10.518            10.994                  Delhi           343.562
       161   02 Jun 2027 12:22:15.833   02 Jun 2027 12:22:17.428             1.595                  Delhi            49.844
       162   02 Jun 2027 12:25:15.766   02 Jun 2027 12:25:59.821            44.055                  Delhi          1376.719
       163   02 Jun 2027 12:26:13.304   02 Jun 2027 12:27:30.062            76.758                Novosib          2398.687
       164   02 Jun 2027 12:29:25.466   02 Jun 2027 12:29:33.141             7.675                Norilsk           239.844
       165   02 Jun 2027 12:30:05.045   02 Jun 2027 12:30:36.184            31.139                Novosib           973.094
       166   02 Jun 2027 12:30:38.574   02 Jun 2027 12:31:21.325            42.751                Norilsk          1335.969
       167   02 Jun 2027 12:41:04.578   02 Jun 2027 12:41:06.410             1.832              Murmansk1            57.250
       168   02 Jun 2027 14:01:26.243   02 Jun 2027 14:04:42.885           196.642                 Moscow          6145.063
       169   02 Jun 2027 14:04:56.074   02 Jun 2027 14:07:42.130           166.056              Murmansk2          5189.250
       170   02 Jun 2027 14:07:42.130   02 Jun 2027 14:08:12.422            30.292              Murmansk1           946.625
       171   02 Jun 2027 14:09:46.879   02 Jun 2027 14:10:44.246            57.367                Norilsk          1792.719
       172   02 Jun 2027 15:15:37.409   02 Jun 2027 15:17:40.951           123.542               CapeTown          3860.687
       173   02 Jun 2027 15:18:56.961   02 Jun 2027 15:20:06.788            69.827               CapeTown          2182.094
       174   02 Jun 2027 15:42:17.461   02 Jun 2027 15:42:28.888            11.427              Murmansk1           357.094
       175   02 Jun 2027 15:43:18.890   02 Jun 2027 15:43:30.398            11.508              Murmansk2           359.625
       176   02 Jun 2027 15:43:48.211   02 Jun 2027 15:44:25.555            37.344                 Moscow          1167.000
       177   02 Jun 2027 15:44:32.573   02 Jun 2027 15:46:08.803            96.230              Murmansk1          3007.188
       178   02 Jun 2027 15:55:50.404   02 Jun 2027 15:57:43.027           112.623                Anadyr1          3519.469
       179   02 Jun 2027 16:51:03.655   02 Jun 2027 16:51:43.470            39.815               CapeTown          1244.219
       180   02 Jun 2027 16:59:48.827   02 Jun 2027 16:59:58.891            10.064               CapeTown           314.500
       181   02 Jun 2027 17:00:30.235   02 Jun 2027 17:00:46.771            16.536               CapeTown           516.750
       182   02 Jun 2027 17:22:03.469   02 Jun 2027 17:24:46.533           163.064              Murmansk2          5095.750
       183   02 Jun 2027 17:25:47.503   02 Jun 2027 17:26:18.568            31.065              Murmansk2           970.781
       184   02 Jun 2027 17:31:29.371   02 Jun 2027 17:32:22.511            53.140                Anadyr2          1660.625
       185   02 Jun 2027 17:33:29.312   02 Jun 2027 17:33:37.650             8.338                Anadyr2           260.562
       186   02 Jun 2027 17:34:35.850   02 Jun 2027 17:35:59.029            83.179               Magadan2          2599.344
       187   02 Jun 2027 17:37:04.101   02 Jun 2027 17:37:45.273            41.172               Magadan1          1286.625
       188   02 Jun 2027 17:37:53.638   02 Jun 2027 17:38:01.132             7.494               Magadan2           234.188
       189   02 Jun 2027 17:39:50.141   02 Jun 2027 17:40:01.344            11.203               Magadan2           350.094
       190   02 Jun 2027 19:07:24.894   02 Jun 2027 19:11:02.477           217.583                Anadyr1          6799.469
       191   02 Jun 2027 19:11:02.477   02 Jun 2027 19:11:19.159            16.682                Anadyr2           521.313
       192   02 Jun 2027 19:11:27.183   02 Jun 2027 19:11:33.870             6.687                Anadyr2           208.969
       193   02 Jun 2027 19:11:36.173   02 Jun 2027 19:13:35.218           119.045               Magadan1          3720.156
       194   02 Jun 2027 19:15:08.157   02 Jun 2027 19:15:52.478            44.321               Magadan2          1385.031
       195   02 Jun 2027 20:03:35.855   02 Jun 2027 20:06:08.184           152.329            RioGallegos          4760.281
       196   02 Jun 2027 20:09:07.021   02 Jun 2027 20:09:16.629             9.608            RioGallegos           300.250
       197   02 Jun 2027 20:43:13.778   02 Jun 2027 20:45:39.513           145.735                Anadyr2          4554.219
       198   02 Jun 2027 20:45:48.819   02 Jun 2027 20:46:30.533            41.714               Magadan1          1303.563
       199   02 Jun 2027 20:46:57.486   02 Jun 2027 20:47:22.309            24.823                Norilsk           775.719
       200   02 Jun 2027 20:47:46.408   02 Jun 2027 20:47:57.652            11.244                Norilsk           351.375
       201   02 Jun 2027 20:48:28.549   02 Jun 2027 20:49:07.177            38.628                Norilsk          1207.125
       202   02 Jun 2027 20:50:18.459   02 Jun 2027 20:51:19.656            61.197                Irkutsk          1912.406
       203   02 Jun 2027 20:52:59.255   02 Jun 2027 20:53:45.042            45.787                Irkutsk          1430.844
       204   02 Jun 2027 20:54:29.284   02 Jun 2027 20:55:19.639            50.355                Irkutsk          1573.594
       205   02 Jun 2027 21:05:14.706   02 Jun 2027 21:07:31.839           137.133                Sumatra          4285.406
       206   02 Jun 2027 21:11:41.740   02 Jun 2027 21:13:13.827            92.087                Sumatra          2877.719
       207   02 Jun 2027 22:22:08.080   02 Jun 2027 22:22:39.331            31.251                Norilsk           976.594
       208   02 Jun 2027 22:25:03.964   02 Jun 2027 22:26:21.794            77.830                Irkutsk          2432.187
       209   02 Jun 2027 22:26:45.813   02 Jun 2027 22:28:59.783           133.970                Novosib          4186.562
       210   02 Jun 2027 22:35:41.884   02 Jun 2027 22:35:50.538             8.654                  Delhi           270.438
       211   02 Jun 2027 22:36:10.066   02 Jun 2027 22:37:27.556            77.490                  Delhi          2421.562
       212   02 Jun 2027 23:53:06.202   02 Jun 2027 23:54:50.926           104.724                Anadyr1          3272.625
       213   02 Jun 2027 23:57:09.376   02 Jun 2027 23:58:39.216            89.840                Norilsk          2807.500
       214   03 Jun 2027 00:00:05.658   03 Jun 2027 00:01:34.531            88.873              Murmansk2          2777.281
       215   03 Jun 2027 00:01:56.741   03 Jun 2027 00:02:25.671            28.930              Murmansk1           904.062
       216   03 Jun 2027 00:02:32.613   03 Jun 2027 00:03:37.054            64.441              Murmansk1          2013.781
       217   03 Jun 2027 00:11:28.641   03 Jun 2027 00:11:39.088            10.447                  Delhi           326.469
       218   03 Jun 2027 00:12:33.070   03 Jun 2027 00:12:46.280            13.210                  Delhi           412.812
       219   03 Jun 2027 00:15:09.242   03 Jun 2027 00:16:34.261            85.019                  Delhi          2656.844
       220   03 Jun 2027 00:57:10.307   03 Jun 2027 00:57:14.723             4.416            RioGallegos           138.000
       221   03 Jun 2027 01:25:54.459   03 Jun 2027 01:26:22.522            28.063                Anadyr2           876.969
       222   03 Jun 2027 01:26:29.583   03 Jun 2027 01:26:48.572            18.989                Anadyr1           593.406
       223   03 Jun 2027 01:27:23.160   03 Jun 2027 01:28:20.603            57.443                Anadyr2          1795.094
       224   03 Jun 2027 01:28:20.603   03 Jun 2027 01:28:26.146             5.543                Anadyr1           173.219
       225   03 Jun 2027 01:28:38.546   03 Jun 2027 01:28:55.165            16.619                Anadyr1           519.344
       226   03 Jun 2027 01:31:56.972   03 Jun 2027 01:32:43.413            46.441               Magadan1          1451.281
       227   03 Jun 2027 01:32:43.413   03 Jun 2027 01:33:45.465            62.052               Magadan2          1939.125
       228   03 Jun 2027 01:34:06.599   03 Jun 2027 01:35:10.490            63.891               Magadan2          1996.594
       229   03 Jun 2027 01:35:19.759   03 Jun 2027 01:37:00.803           101.044              Murmansk2          3157.625
       230   03 Jun 2027 01:39:07.016   03 Jun 2027 01:39:23.930            16.914                 Moscow           528.562
       231   03 Jun 2027 01:43:38.329   03 Jun 2027 01:43:48.980            10.651                 Moscow           332.844
       232   03 Jun 2027 01:44:41.648   03 Jun 2027 01:45:09.255            27.607                 Moscow           862.719
       233   03 Jun 2027 01:48:54.410   03 Jun 2027 01:50:59.693           125.283                  Delhi          3915.094
       234   03 Jun 2027 02:59:44.939   03 Jun 2027 03:02:12.206           147.267                Anadyr2          4602.094
       235   03 Jun 2027 03:20:25.982   03 Jun 2027 03:20:31.966             5.984              Murmansk1           187.000
       236   03 Jun 2027 03:21:02.040   03 Jun 2027 03:22:07.732            65.692                 Moscow          2052.875
       237   03 Jun 2027 03:22:17.914   03 Jun 2027 03:25:55.785           217.871                 Moscow          6808.469
       238   03 Jun 2027 03:39:11.106   03 Jun 2027 03:40:59.847           108.741               CapeTown          3398.156
       239   03 Jun 2027 04:35:07.658   03 Jun 2027 04:37:12.838           125.180                Anadyr1          3911.875
       240   03 Jun 2027 04:37:39.733   03 Jun 2027 04:38:42.398            62.665               Magadan1          1958.281
       241   03 Jun 2027 04:38:42.398   03 Jun 2027 04:39:19.073            36.675               Magadan2          1146.094
       242   03 Jun 2027 04:41:03.555   03 Jun 2027 04:41:34.160            30.605               Magadan1           956.406
       243   03 Jun 2027 04:41:53.896   03 Jun 2027 04:44:20.710           146.814               Magadan1          4587.938
       244   03 Jun 2027 06:19:01.221   03 Jun 2027 06:19:18.444            17.223               Magadan2           538.219
       245   03 Jun 2027 06:19:38.027   03 Jun 2027 06:20:32.043            54.016                Anadyr2          1688.000
       246   03 Jun 2027 06:20:59.713   03 Jun 2027 06:21:31.469            31.756                Anadyr2           992.375
       247   03 Jun 2027 06:21:42.302   03 Jun 2027 06:21:52.587            10.285               Magadan2           321.406
       248   03 Jun 2027 06:22:15.241   03 Jun 2027 06:22:20.925             5.684                Anadyr1           177.625
       249   03 Jun 2027 07:52:48.255   03 Jun 2027 07:52:54.417             6.162                Irkutsk           192.563
       250   03 Jun 2027 07:53:11.830   03 Jun 2027 07:53:14.339             2.509               Magadan1            78.406
       251   03 Jun 2027 07:53:19.771   03 Jun 2027 07:54:08.343            48.572               Magadan2          1517.875
       252   03 Jun 2027 07:54:19.352   03 Jun 2027 07:54:58.384            39.032                Anadyr1          1219.750
       253   03 Jun 2027 07:55:03.032   03 Jun 2027 07:55:39.721            36.689               Magadan2          1146.531
       254   03 Jun 2027 07:56:02.640   03 Jun 2027 07:56:07.115             4.475               Magadan1           139.844
       255   03 Jun 2027 07:56:27.386   03 Jun 2027 07:57:36.590            69.204                Anadyr1          2162.625
       256   03 Jun 2027 07:57:46.559   03 Jun 2027 07:58:17.722            31.163                Irkutsk           973.844
       257   03 Jun 2027 07:58:35.735   03 Jun 2027 07:58:42.454             6.719               Magadan1           209.969
       258   03 Jun 2027 07:59:16.021   03 Jun 2027 07:59:16.760             0.739               Magadan2            23.094
       259   03 Jun 2027 08:01:22.816   03 Jun 2027 08:01:59.458            36.642              Murmansk1          1145.062
       260   03 Jun 2027 08:34:15.436   03 Jun 2027 08:34:58.425            42.989            RioGallegos          1343.406
       261   03 Jun 2027 08:37:21.368   03 Jun 2027 08:37:33.606            12.238            RioGallegos           382.438
       262   03 Jun 2027 09:10:50.152   03 Jun 2027 09:11:54.875            64.723                Sumatra          2022.594
       263   03 Jun 2027 09:19:49.215   03 Jun 2027 09:19:53.133             3.918                Sumatra           122.437
       264   03 Jun 2027 09:31:51.591   03 Jun 2027 09:31:58.183             6.592                Novosib           206.000
       265   03 Jun 2027 09:32:35.011   03 Jun 2027 09:32:57.420            22.409              Murmansk2           700.281
       266   03 Jun 2027 09:33:23.548   03 Jun 2027 09:33:29.764             6.216                Novosib           194.250
       267   03 Jun 2027 09:33:59.369   03 Jun 2027 09:34:30.745            31.376                Irkutsk           980.500
       268   03 Jun 2027 09:34:33.267   03 Jun 2027 09:35:02.356            29.089                Novosib           909.031
       269   03 Jun 2027 09:35:10.090   03 Jun 2027 09:35:21.449            11.359                Irkutsk           354.969
       270   03 Jun 2027 10:10:42.043   03 Jun 2027 10:11:32.563            50.520            RioGallegos          1578.750
       271   03 Jun 2027 10:13:26.657   03 Jun 2027 10:14:19.143            52.486            RioGallegos          1640.188
       272   03 Jun 2027 10:45:03.501   03 Jun 2027 10:45:28.839            25.338                Sumatra           791.813
       273   03 Jun 2027 10:53:55.775   03 Jun 2027 10:54:29.638            33.863                  Delhi          1058.219
       274   03 Jun 2027 11:06:21.702   03 Jun 2027 11:07:01.655            39.953                Irkutsk          1248.531
       275   03 Jun 2027 11:07:28.714   03 Jun 2027 11:07:39.226            10.512                Norilsk           328.500
       276   03 Jun 2027 11:08:27.665   03 Jun 2027 11:09:08.584            40.919                Irkutsk          1278.719
       277   03 Jun 2027 11:09:27.070   03 Jun 2027 11:09:34.385             7.315                Novosib           228.594
       278   03 Jun 2027 11:09:59.306   03 Jun 2027 11:10:46.116            46.810                Novosib          1462.812
       279   03 Jun 2027 11:11:02.063   03 Jun 2027 11:11:11.498             9.435                Novosib           294.844
       280   03 Jun 2027 12:29:44.406   03 Jun 2027 12:31:41.080           116.674                  Delhi          3646.063
       281   03 Jun 2027 12:33:57.436   03 Jun 2027 12:34:18.982            21.546                  Delhi           673.312
       282   03 Jun 2027 12:37:58.699   03 Jun 2027 12:38:28.195            29.496                Novosib           921.750
       283   03 Jun 2027 12:38:54.983   03 Jun 2027 12:39:32.873            37.890                Novosib          1184.063
       284   03 Jun 2027 12:40:01.477   03 Jun 2027 12:41:20.896            79.419                Novosib          2481.844
       285   03 Jun 2027 12:41:50.706   03 Jun 2027 12:42:31.736            41.030                Norilsk          1282.188
       286   03 Jun 2027 12:51:07.736   03 Jun 2027 12:51:46.899            39.163                Norilsk          1223.844
       287   03 Jun 2027 14:13:30.617   03 Jun 2027 14:16:45.496           194.879                 Moscow          6089.969
       288   03 Jun 2027 14:17:01.929   03 Jun 2027 14:19:01.155           119.226              Murmansk1          3725.812
       289   03 Jun 2027 14:19:31.349   03 Jun 2027 14:20:15.958            44.609              Murmansk1          1394.031
       290   03 Jun 2027 14:23:44.275   03 Jun 2027 14:24:09.169            24.894                Norilsk           777.937
       291   03 Jun 2027 14:24:46.903   03 Jun 2027 14:26:28.147           101.244                Norilsk          3163.875
       292   03 Jun 2027 14:35:51.952   03 Jun 2027 14:36:03.878            11.926                Anadyr2           372.688
       293   03 Jun 2027 15:27:23.243   03 Jun 2027 15:28:03.067            39.824               CapeTown          1244.500
       294   03 Jun 2027 15:28:20.736   03 Jun 2027 15:28:38.830            18.094               CapeTown           565.438
       295   03 Jun 2027 15:52:13.218   03 Jun 2027 15:53:05.271            52.053                 Moscow          1626.656
       296   03 Jun 2027 15:54:38.668   03 Jun 2027 15:54:39.411             0.743              Murmansk1            23.219
       297   03 Jun 2027 15:54:53.384   03 Jun 2027 15:56:13.403            80.019              Murmansk2          2500.594
       298   03 Jun 2027 16:07:47.373   03 Jun 2027 16:09:43.772           116.399                Anadyr1          3637.469
       299   03 Jun 2027 16:10:15.935   03 Jun 2027 16:11:25.919            69.984                Anadyr2          2187.000
       300   03 Jun 2027 17:03:14.920   03 Jun 2027 17:04:13.199            58.279               CapeTown          1821.219
       301   03 Jun 2027 17:34:49.210   03 Jun 2027 17:37:44.882           175.672              Murmansk1          5489.750
       302   03 Jun 2027 17:38:44.486   03 Jun 2027 17:40:01.733            77.247              Murmansk1          2413.969
       303   03 Jun 2027 17:43:30.478   03 Jun 2027 17:44:07.181            36.703                Anadyr2          1146.969
       304   03 Jun 2027 17:46:25.100   03 Jun 2027 17:46:35.218            10.118               Magadan1           316.187
       305   03 Jun 2027 17:48:12.738   03 Jun 2027 17:49:53.944           101.206               Magadan1          3162.688
       306   03 Jun 2027 17:51:18.083   03 Jun 2027 17:51:42.256            24.173               Magadan2           755.406
       307   03 Jun 2027 19:19:26.242   03 Jun 2027 19:21:28.950           122.708                Anadyr1          3834.625
       308   03 Jun 2027 19:21:43.723   03 Jun 2027 19:25:39.226           235.503               Magadan2          7359.469
       309   03 Jun 2027 19:29:30.223   03 Jun 2027 19:29:44.288            14.065               Magadan1           439.531
       310   03 Jun 2027 20:14:56.476   03 Jun 2027 20:17:52.052           175.576            RioGallegos          5486.750
       311   03 Jun 2027 20:21:09.236   03 Jun 2027 20:22:03.695            54.459            RioGallegos          1701.844
       312   03 Jun 2027 20:55:18.028   03 Jun 2027 20:55:45.682            27.654                Anadyr1           864.188
       313   03 Jun 2027 20:57:21.434   03 Jun 2027 20:59:52.779           151.345                Norilsk          4729.531
       314   03 Jun 2027 21:00:33.357   03 Jun 2027 21:01:07.057            33.700                Norilsk          1053.125
       315   03 Jun 2027 21:02:01.248   03 Jun 2027 21:03:18.358            77.110                Irkutsk          2409.687
       316   03 Jun 2027 21:05:01.526   03 Jun 2027 21:05:22.256            20.730                Irkutsk           647.813
       317   03 Jun 2027 21:10:38.307   03 Jun 2027 21:11:25.207            46.900                Irkutsk          1465.625
       318   03 Jun 2027 21:16:29.453   03 Jun 2027 21:18:29.587           120.134                Sumatra          3754.187
       319   03 Jun 2027 21:20:39.364   03 Jun 2027 21:21:34.795            55.431                Sumatra          1732.219
       320   03 Jun 2027 22:32:54.398   03 Jun 2027 22:32:55.538             1.140                Anadyr1            35.625
       321   03 Jun 2027 22:33:10.960   03 Jun 2027 22:33:14.409             3.449                Norilsk           107.781
       322   03 Jun 2027 22:33:47.778   03 Jun 2027 22:34:20.445            32.667               Magadan1          1020.844
       323   03 Jun 2027 22:34:28.424   03 Jun 2027 22:35:13.127            44.703                Norilsk          1396.969
       324   03 Jun 2027 22:36:30.493   03 Jun 2027 22:37:07.641            37.148               Magadan1          1160.875
       325   03 Jun 2027 22:37:34.502   03 Jun 2027 22:38:21.820            47.318                Novosib          1478.687
       326   03 Jun 2027 22:38:40.015   03 Jun 2027 22:39:08.610            28.595                Irkutsk           893.594
       327   03 Jun 2027 22:40:52.808   03 Jun 2027 22:41:06.609            13.801                Novosib           431.281
       328   03 Jun 2027 22:43:29.050   03 Jun 2027 22:44:27.506            58.456                Novosib          1826.750
       329   03 Jun 2027 22:46:37.251   03 Jun 2027 22:49:03.681           146.430                  Delhi          4575.937
       330   04 Jun 2027 00:08:35.347   04 Jun 2027 00:09:20.147            44.800                Anadyr2          1400.000
       331   04 Jun 2027 00:09:42.062   04 Jun 2027 00:11:22.269           100.207               Magadan2          3131.469
       332   04 Jun 2027 00:11:37.743   04 Jun 2027 00:12:18.241            40.498               Magadan1          1265.563
       333   04 Jun 2027 00:12:57.887   04 Jun 2027 00:14:05.822            67.935                Novosib          2122.969
       334   04 Jun 2027 00:14:08.590   04 Jun 2027 00:16:31.875           143.285              Murmansk1          4477.656
       335   04 Jun 2027 00:24:21.143   04 Jun 2027 00:24:59.507            38.364                  Delhi          1198.875
       336   04 Jun 2027 00:31:42.128   04 Jun 2027 00:32:10.290            28.162                  Delhi           880.063
       337   04 Jun 2027 01:04:06.663   04 Jun 2027 01:04:27.664            21.001            RioGallegos           656.281
       338   04 Jun 2027 01:07:36.332   04 Jun 2027 01:07:42.370             6.038            RioGallegos           188.687
       339   04 Jun 2027 01:07:52.106   04 Jun 2027 01:08:23.736            31.630            RioGallegos           988.438
       340   04 Jun 2027 01:37:36.749   04 Jun 2027 01:38:01.593            24.844                Anadyr2           776.375
       341   04 Jun 2027 01:38:30.501   04 Jun 2027 01:38:46.627            16.126                Anadyr1           503.938
       342   04 Jun 2027 01:39:24.500   04 Jun 2027 01:40:21.289            56.789                Anadyr1          1774.656
       343   04 Jun 2027 01:40:25.969   04 Jun 2027 01:40:43.862            17.893                Anadyr1           559.156
       344   04 Jun 2027 01:43:29.146   04 Jun 2027 01:44:31.623            62.477               Magadan1          1952.406
       345   04 Jun 2027 01:44:58.416   04 Jun 2027 01:45:33.904            35.488               Magadan1          1109.000
       346   04 Jun 2027 01:45:45.761   04 Jun 2027 01:47:07.112            81.351               Magadan2          2542.219
       347   04 Jun 2027 01:47:20.373   04 Jun 2027 01:48:11.343            50.970              Murmansk1          1592.812
       348   04 Jun 2027 01:48:19.808   04 Jun 2027 01:48:37.336            17.528              Murmansk2           547.750
       349   04 Jun 2027 01:50:59.175   04 Jun 2027 01:51:23.262            24.087                 Moscow           752.719
       350   04 Jun 2027 01:54:32.100   04 Jun 2027 01:54:43.286            11.186                Irkutsk           349.563
       351   04 Jun 2027 01:56:21.689   04 Jun 2027 01:56:51.911            30.222                Novosib           944.438
       352   04 Jun 2027 01:59:43.576   04 Jun 2027 01:59:58.862            15.286                  Delhi           477.687
       353   04 Jun 2027 02:16:28.880   04 Jun 2027 02:16:35.558             6.678               CapeTown           208.688
       354   04 Jun 2027 02:17:43.935   04 Jun 2027 02:19:04.226            80.291               CapeTown          2509.094
       355   04 Jun 2027 03:11:36.314   04 Jun 2027 03:12:10.748            34.434                Anadyr1          1076.063
       356   04 Jun 2027 03:12:40.722   04 Jun 2027 03:12:55.798            15.076                Anadyr1           471.125
       357   04 Jun 2027 03:20:05.372   04 Jun 2027 03:20:23.011            17.639               Magadan1           551.219
       358   04 Jun 2027 03:21:52.278   04 Jun 2027 03:21:58.565             6.287               Magadan1           196.469
       359   04 Jun 2027 03:23:32.054   04 Jun 2027 03:23:40.028             7.974                Anadyr2           249.187
       360   04 Jun 2027 03:32:19.589   04 Jun 2027 03:32:31.206            11.617              Murmansk2           363.031
       361   04 Jun 2027 03:33:27.802   04 Jun 2027 03:37:38.478           250.676                 Moscow          7833.625
       362   04 Jun 2027 03:50:26.348   04 Jun 2027 03:52:44.753           138.405               CapeTown          4325.156
       363   04 Jun 2027 04:47:13.368   04 Jun 2027 04:48:33.790            80.422                Anadyr2          2513.188
       364   04 Jun 2027 04:48:33.790   04 Jun 2027 04:50:27.289           113.499                Anadyr1          3546.844
       365   04 Jun 2027 04:52:52.299   04 Jun 2027 04:54:08.762            76.463                Anadyr2          2389.469
       366   04 Jun 2027 04:54:16.714   04 Jun 2027 04:55:53.971            97.257                Anadyr2          3039.281
       367   04 Jun 2027 04:56:39.912   04 Jun 2027 04:57:31.725            51.813                Anadyr2          1619.156
       368   04 Jun 2027 04:58:33.463   04 Jun 2027 04:59:01.195            27.732               Magadan1           866.625
       369   04 Jun 2027 06:30:32.541   04 Jun 2027 06:32:05.290            92.749                Anadyr2          2898.406
       370   04 Jun 2027 06:32:15.824   04 Jun 2027 06:33:21.725            65.901                Anadyr1          2059.406
       371   04 Jun 2027 06:33:42.687   04 Jun 2027 06:33:45.002             2.315               Magadan1            72.344
       372   04 Jun 2027 06:33:55.391   04 Jun 2027 06:34:12.869            17.478               Magadan1           546.188
       373   04 Jun 2027 06:35:04.430   04 Jun 2027 06:35:38.992            34.562                Anadyr1          1080.063
       374   04 Jun 2027 08:05:32.797   04 Jun 2027 08:05:34.120             1.323               Magadan1            41.344
       375   04 Jun 2027 08:06:09.953   04 Jun 2027 08:06:46.489            36.536               Magadan2          1141.750
       376   04 Jun 2027 08:07:04.637   04 Jun 2027 08:08:02.740            58.103                Irkutsk          1815.719
       377   04 Jun 2027 08:08:09.835   04 Jun 2027 08:08:25.114            15.279               Magadan1           477.469
       378   04 Jun 2027 08:08:40.789   04 Jun 2027 08:09:53.035            72.246               Magadan2          2257.688
       379   04 Jun 2027 08:10:17.330   04 Jun 2027 08:11:08.679            51.349                Irkutsk          1604.656
       380   04 Jun 2027 08:13:23.694   04 Jun 2027 08:13:50.049            26.355              Murmansk2           823.594
       381   04 Jun 2027 08:46:08.890   04 Jun 2027 08:47:08.791            59.901            RioGallegos          1871.906
       382   04 Jun 2027 08:48:49.991   04 Jun 2027 08:48:55.589             5.598            RioGallegos           174.937
       383   04 Jun 2027 09:22:11.881   04 Jun 2027 09:23:17.101            65.220                Sumatra          2038.125
       384   04 Jun 2027 09:43:06.979   04 Jun 2027 09:43:34.829            27.850                Irkutsk           870.312
       385   04 Jun 2027 09:43:49.810   04 Jun 2027 09:44:43.446            53.636                Novosib          1676.125
       386   04 Jun 2027 09:44:52.411   04 Jun 2027 09:45:28.841            36.430                Novosib          1138.438
       387   04 Jun 2027 09:46:18.367   04 Jun 2027 09:46:37.052            18.685                Novosib           583.906
       388   04 Jun 2027 09:46:40.556   04 Jun 2027 09:47:11.915            31.359                Irkutsk           979.969
       389   04 Jun 2027 10:23:24.493   04 Jun 2027 10:23:34.751            10.258            RioGallegos           320.563
       390   04 Jun 2027 10:23:58.360   04 Jun 2027 10:24:08.316             9.956            RioGallegos           311.125
       391   04 Jun 2027 10:25:32.394   04 Jun 2027 10:26:09.456            37.062            RioGallegos          1158.187
       392   04 Jun 2027 10:57:20.427   04 Jun 2027 10:58:58.202            97.775                Sumatra          3055.469
       393   04 Jun 2027 11:19:48.857   04 Jun 2027 11:20:02.672            13.815                Irkutsk           431.719
       394   04 Jun 2027 11:20:11.159   04 Jun 2027 11:20:28.128            16.969                Novosib           530.281
       395   04 Jun 2027 11:20:55.158   04 Jun 2027 11:20:59.473             4.315                Novosib           134.844
       396   04 Jun 2027 11:21:04.097   04 Jun 2027 11:21:41.843            37.746                Novosib          1179.563
       397   04 Jun 2027 11:22:14.142   04 Jun 2027 11:22:20.580             6.438                Novosib           201.188
       398   04 Jun 2027 11:22:35.009   04 Jun 2027 11:22:49.214            14.205                Norilsk           443.906
       399   04 Jun 2027 12:42:13.400   04 Jun 2027 12:45:39.345           205.945                  Delhi          6435.781
       400   04 Jun 2027 12:50:36.745   04 Jun 2027 12:52:07.060            90.315                Novosib          2822.344
       401   04 Jun 2027 12:54:18.289   04 Jun 2027 12:54:50.753            32.464                Norilsk          1014.500
       402   04 Jun 2027 14:25:38.061   04 Jun 2027 14:27:34.687           116.626                 Moscow          3644.563
       403   04 Jun 2027 14:29:09.480   04 Jun 2027 14:30:58.623           109.143              Murmansk1          3410.719
       404   04 Jun 2027 14:32:17.806   04 Jun 2027 14:32:59.413            41.607              Murmansk1          1300.219
       405   04 Jun 2027 14:35:42.301   04 Jun 2027 14:36:49.077            66.776                Norilsk          2086.750
       406   04 Jun 2027 14:38:27.947   04 Jun 2027 14:39:13.776            45.829                Norilsk          1432.156
       407   04 Jun 2027 14:45:18.920   04 Jun 2027 14:46:03.406            44.486                Anadyr1          1390.188
       408   04 Jun 2027 14:46:47.045   04 Jun 2027 14:46:55.974             8.929                Anadyr1           279.031
       409   04 Jun 2027 14:47:52.188   04 Jun 2027 14:48:07.259            15.071                Anadyr1           470.969
       410   04 Jun 2027 15:39:13.376   04 Jun 2027 15:40:53.546           100.170               CapeTown          3130.313
       411   04 Jun 2027 16:04:42.841   04 Jun 2027 16:05:07.082            24.241                 Moscow           757.531
       412   04 Jun 2027 16:07:02.168   04 Jun 2027 16:08:14.293            72.125              Murmansk1          2253.906
       413   04 Jun 2027 16:08:36.451   04 Jun 2027 16:09:15.519            39.068              Murmansk1          1220.875
       414   04 Jun 2027 16:19:45.323   04 Jun 2027 16:22:05.827           140.504                Anadyr1          4390.750
       415   04 Jun 2027 17:15:29.905   04 Jun 2027 17:16:59.151            89.246               CapeTown          2788.937
       416   04 Jun 2027 17:20:50.173   04 Jun 2027 17:20:58.320             8.147               CapeTown           254.594
       417   04 Jun 2027 17:47:40.989   04 Jun 2027 17:50:22.693           161.704              Murmansk2          5053.250
       418   04 Jun 2027 17:50:22.693   04 Jun 2027 17:52:01.736            99.043              Murmansk1          3095.094
       419   04 Jun 2027 17:55:31.758   04 Jun 2027 17:55:48.910            17.152                Anadyr2           536.000
       420   04 Jun 2027 17:55:48.910   04 Jun 2027 17:56:12.309            23.399                Anadyr1           731.219
       421   04 Jun 2027 17:56:58.069   04 Jun 2027 17:56:59.654             1.585                Anadyr2            49.531
       422   04 Jun 2027 17:58:17.081   04 Jun 2027 18:01:51.869           214.788               Magadan2          6712.125
       423   04 Jun 2027 19:31:27.455   04 Jun 2027 19:33:30.588           123.133                Anadyr1          3847.906
       424   04 Jun 2027 19:33:35.709   04 Jun 2027 19:34:47.199            71.490                Anadyr2          2234.062
       425   04 Jun 2027 19:34:51.791   04 Jun 2027 19:35:05.293            13.502                Anadyr2           421.938
       426   04 Jun 2027 19:35:06.562   04 Jun 2027 19:36:58.262           111.700               Magadan2          3490.625
       427   04 Jun 2027 19:37:55.735   04 Jun 2027 19:38:05.434             9.699               Magadan2           303.094
       428   04 Jun 2027 20:26:30.529   04 Jun 2027 20:29:40.006           189.477            RioGallegos          5921.156
       429   04 Jun 2027 20:32:55.724   04 Jun 2027 20:33:07.905            12.181            RioGallegos           380.656
       430   04 Jun 2027 21:07:11.175   04 Jun 2027 21:07:47.416            36.241                Anadyr2          1132.531
       431   04 Jun 2027 21:09:20.262   04 Jun 2027 21:11:40.334           140.072                Norilsk          4377.250
       432   04 Jun 2027 21:12:01.165   04 Jun 2027 21:12:05.930             4.765               Magadan1           148.906
       433   04 Jun 2027 21:12:15.236   04 Jun 2027 21:12:59.949            44.713               Magadan1          1397.281
       434   04 Jun 2027 21:13:48.464   04 Jun 2027 21:15:18.094            89.630                Irkutsk          2800.938
       435   04 Jun 2027 21:16:52.346   04 Jun 2027 21:17:16.040            23.694                Irkutsk           740.437
       436   04 Jun 2027 21:27:56.938   04 Jun 2027 21:30:59.243           182.305                Sumatra          5697.031
       437   04 Jun 2027 22:44:38.935   04 Jun 2027 22:44:50.973            12.038                Anadyr2           376.187
       438   04 Jun 2027 22:45:12.875   04 Jun 2027 22:45:44.578            31.703                Norilsk           990.719
       439   04 Jun 2027 22:45:50.450   04 Jun 2027 22:47:08.865            78.415               Magadan2          2450.469
       440   04 Jun 2027 22:48:37.002   04 Jun 2027 22:48:38.533             1.531                Norilsk            47.844
       441   04 Jun 2027 22:48:40.263   04 Jun 2027 22:49:01.534            21.271               Magadan2           664.719
       442   04 Jun 2027 22:49:04.728   04 Jun 2027 22:49:10.945             6.217                Irkutsk           194.281
       443   04 Jun 2027 22:49:27.118   04 Jun 2027 22:50:02.147            35.029                Novosib          1094.656
       444   04 Jun 2027 22:50:04.635   04 Jun 2027 22:50:43.457            38.822                Irkutsk          1213.188
       445   04 Jun 2027 22:52:43.146   04 Jun 2027 22:54:18.699            95.553                Novosib          2986.031
       446   04 Jun 2027 22:57:56.186   04 Jun 2027 22:58:32.135            35.949                  Delhi          1123.406
       447   04 Jun 2027 22:59:02.755   04 Jun 2027 23:00:45.833           103.078                  Delhi          3221.188
       448   05 Jun 2027 00:16:01.649   05 Jun 2027 00:16:07.447             5.798                Anadyr2           181.187
       449   05 Jun 2027 00:16:51.638   05 Jun 2027 00:17:31.599            39.961                Anadyr1          1248.781
       450   05 Jun 2027 00:18:46.619   05 Jun 2027 00:19:01.977            15.358                Anadyr2           479.938
       451   05 Jun 2027 00:20:44.408   05 Jun 2027 00:20:59.534            15.126                Anadyr2           472.687
       452   05 Jun 2027 00:21:13.108   05 Jun 2027 00:21:30.501            17.393                Norilsk           543.531
       453   05 Jun 2027 00:21:39.081   05 Jun 2027 00:21:42.565             3.484               Magadan1           108.875
       454   05 Jun 2027 00:21:48.484   05 Jun 2027 00:23:13.831            85.347                Norilsk          2667.094
       455   05 Jun 2027 00:23:24.798   05 Jun 2027 00:23:29.277             4.479               Magadan2           139.969
       456   05 Jun 2027 00:23:42.064   05 Jun 2027 00:23:52.280            10.216               Magadan1           319.250
       457   05 Jun 2027 00:24:14.811   05 Jun 2027 00:27:36.300           201.489              Murmansk2          6296.531
       458   05 Jun 2027 00:29:19.028   05 Jun 2027 00:29:38.998            19.970              Murmansk2           624.063
       459   05 Jun 2027 00:33:53.923   05 Jun 2027 00:34:34.223            40.300                  Delhi          1259.375
       460   05 Jun 2027 00:42:21.586   05 Jun 2027 00:42:40.088            18.502                  Delhi           578.187
       461   05 Jun 2027 01:15:04.783   05 Jun 2027 01:15:36.040            31.257            RioGallegos           976.781
       462   05 Jun 2027 01:16:38.076   05 Jun 2027 01:17:27.161            49.085            RioGallegos          1533.906
       463   05 Jun 2027 01:49:19.773   05 Jun 2027 01:49:42.844            23.071                Anadyr2           720.969
       464   05 Jun 2027 01:49:50.643   05 Jun 2027 01:49:57.286             6.643                Anadyr1           207.594
       465   05 Jun 2027 01:50:31.194   05 Jun 2027 01:51:25.856            54.662                Anadyr2          1708.187
       466   05 Jun 2027 01:51:25.856   05 Jun 2027 01:52:03.067            37.211                Anadyr1          1162.844
       467   05 Jun 2027 01:54:59.109   05 Jun 2027 01:56:06.202            67.093               Magadan2          2096.656
       468   05 Jun 2027 01:57:05.084   05 Jun 2027 01:57:27.585            22.501                Norilsk           703.156
       469   05 Jun 2027 01:58:44.602   05 Jun 2027 01:58:51.922             7.320               Magadan1           228.750
       470   05 Jun 2027 01:59:21.336   05 Jun 2027 02:00:27.405            66.069              Murmansk1          2064.656
       471   05 Jun 2027 02:01:09.032   05 Jun 2027 02:01:23.872            14.840              Murmansk2           463.750
       472   05 Jun 2027 02:01:47.445   05 Jun 2027 02:03:59.057           131.612                Novosib          4112.875
       473   05 Jun 2027 02:27:54.807   05 Jun 2027 02:28:40.196            45.389               CapeTown          1418.406
       474   05 Jun 2027 02:34:44.166   05 Jun 2027 02:35:28.966            44.800               CapeTown          1400.000
       475   05 Jun 2027 03:29:58.495   05 Jun 2027 03:30:23.232            24.737                Anadyr2           773.031
       476   05 Jun 2027 03:44:12.110   05 Jun 2027 03:44:24.537            12.427              Murmansk2           388.344
       477   05 Jun 2027 03:45:34.327   05 Jun 2027 03:46:00.209            25.882              Murmansk1           808.812
       478   05 Jun 2027 03:46:25.197   05 Jun 2027 03:48:12.869           107.672              Murmansk1          3364.750
       479   05 Jun 2027 05:05:18.329   05 Jun 2027 05:06:56.483            98.154               Magadan1          3067.313
       480   05 Jun 2027 05:07:05.207   05 Jun 2027 05:10:46.570           221.363                Anadyr1          6917.594
       481   05 Jun 2027 06:42:41.789   05 Jun 2027 06:42:51.544             9.755                Anadyr2           304.844
       482   05 Jun 2027 06:42:55.657   05 Jun 2027 06:42:58.800             3.143               Magadan1            98.219
