uniorb/output/strategy_4/Drop/Drop_KinoSat_111105.txt

KinoSat_111105
-------------------------
    Access    *     Start Time (UTCG)     *     Stop Time (UTCG)  *   Duration (s)        *       Station  *  Data (Mbytes)
         1   01 Jun 2027 03:37:11.808   01 Jun 2027 03:37:37.329            25.521              Murmansk1           797.531
         2   01 Jun 2027 03:38:23.624   01 Jun 2027 03:45:12.404           408.780                 Moscow         12774.375
         3   01 Jun 2027 03:57:11.363   01 Jun 2027 03:58:28.974            77.611               CapeTown          2425.344
         4   01 Jun 2027 03:58:39.453   01 Jun 2027 03:59:01.106            21.653               CapeTown           676.656
         5   01 Jun 2027 03:59:20.300   01 Jun 2027 04:01:17.298           116.998               CapeTown          3656.187
         6   01 Jun 2027 04:59:30.560   01 Jun 2027 04:59:58.889            28.329               Magadan2           885.281
         7   01 Jun 2027 05:00:11.459   01 Jun 2027 05:00:51.928            40.469               Magadan1          1264.656
         8   01 Jun 2027 05:00:53.479   01 Jun 2027 05:01:02.720             9.241                Anadyr1           288.781
         9   01 Jun 2027 05:01:02.720   01 Jun 2027 05:02:20.634            77.914                Anadyr2          2434.813
        10   01 Jun 2027 05:02:24.647   01 Jun 2027 05:03:12.797            48.150                Anadyr1          1504.687
        11   01 Jun 2027 05:04:18.701   01 Jun 2027 05:04:23.419             4.718                Anadyr1           147.438
        12   01 Jun 2027 06:37:15.501   01 Jun 2027 06:39:33.506           138.005               Magadan1          4312.656
        13   01 Jun 2027 06:39:33.506   01 Jun 2027 06:40:29.544            56.038               Magadan2          1751.188
        14   01 Jun 2027 07:17:40.521   01 Jun 2027 07:18:22.352            41.831            RioGallegos          1307.219
        15   01 Jun 2027 08:12:10.465   01 Jun 2027 08:14:04.854           114.389               Magadan1          3574.656
        16   01 Jun 2027 08:14:29.511   01 Jun 2027 08:15:50.607            81.096                Irkutsk          2534.250
        17   01 Jun 2027 08:15:54.875   01 Jun 2027 08:17:16.778            81.903                Novosib          2559.469
        18   01 Jun 2027 08:17:28.546   01 Jun 2027 08:19:04.481            95.935                Norilsk          2997.969
        19   01 Jun 2027 08:19:22.389   01 Jun 2027 08:21:21.362           118.973              Murmansk1          3717.906
        20   01 Jun 2027 08:22:35.530   01 Jun 2027 08:22:49.429            13.899              Murmansk1           434.344
        21   01 Jun 2027 08:52:11.926   01 Jun 2027 08:52:53.865            41.939            RioGallegos          1310.594
        22   01 Jun 2027 08:53:27.248   01 Jun 2027 08:54:27.298            60.050            RioGallegos          1876.562
        23   01 Jun 2027 09:27:20.423   01 Jun 2027 09:28:00.799            40.376                Sumatra          1261.750
        24   01 Jun 2027 09:29:52.528   01 Jun 2027 09:30:51.777            59.249                Sumatra          1851.531
        25   01 Jun 2027 09:48:37.534   01 Jun 2027 09:48:53.037            15.503                Irkutsk           484.469
        26   01 Jun 2027 09:49:22.891   01 Jun 2027 09:51:06.503           103.612                Novosib          3237.875
        27   01 Jun 2027 09:51:08.388   01 Jun 2027 09:53:20.318           131.930                Irkutsk          4122.813
        28   01 Jun 2027 11:27:25.219   01 Jun 2027 11:27:28.737             3.518                Irkutsk           109.937
        29   01 Jun 2027 11:27:50.574   01 Jun 2027 11:29:31.134           100.560              Murmansk1          3142.500
        30   01 Jun 2027 11:29:38.840   01 Jun 2027 11:30:47.510            68.670                 Moscow          2145.937
        31   01 Jun 2027 11:30:50.912   01 Jun 2027 11:31:37.617            46.705                 Moscow          1459.531
        32   01 Jun 2027 11:32:46.648   01 Jun 2027 11:33:29.032            42.384                Norilsk          1324.500
        33   01 Jun 2027 12:50:40.380   01 Jun 2027 12:54:29.068           228.688                  Delhi          7146.500
        34   01 Jun 2027 12:59:08.410   01 Jun 2027 13:01:44.636           156.226              Murmansk1          4882.063
        35   01 Jun 2027 13:01:49.001   01 Jun 2027 13:03:22.234            93.233                Norilsk          2913.531
        36   01 Jun 2027 14:11:38.206   01 Jun 2027 14:14:02.631           144.425               CapeTown          4513.281
        37   01 Jun 2027 14:32:18.727   01 Jun 2027 14:33:36.516            77.789                 Moscow          2430.906
        38   01 Jun 2027 14:35:42.985   01 Jun 2027 14:38:43.713           180.728              Murmansk1          5647.750
        39   01 Jun 2027 14:40:06.111   01 Jun 2027 14:40:23.352            17.241              Murmansk1           538.781
        40   01 Jun 2027 14:50:32.791   01 Jun 2027 14:54:05.063           212.272                Anadyr1          6633.500
        41   01 Jun 2027 16:14:21.664   01 Jun 2027 16:15:29.945            68.281              Murmansk2          2133.781
        42   01 Jun 2027 16:15:35.479   01 Jun 2027 16:15:41.537             6.058              Murmansk1           189.312
        43   01 Jun 2027 16:16:40.813   01 Jun 2027 16:17:14.355            33.542              Murmansk1          1048.188
        44   01 Jun 2027 16:18:26.557   01 Jun 2027 16:19:59.104            92.547              Murmansk1          2892.094
        45   01 Jun 2027 16:25:48.063   01 Jun 2027 16:27:56.396           128.333                Anadyr2          4010.406
        46   01 Jun 2027 16:28:03.198   01 Jun 2027 16:28:07.599             4.401                Anadyr1           137.531
        47   01 Jun 2027 16:30:18.580   01 Jun 2027 16:30:40.338            21.758               Magadan1           679.937
        48   01 Jun 2027 16:30:56.451   01 Jun 2027 16:33:20.738           144.287               Magadan2          4508.969
        49   01 Jun 2027 18:01:40.296   01 Jun 2027 18:04:01.944           141.648                Anadyr1          4426.500
        50   01 Jun 2027 18:04:02.195   01 Jun 2027 18:05:34.905            92.710                Anadyr2          2897.187
        51   01 Jun 2027 18:05:35.178   01 Jun 2027 18:08:00.486           145.308               Magadan2          4540.875
        52   01 Jun 2027 19:37:34.263   01 Jun 2027 19:41:25.062           230.799                Anadyr2          7212.469
        53   01 Jun 2027 19:41:38.053   01 Jun 2027 19:44:07.257           149.204               Magadan1          4662.625
        54   01 Jun 2027 19:44:54.370   01 Jun 2027 19:45:48.888            54.518               Magadan1          1703.688
        55   01 Jun 2027 19:47:33.648   01 Jun 2027 19:48:46.954            73.306                Irkutsk          2290.812
        56   01 Jun 2027 20:31:55.930   01 Jun 2027 20:35:10.855           194.925            RioGallegos          6091.406
        57   01 Jun 2027 21:15:07.308   01 Jun 2027 21:15:11.753             4.445                Anadyr1           138.906
        58   01 Jun 2027 21:15:21.131   01 Jun 2027 21:15:21.569             0.438                Anadyr1            13.687
        59   01 Jun 2027 21:15:25.423   01 Jun 2027 21:15:40.747            15.324                Norilsk           478.875
        60   01 Jun 2027 21:15:54.071   01 Jun 2027 21:17:50.135           116.064                Norilsk          3627.000
        61   01 Jun 2027 21:18:07.049   01 Jun 2027 21:19:09.124            62.075               Magadan2          1939.844
        62   01 Jun 2027 21:19:19.001   01 Jun 2027 21:20:05.305            46.304                Norilsk          1447.000
        63   01 Jun 2027 21:20:52.578   01 Jun 2027 21:21:41.681            49.103                Irkutsk          1534.469
        64   01 Jun 2027 21:21:49.875   01 Jun 2027 21:22:26.531            36.656                Novosib          1145.500
        65   01 Jun 2027 21:23:24.984   01 Jun 2027 21:23:51.345            26.361                Novosib           823.781
        66   01 Jun 2027 21:24:52.912   01 Jun 2027 21:25:51.599            58.687                Novosib          1833.969
        67   01 Jun 2027 21:33:15.342   01 Jun 2027 21:36:09.435           174.093                Sumatra          5440.406
        68   01 Jun 2027 22:50:05.018   01 Jun 2027 22:50:33.874            28.856                Anadyr1           901.750
        69   01 Jun 2027 22:51:23.044   01 Jun 2027 22:53:18.158           115.114                Norilsk          3597.312
        70   01 Jun 2027 22:53:30.529   01 Jun 2027 22:53:56.328            25.799               Magadan1           806.219
        71   01 Jun 2027 22:55:15.603   01 Jun 2027 22:56:06.397            50.794                Irkutsk          1587.313
        72   01 Jun 2027 22:56:38.843   01 Jun 2027 22:56:47.584             8.741                Novosib           273.156
        73   01 Jun 2027 22:56:54.848   01 Jun 2027 22:57:55.892            61.044                Novosib          1907.625
        74   01 Jun 2027 23:03:00.934   01 Jun 2027 23:05:03.090           122.156                  Delhi          3817.375
        75   01 Jun 2027 23:14:17.894   01 Jun 2027 23:14:55.056            37.162                  Delhi          1161.313
        76   02 Jun 2027 00:21:16.259   02 Jun 2027 00:22:06.345            50.086                Anadyr2          1565.187
        77   02 Jun 2027 00:23:04.538   02 Jun 2027 00:24:18.644            74.106                Anadyr1          2315.813
        78   02 Jun 2027 00:26:51.666   02 Jun 2027 00:27:06.714            15.048                Anadyr1           470.250
        79   02 Jun 2027 00:27:21.860   02 Jun 2027 00:27:35.226            13.366                Norilsk           417.688
        80   02 Jun 2027 00:27:36.671   02 Jun 2027 00:30:10.990           154.319               Magadan2          4822.469
        81   02 Jun 2027 00:30:13.333   02 Jun 2027 00:31:54.486           101.153              Murmansk2          3161.031
        82   02 Jun 2027 00:31:54.486   02 Jun 2027 00:32:05.973            11.487              Murmansk1           358.969
        83   02 Jun 2027 00:34:18.597   02 Jun 2027 00:35:45.134            86.537                 Moscow          2704.281
        84   02 Jun 2027 00:38:28.677   02 Jun 2027 00:39:02.624            33.947                 Moscow          1060.844
        85   02 Jun 2027 01:54:43.762   02 Jun 2027 01:57:16.154           152.392                Anadyr2          4762.250
        86   02 Jun 2027 01:57:16.154   02 Jun 2027 01:57:25.308             9.154                Anadyr1           286.063
        87   02 Jun 2027 01:57:51.684   02 Jun 2027 01:58:01.672             9.988                Anadyr1           312.125
        88   02 Jun 2027 01:59:38.676   02 Jun 2027 02:01:22.144           103.468               Magadan2          3233.375
        89   02 Jun 2027 02:02:01.616   02 Jun 2027 02:02:53.003            51.387               Magadan2          1605.844
        90   02 Jun 2027 02:05:29.814   02 Jun 2027 02:06:47.558            77.744              Murmansk1          2429.500
        91   02 Jun 2027 02:07:35.578   02 Jun 2027 02:08:02.751            27.173                Novosib           849.156
        92   02 Jun 2027 02:08:49.608   02 Jun 2027 02:09:31.298            41.690                 Moscow          1302.812
        93   02 Jun 2027 02:14:10.482   02 Jun 2027 02:14:15.869             5.387                 Moscow           168.344
        94   02 Jun 2027 02:15:00.202   02 Jun 2027 02:15:54.323            54.121                 Moscow          1691.281
        95   02 Jun 2027 02:33:01.239   02 Jun 2027 02:34:05.461            64.222               CapeTown          2006.938
        96   02 Jun 2027 02:44:06.524   02 Jun 2027 02:45:20.257            73.733               CapeTown          2304.156
        97   02 Jun 2027 03:36:08.687   02 Jun 2027 03:37:05.064            56.377               Magadan1          1761.781
        98   02 Jun 2027 03:37:13.803   02 Jun 2027 03:38:11.643            57.840                Anadyr2          1807.500
        99   02 Jun 2027 03:38:11.643   02 Jun 2027 03:38:26.312            14.669                Anadyr1           458.406
       100   02 Jun 2027 03:38:31.115   02 Jun 2027 03:38:57.097            25.982               Magadan1           811.938
       101   02 Jun 2027 03:38:57.097   02 Jun 2027 03:40:34.322            97.225               Magadan2          3038.281
       102   02 Jun 2027 03:41:30.744   02 Jun 2027 03:42:02.084            31.340                Anadyr2           979.375
       103   02 Jun 2027 03:48:23.959   02 Jun 2027 03:48:41.027            17.068                Norilsk           533.375
       104   02 Jun 2027 05:12:25.554   02 Jun 2027 05:12:52.566            27.012                Anadyr2           844.125
       105   02 Jun 2027 05:12:55.848   02 Jun 2027 05:14:26.601            90.753               Magadan1          2836.031
       106   02 Jun 2027 05:14:40.851   02 Jun 2027 05:17:47.365           186.514                Anadyr1          5828.563
       107   02 Jun 2027 06:49:19.293   02 Jun 2027 06:50:41.415            82.122                Anadyr1          2566.313
       108   02 Jun 2027 06:50:49.023   02 Jun 2027 06:50:49.618             0.595                Novosib            18.594
       109   02 Jun 2027 06:50:57.978   02 Jun 2027 06:51:32.984            35.006               Magadan1          1093.937
       110   02 Jun 2027 06:51:32.984   02 Jun 2027 06:53:45.001           132.017               Magadan2          4125.531
       111   02 Jun 2027 08:25:12.124   02 Jun 2027 08:27:28.820           136.696               Magadan1          4271.750
       112   02 Jun 2027 08:27:46.952   02 Jun 2027 08:28:21.394            34.442                Irkutsk          1076.312
       113   02 Jun 2027 08:29:08.508   02 Jun 2027 08:29:33.082            24.574                Irkutsk           767.937
       114   02 Jun 2027 08:30:48.203   02 Jun 2027 08:30:50.538             2.335                Norilsk            72.969
       115   02 Jun 2027 08:32:30.317   02 Jun 2027 08:33:24.837            54.520              Murmansk1          1703.750
       116   02 Jun 2027 09:04:17.437   02 Jun 2027 09:06:04.251           106.814            RioGallegos          3337.938
       117   02 Jun 2027 09:39:11.733   02 Jun 2027 09:42:13.846           182.113                Sumatra          5691.031
       118   02 Jun 2027 10:00:27.676   02 Jun 2027 10:00:31.822             4.146                Irkutsk           129.563
       119   02 Jun 2027 10:01:39.759   02 Jun 2027 10:01:39.921             0.162                Irkutsk             5.062
       120   02 Jun 2027 10:02:15.390   02 Jun 2027 10:02:21.209             5.819                Novosib           181.844
       121   02 Jun 2027 10:02:36.393   02 Jun 2027 10:03:10.380            33.987                Novosib          1062.094
       122   02 Jun 2027 10:03:16.065   02 Jun 2027 10:03:23.186             7.121                Irkutsk           222.531
       123   02 Jun 2027 10:03:32.525   02 Jun 2027 10:03:38.192             5.667                Novosib           177.094
       124   02 Jun 2027 10:03:43.810   02 Jun 2027 10:04:12.677            28.867                Irkutsk           902.094
       125   02 Jun 2027 10:04:37.860   02 Jun 2027 10:05:21.405            43.545                Irkutsk          1360.781
       126   02 Jun 2027 10:45:05.518   02 Jun 2027 10:45:37.116            31.598            RioGallegos           987.437
       127   02 Jun 2027 11:18:06.666   02 Jun 2027 11:19:10.662            63.996                Sumatra          1999.875
       128   02 Jun 2027 11:26:24.475   02 Jun 2027 11:27:39.334            74.859                  Delhi          2339.344
       129   02 Jun 2027 11:37:27.127   02 Jun 2027 11:37:54.722            27.595                Novosib           862.344
       130   02 Jun 2027 11:38:04.469   02 Jun 2027 11:38:15.295            10.826                Novosib           338.312
       131   02 Jun 2027 11:38:50.608   02 Jun 2027 11:39:10.624            20.016                Norilsk           625.500
       132   02 Jun 2027 11:39:12.125   02 Jun 2027 11:39:37.713            25.588                Norilsk           799.625
       133   02 Jun 2027 11:39:43.281   02 Jun 2027 11:40:13.987            30.706                Norilsk           959.563
       134   02 Jun 2027 11:40:17.033   02 Jun 2027 11:40:25.225             8.192                Novosib           256.000
       135   02 Jun 2027 11:40:28.935   02 Jun 2027 11:40:49.651            20.716                Norilsk           647.375
       136   02 Jun 2027 11:40:53.955   02 Jun 2027 11:41:04.640            10.685                Norilsk           333.906
       137   02 Jun 2027 13:05:01.283   02 Jun 2027 13:06:53.225           111.942                  Delhi          3498.187
       138   02 Jun 2027 13:10:23.955   02 Jun 2027 13:10:52.815            28.860                 Moscow           901.875
       139   02 Jun 2027 13:11:09.056   02 Jun 2027 13:13:18.662           129.606              Murmansk2          4050.188
       140   02 Jun 2027 13:13:39.387   02 Jun 2027 13:14:30.609            51.222              Murmansk1          1600.688
       141   02 Jun 2027 13:14:48.756   02 Jun 2027 13:15:07.734            18.978                Norilsk           593.063
       142   02 Jun 2027 13:16:23.493   02 Jun 2027 13:16:28.018             4.525                Norilsk           141.406
       143   02 Jun 2027 13:16:54.601   02 Jun 2027 13:17:32.691            38.090                Norilsk          1190.313
       144   02 Jun 2027 14:22:54.811   02 Jun 2027 14:23:36.594            41.783               CapeTown          1305.719
       145   02 Jun 2027 14:24:21.242   02 Jun 2027 14:25:44.511            83.269               CapeTown          2602.156
       146   02 Jun 2027 14:27:58.356   02 Jun 2027 14:29:10.102            71.746               CapeTown          2242.062
       147   02 Jun 2027 14:44:55.756   02 Jun 2027 14:45:09.824            14.068                 Moscow           439.625
       148   02 Jun 2027 14:47:57.235   02 Jun 2027 14:48:50.656            53.421              Murmansk1          1669.406
       149   02 Jun 2027 14:50:28.950   02 Jun 2027 14:51:07.357            38.407              Murmansk1          1200.219
       150   02 Jun 2027 14:52:25.239   02 Jun 2027 14:52:46.441            21.202              Murmansk1           662.563
       151   02 Jun 2027 14:56:45.867   02 Jun 2027 14:57:44.470            58.603              Murmansk1          1831.344
       152   02 Jun 2027 15:02:23.576   02 Jun 2027 15:03:06.393            42.817                Anadyr2          1338.031
       153   02 Jun 2027 15:04:03.567   02 Jun 2027 15:04:16.565            12.998                Anadyr2           406.187
       154   02 Jun 2027 15:05:20.489   02 Jun 2027 15:06:01.009            40.520                Anadyr1          1266.250
       155   02 Jun 2027 15:06:22.677   02 Jun 2027 15:06:38.582            15.905                Anadyr2           497.031
       156   02 Jun 2027 15:07:04.000   02 Jun 2027 15:07:30.939            26.939                Anadyr2           841.844
       157   02 Jun 2027 15:57:09.696   02 Jun 2027 15:57:31.543            21.847               CapeTown           682.719
       158   02 Jun 2027 16:01:17.228   02 Jun 2027 16:01:37.689            20.461               CapeTown           639.406
       159   02 Jun 2027 16:06:42.756   02 Jun 2027 16:07:04.273            21.517               CapeTown           672.406
       160   02 Jun 2027 16:26:54.800   02 Jun 2027 16:30:00.821           186.021              Murmansk2          5813.156
       161   02 Jun 2027 16:37:48.171   02 Jun 2027 16:39:06.132            77.961                Anadyr1          2436.281
       162   02 Jun 2027 16:39:20.575   02 Jun 2027 16:39:47.429            26.854                Anadyr2           839.187
       163   02 Jun 2027 16:41:40.279   02 Jun 2027 16:44:33.997           173.718               Magadan2          5428.688
       164   02 Jun 2027 16:45:23.355   02 Jun 2027 16:45:33.257             9.902               Magadan2           309.438
       165   02 Jun 2027 16:45:42.879   02 Jun 2027 16:46:39.425            56.546               Magadan2          1767.062
       166   02 Jun 2027 18:13:41.783   02 Jun 2027 18:16:02.355           140.572                Anadyr2          4392.875
       167   02 Jun 2027 18:16:06.746   02 Jun 2027 18:18:23.892           137.146               Magadan1          4285.813
       168   02 Jun 2027 18:19:48.839   02 Jun 2027 18:20:09.908            21.069               Magadan1           658.406
       169   02 Jun 2027 18:21:15.713   02 Jun 2027 18:21:28.702            12.989               Magadan2           405.906
       170   02 Jun 2027 19:49:34.568   02 Jun 2027 19:53:40.908           246.340                Anadyr2          7698.125
       171   02 Jun 2027 19:53:47.373   02 Jun 2027 19:55:36.860           109.487               Magadan1          3421.469
       172   02 Jun 2027 19:56:06.198   02 Jun 2027 19:56:59.750            53.552               Magadan1          1673.500
       173   02 Jun 2027 19:57:53.782   02 Jun 2027 19:58:19.729            25.947                Irkutsk           810.844
       174   02 Jun 2027 19:59:22.755   02 Jun 2027 20:00:24.994            62.239                Irkutsk          1944.969
       175   02 Jun 2027 20:01:07.997   02 Jun 2027 20:01:59.522            51.525                Irkutsk          1610.156
       176   02 Jun 2027 20:43:47.386   02 Jun 2027 20:44:46.492            59.106            RioGallegos          1847.062
       177   02 Jun 2027 20:53:16.664   02 Jun 2027 20:53:33.982            17.318            RioGallegos           541.187
       178   02 Jun 2027 21:25:18.462   02 Jun 2027 21:25:26.373             7.911                Anadyr2           247.219
       179   02 Jun 2027 21:26:10.364   02 Jun 2027 21:27:20.283            69.919                Anadyr2          2184.969
       180   02 Jun 2027 21:27:26.348   02 Jun 2027 21:29:28.453           122.105                Norilsk          3815.781
       181   02 Jun 2027 21:31:28.744   02 Jun 2027 21:32:55.241            86.497                Irkutsk          2703.031
       182   02 Jun 2027 21:33:00.040   02 Jun 2027 21:34:10.911            70.871                Novosib          2214.719
       183   02 Jun 2027 21:43:12.188   02 Jun 2027 21:43:26.915            14.727                Irkutsk           460.219
       184   02 Jun 2027 21:45:09.561   02 Jun 2027 21:46:29.219            79.658                Sumatra          2489.312
       185   02 Jun 2027 21:53:41.176   02 Jun 2027 21:54:43.453            62.277                Sumatra          1946.156
       186   02 Jun 2027 22:59:33.018   02 Jun 2027 22:59:56.968            23.950                Anadyr1           748.437
       187   02 Jun 2027 23:03:25.083   02 Jun 2027 23:05:20.082           114.999                Norilsk          3593.719
       188   02 Jun 2027 23:05:32.774   02 Jun 2027 23:06:21.853            49.079               Magadan2          1533.719
       189   02 Jun 2027 23:07:18.563   02 Jun 2027 23:08:48.435            89.872                Novosib          2808.500
       190   02 Jun 2027 23:12:38.044   02 Jun 2027 23:12:40.214             2.170                Novosib            67.812
       191   02 Jun 2027 23:13:31.094   02 Jun 2027 23:13:51.714            20.620                Novosib           644.375
       192   02 Jun 2027 23:14:49.257   02 Jun 2027 23:15:57.084            67.827                  Delhi          2119.594
       193   02 Jun 2027 23:16:57.868   02 Jun 2027 23:17:56.254            58.386                  Delhi          1824.563
       194   02 Jun 2027 23:22:58.489   02 Jun 2027 23:24:17.458            78.969                  Delhi          2467.781
       195   03 Jun 2027 00:32:57.286   03 Jun 2027 00:33:03.723             6.437                Anadyr1           201.156
       196   03 Jun 2027 00:33:10.687   03 Jun 2027 00:33:16.364             5.677                Anadyr2           177.406
       197   03 Jun 2027 00:35:11.762   03 Jun 2027 00:36:17.729            65.967                Anadyr2          2061.469
       198   03 Jun 2027 00:39:07.114   03 Jun 2027 00:39:57.956            50.842               Magadan2          1588.813
       199   03 Jun 2027 00:39:57.956   03 Jun 2027 00:40:31.009            33.053               Magadan1          1032.906
       200   03 Jun 2027 00:41:19.011   03 Jun 2027 00:41:20.509             1.498                Norilsk            46.813
       201   03 Jun 2027 00:41:40.235   03 Jun 2027 00:42:33.302            53.067               Magadan1          1658.344
       202   03 Jun 2027 00:42:53.652   03 Jun 2027 00:43:58.755            65.103              Murmansk2          2034.469
       203   03 Jun 2027 00:44:33.046   03 Jun 2027 00:45:48.312            75.266                Novosib          2352.062
       204   03 Jun 2027 00:45:57.264   03 Jun 2027 00:47:17.525            80.261                 Moscow          2508.156
       205   03 Jun 2027 00:50:35.279   03 Jun 2027 00:51:23.714            48.435                 Moscow          1513.594
       206   03 Jun 2027 01:14:15.378   03 Jun 2027 01:15:10.390            55.012               CapeTown          1719.125
       207   03 Jun 2027 02:06:30.546   03 Jun 2027 02:07:49.019            78.473                Anadyr2          2452.281
       208   03 Jun 2027 02:08:49.111   03 Jun 2027 02:09:10.385            21.274                Anadyr1           664.813
       209   03 Jun 2027 02:09:14.932   03 Jun 2027 02:09:35.130            20.198                Anadyr2           631.188
       210   03 Jun 2027 02:11:06.685   03 Jun 2027 02:12:58.261           111.576               Magadan1          3486.750
       211   03 Jun 2027 02:17:31.452   03 Jun 2027 02:18:01.492            30.040              Murmansk1           938.750
       212   03 Jun 2027 02:18:33.721   03 Jun 2027 02:18:48.029            14.308              Murmansk2           447.125
       213   03 Jun 2027 02:19:06.803   03 Jun 2027 02:20:10.439            63.636              Murmansk2          1988.625
       214   03 Jun 2027 02:20:21.002   03 Jun 2027 02:21:20.341            59.339                Novosib          1854.344
       215   03 Jun 2027 02:31:50.467   03 Jun 2027 02:32:03.600            13.133                 Moscow           410.406
       216   03 Jun 2027 02:44:49.523   03 Jun 2027 02:46:00.834            71.311               CapeTown          2228.469
       217   03 Jun 2027 02:54:16.255   03 Jun 2027 02:54:18.273             2.018               CapeTown            63.062
       218   03 Jun 2027 02:55:11.451   03 Jun 2027 02:55:12.231             0.780               CapeTown            24.375
       219   03 Jun 2027 03:41:22.449   03 Jun 2027 03:41:25.557             3.108                Anadyr1            97.125
       220   03 Jun 2027 03:42:55.607   03 Jun 2027 03:43:00.544             4.937                Anadyr1           154.281
       221   03 Jun 2027 03:43:12.819   03 Jun 2027 03:43:32.563            19.744               Magadan2           617.000
       222   03 Jun 2027 03:45:06.030   03 Jun 2027 03:45:19.250            13.220                Anadyr1           413.125
       223   03 Jun 2027 03:47:12.296   03 Jun 2027 03:47:18.492             6.196                Anadyr2           193.625
       224   03 Jun 2027 03:47:30.445   03 Jun 2027 03:48:12.048            41.603               Magadan2          1300.094
       225   03 Jun 2027 03:48:12.048   03 Jun 2027 03:49:33.125            81.077               Magadan1          2533.656
       226   03 Jun 2027 03:50:35.271   03 Jun 2027 03:51:54.174            78.903               Magadan2          2465.719
       227   03 Jun 2027 05:24:26.609   03 Jun 2027 05:25:02.370            35.761               Magadan2          1117.531
       228   03 Jun 2027 05:25:08.308   03 Jun 2027 05:25:51.254            42.946                Anadyr2          1342.063
       229   03 Jun 2027 05:26:02.965   03 Jun 2027 05:28:00.298           117.333               Magadan2          3666.656
       230   03 Jun 2027 05:28:00.298   03 Jun 2027 05:29:16.090            75.792               Magadan1          2368.500
       231   03 Jun 2027 06:58:12.826   03 Jun 2027 06:58:54.907            42.081                Anadyr2          1315.031
       232   03 Jun 2027 06:58:57.699   03 Jun 2027 06:59:55.131            57.432               Magadan1          1794.750
       233   03 Jun 2027 07:00:08.482   03 Jun 2027 07:00:18.313             9.831               Magadan2           307.219
       234   03 Jun 2027 07:00:19.631   03 Jun 2027 07:00:20.590             0.959               Magadan1            29.969
       235   03 Jun 2027 07:00:35.056   03 Jun 2027 07:01:53.880            78.824                Anadyr1          2463.250
       236   03 Jun 2027 07:01:58.911   03 Jun 2027 07:03:10.593            71.682               Magadan1          2240.063
       237   03 Jun 2027 07:03:20.500   03 Jun 2027 07:03:32.278            11.778               Magadan1           368.063
       238   03 Jun 2027 07:03:35.401   03 Jun 2027 07:04:03.998            28.597               Magadan1           893.656
       239   03 Jun 2027 07:04:08.189   03 Jun 2027 07:04:34.375            26.186               Magadan2           818.313
       240   03 Jun 2027 07:04:38.899   03 Jun 2027 07:05:12.531            33.632                Anadyr1          1051.000
       241   03 Jun 2027 08:20:13.310   03 Jun 2027 08:20:34.658            21.348                Sumatra           667.125
       242   03 Jun 2027 08:34:32.018   03 Jun 2027 08:35:02.735            30.717               Magadan2           959.906
       243   03 Jun 2027 08:35:57.397   03 Jun 2027 08:36:29.657            32.260                Novosib          1008.125
       244   03 Jun 2027 08:37:59.170   03 Jun 2027 08:38:20.253            21.083               Magadan1           658.844
       245   03 Jun 2027 08:38:28.663   03 Jun 2027 08:38:32.095             3.432                Irkutsk           107.250
       246   03 Jun 2027 08:39:20.382   03 Jun 2027 08:39:54.111            33.729                Irkutsk          1054.031
       247   03 Jun 2027 08:40:12.551   03 Jun 2027 08:40:21.637             9.086              Murmansk2           283.938
       248   03 Jun 2027 08:40:42.764   03 Jun 2027 08:41:11.635            28.871                Irkutsk           902.219
       249   03 Jun 2027 08:41:21.726   03 Jun 2027 08:41:25.817             4.091                Irkutsk           127.844
       250   03 Jun 2027 08:41:36.305   03 Jun 2027 08:41:36.577             0.272                Irkutsk             8.500
       251   03 Jun 2027 08:49:45.939   03 Jun 2027 08:49:48.436             2.497              Murmansk1            78.031
       252   03 Jun 2027 09:16:26.521   03 Jun 2027 09:17:16.724            50.203            RioGallegos          1568.844
       253   03 Jun 2027 09:18:06.305   03 Jun 2027 09:18:14.755             8.450            RioGallegos           264.063
       254   03 Jun 2027 09:19:25.179   03 Jun 2027 09:20:06.306            41.127            RioGallegos          1285.219
       255   03 Jun 2027 09:51:08.796   03 Jun 2027 09:51:56.004            47.208                Sumatra          1475.250
       256   03 Jun 2027 10:00:11.593   03 Jun 2027 10:00:11.891             0.298                Sumatra             9.312
       257   03 Jun 2027 10:01:26.631   03 Jun 2027 10:02:34.488            67.857                  Delhi          2120.531
       258   03 Jun 2027 10:12:29.227   03 Jun 2027 10:13:11.506            42.279                Irkutsk          1321.219
       259   03 Jun 2027 10:13:47.655   03 Jun 2027 10:13:56.183             8.528                Irkutsk           266.500
       260   03 Jun 2027 10:14:37.178   03 Jun 2027 10:15:08.683            31.505                Irkutsk           984.531
       261   03 Jun 2027 10:15:12.216   03 Jun 2027 10:15:46.300            34.084                Irkutsk          1065.125
       262   03 Jun 2027 10:15:48.993   03 Jun 2027 10:16:30.232            41.239                Novosib          1288.719
       263   03 Jun 2027 10:16:41.836   03 Jun 2027 10:17:16.771            34.935                Irkutsk          1091.719
       264   03 Jun 2027 10:17:20.116   03 Jun 2027 10:18:19.180            59.064                Novosib          1845.750
       265   03 Jun 2027 10:56:27.030   03 Jun 2027 10:56:58.560            31.530            RioGallegos           985.312
       266   03 Jun 2027 11:35:26.202   03 Jun 2027 11:35:31.564             5.362                  Delhi           167.563
       267   03 Jun 2027 11:37:07.887   03 Jun 2027 11:38:28.497            80.610                  Delhi          2519.063
       268   03 Jun 2027 11:49:41.974   03 Jun 2027 11:50:52.742            70.768                Norilsk          2211.500
       269   03 Jun 2027 11:51:57.719   03 Jun 2027 11:52:16.608            18.889                Novosib           590.281
       270   03 Jun 2027 11:52:19.933   03 Jun 2027 11:53:06.858            46.925                Novosib          1466.406
       271   03 Jun 2027 13:19:45.255   03 Jun 2027 13:21:01.892            76.637                 Moscow          2394.906
       272   03 Jun 2027 13:22:48.972   03 Jun 2027 13:23:14.199            25.227                 Moscow           788.344
       273   03 Jun 2027 13:25:08.793   03 Jun 2027 13:25:28.359            19.566                 Moscow           611.438
       274   03 Jun 2027 13:27:07.626   03 Jun 2027 13:31:51.607           283.981                Norilsk          8874.406
       275   03 Jun 2027 13:32:53.295   03 Jun 2027 13:33:07.153            13.858                Norilsk           433.062
       276   03 Jun 2027 14:34:24.821   03 Jun 2027 14:34:32.702             7.881               CapeTown           246.281
       277   03 Jun 2027 14:34:39.043   03 Jun 2027 14:35:29.015            49.972               CapeTown          1561.625
       278   03 Jun 2027 14:39:47.735   03 Jun 2027 14:40:09.196            21.461               CapeTown           670.656
       279   03 Jun 2027 14:42:22.007   03 Jun 2027 14:43:41.478            79.471               CapeTown          2483.469
       280   03 Jun 2027 15:00:40.797   03 Jun 2027 15:01:22.816            42.019              Murmansk1          1313.094
       281   03 Jun 2027 15:04:44.987   03 Jun 2027 15:05:20.968            35.981              Murmansk2          1124.406
       282   03 Jun 2027 15:06:42.672   03 Jun 2027 15:07:00.750            18.078                 Moscow           564.937
       283   03 Jun 2027 15:07:44.618   03 Jun 2027 15:08:15.411            30.793              Murmansk2           962.281
       284   03 Jun 2027 15:10:01.774   03 Jun 2027 15:10:02.364             0.590              Murmansk2            18.438
       285   03 Jun 2027 15:10:16.695   03 Jun 2027 15:10:20.702             4.007              Murmansk2           125.219
       286   03 Jun 2027 15:11:05.333   03 Jun 2027 15:11:43.753            38.420              Murmansk2          1200.625
       287   03 Jun 2027 15:14:16.917   03 Jun 2027 15:15:48.220            91.303                Anadyr2          2853.219
       288   03 Jun 2027 15:17:27.074   03 Jun 2027 15:17:58.145            31.071                Anadyr1           970.969
       289   03 Jun 2027 15:19:04.436   03 Jun 2027 15:19:26.385            21.949                Anadyr2           685.906
       290   03 Jun 2027 15:22:35.125   03 Jun 2027 15:22:48.142            13.017                Anadyr2           406.781
       291   03 Jun 2027 15:23:35.489   03 Jun 2027 15:23:40.620             5.131                Anadyr2           160.344
       292   03 Jun 2027 16:17:23.308   03 Jun 2027 16:18:06.802            43.494               CapeTown          1359.188
       293   03 Jun 2027 16:19:31.988   03 Jun 2027 16:20:48.143            76.155               CapeTown          2379.844
       294   03 Jun 2027 16:39:31.126   03 Jun 2027 16:40:23.065            51.939              Murmansk1          1623.094
       295   03 Jun 2027 16:41:54.664   03 Jun 2027 16:42:30.245            35.581              Murmansk2          1111.906
       296   03 Jun 2027 16:49:48.647   03 Jun 2027 16:51:30.743           102.096                Anadyr2          3190.500
       297   03 Jun 2027 16:52:10.341   03 Jun 2027 16:52:28.090            17.749                Anadyr2           554.656
       298   03 Jun 2027 16:53:16.750   03 Jun 2027 16:54:34.593            77.843               Magadan2          2432.594
       299   03 Jun 2027 16:55:28.633   03 Jun 2027 16:56:19.706            51.073               Magadan1          1596.031
       300   03 Jun 2027 16:56:27.040   03 Jun 2027 16:56:38.459            11.419               Magadan1           356.844
       301   03 Jun 2027 16:57:26.030   03 Jun 2027 16:57:35.391             9.361               Magadan2           292.531
       302   03 Jun 2027 16:57:44.679   03 Jun 2027 16:59:11.257            86.578               Magadan2          2705.562
       303   03 Jun 2027 18:25:43.257   03 Jun 2027 18:28:46.217           182.960                Anadyr2          5717.500
       304   03 Jun 2027 18:28:47.462   03 Jun 2027 18:30:34.248           106.786               Magadan1          3337.063
       305   03 Jun 2027 18:35:03.648   03 Jun 2027 18:35:52.718            49.070               Magadan1          1533.438
       306   03 Jun 2027 20:01:34.529   03 Jun 2027 20:03:36.378           121.849                Anadyr1          3807.781
       307   03 Jun 2027 20:03:49.727   03 Jun 2027 20:07:23.281           213.554                Norilsk          6673.563
       308   03 Jun 2027 20:07:47.167   03 Jun 2027 20:08:48.281            61.114               Magadan1          1909.812
       309   03 Jun 2027 20:08:52.402   03 Jun 2027 20:09:16.287            23.885                Norilsk           746.406
       310   03 Jun 2027 20:09:20.554   03 Jun 2027 20:12:08.976           168.422                Irkutsk          5263.187
       311   03 Jun 2027 20:25:09.515   03 Jun 2027 20:26:31.012            81.497                Sumatra          2546.781
       312   03 Jun 2027 20:28:05.358   03 Jun 2027 20:29:24.878            79.520                Sumatra          2485.000
       313   03 Jun 2027 21:39:27.589   03 Jun 2027 21:40:45.708            78.119                Norilsk          2441.219
       314   03 Jun 2027 21:43:26.009   03 Jun 2027 21:44:54.686            88.677                Irkutsk          2771.156
       315   03 Jun 2027 21:47:09.429   03 Jun 2027 21:47:49.354            39.925                Novosib          1247.656
       316   03 Jun 2027 21:51:26.975   03 Jun 2027 21:51:42.661            15.686                Novosib           490.187
       317   03 Jun 2027 21:53:11.540   03 Jun 2027 21:53:18.826             7.286                Novosib           227.688
       318   03 Jun 2027 21:57:09.422   03 Jun 2027 21:57:28.894            19.472                Sumatra           608.500
       319   03 Jun 2027 22:00:18.420   03 Jun 2027 22:01:26.661            68.241                Sumatra          2132.531
       320   03 Jun 2027 22:42:54.284   03 Jun 2027 22:43:07.978            13.694            RioGallegos           427.938
       321   03 Jun 2027 22:43:25.954   03 Jun 2027 22:43:53.988            28.034            RioGallegos           876.062
       322   03 Jun 2027 23:11:18.021   03 Jun 2027 23:11:43.814            25.793                Anadyr2           806.031
       323   03 Jun 2027 23:12:09.023   03 Jun 2027 23:13:28.434            79.411                Anadyr2          2481.594
       324   03 Jun 2027 23:15:27.101   03 Jun 2027 23:15:41.779            14.678                Norilsk           458.687
       325   03 Jun 2027 23:16:03.140   03 Jun 2027 23:17:16.432            73.292               Magadan1          2290.375
       326   03 Jun 2027 23:18:54.301   03 Jun 2027 23:20:09.275            74.974              Murmansk2          2342.937
       327   03 Jun 2027 23:20:59.784   03 Jun 2027 23:22:03.996            64.212              Murmansk1          2006.625
       328   03 Jun 2027 23:26:18.982   03 Jun 2027 23:27:04.455            45.473                Irkutsk          1421.031
       329   03 Jun 2027 23:27:46.911   03 Jun 2027 23:27:49.048             2.137                  Delhi            66.781
       330   03 Jun 2027 23:29:38.857   03 Jun 2027 23:29:46.304             7.447                  Delhi           232.719
       331   03 Jun 2027 23:30:18.608   03 Jun 2027 23:30:34.227            15.619                Novosib           488.094
       332   03 Jun 2027 23:30:47.351   03 Jun 2027 23:32:35.743           108.392                  Delhi          3387.250
       333   04 Jun 2027 00:44:38.499   04 Jun 2027 00:45:12.663            34.164                Anadyr2          1067.625
       334   04 Jun 2027 00:45:29.092   04 Jun 2027 00:46:08.687            39.595                Anadyr2          1237.344
       335   04 Jun 2027 00:47:12.544   04 Jun 2027 00:47:26.833            14.289                Anadyr1           446.531
       336   04 Jun 2027 00:47:42.950   04 Jun 2027 00:47:59.425            16.475                Anadyr2           514.844
       337   04 Jun 2027 00:49:44.368   04 Jun 2027 00:50:05.377            21.009                Anadyr1           656.531
       338   04 Jun 2027 00:50:15.726   04 Jun 2027 00:50:24.897             9.171                Anadyr1           286.594
       339   04 Jun 2027 00:50:29.280   04 Jun 2027 00:50:33.335             4.055                Anadyr1           126.719
       340   04 Jun 2027 00:50:47.779   04 Jun 2027 00:52:13.981            86.202               Magadan2          2693.812
       341   04 Jun 2027 00:52:13.981   04 Jun 2027 00:52:15.448             1.467               Magadan1            45.844
       342   04 Jun 2027 00:52:51.976   04 Jun 2027 00:53:07.565            15.589                Norilsk           487.156
       343   04 Jun 2027 00:53:08.635   04 Jun 2027 00:53:45.387            36.752               Magadan1          1148.500
       344   04 Jun 2027 00:53:51.709   04 Jun 2027 00:54:55.249            63.540              Murmansk2          1985.625
       345   04 Jun 2027 00:56:23.381   04 Jun 2027 00:57:33.501            70.120                Irkutsk          2191.250
       346   04 Jun 2027 00:57:41.851   04 Jun 2027 00:58:08.450            26.599                 Moscow           831.219
       347   04 Jun 2027 01:04:23.535   04 Jun 2027 01:04:52.966            29.431                 Moscow           919.719
       348   04 Jun 2027 01:12:46.728   04 Jun 2027 01:12:56.941            10.213                  Delhi           319.156
       349   04 Jun 2027 01:24:47.495   04 Jun 2027 01:26:17.296            89.801               CapeTown          2806.281
       350   04 Jun 2027 02:18:18.617   04 Jun 2027 02:19:50.699            92.082                Anadyr1          2877.562
       351   04 Jun 2027 02:20:56.689   04 Jun 2027 02:21:12.977            16.288                Anadyr2           509.000
       352   04 Jun 2027 02:22:35.200   04 Jun 2027 02:23:55.550            80.350               Magadan1          2510.937
       353   04 Jun 2027 02:25:04.002   04 Jun 2027 02:25:09.090             5.088               Magadan2           159.000
       354   04 Jun 2027 02:25:59.027   04 Jun 2027 02:26:10.461            11.434               Magadan2           357.312
       355   04 Jun 2027 02:26:23.493   04 Jun 2027 02:26:49.858            26.365               Magadan2           823.906
       356   04 Jun 2027 02:29:33.186   04 Jun 2027 02:31:12.000            98.814              Murmansk2          3087.938
       357   04 Jun 2027 02:32:35.558   04 Jun 2027 02:33:25.343            49.785                Novosib          1555.781
       358   04 Jun 2027 02:36:44.166   04 Jun 2027 02:37:09.640            25.474                Novosib           796.062
       359   04 Jun 2027 02:43:44.045   04 Jun 2027 02:43:58.020            13.975                 Moscow           436.719
       360   04 Jun 2027 02:56:42.870   04 Jun 2027 02:57:27.444            44.574               CapeTown          1392.937
       361   04 Jun 2027 03:02:44.421   04 Jun 2027 03:02:55.449            11.028               CapeTown           344.625
       362   04 Jun 2027 03:05:20.081   04 Jun 2027 03:05:29.480             9.399               CapeTown           293.719
       363   04 Jun 2027 03:06:28.665   04 Jun 2027 03:07:18.329            49.664               CapeTown          1552.000
       364   04 Jun 2027 03:58:41.755   04 Jun 2027 03:59:03.248            21.493                Anadyr2           671.656
       365   04 Jun 2027 03:59:36.945   04 Jun 2027 04:00:09.701            32.756               Magadan2          1023.625
       366   04 Jun 2027 04:00:38.520   04 Jun 2027 04:06:19.895           341.375                Anadyr2         10667.969
       367   04 Jun 2027 05:36:22.529   04 Jun 2027 05:38:15.836           113.307                Anadyr1          3540.844
       368   04 Jun 2027 05:38:22.947   04 Jun 2027 05:40:07.555           104.608                Anadyr1          3269.000
       369   04 Jun 2027 05:40:28.058   04 Jun 2027 05:42:09.102           101.044                Anadyr1          3157.625
       370   04 Jun 2027 07:10:14.599   04 Jun 2027 07:10:30.118            15.519               Magadan1           484.969
       371   04 Jun 2027 07:10:55.461   04 Jun 2027 07:11:43.137            47.676                Anadyr2          1489.875
       372   04 Jun 2027 07:11:55.482   04 Jun 2027 07:12:11.787            16.305               Magadan2           509.531
       373   04 Jun 2027 07:12:20.552   04 Jun 2027 07:12:46.141            25.589               Magadan2           799.656
       374   04 Jun 2027 07:13:19.953   04 Jun 2027 07:13:47.105            27.152                Anadyr1           848.500
       375   04 Jun 2027 07:13:58.560   04 Jun 2027 07:14:21.788            23.228               Magadan2           725.875
       376   04 Jun 2027 07:14:21.788   04 Jun 2027 07:14:50.045            28.257               Magadan1           883.031
       377   04 Jun 2027 07:15:05.082   04 Jun 2027 07:15:25.921            20.839               Magadan2           651.219
       378   04 Jun 2027 07:15:40.542   04 Jun 2027 07:16:05.532            24.990               Magadan1           780.937
       379   04 Jun 2027 07:16:05.532   04 Jun 2027 07:16:11.562             6.030               Magadan2           188.438
       380   04 Jun 2027 07:16:12.249   04 Jun 2027 07:16:42.163            29.914               Magadan1           934.813
       381   04 Jun 2027 07:19:13.123   04 Jun 2027 07:19:27.374            14.251                Norilsk           445.344
       382   04 Jun 2027 07:20:57.074   04 Jun 2027 07:21:17.309            20.235              Murmansk1           632.344
       383   04 Jun 2027 08:00:14.847   04 Jun 2027 08:00:33.591            18.744            RioGallegos           585.750
       384   04 Jun 2027 08:02:40.181   04 Jun 2027 08:02:47.692             7.511            RioGallegos           234.719
       385   04 Jun 2027 08:30:26.105   04 Jun 2027 08:32:14.853           108.748                Sumatra          3398.375
       386   04 Jun 2027 08:46:45.386   04 Jun 2027 08:47:09.033            23.647               Magadan2           738.969
       387   04 Jun 2027 08:48:08.536   04 Jun 2027 08:48:19.844            11.308               Magadan1           353.375
       388   04 Jun 2027 08:49:02.268   04 Jun 2027 08:50:21.304            79.036               Magadan1          2469.875
       389   04 Jun 2027 08:50:55.348   04 Jun 2027 08:52:09.894            74.546                Novosib          2329.563
       390   04 Jun 2027 08:52:14.951   04 Jun 2027 08:52:52.989            38.038                Irkutsk          1188.688
       391   04 Jun 2027 08:52:59.294   04 Jun 2027 08:53:04.876             5.582                Irkutsk           174.437
       392   04 Jun 2027 08:53:10.186   04 Jun 2027 08:53:39.306            29.120                Irkutsk           910.000
       393   04 Jun 2027 09:28:39.377   04 Jun 2027 09:28:44.816             5.439            RioGallegos           169.969
       394   04 Jun 2027 09:29:05.406   04 Jun 2027 09:29:42.697            37.291            RioGallegos          1165.344
       395   04 Jun 2027 10:03:11.461   04 Jun 2027 10:03:45.098            33.637                Sumatra          1051.156
       396   04 Jun 2027 10:06:46.273   04 Jun 2027 10:07:36.943            50.670                Sumatra          1583.438
       397   04 Jun 2027 10:13:47.367   04 Jun 2027 10:13:57.395            10.028                  Delhi           313.375
       398   04 Jun 2027 10:18:42.175   04 Jun 2027 10:19:02.556            20.381                  Delhi           636.906
       399   04 Jun 2027 10:23:26.943   04 Jun 2027 10:23:33.101             6.158                Norilsk           192.437
       400   04 Jun 2027 10:24:01.873   04 Jun 2027 10:24:29.807            27.934                Irkutsk           872.937
       401   04 Jun 2027 10:25:54.545   04 Jun 2027 10:26:12.274            17.729                Irkutsk           554.031
       402   04 Jun 2027 10:26:58.674   04 Jun 2027 10:27:16.672            17.998                Novosib           562.438
       403   04 Jun 2027 10:27:21.828   04 Jun 2027 10:27:27.404             5.576                Irkutsk           174.250
       404   04 Jun 2027 10:27:37.294   04 Jun 2027 10:27:47.978            10.684                Irkutsk           333.875
       405   04 Jun 2027 10:27:49.522   04 Jun 2027 10:27:55.758             6.236                Novosib           194.875
       406   04 Jun 2027 10:28:01.705   04 Jun 2027 10:29:10.611            68.906                Novosib          2153.313
       407   04 Jun 2027 10:29:18.130   04 Jun 2027 10:30:08.506            50.376                Novosib          1574.250
       408   04 Jun 2027 11:09:54.072   04 Jun 2027 11:10:19.843            25.771            RioGallegos           805.344
       409   04 Jun 2027 11:47:38.602   04 Jun 2027 11:48:28.325            49.723                  Delhi          1553.844
       410   04 Jun 2027 11:50:22.363   04 Jun 2027 11:50:49.260            26.897                  Delhi           840.531
       411   04 Jun 2027 11:52:29.134   04 Jun 2027 11:52:33.532             4.398                  Delhi           137.438
       412   04 Jun 2027 12:05:13.510   04 Jun 2027 12:05:36.549            23.039                Novosib           719.969
       413   04 Jun 2027 12:10:01.462   04 Jun 2027 12:10:33.707            32.245                Norilsk          1007.656
       414   04 Jun 2027 13:33:06.860   04 Jun 2027 13:33:14.392             7.532                 Moscow           235.375
       415   04 Jun 2027 13:34:04.817   04 Jun 2027 13:34:56.512            51.695                 Moscow          1615.469
       416   04 Jun 2027 13:35:48.594   04 Jun 2027 13:36:16.902            28.308              Murmansk1           884.625
       417   04 Jun 2027 13:39:47.753   04 Jun 2027 13:40:31.276            43.523              Murmansk1          1360.094
       418   04 Jun 2027 13:40:32.808   04 Jun 2027 13:44:19.323           226.515                Norilsk          7078.594
       419   04 Jun 2027 14:46:03.159   04 Jun 2027 14:46:46.796            43.637               CapeTown          1363.656
       420   04 Jun 2027 14:50:42.399   04 Jun 2027 14:51:01.846            19.447               CapeTown           607.719
       421   04 Jun 2027 14:52:23.692   04 Jun 2027 14:52:31.312             7.620               CapeTown           238.125
       422   04 Jun 2027 14:53:10.006   04 Jun 2027 14:53:59.816            49.810               CapeTown          1556.563
       423   04 Jun 2027 15:09:32.647   04 Jun 2027 15:10:30.301            57.654                 Moscow          1801.687
       424   04 Jun 2027 15:12:31.801   04 Jun 2027 15:12:33.311             1.510              Murmansk1            47.188
       425   04 Jun 2027 15:14:09.642   04 Jun 2027 15:14:33.839            24.197                 Moscow           756.156
       426   04 Jun 2027 15:16:29.058   04 Jun 2027 15:16:42.530            13.472              Murmansk1           421.000
       427   04 Jun 2027 15:16:42.530   04 Jun 2027 15:16:50.637             8.107              Murmansk2           253.344
       428   04 Jun 2027 15:18:33.283   04 Jun 2027 15:18:44.877            11.594              Murmansk2           362.313
       429   04 Jun 2027 15:20:17.114   04 Jun 2027 15:20:31.933            14.819              Murmansk2           463.094
       430   04 Jun 2027 15:20:37.857   04 Jun 2027 15:21:02.313            24.456              Murmansk2           764.250
       431   04 Jun 2027 15:22:20.049   04 Jun 2027 15:22:22.405             2.356              Murmansk2            73.625
       432   04 Jun 2027 15:22:32.760   04 Jun 2027 15:23:12.919            40.159              Murmansk2          1254.969
       433   04 Jun 2027 15:26:12.092   04 Jun 2027 15:27:31.914            79.822                Anadyr2          2494.438
       434   04 Jun 2027 15:31:04.574   04 Jun 2027 15:31:07.651             3.077                Anadyr1            96.156
       435   04 Jun 2027 15:31:08.345   04 Jun 2027 15:31:19.420            11.075                Anadyr1           346.094
       436   04 Jun 2027 15:31:33.549   04 Jun 2027 15:32:08.413            34.864                Anadyr1          1089.500
       437   04 Jun 2027 15:34:44.371   04 Jun 2027 15:35:16.897            32.526                Anadyr1          1016.438
       438   04 Jun 2027 16:30:46.353   04 Jun 2027 16:30:54.405             8.052               CapeTown           251.625
       439   04 Jun 2027 16:31:03.362   04 Jun 2027 16:31:52.403            49.041               CapeTown          1532.531
       440   04 Jun 2027 16:52:11.071   04 Jun 2027 16:53:45.416            94.345              Murmansk1          2948.281
       441   04 Jun 2027 16:54:31.882   04 Jun 2027 16:54:34.547             2.665              Murmansk1            83.281
       442   04 Jun 2027 16:55:11.298   04 Jun 2027 16:56:05.275            53.977              Murmansk1          1686.781
       443   04 Jun 2027 17:01:49.406   04 Jun 2027 17:02:42.306            52.900                Anadyr1          1653.125
       444   04 Jun 2027 17:03:13.285   04 Jun 2027 17:03:27.594            14.309                Anadyr2           447.156
       445   04 Jun 2027 17:04:48.590   04 Jun 2027 17:05:23.076            34.486                Anadyr1          1077.688
       446   04 Jun 2027 17:07:17.110   04 Jun 2027 17:08:40.398            83.288               Magadan1          2602.750
       447   04 Jun 2027 17:09:14.151   04 Jun 2027 17:09:37.200            23.049               Magadan2           720.281
       448   04 Jun 2027 17:10:52.527   04 Jun 2027 17:12:50.379           117.852               Magadan1          3682.875
       449   04 Jun 2027 18:37:44.675   04 Jun 2027 18:39:42.231           117.556                Anadyr1          3673.625
       450   04 Jun 2027 18:40:04.227   04 Jun 2027 18:41:38.296            94.069               Magadan2          2939.656
       451   04 Jun 2027 18:41:38.296   04 Jun 2027 18:42:05.204            26.908               Magadan1           840.875
       452   04 Jun 2027 18:46:34.657   04 Jun 2027 18:47:10.796            36.139               Magadan1          1129.344
       453   04 Jun 2027 18:50:08.847   04 Jun 2027 18:50:27.776            18.929               Magadan2           591.531
       454   04 Jun 2027 18:51:12.850   04 Jun 2027 18:51:17.902             5.052               Magadan1           157.875
       455   04 Jun 2027 19:34:13.850   04 Jun 2027 19:36:36.592           142.742            RioGallegos          4460.688
       456   04 Jun 2027 20:13:34.085   04 Jun 2027 20:16:00.756           146.671                Anadyr2          4583.469
       457   04 Jun 2027 20:16:15.127   04 Jun 2027 20:17:44.105            88.978                Norilsk          2780.563
       458   04 Jun 2027 20:17:56.480   04 Jun 2027 20:18:45.073            48.593                Norilsk          1518.531
       459   04 Jun 2027 20:19:05.966   04 Jun 2027 20:19:20.408            14.442                Norilsk           451.313
       460   04 Jun 2027 20:20:45.484   04 Jun 2027 20:21:49.815            64.331                Irkutsk          2010.344
       461   04 Jun 2027 20:22:38.179   04 Jun 2027 20:23:52.388            74.209                Irkutsk          2319.031
       462   04 Jun 2027 20:25:57.164   04 Jun 2027 20:25:59.797             2.633                Irkutsk            82.281
       463   04 Jun 2027 20:27:37.884   04 Jun 2027 20:29:17.843            99.959                Irkutsk          3123.719
       464   04 Jun 2027 20:35:52.424   04 Jun 2027 20:38:01.108           128.684                Sumatra          4021.375
       465   04 Jun 2027 21:51:49.748   04 Jun 2027 21:52:35.417            45.669                Norilsk          1427.156
       466   04 Jun 2027 21:55:24.500   04 Jun 2027 21:56:51.006            86.506                Irkutsk          2703.313
       467   04 Jun 2027 21:57:31.769   04 Jun 2027 21:59:36.764           124.995                Novosib          3906.094
       468   04 Jun 2027 22:06:32.610   04 Jun 2027 22:07:40.787            68.177                  Delhi          2130.531
       469   04 Jun 2027 23:23:35.146   04 Jun 2027 23:23:58.250            23.104                Anadyr1           722.000
       470   04 Jun 2027 23:25:13.441   04 Jun 2027 23:25:24.592            11.151                Anadyr1           348.469
       471   04 Jun 2027 23:27:29.071   04 Jun 2027 23:27:56.434            27.363                Norilsk           855.094
       472   04 Jun 2027 23:28:03.232   04 Jun 2027 23:29:07.358            64.126               Magadan1          2003.937
       473   04 Jun 2027 23:29:09.588   04 Jun 2027 23:29:24.209            14.621                Norilsk           456.906
       474   04 Jun 2027 23:30:31.324   04 Jun 2027 23:33:57.145           205.821              Murmansk2          6431.906
       475   04 Jun 2027 23:34:55.927   04 Jun 2027 23:35:30.134            34.207              Murmansk1          1068.969
       476   04 Jun 2027 23:42:11.970   04 Jun 2027 23:42:34.601            22.631                  Delhi           707.219
       477   04 Jun 2027 23:43:07.400   04 Jun 2027 23:44:33.891            86.491                  Delhi          2702.844
       478   05 Jun 2027 00:56:20.070   05 Jun 2027 00:56:42.356            22.286                Anadyr1           696.437
       479   05 Jun 2027 00:56:43.219   05 Jun 2027 00:57:08.179            24.960                Anadyr2           780.000
       480   05 Jun 2027 00:58:09.988   05 Jun 2027 00:59:21.649            71.661                Anadyr2          2239.406
       481   05 Jun 2027 01:02:13.456   05 Jun 2027 01:02:34.620            21.164                Anadyr1           661.375
       482   05 Jun 2027 01:02:54.907   05 Jun 2027 01:04:36.467           101.560               Magadan2          3173.750
