uniorb/output/strategy_4/Drop/Drop_KinoSat_111809.txt

KinoSat_111809
-------------------------
    Access    *     Start Time (UTCG)     *     Stop Time (UTCG)  *   Duration (s)        *       Station  *  Data (Mbytes)
         1   01 Jun 2027 04:06:50.988   01 Jun 2027 04:07:16.458            25.470              Murmansk2           795.937
         2   01 Jun 2027 04:07:19.259   01 Jun 2027 04:07:52.285            33.026                Norilsk          1032.062
         3   01 Jun 2027 04:07:54.607   01 Jun 2027 04:10:10.353           135.746                Novosib          4242.063
         4   01 Jun 2027 04:10:11.828   01 Jun 2027 04:10:50.835            39.007                Norilsk          1218.969
         5   01 Jun 2027 04:10:57.540   01 Jun 2027 04:11:13.908            16.368              Murmansk1           511.500
         6   01 Jun 2027 05:44:28.535   01 Jun 2027 05:45:41.945            73.410                Novosib          2294.063
         7   01 Jun 2027 05:46:02.863   01 Jun 2027 05:46:36.279            33.416              Murmansk2          1044.250
         8   01 Jun 2027 05:46:36.279   01 Jun 2027 05:48:41.870           125.591              Murmansk1          3924.719
         9   01 Jun 2027 05:49:53.605   01 Jun 2027 05:50:12.439            18.834                 Moscow           588.563
        10   01 Jun 2027 06:13:52.767   01 Jun 2027 06:15:29.639            96.872               CapeTown          3027.250
        11   01 Jun 2027 07:07:45.395   01 Jun 2027 07:07:52.272             6.877               Magadan1           214.906
        12   01 Jun 2027 07:08:11.282   01 Jun 2027 07:10:26.195           134.913               Magadan1          4216.031
        13   01 Jun 2027 07:10:26.195   01 Jun 2027 07:10:47.050            20.855               Magadan2           651.719
        14   01 Jun 2027 07:11:10.920   01 Jun 2027 07:11:45.918            34.998                Anadyr2          1093.687
        15   01 Jun 2027 07:11:45.918   01 Jun 2027 07:12:26.336            40.418                Anadyr1          1263.063
        16   01 Jun 2027 07:12:33.588   01 Jun 2027 07:13:13.970            40.382                Anadyr1          1261.937
        17   01 Jun 2027 08:44:27.937   01 Jun 2027 08:45:31.442            63.505               Magadan2          1984.531
        18   01 Jun 2027 08:46:39.739   01 Jun 2027 08:49:01.574           141.835                Anadyr1          4432.344
        19   01 Jun 2027 10:18:16.805   01 Jun 2027 10:23:34.345           317.540               Magadan2          9923.125
        20   01 Jun 2027 10:24:31.899   01 Jun 2027 10:25:37.600            65.701                Norilsk          2053.156
        21   01 Jun 2027 10:25:47.226   01 Jun 2027 10:25:59.849            12.623              Murmansk2           394.469
        22   01 Jun 2027 10:25:59.849   01 Jun 2027 10:27:51.597           111.748              Murmansk1          3492.125
        23   01 Jun 2027 10:29:26.869   01 Jun 2027 10:29:38.094            11.225              Murmansk2           350.781
        24   01 Jun 2027 10:30:44.744   01 Jun 2027 10:30:51.402             6.658              Murmansk1           208.062
        25   01 Jun 2027 10:59:30.521   01 Jun 2027 11:01:13.101           102.580            RioGallegos          3205.625
        26   01 Jun 2027 11:03:54.837   01 Jun 2027 11:04:09.631            14.794            RioGallegos           462.312
        27   01 Jun 2027 11:04:50.587   01 Jun 2027 11:05:34.421            43.834            RioGallegos          1369.812
        28   01 Jun 2027 11:38:12.052   01 Jun 2027 11:39:53.408           101.356                Sumatra          3167.375
        29   01 Jun 2027 11:54:45.553   01 Jun 2027 11:56:39.263           113.710                Irkutsk          3553.437
        30   01 Jun 2027 11:57:15.617   01 Jun 2027 12:00:33.740           198.123                Irkutsk          6191.344
        31   01 Jun 2027 12:03:29.957   01 Jun 2027 12:04:08.507            38.550                Norilsk          1204.687
        32   01 Jun 2027 12:07:19.094   01 Jun 2027 12:08:16.181            57.087              Murmansk2          1783.969
        33   01 Jun 2027 12:38:21.757   01 Jun 2027 12:40:15.982           114.225            RioGallegos          3569.531
        34   01 Jun 2027 12:44:53.679   01 Jun 2027 12:46:36.243           102.564            RioGallegos          3205.125
        35   01 Jun 2027 12:47:24.324   01 Jun 2027 12:47:45.442            21.118            RioGallegos           659.937
        36   01 Jun 2027 13:14:47.262   01 Jun 2027 13:15:48.156            60.894                Sumatra          1902.937
        37   01 Jun 2027 13:18:08.517   01 Jun 2027 13:22:27.026           258.509                Sumatra          8078.406
        38   01 Jun 2027 13:29:11.237   01 Jun 2027 13:29:57.873            46.636                  Delhi          1457.375
        39   01 Jun 2027 13:30:06.851   01 Jun 2027 13:32:24.600           137.749                Irkutsk          4304.656
        40   01 Jun 2027 13:32:30.051   01 Jun 2027 13:35:55.083           205.032                Irkutsk          6407.250
        41   01 Jun 2027 15:01:58.220   01 Jun 2027 15:06:27.741           269.521                  Delhi          8422.531
        42   01 Jun 2027 15:07:59.960   01 Jun 2027 15:13:05.361           305.401                Novosib          9543.781
        43   01 Jun 2027 15:15:21.179   01 Jun 2027 15:16:11.403            50.224                Norilsk          1569.500
        44   01 Jun 2027 16:45:42.394   01 Jun 2027 16:46:37.062            54.668                 Moscow          1708.375
        45   01 Jun 2027 16:47:34.004   01 Jun 2027 16:52:53.465           319.461                Norilsk          9983.156
        46   01 Jun 2027 17:59:28.161   01 Jun 2027 18:00:00.865            32.704               CapeTown          1022.000
        47   01 Jun 2027 18:02:03.989   01 Jun 2027 18:02:57.211            53.222               CapeTown          1663.187
        48   01 Jun 2027 18:04:09.513   01 Jun 2027 18:04:29.904            20.391               CapeTown           637.219
        49   01 Jun 2027 18:17:14.836   01 Jun 2027 18:18:58.917           104.081                 Moscow          3252.531
        50   01 Jun 2027 18:21:51.639   01 Jun 2027 18:22:28.495            36.856                 Moscow          1151.750
        51   01 Jun 2027 18:22:58.725   01 Jun 2027 18:23:15.044            16.319              Murmansk2           509.969
        52   01 Jun 2027 18:24:58.153   01 Jun 2027 18:26:23.482            85.329              Murmansk1          2666.531
        53   01 Jun 2027 18:28:55.056   01 Jun 2027 18:29:23.671            28.615              Murmansk1           894.219
        54   01 Jun 2027 18:30:12.060   01 Jun 2027 18:30:32.657            20.597              Murmansk1           643.656
        55   01 Jun 2027 18:42:32.006   01 Jun 2027 18:43:01.567            29.561                Anadyr1           923.781
        56   01 Jun 2027 18:43:11.426   01 Jun 2027 18:43:37.878            26.452                Anadyr1           826.625
        57   01 Jun 2027 19:31:42.804   01 Jun 2027 19:32:51.518            68.714               CapeTown          2147.313
        58   01 Jun 2027 19:35:22.440   01 Jun 2027 19:36:52.716            90.276               CapeTown          2821.125
        59   01 Jun 2027 19:37:57.761   01 Jun 2027 19:38:10.489            12.728               CapeTown           397.750
        60   01 Jun 2027 19:39:30.515   01 Jun 2027 19:40:01.231            30.716               CapeTown           959.875
        61   01 Jun 2027 19:59:46.956   01 Jun 2027 20:06:32.931           405.975              Murmansk2         12686.719
        62   01 Jun 2027 21:44:39.071   01 Jun 2027 21:46:17.349            98.278                Anadyr1          3071.187
        63   01 Jun 2027 21:46:56.033   01 Jun 2027 21:49:48.035           172.002               Magadan2          5375.062
        64   01 Jun 2027 21:50:00.879   01 Jun 2027 21:50:46.017            45.138               Magadan1          1410.563
        65   01 Jun 2027 21:52:00.856   01 Jun 2027 21:52:04.061             3.205               Magadan2           100.156
        66   01 Jun 2027 21:52:06.908   01 Jun 2027 21:52:43.044            36.136               Magadan1          1129.250
        67   01 Jun 2027 21:54:01.582   01 Jun 2027 21:54:43.473            41.891               Magadan2          1309.094
        68   01 Jun 2027 21:59:02.777   01 Jun 2027 21:59:42.327            39.550               Magadan1          1235.937
        69   01 Jun 2027 22:40:14.817   01 Jun 2027 22:40:53.478            38.661            RioGallegos          1208.156
        70   01 Jun 2027 22:41:18.832   01 Jun 2027 22:41:50.528            31.696            RioGallegos           990.500
        71   01 Jun 2027 22:42:24.664   01 Jun 2027 22:42:44.213            19.549            RioGallegos           610.906
        72   01 Jun 2027 22:42:58.115   01 Jun 2027 22:43:05.662             7.547            RioGallegos           235.844
        73   01 Jun 2027 22:44:19.660   01 Jun 2027 22:44:28.670             9.010            RioGallegos           281.563
        74   01 Jun 2027 22:45:04.293   01 Jun 2027 22:45:22.750            18.457            RioGallegos           576.781
        75   01 Jun 2027 22:46:59.724   01 Jun 2027 22:47:24.582            24.858            RioGallegos           776.812
        76   01 Jun 2027 23:20:27.017   01 Jun 2027 23:22:07.241           100.224                Anadyr1          3132.000
        77   01 Jun 2027 23:22:32.250   01 Jun 2027 23:24:06.943            94.693                Norilsk          2959.156
        78   01 Jun 2027 23:24:22.132   01 Jun 2027 23:24:39.110            16.978               Magadan2           530.563
        79   01 Jun 2027 23:24:55.222   01 Jun 2027 23:25:09.137            13.915               Magadan1           434.844
        80   01 Jun 2027 23:25:37.573   01 Jun 2027 23:26:51.162            73.589               Magadan2          2299.656
        81   01 Jun 2027 23:28:22.967   01 Jun 2027 23:28:33.257            10.290               Magadan1           321.563
        82   01 Jun 2027 23:29:43.530   01 Jun 2027 23:29:49.045             5.515                Irkutsk           172.344
        83   01 Jun 2027 23:30:34.154   01 Jun 2027 23:31:02.535            28.381                Irkutsk           886.906
        84   01 Jun 2027 23:32:01.372   01 Jun 2027 23:32:27.558            26.186                Irkutsk           818.313
        85   01 Jun 2027 23:33:31.743   01 Jun 2027 23:33:35.226             3.483               Magadan2           108.844
        86   01 Jun 2027 23:33:37.285   01 Jun 2027 23:34:43.471            66.186                Irkutsk          2068.313
        87   01 Jun 2027 23:44:59.898   01 Jun 2027 23:46:02.495            62.597                Sumatra          1956.156
        88   01 Jun 2027 23:48:17.459   01 Jun 2027 23:49:15.313            57.854                Sumatra          1807.937
        89   02 Jun 2027 00:21:55.559   02 Jun 2027 00:22:17.757            22.198            RioGallegos           693.687
        90   02 Jun 2027 00:22:40.082   02 Jun 2027 00:22:47.348             7.266            RioGallegos           227.062
        91   02 Jun 2027 00:25:08.240   02 Jun 2027 00:25:45.722            37.482            RioGallegos          1171.313
        92   02 Jun 2027 00:26:10.978   02 Jun 2027 00:26:48.051            37.073            RioGallegos          1158.531
        93   02 Jun 2027 00:55:38.768   02 Jun 2027 00:56:10.935            32.167                Anadyr2          1005.219
        94   02 Jun 2027 00:56:44.780   02 Jun 2027 00:57:10.852            26.072                Anadyr1           814.750
        95   02 Jun 2027 00:57:58.479   02 Jun 2027 00:58:20.371            21.892                Anadyr1           684.125
        96   02 Jun 2027 00:58:22.307   02 Jun 2027 00:59:49.494            87.187                Norilsk          2724.594
        97   02 Jun 2027 00:59:58.324   02 Jun 2027 01:00:33.492            35.168               Magadan1          1099.000
        98   02 Jun 2027 01:02:16.393   02 Jun 2027 01:04:20.193           123.800                Irkutsk          3868.750
        99   02 Jun 2027 01:08:05.736   02 Jun 2027 01:08:17.951            12.215                Novosib           381.719
       100   02 Jun 2027 01:08:36.863   02 Jun 2027 01:09:40.377            63.514                Novosib          1984.812
       101   02 Jun 2027 01:14:42.651   02 Jun 2027 01:15:09.172            26.521                Irkutsk           828.781
       102   02 Jun 2027 01:18:12.798   02 Jun 2027 01:18:38.711            25.913                  Delhi           809.781
       103   02 Jun 2027 01:20:54.197   02 Jun 2027 01:21:48.869            54.672                Sumatra          1708.500
       104   02 Jun 2027 01:23:34.242   02 Jun 2027 01:24:56.907            82.665                Sumatra          2583.281
       105   02 Jun 2027 01:59:02.471   02 Jun 2027 01:59:51.113            48.642            RioGallegos          1520.063
       106   02 Jun 2027 02:29:38.713   02 Jun 2027 02:29:52.815            14.102                Anadyr2           440.687
       107   02 Jun 2027 02:31:41.803   02 Jun 2027 02:31:55.531            13.728                Anadyr1           429.000
       108   02 Jun 2027 02:32:06.290   02 Jun 2027 02:32:20.768            14.478                Anadyr2           452.437
       109   02 Jun 2027 02:34:23.410   02 Jun 2027 02:35:30.135            66.725                Norilsk          2085.156
       110   02 Jun 2027 02:36:44.041   02 Jun 2027 02:37:10.893            26.852                Norilsk           839.125
       111   02 Jun 2027 02:37:11.593   02 Jun 2027 02:37:58.321            46.728              Murmansk2          1460.250
       112   02 Jun 2027 02:37:58.321   02 Jun 2027 02:38:12.016            13.695              Murmansk1           427.969
       113   02 Jun 2027 02:38:29.205   02 Jun 2027 02:39:09.137            39.932                Irkutsk          1247.875
       114   02 Jun 2027 02:40:02.721   02 Jun 2027 02:40:18.916            16.195                Irkutsk           506.094
       115   02 Jun 2027 02:42:38.749   02 Jun 2027 02:43:08.603            29.854                Irkutsk           932.938
       116   02 Jun 2027 02:45:30.066   02 Jun 2027 02:45:59.051            28.985                Novosib           905.781
       117   02 Jun 2027 02:47:39.395   02 Jun 2027 02:48:47.609            68.214                Irkutsk          2131.688
       118   02 Jun 2027 02:52:12.247   02 Jun 2027 02:53:46.544            94.297                  Delhi          2946.781
       119   02 Jun 2027 03:27:57.084   02 Jun 2027 03:28:34.166            37.082            RioGallegos          1158.813
       120   02 Jun 2027 03:31:13.200   02 Jun 2027 03:32:57.903           104.703            RioGallegos          3271.969
       121   02 Jun 2027 04:18:38.738   02 Jun 2027 04:20:10.026            91.288                Irkutsk          2852.750
       122   02 Jun 2027 04:20:12.677   02 Jun 2027 04:20:34.056            21.379              Murmansk2           668.094
       123   02 Jun 2027 04:20:34.056   02 Jun 2027 04:21:47.895            73.839              Murmansk1          2307.469
       124   02 Jun 2027 04:22:02.194   02 Jun 2027 04:25:30.403           208.209                Novosib          6506.531
       125   02 Jun 2027 04:25:45.276   02 Jun 2027 04:28:30.785           165.509                  Delhi          5172.156
       126   02 Jun 2027 04:28:46.837   02 Jun 2027 04:29:38.421            51.584                  Delhi          1612.000
       127   02 Jun 2027 05:55:13.507   02 Jun 2027 05:55:59.286            45.779                Novosib          1430.594
       128   02 Jun 2027 05:58:58.193   02 Jun 2027 05:59:04.651             6.458              Murmansk1           201.812
       129   02 Jun 2027 06:00:10.502   02 Jun 2027 06:01:18.298            67.796              Murmansk2          2118.625
       130   02 Jun 2027 06:01:26.303   02 Jun 2027 06:02:01.888            35.585                 Moscow          1112.031
       131   02 Jun 2027 07:19:25.558   02 Jun 2027 07:22:54.213           208.655               Magadan1          6520.469
       132   02 Jun 2027 07:23:06.847   02 Jun 2027 07:24:50.868           104.021               Magadan1          3250.656
       133   02 Jun 2027 08:57:15.532   02 Jun 2027 08:58:32.063            76.531                Anadyr1          2391.594
       134   02 Jun 2027 08:58:32.063   02 Jun 2027 09:00:59.958           147.895                Anadyr2          4621.719
       135   02 Jun 2027 10:28:59.467   02 Jun 2027 10:30:29.860            90.393               Magadan1          2824.781
       136   02 Jun 2027 10:31:58.445   02 Jun 2027 10:32:48.370            49.925               Magadan1          1560.156
       137   02 Jun 2027 10:32:48.370   02 Jun 2027 10:33:40.365            51.995               Magadan2          1624.844
       138   02 Jun 2027 10:34:23.501   02 Jun 2027 10:34:33.931            10.430                Irkutsk           325.938
       139   02 Jun 2027 10:34:43.399   02 Jun 2027 10:35:05.902            22.503                Irkutsk           703.219
       140   02 Jun 2027 10:35:25.097   02 Jun 2027 10:35:47.625            22.528               Magadan2           704.000
       141   02 Jun 2027 10:35:53.145   02 Jun 2027 10:36:07.746            14.601                Norilsk           456.281
       142   02 Jun 2027 10:36:11.609   02 Jun 2027 10:36:27.386            15.777               Magadan1           493.031
       143   02 Jun 2027 10:37:28.517   02 Jun 2027 10:37:39.388            10.871                Norilsk           339.719
       144   02 Jun 2027 11:11:23.272   02 Jun 2027 11:12:30.006            66.734            RioGallegos          2085.437
       145   02 Jun 2027 11:22:03.779   02 Jun 2027 11:22:51.475            47.696            RioGallegos          1490.500
       146   02 Jun 2027 11:48:58.983   02 Jun 2027 11:50:19.733            80.750                Sumatra          2523.438
       147   02 Jun 2027 12:08:15.992   02 Jun 2027 12:08:31.375            15.383                Novosib           480.719
       148   02 Jun 2027 12:10:22.739   02 Jun 2027 12:10:25.216             2.477                Irkutsk            77.406
       149   02 Jun 2027 12:10:38.255   02 Jun 2027 12:11:25.928            47.673                Irkutsk          1489.781
       150   02 Jun 2027 12:49:39.219   02 Jun 2027 12:50:09.991            30.772            RioGallegos           961.625
       151   02 Jun 2027 12:56:04.519   02 Jun 2027 12:56:31.171            26.652            RioGallegos           832.875
       152   02 Jun 2027 12:58:44.082   02 Jun 2027 12:58:50.924             6.842            RioGallegos           213.813
       153   02 Jun 2027 13:22:28.675   02 Jun 2027 13:24:00.449            91.774                Sumatra          2867.937
       154   02 Jun 2027 13:27:53.331   02 Jun 2027 13:28:49.705            56.374                Sumatra          1761.688
       155   02 Jun 2027 13:30:54.783   02 Jun 2027 13:32:20.554            85.771                Sumatra          2680.344
       156   02 Jun 2027 13:40:38.416   02 Jun 2027 13:41:26.353            47.937                Irkutsk          1498.031
       157   02 Jun 2027 13:43:06.702   02 Jun 2027 13:43:40.359            33.657                Irkutsk          1051.781
       158   02 Jun 2027 13:44:19.467   02 Jun 2027 13:47:35.154           195.687                Irkutsk          6115.219
       159   02 Jun 2027 15:08:49.953   02 Jun 2027 15:10:19.633            89.680                  Delhi          2802.500
       160   02 Jun 2027 15:11:39.063   02 Jun 2027 15:12:24.030            44.967                  Delhi          1405.219
       161   02 Jun 2027 15:19:22.823   02 Jun 2027 15:20:24.104            61.281                Norilsk          1915.031
       162   02 Jun 2027 15:24:01.868   02 Jun 2027 15:24:25.470            23.602                Norilsk           737.562
       163   02 Jun 2027 15:27:18.974   02 Jun 2027 15:28:11.621            52.647                Norilsk          1645.219
       164   02 Jun 2027 15:29:20.326   02 Jun 2027 15:29:30.016             9.690                Norilsk           302.812
       165   02 Jun 2027 16:50:48.679   02 Jun 2027 16:53:58.844           190.165                 Moscow          5942.656
       166   02 Jun 2027 16:59:55.873   02 Jun 2027 17:00:47.834            51.961              Murmansk1          1623.781
       167   02 Jun 2027 17:01:07.050   02 Jun 2027 17:04:06.034           178.984                Norilsk          5593.250
       168   02 Jun 2027 18:08:01.210   02 Jun 2027 18:08:43.848            42.638               CapeTown          1332.437
       169   02 Jun 2027 18:14:53.159   02 Jun 2027 18:15:07.951            14.792               CapeTown           462.250
       170   02 Jun 2027 18:29:42.670   02 Jun 2027 18:34:23.048           280.378                 Moscow          8761.812
       171   02 Jun 2027 18:48:48.129   02 Jun 2027 18:49:07.529            19.400                Anadyr1           606.250
       172   02 Jun 2027 18:49:47.841   02 Jun 2027 18:50:16.079            28.238                Anadyr1           882.437
       173   02 Jun 2027 19:40:39.577   02 Jun 2027 19:41:56.848            77.271               CapeTown          2414.719
       174   02 Jun 2027 19:45:09.632   02 Jun 2027 19:45:19.374             9.742               CapeTown           304.438
       175   02 Jun 2027 19:48:41.057   02 Jun 2027 19:49:02.965            21.908               CapeTown           684.625
       176   02 Jun 2027 20:12:36.746   02 Jun 2027 20:18:23.687           346.941              Murmansk2         10841.906
       177   02 Jun 2027 20:32:51.056   02 Jun 2027 20:32:59.615             8.559               Magadan1           267.469
       178   02 Jun 2027 21:56:40.643   02 Jun 2027 22:01:54.618           313.975                Anadyr2          9811.719
       179   02 Jun 2027 22:02:09.670   02 Jun 2027 22:04:46.289           156.619               Magadan2          4894.344
       180   02 Jun 2027 22:51:46.997   02 Jun 2027 22:53:34.082           107.085            RioGallegos          3346.406
       181   02 Jun 2027 22:53:53.568   02 Jun 2027 22:54:06.063            12.495            RioGallegos           390.469
       182   02 Jun 2027 22:56:38.793   02 Jun 2027 22:57:51.583            72.790            RioGallegos          2274.687
       183   02 Jun 2027 23:32:25.893   02 Jun 2027 23:34:03.276            97.383                Anadyr2          3043.219
       184   02 Jun 2027 23:34:31.330   02 Jun 2027 23:36:08.583            97.253                Norilsk          3039.156
       185   02 Jun 2027 23:36:24.885   02 Jun 2027 23:36:28.954             4.069               Magadan1           127.156
       186   02 Jun 2027 23:37:03.404   02 Jun 2027 23:37:14.720            11.316               Magadan2           353.625
       187   02 Jun 2027 23:37:33.283   02 Jun 2027 23:38:19.033            45.750               Magadan2          1429.688
       188   02 Jun 2027 23:39:02.880   02 Jun 2027 23:40:06.451            63.571                Irkutsk          1986.594
       189   02 Jun 2027 23:41:11.375   02 Jun 2027 23:42:27.676            76.301                Irkutsk          2384.406
       190   02 Jun 2027 23:53:16.697   02 Jun 2027 23:54:16.416            59.719                Sumatra          1866.219
       191   02 Jun 2027 23:56:53.883   02 Jun 2027 23:58:26.708            92.825                Sumatra          2900.781
       192   03 Jun 2027 00:34:58.694   03 Jun 2027 00:35:08.211             9.517            RioGallegos           297.406
       193   03 Jun 2027 00:36:46.764   03 Jun 2027 00:37:02.914            16.150            RioGallegos           504.688
       194   03 Jun 2027 01:07:30.218   03 Jun 2027 01:08:55.582            85.364                Anadyr2          2667.625
       195   03 Jun 2027 01:08:55.582   03 Jun 2027 01:09:09.624            14.042                Anadyr1           438.813
       196   03 Jun 2027 01:09:34.330   03 Jun 2027 01:10:01.483            27.153                Anadyr1           848.531
       197   03 Jun 2027 01:10:24.542   03 Jun 2027 01:11:59.145            94.603                Norilsk          2956.344
       198   03 Jun 2027 01:12:00.959   03 Jun 2027 01:12:53.092            52.133               Magadan2          1629.156
       199   03 Jun 2027 01:14:17.377   03 Jun 2027 01:15:49.256            91.879                Irkutsk          2871.219
       200   03 Jun 2027 01:16:11.352   03 Jun 2027 01:17:03.438            52.086                Novosib          1627.687
       201   03 Jun 2027 01:23:13.584   03 Jun 2027 01:23:37.182            23.598                Irkutsk           737.437
       202   03 Jun 2027 01:26:00.848   03 Jun 2027 01:26:01.573             0.725                  Delhi            22.656
       203   03 Jun 2027 01:26:31.667   03 Jun 2027 01:27:08.722            37.055                  Delhi          1157.969
       204   03 Jun 2027 01:28:39.200   03 Jun 2027 01:29:57.874            78.674                Sumatra          2458.562
       205   03 Jun 2027 02:03:21.167   03 Jun 2027 02:04:07.025            45.858            RioGallegos          1433.062
       206   03 Jun 2027 02:08:09.698   03 Jun 2027 02:10:05.828           116.130            RioGallegos          3629.063
       207   03 Jun 2027 02:46:25.562   03 Jun 2027 02:47:21.483            55.921                Norilsk          1747.531
       208   03 Jun 2027 02:47:36.547   03 Jun 2027 02:47:42.097             5.550                Norilsk           173.438
       209   03 Jun 2027 02:48:58.410   03 Jun 2027 02:49:22.155            23.745              Murmansk2           742.031
       210   03 Jun 2027 02:49:22.155   03 Jun 2027 02:49:48.078            25.923              Murmansk1           810.094
       211   03 Jun 2027 02:50:11.930   03 Jun 2027 02:50:37.579            25.649                Novosib           801.531
       212   03 Jun 2027 02:50:50.760   03 Jun 2027 02:53:38.485           167.725                Irkutsk          5241.406
       213   03 Jun 2027 03:02:08.294   03 Jun 2027 03:03:56.503           108.209                  Delhi          3381.531
       214   03 Jun 2027 03:40:45.370   03 Jun 2027 03:40:52.229             6.859            RioGallegos           214.344
       215   03 Jun 2027 03:42:18.277   03 Jun 2027 03:43:10.493            52.216            RioGallegos          1631.750
       216   03 Jun 2027 03:43:39.055   03 Jun 2027 03:44:47.267            68.212            RioGallegos          2131.625
       217   03 Jun 2027 04:29:28.160   03 Jun 2027 04:30:20.761            52.601                Irkutsk          1643.781
       218   03 Jun 2027 04:32:01.058   03 Jun 2027 04:32:08.006             6.948              Murmansk2           217.125
       219   03 Jun 2027 04:32:25.825   03 Jun 2027 04:34:46.097           140.272                Norilsk          4383.500
       220   03 Jun 2027 04:34:48.442   03 Jun 2027 04:35:17.158            28.716                 Moscow           897.375
       221   03 Jun 2027 04:35:18.653   03 Jun 2027 04:36:58.539            99.886                Novosib          3121.437
       222   03 Jun 2027 06:06:19.870   03 Jun 2027 06:06:40.523            20.653                Novosib           645.406
       223   03 Jun 2027 06:10:54.536   03 Jun 2027 06:11:15.193            20.657              Murmansk1           645.531
       224   03 Jun 2027 06:12:56.696   03 Jun 2027 06:13:22.458            25.762              Murmansk2           805.062
       225   03 Jun 2027 06:27:46.539   03 Jun 2027 06:29:39.424           112.885               CapeTown          3527.656
       226   03 Jun 2027 06:37:31.215   03 Jun 2027 06:37:32.023             0.808               CapeTown            25.250
       227   03 Jun 2027 07:30:40.256   03 Jun 2027 07:31:04.519            24.263               Magadan1           758.219
       228   03 Jun 2027 07:31:07.657   03 Jun 2027 07:31:08.570             0.913               Magadan2            28.531
       229   03 Jun 2027 07:31:28.638   03 Jun 2027 07:32:32.675            64.037                Anadyr1          2001.156
       230   03 Jun 2027 07:32:50.171   03 Jun 2027 07:32:57.831             7.660               Magadan2           239.375
       231   03 Jun 2027 07:32:58.842   03 Jun 2027 07:33:40.768            41.926               Magadan2          1310.188
       232   03 Jun 2027 07:35:11.589   03 Jun 2027 07:35:45.117            33.528                Anadyr1          1047.750
       233   03 Jun 2027 09:02:40.733   03 Jun 2027 09:02:57.518            16.785                Anadyr2           524.531
       234   03 Jun 2027 09:05:24.308   03 Jun 2027 09:07:00.067            95.759                Anadyr1          2992.469
       235   03 Jun 2027 09:07:42.074   03 Jun 2027 09:07:48.148             6.074                Anadyr1           189.813
       236   03 Jun 2027 09:07:50.058   03 Jun 2027 09:08:17.873            27.815               Magadan2           869.219
       237   03 Jun 2027 09:08:17.873   03 Jun 2027 09:08:22.397             4.524               Magadan1           141.375
       238   03 Jun 2027 09:08:54.009   03 Jun 2027 09:09:03.270             9.261               Magadan2           289.406
       239   03 Jun 2027 09:09:15.039   03 Jun 2027 09:10:21.242            66.203                Anadyr1          2068.844
       240   03 Jun 2027 09:50:15.773   03 Jun 2027 09:50:38.123            22.350            RioGallegos           698.438
       241   03 Jun 2027 10:40:59.267   03 Jun 2027 10:42:17.276            78.009               Magadan1          2437.781
       242   03 Jun 2027 10:42:58.022   03 Jun 2027 10:43:11.380            13.358               Magadan1           417.437
       243   03 Jun 2027 10:43:30.909   03 Jun 2027 10:44:18.888            47.979                Irkutsk          1499.344
       244   03 Jun 2027 10:44:46.025   03 Jun 2027 10:45:19.500            33.475               Magadan2          1046.094
       245   03 Jun 2027 10:46:58.370   03 Jun 2027 10:47:25.489            27.119                Norilsk           847.469
       246   03 Jun 2027 10:47:29.011   03 Jun 2027 10:47:53.359            24.348                Norilsk           760.875
       247   03 Jun 2027 10:47:57.685   03 Jun 2027 10:48:21.614            23.929               Magadan2           747.781
       248   03 Jun 2027 10:48:23.434   03 Jun 2027 10:48:30.515             7.081                Norilsk           221.281
       249   03 Jun 2027 10:48:38.560   03 Jun 2027 10:49:30.145            51.585                Norilsk          1612.031
       250   03 Jun 2027 11:23:19.261   03 Jun 2027 11:24:29.205            69.944            RioGallegos          2185.750
       251   03 Jun 2027 11:59:03.002   03 Jun 2027 12:00:01.654            58.652                Sumatra          1832.875
       252   03 Jun 2027 12:11:44.637   03 Jun 2027 12:12:47.642            63.005                Irkutsk          1968.906
       253   03 Jun 2027 12:17:57.031   03 Jun 2027 12:18:01.383             4.352                Novosib           136.000
       254   03 Jun 2027 12:18:44.323   03 Jun 2027 12:19:26.068            41.745                Irkutsk          1304.531
       255   03 Jun 2027 13:00:38.016   03 Jun 2027 13:01:30.899            52.883            RioGallegos          1652.594
       256   03 Jun 2027 13:02:02.977   03 Jun 2027 13:04:16.507           133.530            RioGallegos          4172.813
       257   03 Jun 2027 13:34:51.828   03 Jun 2027 13:38:46.341           234.513                Sumatra          7328.531
       258   03 Jun 2027 13:52:35.802   03 Jun 2027 13:53:00.236            24.434                Irkutsk           763.562
       259   03 Jun 2027 15:19:54.782   03 Jun 2027 15:24:45.892           291.110                  Delhi          9097.188
       260   03 Jun 2027 15:28:22.103   03 Jun 2027 15:31:46.968           204.865                Novosib          6402.031
       261   03 Jun 2027 17:02:58.725   03 Jun 2027 17:03:13.257            14.532                 Moscow           454.125
       262   03 Jun 2027 17:03:38.910   03 Jun 2027 17:04:33.512            54.602                 Moscow          1706.312
       263   03 Jun 2027 17:05:58.639   03 Jun 2027 17:07:00.306            61.667                 Moscow          1927.094
       264   03 Jun 2027 17:13:21.922   03 Jun 2027 17:14:29.739            67.817              Murmansk1          2119.281
       265   03 Jun 2027 17:14:32.404   03 Jun 2027 17:16:09.008            96.604                Norilsk          3018.875
       266   03 Jun 2027 18:16:21.115   03 Jun 2027 18:17:17.383            56.268               CapeTown          1758.375
       267   03 Jun 2027 18:23:15.350   03 Jun 2027 18:23:55.888            40.538               CapeTown          1266.812
       268   03 Jun 2027 18:42:33.638   03 Jun 2027 18:46:25.203           231.565                 Moscow          7236.406
       269   03 Jun 2027 18:49:39.164   03 Jun 2027 18:49:57.549            18.385              Murmansk1           574.531
       270   03 Jun 2027 18:52:51.056   03 Jun 2027 18:53:56.357            65.301              Murmansk1          2040.656
       271   03 Jun 2027 19:52:58.536   03 Jun 2027 19:54:01.121            62.585               CapeTown          1955.781
       272   03 Jun 2027 19:56:00.082   03 Jun 2027 19:57:05.982            65.900               CapeTown          2059.375
       273   03 Jun 2027 20:25:34.324   03 Jun 2027 20:29:49.105           254.781              Murmansk1          7961.906
       274   03 Jun 2027 20:35:24.260   03 Jun 2027 20:36:21.710            57.450               Magadan2          1795.313
       275   03 Jun 2027 20:41:33.025   03 Jun 2027 20:41:56.446            23.421               Magadan2           731.906
       276   03 Jun 2027 20:43:42.147   03 Jun 2027 20:43:48.788             6.641               Magadan2           207.531
       277   03 Jun 2027 22:08:42.053   03 Jun 2027 22:12:28.435           226.382                Anadyr2          7074.437
       278   03 Jun 2027 22:12:28.952   03 Jun 2027 22:13:52.212            83.260                Anadyr1          2601.875
       279   03 Jun 2027 22:13:57.613   03 Jun 2027 22:14:02.705             5.092                Norilsk           159.125
       280   03 Jun 2027 22:14:07.354   03 Jun 2027 22:16:31.718           144.364               Magadan1          4511.375
       281   03 Jun 2027 22:18:05.687   03 Jun 2027 22:18:27.871            22.184               Magadan2           693.250
       282   03 Jun 2027 23:03:27.450   03 Jun 2027 23:05:57.463           150.013            RioGallegos          4687.906
       283   03 Jun 2027 23:08:50.748   03 Jun 2027 23:09:51.344            60.596            RioGallegos          1893.625
       284   03 Jun 2027 23:44:24.151   03 Jun 2027 23:45:24.977            60.826                Anadyr1          1900.813
       285   03 Jun 2027 23:45:29.376   03 Jun 2027 23:45:59.224            29.848                Anadyr2           932.750
       286   03 Jun 2027 23:46:31.239   03 Jun 2027 23:48:10.082            98.843                Norilsk          3088.844
       287   03 Jun 2027 23:48:50.152   03 Jun 2027 23:50:15.944            85.792               Magadan1          2681.000
       288   03 Jun 2027 23:50:53.002   03 Jun 2027 23:52:05.419            72.417                Irkutsk          2263.031
       289   04 Jun 2027 00:04:51.468   04 Jun 2027 00:06:15.520            84.052                Sumatra          2626.625
       290   04 Jun 2027 00:06:45.684   04 Jun 2027 00:08:04.781            79.097                Sumatra          2471.781
       291   04 Jun 2027 00:42:52.573   04 Jun 2027 00:43:23.053            30.480            RioGallegos           952.500
       292   04 Jun 2027 00:48:12.244   04 Jun 2027 00:48:17.130             4.886            RioGallegos           152.687
       293   04 Jun 2027 00:49:21.718   04 Jun 2027 00:49:57.429            35.711            RioGallegos          1115.969
       294   04 Jun 2027 01:19:20.366   04 Jun 2027 01:19:41.188            20.822                Anadyr1           650.687
       295   04 Jun 2027 01:20:13.321   04 Jun 2027 01:20:44.510            31.189                Anadyr2           974.656
       296   04 Jun 2027 01:20:44.510   04 Jun 2027 01:21:08.715            24.205                Anadyr1           756.406
       297   04 Jun 2027 01:21:34.700   04 Jun 2027 01:21:49.973            15.273                Anadyr1           477.281
       298   04 Jun 2027 01:22:26.873   04 Jun 2027 01:24:13.558           106.685                Norilsk          3333.906
       299   04 Jun 2027 01:24:48.992   04 Jun 2027 01:25:46.517            57.525               Magadan1          1797.656
       300   04 Jun 2027 01:26:19.232   04 Jun 2027 01:28:13.729           114.497                Irkutsk          3578.031
       301   04 Jun 2027 01:34:45.679   04 Jun 2027 01:35:33.094            47.415                  Delhi          1481.719
       302   04 Jun 2027 01:39:12.086   04 Jun 2027 01:39:17.792             5.706                  Delhi           178.313
       303   04 Jun 2027 01:40:07.995   04 Jun 2027 01:41:13.931            65.936                  Delhi          2060.500
       304   04 Jun 2027 01:44:16.772   04 Jun 2027 01:46:12.567           115.795                Sumatra          3618.594
       305   04 Jun 2027 02:22:38.951   04 Jun 2027 02:23:01.506            22.555            RioGallegos           704.844
       306   04 Jun 2027 02:25:04.257   04 Jun 2027 02:25:38.898            34.641            RioGallegos          1082.531
       307   04 Jun 2027 02:53:59.480   04 Jun 2027 02:55:04.580            65.100                Anadyr1          2034.375
       308   04 Jun 2027 02:58:27.588   04 Jun 2027 02:58:36.522             8.934                Norilsk           279.188
       309   04 Jun 2027 02:58:49.687   04 Jun 2027 02:59:21.290            31.603                Norilsk           987.594
       310   04 Jun 2027 03:02:25.262   04 Jun 2027 03:02:27.979             2.717               Magadan1            84.906
       311   04 Jun 2027 03:02:34.616   04 Jun 2027 03:03:00.490            25.874               Magadan1           808.562
       312   04 Jun 2027 03:03:29.389   04 Jun 2027 03:03:58.277            28.888                Irkutsk           902.750
       313   04 Jun 2027 03:04:10.007   04 Jun 2027 03:05:12.984            62.977                Norilsk          1968.031
       314   04 Jun 2027 03:05:14.934   04 Jun 2027 03:05:29.983            15.049                Novosib           470.281
       315   04 Jun 2027 03:05:36.391   04 Jun 2027 03:07:51.113           134.722              Murmansk2          4210.062
       316   04 Jun 2027 03:07:59.713   04 Jun 2027 03:08:34.709            34.996                Irkutsk          1093.625
       317   04 Jun 2027 03:08:56.979   04 Jun 2027 03:09:11.426            14.447                Norilsk           451.469
       318   04 Jun 2027 03:09:31.429   04 Jun 2027 03:10:35.143            63.714                 Moscow          1991.063
       319   04 Jun 2027 04:26:21.592   04 Jun 2027 04:27:28.631            67.039                Anadyr2          2094.969
       320   04 Jun 2027 04:44:09.487   04 Jun 2027 04:44:30.844            21.357                Novosib           667.406
       321   04 Jun 2027 04:44:51.251   04 Jun 2027 04:45:19.120            27.869                 Moscow           870.906
       322   04 Jun 2027 04:45:57.372   04 Jun 2027 04:46:12.795            15.423                 Moscow           481.969
       323   04 Jun 2027 04:46:31.678   04 Jun 2027 04:47:20.033            48.355                 Moscow          1511.094
       324   04 Jun 2027 04:47:44.888   04 Jun 2027 04:48:43.966            59.078                Novosib          1846.188
       325   04 Jun 2027 04:49:09.267   04 Jun 2027 04:50:40.781            91.514                 Moscow          2859.813
       326   04 Jun 2027 05:04:47.368   04 Jun 2027 05:05:29.836            42.468               CapeTown          1327.125
       327   04 Jun 2027 05:05:48.051   04 Jun 2027 05:06:21.827            33.776               CapeTown          1055.500
       328   04 Jun 2027 06:00:38.487   04 Jun 2027 06:02:16.714            98.227                Anadyr1          3069.594
       329   04 Jun 2027 06:03:09.722   04 Jun 2027 06:04:15.924            66.202                Anadyr1          2068.812
       330   04 Jun 2027 06:04:56.631   04 Jun 2027 06:05:05.501             8.870               Magadan2           277.188
       331   04 Jun 2027 06:19:09.946   04 Jun 2027 06:19:26.690            16.744                 Moscow           523.250
       332   04 Jun 2027 06:23:19.811   04 Jun 2027 06:23:31.952            12.141                 Moscow           379.406
       333   04 Jun 2027 06:24:44.627   04 Jun 2027 06:24:48.423             3.796                 Moscow           118.625
       334   04 Jun 2027 06:40:01.347   04 Jun 2027 06:41:31.947            90.600               CapeTown          2831.250
       335   04 Jun 2027 06:42:38.424   04 Jun 2027 06:44:39.473           121.049               CapeTown          3782.781
       336   04 Jun 2027 07:43:11.231   04 Jun 2027 07:43:39.932            28.701               Magadan2           896.906
       337   04 Jun 2027 07:44:49.210   04 Jun 2027 07:45:06.982            17.772                Anadyr2           555.375
       338   04 Jun 2027 07:45:06.982   04 Jun 2027 07:45:26.699            19.717                Anadyr1           616.156
       339   04 Jun 2027 07:46:58.624   04 Jun 2027 07:47:06.629             8.005               Magadan2           250.156
       340   04 Jun 2027 07:55:14.254   04 Jun 2027 07:56:01.749            47.495                 Moscow          1484.219
       341   04 Jun 2027 09:18:53.314   04 Jun 2027 09:20:08.212            74.898                Anadyr1          2340.563
       342   04 Jun 2027 09:20:27.013   04 Jun 2027 09:20:42.844            15.831               Magadan1           494.719
       343   04 Jun 2027 09:21:05.069   04 Jun 2027 09:21:48.727            43.658               Magadan2          1364.312
       344   04 Jun 2027 09:22:05.455   04 Jun 2027 09:23:14.037            68.582                Anadyr1          2143.188
       345   04 Jun 2027 10:54:04.291   04 Jun 2027 10:55:24.201            79.910               Magadan1          2497.188
       346   04 Jun 2027 10:56:00.424   04 Jun 2027 11:00:13.759           253.335               Magadan1          7916.719
       347   04 Jun 2027 11:00:43.473   04 Jun 2027 11:01:12.083            28.610                Norilsk           894.062
       348   04 Jun 2027 11:35:18.537   04 Jun 2027 11:36:27.175            68.638            RioGallegos          2144.938
       349   04 Jun 2027 12:10:41.877   04 Jun 2027 12:11:18.282            36.405                Sumatra          1137.656
       350   04 Jun 2027 12:12:56.857   04 Jun 2027 12:13:27.008            30.151                Sumatra           942.219
       351   04 Jun 2027 12:23:51.061   04 Jun 2027 12:25:42.562           111.501                Irkutsk          3484.406
       352   04 Jun 2027 12:29:24.441   04 Jun 2027 12:29:44.060            19.619                Norilsk           613.094
       353   04 Jun 2027 12:39:36.579   04 Jun 2027 12:39:39.717             3.138                Norilsk            98.063
       354   04 Jun 2027 12:41:18.583   04 Jun 2027 12:41:36.078            17.495                Norilsk           546.719
       355   04 Jun 2027 13:13:10.759   04 Jun 2027 13:14:59.759           109.000            RioGallegos          3406.250
       356   04 Jun 2027 13:47:24.754   04 Jun 2027 13:51:06.091           221.337                Sumatra          6916.781
       357   04 Jun 2027 14:03:00.454   04 Jun 2027 14:05:07.903           127.449                Irkutsk          3982.781
       358   04 Jun 2027 14:06:38.303   04 Jun 2027 14:07:32.749            54.446                Irkutsk          1701.438
       359   04 Jun 2027 15:32:44.848   04 Jun 2027 15:35:12.629           147.781                  Delhi          4618.156
       360   04 Jun 2027 15:41:15.411   04 Jun 2027 15:45:08.969           233.558                Novosib          7298.688
       361   04 Jun 2027 15:45:25.685   04 Jun 2027 15:45:38.671            12.986                Novosib           405.813
       362   04 Jun 2027 15:49:19.112   04 Jun 2027 15:49:37.961            18.849                Norilsk           589.031
       363   04 Jun 2027 16:56:55.671   04 Jun 2027 16:57:02.005             6.334               CapeTown           197.937
       364   04 Jun 2027 17:00:24.451   04 Jun 2027 17:00:51.413            26.962               CapeTown           842.563
       365   04 Jun 2027 17:15:12.153   04 Jun 2027 17:15:25.812            13.659                 Moscow           426.844
       366   04 Jun 2027 17:16:33.673   04 Jun 2027 17:17:57.540            83.867                 Moscow          2620.844
       367   04 Jun 2027 17:18:40.086   04 Jun 2027 17:19:14.158            34.072              Murmansk1          1064.750
       368   04 Jun 2027 17:21:29.885   04 Jun 2027 17:22:06.789            36.904              Murmansk2          1153.250
       369   04 Jun 2027 17:30:37.767   04 Jun 2027 17:31:10.939            33.172              Murmansk1          1036.625
       370   04 Jun 2027 17:33:49.380   04 Jun 2027 17:34:47.447            58.067                Anadyr1          1814.594
       371   04 Jun 2027 17:35:55.663   04 Jun 2027 17:36:07.670            12.007                Anadyr1           375.219
       372   04 Jun 2027 17:36:12.446   04 Jun 2027 17:36:20.939             8.493                Anadyr1           265.406
       373   04 Jun 2027 17:40:10.663   04 Jun 2027 17:40:10.982             0.319                Anadyr2             9.969
       374   04 Jun 2027 17:40:19.002   04 Jun 2027 17:40:32.202            13.200                Anadyr1           412.500
       375   04 Jun 2027 18:28:17.619   04 Jun 2027 18:29:07.226            49.607               CapeTown          1550.219
       376   04 Jun 2027 18:34:12.352   04 Jun 2027 18:34:23.719            11.367               CapeTown           355.219
       377   04 Jun 2027 18:35:13.056   04 Jun 2027 18:35:34.206            21.150               CapeTown           660.938
       378   04 Jun 2027 18:40:14.615   04 Jun 2027 18:40:24.928            10.313               CapeTown           322.281
       379   04 Jun 2027 18:55:38.088   04 Jun 2027 18:59:28.124           230.036                 Moscow          7188.625
       380   04 Jun 2027 19:01:12.497   04 Jun 2027 19:01:21.463             8.966              Murmansk1           280.188
       381   04 Jun 2027 19:01:36.813   04 Jun 2027 19:02:04.486            27.673              Murmansk2           864.781
       382   04 Jun 2027 19:06:26.670   04 Jun 2027 19:07:04.199            37.529              Murmansk2          1172.781
       383   04 Jun 2027 19:14:41.487   04 Jun 2027 19:15:58.217            76.730               Magadan1          2397.812
       384   04 Jun 2027 20:05:23.463   04 Jun 2027 20:06:08.258            44.795               CapeTown          1399.844
       385   04 Jun 2027 20:12:01.082   04 Jun 2027 20:12:43.335            42.253               CapeTown          1320.406
       386   04 Jun 2027 20:13:34.737   04 Jun 2027 20:14:08.545            33.808               CapeTown          1056.500
       387   04 Jun 2027 20:38:47.204   04 Jun 2027 20:41:40.571           173.367              Murmansk2          5417.719
       388   04 Jun 2027 20:47:19.896   04 Jun 2027 20:47:58.576            38.680               Magadan2          1208.750
       389   04 Jun 2027 20:49:57.516   04 Jun 2027 20:50:29.238            31.722               Magadan1           991.313
       390   04 Jun 2027 20:51:08.611   04 Jun 2027 20:51:32.925            24.314               Magadan1           759.813
       391   04 Jun 2027 20:52:10.255   04 Jun 2027 20:52:30.754            20.499               Magadan1           640.594
       392   04 Jun 2027 22:20:43.250   04 Jun 2027 22:25:49.046           305.796                Anadyr1          9556.125
       393   04 Jun 2027 22:25:57.511   04 Jun 2027 22:27:22.187            84.676                Norilsk          2646.125
       394   04 Jun 2027 22:27:42.197   04 Jun 2027 22:28:34.696            52.499               Magadan1          1640.594
       395   04 Jun 2027 22:33:00.354   04 Jun 2027 22:33:23.045            22.691               Magadan2           709.094
       396   04 Jun 2027 22:34:11.365   04 Jun 2027 22:34:25.623            14.258               Magadan1           445.562
       397   04 Jun 2027 23:15:13.140   04 Jun 2027 23:18:02.223           169.083            RioGallegos          5283.844
       398   04 Jun 2027 23:18:36.435   04 Jun 2027 23:19:08.671            32.236            RioGallegos          1007.375
       399   04 Jun 2027 23:56:21.693   04 Jun 2027 23:57:21.075            59.382                Anadyr1          1855.688
       400   04 Jun 2027 23:57:55.994   04 Jun 2027 23:58:23.992            27.998                Anadyr2           874.937
       401   04 Jun 2027 23:58:31.774   05 Jun 2027 00:00:15.548           103.774                Norilsk          3242.938
       402   05 Jun 2027 00:00:23.987   05 Jun 2027 00:00:46.368            22.381               Magadan2           699.406
       403   05 Jun 2027 00:01:56.974   05 Jun 2027 00:02:58.969            61.995               Magadan1          1937.344
       404   05 Jun 2027 00:03:32.920   05 Jun 2027 00:04:07.742            34.822                Irkutsk          1088.187
       405   05 Jun 2027 00:04:56.501   05 Jun 2027 00:05:35.851            39.350                Novosib          1229.687
       406   05 Jun 2027 00:07:06.240   05 Jun 2027 00:07:15.166             8.926                Novosib           278.938
       407   05 Jun 2027 00:16:34.059   05 Jun 2027 00:18:06.614            92.555                Sumatra          2892.344
       408   05 Jun 2027 00:18:37.114   05 Jun 2027 00:19:06.084            28.970                Sumatra           905.312
       409   05 Jun 2027 00:22:54.620   05 Jun 2027 00:23:11.731            17.111                Sumatra           534.719
       410   05 Jun 2027 00:28:35.035   05 Jun 2027 00:28:51.400            16.365                Sumatra           511.406
       411   05 Jun 2027 00:51:39.709   05 Jun 2027 00:52:24.512            44.803            RioGallegos          1400.094
       412   05 Jun 2027 00:59:22.233   05 Jun 2027 00:59:43.409            21.176            RioGallegos           661.750
       413   05 Jun 2027 01:00:01.196   05 Jun 2027 01:00:26.201            25.005            RioGallegos           781.406
       414   05 Jun 2027 01:31:09.182   05 Jun 2027 01:32:14.638            65.456                Anadyr2          2045.500
       415   05 Jun 2027 01:32:14.638   05 Jun 2027 01:33:12.795            58.157                Anadyr1          1817.406
       416   05 Jun 2027 01:34:29.255   05 Jun 2027 01:36:10.900           101.645                Norilsk          3176.406
       417   05 Jun 2027 01:38:21.912   05 Jun 2027 01:39:27.701            65.789                Irkutsk          2055.906
       418   05 Jun 2027 01:39:32.551   05 Jun 2027 01:40:21.816            49.265                Novosib          1539.531
       419   05 Jun 2027 01:43:20.622   05 Jun 2027 01:43:41.397            20.775                Novosib           649.219
       420   05 Jun 2027 01:43:56.507   05 Jun 2027 01:44:44.252            47.745                Novosib          1492.031
       421   05 Jun 2027 01:49:05.955   05 Jun 2027 01:49:37.985            32.030                  Delhi          1000.938
       422   05 Jun 2027 01:52:25.995   05 Jun 2027 01:52:52.366            26.371                  Delhi           824.094
       423   05 Jun 2027 01:53:46.159   05 Jun 2027 01:54:50.545            64.386                Sumatra          2012.062
       424   05 Jun 2027 02:00:20.861   05 Jun 2027 02:02:41.928           141.067                Sumatra          4408.344
       425   05 Jun 2027 03:16:39.541   05 Jun 2027 03:17:08.765            29.224                Norilsk           913.250
       426   05 Jun 2027 03:17:26.419   05 Jun 2027 03:19:59.727           153.308                Novosib          4790.875
       427   05 Jun 2027 03:20:03.334   05 Jun 2027 03:20:57.890            54.556                Norilsk          1704.875
       428   05 Jun 2027 03:21:29.112   05 Jun 2027 03:22:38.788            69.676                 Moscow          2177.375
       429   05 Jun 2027 04:38:06.277   05 Jun 2027 04:38:31.748            25.471                Anadyr2           795.969
       430   05 Jun 2027 04:55:50.917   05 Jun 2027 04:56:58.329            67.412                Novosib          2106.625
       431   05 Jun 2027 04:57:23.499   05 Jun 2027 04:58:21.051            57.552                Norilsk          1798.500
       432   05 Jun 2027 04:58:24.245   05 Jun 2027 04:58:49.490            25.245                 Moscow           788.906
       433   05 Jun 2027 04:58:53.317   05 Jun 2027 05:00:16.560            83.243                Novosib          2601.344
       434   05 Jun 2027 05:03:54.282   05 Jun 2027 05:04:20.931            26.649                 Moscow           832.781
       435   05 Jun 2027 05:16:25.244   05 Jun 2027 05:17:40.701            75.457               CapeTown          2358.031
       436   05 Jun 2027 05:18:37.118   05 Jun 2027 05:19:35.064            57.946               CapeTown          1810.812
       437   05 Jun 2027 06:20:06.666   05 Jun 2027 06:20:14.455             7.789                Anadyr1           243.406
       438   05 Jun 2027 06:20:52.006   05 Jun 2027 06:20:55.569             3.563               Magadan2           111.344
       439   05 Jun 2027 06:21:14.775   05 Jun 2027 06:22:06.817            52.042                Anadyr2          1626.312
       440   05 Jun 2027 06:22:42.784   05 Jun 2027 06:22:44.742             1.958                Anadyr1            61.187
       441   05 Jun 2027 06:31:43.536   05 Jun 2027 06:32:26.506            42.970                 Moscow          1342.812
       442   05 Jun 2027 06:34:40.185   05 Jun 2027 06:35:26.443            46.258                 Moscow          1445.563
       443   05 Jun 2027 06:52:22.524   05 Jun 2027 06:53:19.575            57.051               CapeTown          1782.844
       444   05 Jun 2027 06:56:43.062   05 Jun 2027 06:57:29.031            45.969               CapeTown          1436.531
       445   05 Jun 2027 07:54:21.926   05 Jun 2027 07:55:29.699            67.773                Anadyr1          2117.906
       446   05 Jun 2027 07:55:40.572   05 Jun 2027 07:56:50.855            70.283               Magadan1          2196.344
       447   05 Jun 2027 07:57:05.318   05 Jun 2027 07:58:00.042            54.724               Magadan2          1710.125
       448   05 Jun 2027 08:42:31.561   05 Jun 2027 08:42:43.272            11.711            RioGallegos           365.969
       449   05 Jun 2027 08:45:58.975   05 Jun 2027 08:45:59.520             0.545            RioGallegos            17.031
       450   05 Jun 2027 09:30:43.826   05 Jun 2027 09:30:55.091            11.265                Anadyr1           352.031
       451   05 Jun 2027 09:31:03.836   05 Jun 2027 09:31:59.504            55.668               Magadan2          1739.625
       452   05 Jun 2027 09:33:06.504   05 Jun 2027 09:33:06.929             0.425               Magadan1            13.281
       453   05 Jun 2027 09:33:06.929   05 Jun 2027 09:33:10.220             3.291               Magadan2           102.844
       454   05 Jun 2027 09:33:11.809   05 Jun 2027 09:33:40.464            28.655                Anadyr1           895.469
       455   05 Jun 2027 09:33:59.965   05 Jun 2027 09:34:40.195            40.230               Magadan2          1257.188
       456   05 Jun 2027 09:34:56.747   05 Jun 2027 09:35:27.171            30.424               Magadan1           950.750
       457   05 Jun 2027 10:12:47.775   05 Jun 2027 10:12:51.962             4.187            RioGallegos           130.844
       458   05 Jun 2027 10:14:14.342   05 Jun 2027 10:14:19.528             5.186            RioGallegos           162.063
       459   05 Jun 2027 10:15:03.405   05 Jun 2027 10:15:24.368            20.963            RioGallegos           655.094
       460   05 Jun 2027 10:23:46.825   05 Jun 2027 10:24:00.059            13.234            RioGallegos           413.563
       461   05 Jun 2027 11:04:56.613   05 Jun 2027 11:05:32.823            36.210               Magadan1          1131.563
       462   05 Jun 2027 11:05:40.664   05 Jun 2027 11:08:32.443           171.779               Magadan1          5368.094
       463   05 Jun 2027 11:08:37.611   05 Jun 2027 11:12:03.088           205.477               Magadan2          6421.156
       464   05 Jun 2027 11:12:58.261   05 Jun 2027 11:13:33.837            35.576                Norilsk          1111.750
       465   05 Jun 2027 11:47:21.173   05 Jun 2027 11:48:23.713            62.540            RioGallegos          1954.375
       466   05 Jun 2027 12:22:27.889   05 Jun 2027 12:23:11.262            43.373                Sumatra          1355.406
       467   05 Jun 2027 12:24:47.219   05 Jun 2027 12:24:51.199             3.980                Sumatra           124.375
       468   05 Jun 2027 12:34:16.936   05 Jun 2027 12:34:46.306            29.370                  Delhi           917.813
       469   05 Jun 2027 12:36:01.024   05 Jun 2027 12:37:38.449            97.425                Irkutsk          3044.531
       470   05 Jun 2027 12:39:00.870   05 Jun 2027 12:39:50.752            49.882                Irkutsk          1558.812
       471   05 Jun 2027 12:40:41.834   05 Jun 2027 12:41:44.412            62.578                Norilsk          1955.562
       472   05 Jun 2027 13:25:50.586   05 Jun 2027 13:28:12.183           141.597            RioGallegos          4424.906
       473   05 Jun 2027 14:00:12.160   05 Jun 2027 14:03:00.767           168.607                Sumatra          5268.969
       474   05 Jun 2027 14:16:00.552   05 Jun 2027 14:19:49.402           228.850                Irkutsk          7151.562
       475   05 Jun 2027 15:45:57.861   05 Jun 2027 15:49:56.447           238.586                  Delhi          7455.813
       476   05 Jun 2027 15:54:23.918   05 Jun 2027 15:57:11.723           167.805                Novosib          5243.906
       477   05 Jun 2027 17:27:29.193   05 Jun 2027 17:28:36.776            67.583                 Moscow          2111.969
       478   05 Jun 2027 17:29:55.401   05 Jun 2027 17:30:28.449            33.048                 Moscow          1032.750
       479   05 Jun 2027 17:31:35.671   05 Jun 2027 17:33:02.825            87.154              Murmansk1          2723.563
       480   05 Jun 2027 17:45:37.647   05 Jun 2027 17:46:46.434            68.787                Anadyr2          2149.594
       481   05 Jun 2027 17:49:58.976   05 Jun 2027 17:50:27.166            28.190                Anadyr2           880.937
       482   05 Jun 2027 18:40:17.086   05 Jun 2027 18:42:37.448           140.362               CapeTown          4386.313
