uniorb/output/strategy_4/Drop/Drop_KinoSat_110907.txt

KinoSat_110907
-------------------------
    Access    *     Start Time (UTCG)     *     Stop Time (UTCG)  *   Duration (s)        *       Station  *  Data (Mbytes)
         1   01 Jun 2027 03:13:02.893   01 Jun 2027 03:13:27.124            24.231                Anadyr2           757.219
         2   01 Jun 2027 03:13:34.003   01 Jun 2027 03:13:49.494            15.491               Magadan1           484.094
         3   01 Jun 2027 03:13:52.608   01 Jun 2027 03:14:19.730            27.122                Anadyr2           847.562
         4   01 Jun 2027 03:14:36.605   01 Jun 2027 03:14:46.626            10.021               Magadan1           313.156
         5   01 Jun 2027 03:14:58.918   01 Jun 2027 03:15:05.988             7.070                Anadyr2           220.937
         6   01 Jun 2027 03:15:40.641   01 Jun 2027 03:17:09.075            88.434                Anadyr1          2763.562
         7   01 Jun 2027 03:18:23.118   01 Jun 2027 03:18:30.523             7.405               Magadan1           231.406
         8   01 Jun 2027 03:18:30.523   01 Jun 2027 03:18:32.992             2.469               Magadan2            77.156
         9   01 Jun 2027 03:18:54.211   01 Jun 2027 03:18:58.277             4.066                Anadyr1           127.063
        10   01 Jun 2027 04:49:32.374   01 Jun 2027 04:50:35.429            63.055                Anadyr1          1970.469
        11   01 Jun 2027 04:50:35.429   01 Jun 2027 04:50:51.728            16.299                Anadyr2           509.344
        12   01 Jun 2027 04:51:02.895   01 Jun 2027 04:51:20.420            17.525                Anadyr1           547.656
        13   01 Jun 2027 04:51:38.627   01 Jun 2027 04:54:30.482           171.855               Magadan2          5370.469
        14   01 Jun 2027 04:54:30.482   01 Jun 2027 04:54:35.835             5.353               Magadan1           167.281
        15   01 Jun 2027 06:23:29.352   01 Jun 2027 06:24:24.561            55.209                Norilsk          1725.281
        16   01 Jun 2027 06:24:27.212   01 Jun 2027 06:24:48.567            21.355                Norilsk           667.344
        17   01 Jun 2027 06:24:48.857   01 Jun 2027 06:26:58.713           129.856                Anadyr2          4058.000
        18   01 Jun 2027 06:27:04.081   01 Jun 2027 06:27:50.718            46.637                Anadyr2          1457.406
        19   01 Jun 2027 06:28:02.916   01 Jun 2027 06:28:37.322            34.406                Novosib          1075.187
        20   01 Jun 2027 06:28:42.304   01 Jun 2027 06:29:45.024            62.720                Norilsk          1960.000
        21   01 Jun 2027 06:29:49.743   01 Jun 2027 06:29:55.202             5.459                Norilsk           170.594
        22   01 Jun 2027 06:30:08.554   01 Jun 2027 06:30:16.562             8.008               Magadan1           250.250
        23   01 Jun 2027 06:30:19.697   01 Jun 2027 06:34:41.643           261.946              Murmansk2          8185.813
        24   01 Jun 2027 07:05:19.003   01 Jun 2027 07:08:32.023           193.020            RioGallegos          6031.875
        25   01 Jun 2027 07:42:20.615   01 Jun 2027 07:42:57.128            36.513                Sumatra          1141.031
        26   01 Jun 2027 08:00:50.923   01 Jun 2027 08:02:33.635           102.712               Magadan2          3209.750
        27   01 Jun 2027 08:02:33.635   01 Jun 2027 08:02:35.732             2.097               Magadan1            65.531
        28   01 Jun 2027 08:02:45.864   01 Jun 2027 08:03:43.773            57.909               Magadan2          1809.656
        29   01 Jun 2027 08:04:00.126   01 Jun 2027 08:04:43.996            43.870              Murmansk1          1370.938
        30   01 Jun 2027 08:04:45.035   01 Jun 2027 08:05:28.973            43.938              Murmansk2          1373.063
        31   01 Jun 2027 08:05:32.192   01 Jun 2027 08:06:18.198            46.006                Irkutsk          1437.687
        32   01 Jun 2027 08:07:28.922   01 Jun 2027 08:07:38.555             9.633                Novosib           301.031
        33   01 Jun 2027 08:10:10.762   01 Jun 2027 08:10:22.465            11.703              Murmansk2           365.719
        34   01 Jun 2027 08:41:27.661   01 Jun 2027 08:42:35.534            67.873            RioGallegos          2121.031
        35   01 Jun 2027 09:15:53.839   01 Jun 2027 09:17:05.128            71.289                Sumatra          2227.781
        36   01 Jun 2027 09:20:16.122   01 Jun 2027 09:20:48.714            32.592                Sumatra          1018.500
        37   01 Jun 2027 09:25:09.132   01 Jun 2027 09:26:39.354            90.222                  Delhi          2819.437
        38   01 Jun 2027 09:39:10.458   01 Jun 2027 09:39:14.596             4.138                Novosib           129.312
        39   01 Jun 2027 09:39:17.715   01 Jun 2027 09:39:36.680            18.965                 Moscow           592.656
        40   01 Jun 2027 09:39:46.739   01 Jun 2027 09:40:02.184            15.445                Novosib           482.656
        41   01 Jun 2027 09:40:02.547   01 Jun 2027 09:40:14.634            12.087                 Moscow           377.719
        42   01 Jun 2027 09:40:28.983   01 Jun 2027 09:43:46.533           197.550                Novosib          6173.438
        43   01 Jun 2027 09:43:53.286   01 Jun 2027 09:44:59.739            66.453                Norilsk          2076.656
        44   01 Jun 2027 11:00:27.789   01 Jun 2027 11:03:21.181           173.392                  Delhi          5418.500
        45   01 Jun 2027 11:11:52.781   01 Jun 2027 11:12:17.825            25.044                  Delhi           782.625
        46   01 Jun 2027 11:15:27.962   01 Jun 2027 11:19:05.372           217.410                Novosib          6794.062
        47   01 Jun 2027 11:19:16.121   01 Jun 2027 11:19:31.559            15.438                Norilsk           482.438
        48   01 Jun 2027 12:44:25.213   01 Jun 2027 12:48:49.523           264.310                 Moscow          8259.688
        49   01 Jun 2027 12:48:59.266   01 Jun 2027 12:52:27.583           208.317              Murmansk1          6509.906
        50   01 Jun 2027 12:55:51.318   01 Jun 2027 12:56:58.534            67.216                Norilsk          2100.500
        51   01 Jun 2027 13:58:29.883   01 Jun 2027 14:01:08.110           158.227               CapeTown          4944.594
        52   01 Jun 2027 14:02:05.090   01 Jun 2027 14:02:57.263            52.173               CapeTown          1630.406
        53   01 Jun 2027 14:25:22.766   01 Jun 2027 14:25:58.555            35.789              Murmansk1          1118.406
        54   01 Jun 2027 14:26:10.426   01 Jun 2027 14:27:29.033            78.607              Murmansk2          2456.469
        55   01 Jun 2027 14:28:32.085   01 Jun 2027 14:29:08.551            36.466              Murmansk1          1139.562
        56   01 Jun 2027 14:38:47.533   01 Jun 2027 14:41:29.954           162.421                Anadyr2          5075.656
        57   01 Jun 2027 14:44:28.466   01 Jun 2027 14:44:35.934             7.468                Anadyr1           233.375
        58   01 Jun 2027 14:45:28.082   01 Jun 2027 14:45:54.012            25.930                Anadyr1           810.312
        59   01 Jun 2027 14:46:41.680   01 Jun 2027 14:46:49.375             7.695                Anadyr1           240.469
        60   01 Jun 2027 15:34:04.782   01 Jun 2027 15:34:22.778            17.996               CapeTown           562.375
        61   01 Jun 2027 15:34:36.192   01 Jun 2027 15:35:34.486            58.294               CapeTown          1821.688
        62   01 Jun 2027 16:05:17.862   01 Jun 2027 16:06:45.784            87.922              Murmansk2          2747.562
        63   01 Jun 2027 16:07:05.054   01 Jun 2027 16:07:35.485            30.431              Murmansk2           950.969
        64   01 Jun 2027 16:08:50.650   01 Jun 2027 16:09:24.478            33.828              Murmansk1          1057.125
        65   01 Jun 2027 16:14:27.629   01 Jun 2027 16:14:55.876            28.247                Anadyr1           882.719
        66   01 Jun 2027 16:16:07.843   01 Jun 2027 16:17:25.178            77.335                Anadyr1          2416.719
        67   01 Jun 2027 16:17:25.178   01 Jun 2027 16:17:51.996            26.818                Anadyr2           838.063
        68   01 Jun 2027 16:18:15.271   01 Jun 2027 16:18:30.025            14.754                Anadyr2           461.062
        69   01 Jun 2027 16:18:57.627   01 Jun 2027 16:21:55.551           177.924               Magadan1          5560.125
        70   01 Jun 2027 16:23:22.993   01 Jun 2027 16:24:00.961            37.968               Magadan1          1186.500
        71   01 Jun 2027 17:50:22.968   01 Jun 2027 17:53:51.044           208.076                Anadyr1          6502.375
        72   01 Jun 2027 17:54:17.916   01 Jun 2027 17:55:39.231            81.315               Magadan2          2541.094
        73   01 Jun 2027 17:56:09.004   01 Jun 2027 17:58:33.736           144.732               Magadan2          4522.875
        74   01 Jun 2027 18:46:18.582   01 Jun 2027 18:49:08.686           170.104            RioGallegos          5315.750
        75   01 Jun 2027 19:26:10.759   01 Jun 2027 19:27:59.881           109.122                Anadyr1          3410.062
        76   01 Jun 2027 19:28:21.446   01 Jun 2027 19:28:57.249            35.803                Norilsk          1118.844
        77   01 Jun 2027 19:29:51.024   01 Jun 2027 19:30:17.511            26.487               Magadan1           827.719
        78   01 Jun 2027 19:30:23.692   01 Jun 2027 19:32:19.296           115.604                Norilsk          3612.625
        79   01 Jun 2027 19:33:10.185   01 Jun 2027 19:33:24.895            14.710                Irkutsk           459.687
        80   01 Jun 2027 19:34:23.491   01 Jun 2027 19:38:02.042           218.551                Irkutsk          6829.719
        81   01 Jun 2027 19:39:24.905   01 Jun 2027 19:39:36.746            11.841                Irkutsk           370.031
        82   01 Jun 2027 19:47:54.749   01 Jun 2027 19:50:29.159           154.410                Sumatra          4825.313
        83   01 Jun 2027 19:51:46.837   01 Jun 2027 19:52:40.642            53.805                Sumatra          1681.406
        84   01 Jun 2027 19:54:49.544   01 Jun 2027 19:55:50.999            61.455                Sumatra          1920.469
        85   01 Jun 2027 21:08:01.639   01 Jun 2027 21:09:37.125            95.486                Irkutsk          2983.938
        86   01 Jun 2027 21:18:13.274   01 Jun 2027 21:20:22.397           129.123                  Delhi          4035.094
        87   01 Jun 2027 21:22:56.870   01 Jun 2027 21:23:46.204            49.334                  Delhi          1541.687
        88   01 Jun 2027 22:36:48.122   01 Jun 2027 22:37:29.625            41.503                Anadyr2          1296.969
        89   01 Jun 2027 22:40:39.282   01 Jun 2027 22:41:48.451            69.169               Magadan1          2161.531
        90   01 Jun 2027 22:42:22.710   01 Jun 2027 22:43:35.237            72.527               Magadan2          2266.469
        91   01 Jun 2027 22:43:55.078   01 Jun 2027 22:45:19.353            84.275                Novosib          2633.594
        92   01 Jun 2027 22:45:20.575   01 Jun 2027 22:48:43.475           202.900              Murmansk2          6340.625
        93   02 Jun 2027 00:08:45.400   02 Jun 2027 00:09:03.995            18.595                Anadyr2           581.094
        94   02 Jun 2027 00:09:40.239   02 Jun 2027 00:10:14.715            34.476                Anadyr1          1077.375
        95   02 Jun 2027 00:11:13.840   02 Jun 2027 00:11:59.231            45.391                Anadyr1          1418.469
        96   02 Jun 2027 00:13:43.396   02 Jun 2027 00:14:02.063            18.667                Anadyr1           583.344
        97   02 Jun 2027 00:14:43.114   02 Jun 2027 00:17:19.189           156.075               Magadan2          4877.344
        98   02 Jun 2027 00:17:44.902   02 Jun 2027 00:18:23.544            38.642               Magadan1          1207.562
        99   02 Jun 2027 00:18:44.716   02 Jun 2027 00:21:16.138           151.422              Murmansk1          4731.937
       100   02 Jun 2027 00:22:54.674   02 Jun 2027 00:23:31.036            36.362                 Moscow          1136.313
       101   02 Jun 2027 00:23:57.240   02 Jun 2027 00:24:15.993            18.753                 Moscow           586.031
       102   02 Jun 2027 00:28:49.125   02 Jun 2027 00:28:55.516             6.391                 Moscow           199.719
       103   02 Jun 2027 00:29:47.971   02 Jun 2027 00:29:49.847             1.876                 Moscow            58.625
       104   02 Jun 2027 00:31:26.818   02 Jun 2027 00:31:30.750             3.932                 Moscow           122.875
       105   02 Jun 2027 00:32:39.017   02 Jun 2027 00:32:53.331            14.314                 Moscow           447.313
       106   02 Jun 2027 00:47:52.895   02 Jun 2027 00:49:35.200           102.305               CapeTown          3197.031
       107   02 Jun 2027 00:52:14.882   02 Jun 2027 00:53:28.442            73.560               CapeTown          2298.750
       108   02 Jun 2027 01:46:21.812   02 Jun 2027 01:47:12.254            50.442               Magadan2          1576.312
       109   02 Jun 2027 01:47:12.254   02 Jun 2027 01:47:28.191            15.937               Magadan1           498.031
       110   02 Jun 2027 01:48:01.657   02 Jun 2027 01:48:50.504            48.847               Magadan1          1526.469
       111   02 Jun 2027 01:54:13.739   02 Jun 2027 01:55:00.382            46.643              Murmansk1          1457.594
       112   02 Jun 2027 01:55:46.064   02 Jun 2027 01:55:54.141             8.077              Murmansk2           252.406
       113   02 Jun 2027 01:56:16.972   02 Jun 2027 01:57:18.724            61.752              Murmansk1          1929.750
       114   02 Jun 2027 01:57:26.466   02 Jun 2027 01:58:32.454            65.988                 Moscow          2062.125
       115   02 Jun 2027 02:06:08.946   02 Jun 2027 02:06:14.463             5.517                 Moscow           172.406
       116   02 Jun 2027 02:07:05.946   02 Jun 2027 02:07:52.853            46.907                 Moscow          1465.844
       117   02 Jun 2027 02:25:54.444   02 Jun 2027 02:25:55.851             1.407               CapeTown            43.969
       118   02 Jun 2027 02:26:23.792   02 Jun 2027 02:27:00.330            36.538               CapeTown          1141.813
       119   02 Jun 2027 02:31:16.721   02 Jun 2027 02:31:35.806            19.085               CapeTown           596.406
       120   02 Jun 2027 03:24:12.468   02 Jun 2027 03:28:35.712           263.244                Anadyr2          8226.375
       121   02 Jun 2027 03:28:35.712   02 Jun 2027 03:29:23.227            47.515                Anadyr1          1484.844
       122   02 Jun 2027 05:03:04.530   02 Jun 2027 05:03:19.034            14.504                Anadyr2           453.250
       123   02 Jun 2027 05:03:28.564   02 Jun 2027 05:04:46.432            77.868                Anadyr1          2433.375
       124   02 Jun 2027 05:04:47.783   02 Jun 2027 05:05:49.743            61.960                Anadyr1          1936.250
       125   02 Jun 2027 05:05:57.684   02 Jun 2027 05:06:43.762            46.078                Anadyr1          1439.938
       126   02 Jun 2027 06:36:41.785   02 Jun 2027 06:37:07.158            25.373                Irkutsk           792.906
       127   02 Jun 2027 06:37:41.760   02 Jun 2027 06:37:52.521            10.761                Irkutsk           336.281
       128   02 Jun 2027 06:37:56.957   02 Jun 2027 06:38:17.616            20.659                Irkutsk           645.594
       129   02 Jun 2027 06:38:25.210   02 Jun 2027 06:39:42.485            77.275                Novosib          2414.844
       130   02 Jun 2027 06:39:46.857   02 Jun 2027 06:40:44.508            57.651                Anadyr2          1801.594
       131   02 Jun 2027 06:40:59.572   02 Jun 2027 06:42:12.384            72.812               Magadan1          2275.375
       132   02 Jun 2027 06:42:16.611   02 Jun 2027 06:42:56.318            39.707                Novosib          1240.844
       133   02 Jun 2027 08:15:37.514   02 Jun 2027 08:18:19.506           161.992                Irkutsk          5062.250
       134   02 Jun 2027 08:53:47.391   02 Jun 2027 08:54:38.313            50.922            RioGallegos          1591.312
       135   02 Jun 2027 08:58:52.526   02 Jun 2027 08:59:12.236            19.710            RioGallegos           615.937
       136   02 Jun 2027 09:03:01.060   02 Jun 2027 09:03:03.917             2.857            RioGallegos            89.281
       137   02 Jun 2027 09:03:39.890   02 Jun 2027 09:03:41.026             1.136            RioGallegos            35.500
       138   02 Jun 2027 09:28:06.249   02 Jun 2027 09:29:43.723            97.474                Sumatra          3046.063
       139   02 Jun 2027 09:35:21.803   02 Jun 2027 09:35:57.822            36.019                Sumatra          1125.594
       140   02 Jun 2027 09:48:47.533   02 Jun 2027 09:48:51.567             4.034                Irkutsk           126.062
       141   02 Jun 2027 09:49:10.320   02 Jun 2027 09:49:58.720            48.400                Irkutsk          1512.500
       142   02 Jun 2027 09:51:44.319   02 Jun 2027 09:52:03.883            19.564                Norilsk           611.375
       143   02 Jun 2027 09:52:05.741   02 Jun 2027 09:53:04.193            58.452                Irkutsk          1826.625
       144   02 Jun 2027 09:53:32.904   02 Jun 2027 09:54:08.633            35.729                Novosib          1116.531
       145   02 Jun 2027 11:12:51.342   02 Jun 2027 11:14:40.242           108.900                  Delhi          3403.125
       146   02 Jun 2027 11:17:27.970   02 Jun 2027 11:17:51.637            23.667                  Delhi           739.594
       147   02 Jun 2027 11:27:59.648   02 Jun 2027 11:28:49.565            49.917                Norilsk          1559.906
       148   02 Jun 2027 11:29:14.501   02 Jun 2027 11:29:35.608            21.107                Norilsk           659.594
       149   02 Jun 2027 11:29:49.859   02 Jun 2027 11:30:04.056            14.197                Norilsk           443.656
       150   02 Jun 2027 12:56:30.583   02 Jun 2027 12:59:17.242           166.659                 Moscow          5208.094
       151   02 Jun 2027 12:59:28.729   02 Jun 2027 13:00:02.991            34.262                 Moscow          1070.688
       152   02 Jun 2027 13:00:21.286   02 Jun 2027 13:01:33.966            72.680              Murmansk1          2271.250
       153   02 Jun 2027 13:01:49.633   02 Jun 2027 13:02:49.803            60.170              Murmansk2          1880.313
       154   02 Jun 2027 13:03:10.153   02 Jun 2027 13:04:09.369            59.216              Murmansk1          1850.500
       155   02 Jun 2027 13:16:49.565   02 Jun 2027 13:17:46.783            57.218                Anadyr1          1788.062
       156   02 Jun 2027 13:18:47.066   02 Jun 2027 13:19:33.414            46.348                Anadyr1          1448.375
       157   02 Jun 2027 14:10:17.205   02 Jun 2027 14:11:45.141            87.936               CapeTown          2748.000
       158   02 Jun 2027 14:12:36.325   02 Jun 2027 14:13:20.762            44.437               CapeTown          1388.656
       159   02 Jun 2027 14:37:44.677   02 Jun 2027 14:38:45.585            60.908              Murmansk1          1903.375
       160   02 Jun 2027 14:39:03.139   02 Jun 2027 14:39:10.945             7.806              Murmansk1           243.937
       161   02 Jun 2027 14:39:28.035   02 Jun 2027 14:40:24.079            56.044              Murmansk1          1751.375
       162   02 Jun 2027 14:41:09.652   02 Jun 2027 14:41:33.017            23.365              Murmansk2           730.156
       163   02 Jun 2027 14:50:44.714   02 Jun 2027 14:53:30.953           166.239                Anadyr2          5194.969
       164   02 Jun 2027 14:58:24.454   02 Jun 2027 14:58:49.850            25.396                Anadyr2           793.625
       165   02 Jun 2027 15:46:40.746   02 Jun 2027 15:46:51.561            10.815               CapeTown           337.969
       166   02 Jun 2027 16:18:05.572   02 Jun 2027 16:20:29.750           144.178              Murmansk2          4505.562
       167   02 Jun 2027 16:26:28.670   02 Jun 2027 16:26:48.868            20.198                Anadyr1           631.188
       168   02 Jun 2027 16:28:03.094   02 Jun 2027 16:28:13.602            10.508                Anadyr1           328.375
       169   02 Jun 2027 16:28:25.626   02 Jun 2027 16:29:48.015            82.389                Anadyr2          2574.656
       170   02 Jun 2027 16:29:51.276   02 Jun 2027 16:32:34.317           163.041               Magadan2          5095.031
       171   02 Jun 2027 16:34:54.035   02 Jun 2027 16:35:35.177            41.142               Magadan2          1285.687
       172   02 Jun 2027 18:02:24.147   02 Jun 2027 18:06:03.898           219.751                Anadyr2          6867.219
       173   02 Jun 2027 18:06:24.195   02 Jun 2027 18:06:27.533             3.338                Anadyr2           104.312
       174   02 Jun 2027 18:06:29.617   02 Jun 2027 18:09:00.597           150.980               Magadan1          4718.125
       175   02 Jun 2027 18:11:45.165   02 Jun 2027 18:11:52.581             7.416               Magadan1           231.750
       176   02 Jun 2027 18:12:04.879   02 Jun 2027 18:12:10.307             5.428               Magadan1           169.625
       177   02 Jun 2027 18:57:44.779   02 Jun 2027 19:00:55.382           190.603            RioGallegos          5956.344
       178   02 Jun 2027 19:04:39.752   02 Jun 2027 19:04:46.490             6.738            RioGallegos           210.562
       179   02 Jun 2027 19:38:09.429   02 Jun 2027 19:39:28.663            79.234                Anadyr1          2476.062
       180   02 Jun 2027 19:39:39.057   02 Jun 2027 19:40:16.451            37.394                Anadyr1          1168.563
       181   02 Jun 2027 19:40:19.411   02 Jun 2027 19:40:45.992            26.581                Norilsk           830.656
       182   02 Jun 2027 19:41:00.864   02 Jun 2027 19:44:19.422           198.558                Norilsk          6204.938
       183   02 Jun 2027 19:45:05.243   02 Jun 2027 19:45:41.098            35.855                Irkutsk          1120.469
       184   02 Jun 2027 19:46:34.393   02 Jun 2027 19:47:03.923            29.530                Irkutsk           922.812
       185   02 Jun 2027 19:47:12.689   02 Jun 2027 19:48:29.636            76.947                Irkutsk          2404.594
       186   02 Jun 2027 19:59:14.563   02 Jun 2027 19:59:44.694            30.131                Sumatra           941.594
       187   02 Jun 2027 20:02:14.201   02 Jun 2027 20:03:32.066            77.865                Sumatra          2433.281
       188   02 Jun 2027 20:04:57.389   02 Jun 2027 20:06:03.125            65.736                Sumatra          2054.250
       189   02 Jun 2027 20:06:11.892   02 Jun 2027 20:06:23.255            11.363                Sumatra           355.094
       190   02 Jun 2027 21:20:01.747   02 Jun 2027 21:20:54.411            52.664                Irkutsk          1645.750
       191   02 Jun 2027 21:20:57.354   02 Jun 2027 21:22:47.021           109.667                Novosib          3427.094
       192   02 Jun 2027 21:29:19.157   02 Jun 2027 21:32:02.538           163.381                  Delhi          5105.656
       193   02 Jun 2027 21:33:28.507   02 Jun 2027 21:33:43.442            14.935                  Delhi           466.719
       194   02 Jun 2027 21:37:06.559   02 Jun 2027 21:37:19.402            12.843                  Delhi           401.344
       195   02 Jun 2027 22:52:37.175   02 Jun 2027 22:53:12.239            35.064               Magadan1          1095.750
       196   02 Jun 2027 22:53:40.793   02 Jun 2027 22:54:05.033            24.240               Magadan2           757.500
       197   02 Jun 2027 22:54:50.245   02 Jun 2027 23:01:32.960           402.715              Murmansk2         12584.844
       198   03 Jun 2027 00:26:14.582   03 Jun 2027 00:26:20.670             6.088               Magadan2           190.250
       199   03 Jun 2027 00:27:14.648   03 Jun 2027 00:28:47.262            92.614               Magadan1          2894.187
       200   03 Jun 2027 00:29:41.175   03 Jun 2027 00:29:44.869             3.694               Magadan1           115.438
       201   03 Jun 2027 00:30:18.747   03 Jun 2027 00:32:39.003           140.256              Murmansk2          4383.000
       202   03 Jun 2027 00:33:54.953   03 Jun 2027 00:34:53.092            58.139                 Moscow          1816.844
       203   03 Jun 2027 00:36:01.577   03 Jun 2027 00:36:25.121            23.544                 Moscow           735.750
       204   03 Jun 2027 00:37:16.141   03 Jun 2027 00:38:07.245            51.104                 Moscow          1597.000
       205   03 Jun 2027 00:41:48.804   03 Jun 2027 00:42:12.847            24.043                 Moscow           751.344
       206   03 Jun 2027 00:59:13.416   03 Jun 2027 01:01:00.899           107.483               CapeTown          3358.844
       207   03 Jun 2027 01:04:13.595   03 Jun 2027 01:04:27.820            14.225               CapeTown           444.531
       208   03 Jun 2027 01:55:15.016   03 Jun 2027 01:56:09.977            54.961                Anadyr2          1717.531
       209   03 Jun 2027 01:57:52.972   03 Jun 2027 01:59:05.796            72.824               Magadan1          2275.750
       210   03 Jun 2027 02:02:30.784   03 Jun 2027 02:02:57.042            26.258               Magadan2           820.562
       211   03 Jun 2027 02:05:33.304   03 Jun 2027 02:05:37.143             3.839                Norilsk           119.969
       212   03 Jun 2027 02:05:45.777   03 Jun 2027 02:05:47.318             1.541               Magadan2            48.156
       213   03 Jun 2027 02:06:15.471   03 Jun 2027 02:08:17.214           121.743              Murmansk1          3804.469
       214   03 Jun 2027 02:09:03.346   03 Jun 2027 02:09:51.403            48.057                Novosib          1501.781
       215   03 Jun 2027 02:15:04.611   03 Jun 2027 02:16:34.335            89.724                 Moscow          2803.875
       216   03 Jun 2027 02:43:04.475   03 Jun 2027 02:43:10.641             6.166               CapeTown           192.688
       217   03 Jun 2027 02:43:49.574   03 Jun 2027 02:44:33.397            43.823               CapeTown          1369.469
       218   03 Jun 2027 03:36:04.940   03 Jun 2027 03:38:34.365           149.425               Magadan1          4669.531
       219   03 Jun 2027 03:38:49.125   03 Jun 2027 03:39:01.755            12.630                Anadyr2           394.688
       220   03 Jun 2027 03:39:43.547   03 Jun 2027 03:39:54.667            11.120                Anadyr1           347.500
       221   03 Jun 2027 03:40:19.691   03 Jun 2027 03:40:55.217            35.526               Magadan2          1110.187
       222   03 Jun 2027 05:15:06.209   03 Jun 2027 05:16:33.327            87.118                Anadyr1          2722.438
       223   03 Jun 2027 05:17:08.020   03 Jun 2027 05:18:37.957            89.937               Magadan1          2810.531
       224   03 Jun 2027 06:50:23.190   03 Jun 2027 06:50:31.740             8.550               Magadan2           267.188
       225   03 Jun 2027 06:50:33.032   03 Jun 2027 06:50:42.047             9.015               Magadan1           281.719
       226   03 Jun 2027 06:50:42.047   03 Jun 2027 06:51:07.370            25.323               Magadan2           791.344
       227   03 Jun 2027 06:51:10.404   03 Jun 2027 06:51:22.109            11.705               Magadan1           365.781
       228   03 Jun 2027 06:51:22.109   03 Jun 2027 06:52:24.360            62.251               Magadan2          1945.344
       229   03 Jun 2027 06:52:42.031   03 Jun 2027 06:53:30.005            47.974               Magadan1          1499.187
       230   03 Jun 2027 06:53:45.401   03 Jun 2027 06:53:53.927             8.526               Magadan1           266.437
       231   03 Jun 2027 06:57:09.720   03 Jun 2027 06:57:45.071            35.351                Norilsk          1104.719
       232   03 Jun 2027 08:11:32.682   03 Jun 2027 08:11:53.249            20.567                Sumatra           642.719
       233   03 Jun 2027 08:25:27.964   03 Jun 2027 08:25:42.890            14.926                Irkutsk           466.438
       234   03 Jun 2027 08:25:59.752   03 Jun 2027 08:26:28.431            28.679                Norilsk           896.219
       235   03 Jun 2027 08:28:00.754   03 Jun 2027 08:28:38.473            37.719                Irkutsk          1178.719
       236   03 Jun 2027 08:28:59.853   03 Jun 2027 08:29:19.592            19.739                Irkutsk           616.844
       237   03 Jun 2027 08:29:38.344   03 Jun 2027 08:30:19.945            41.601                Irkutsk          1300.031
       238   03 Jun 2027 09:06:11.890   03 Jun 2027 09:06:44.532            32.642            RioGallegos          1020.062
       239   03 Jun 2027 09:07:49.191   03 Jun 2027 09:08:00.061            10.870            RioGallegos           339.687
       240   03 Jun 2027 09:40:25.587   03 Jun 2027 09:41:36.224            70.637                Sumatra          2207.406
       241   03 Jun 2027 10:03:08.352   03 Jun 2027 10:03:30.911            22.559                Novosib           704.969
       242   03 Jun 2027 10:03:50.264   03 Jun 2027 10:04:42.866            52.602                Novosib          1643.812
       243   03 Jun 2027 10:04:52.617   03 Jun 2027 10:05:04.802            12.185                Novosib           380.781
       244   03 Jun 2027 10:05:17.606   03 Jun 2027 10:05:44.122            26.516                Norilsk           828.625
       245   03 Jun 2027 10:05:47.556   03 Jun 2027 10:05:55.847             8.291                Norilsk           259.094
       246   03 Jun 2027 11:25:23.472   03 Jun 2027 11:28:14.097           170.625                  Delhi          5332.031
       247   03 Jun 2027 11:40:33.765   03 Jun 2027 11:40:48.904            15.139                Novosib           473.094
       248   03 Jun 2027 11:41:31.243   03 Jun 2027 11:41:49.312            18.069                Novosib           564.656
       249   03 Jun 2027 13:08:39.063   03 Jun 2027 13:09:24.559            45.496                 Moscow          1421.750
       250   03 Jun 2027 13:09:58.502   03 Jun 2027 13:10:12.424            13.922                 Moscow           435.063
       251   03 Jun 2027 13:11:22.100   03 Jun 2027 13:11:42.765            20.665                 Moscow           645.781
       252   03 Jun 2027 13:12:10.211   03 Jun 2027 13:13:34.912            84.701              Murmansk1          2646.906
       253   03 Jun 2027 13:13:47.044   03 Jun 2027 13:14:59.588            72.544              Murmansk1          2267.000
       254   03 Jun 2027 13:15:43.431   03 Jun 2027 13:16:04.122            20.691              Murmansk2           646.594
       255   03 Jun 2027 13:16:56.462   03 Jun 2027 13:17:15.490            19.028              Murmansk2           594.625
       256   03 Jun 2027 13:19:09.611   03 Jun 2027 13:20:58.672           109.061                Norilsk          3408.156
       257   03 Jun 2027 13:28:07.285   03 Jun 2027 13:29:44.900            97.615                Anadyr2          3050.469
       258   03 Jun 2027 13:31:12.995   03 Jun 2027 13:31:58.855            45.860                Anadyr1          1433.125
       259   03 Jun 2027 14:23:36.853   03 Jun 2027 14:24:02.293            25.440               CapeTown           795.000
       260   03 Jun 2027 14:47:58.545   03 Jun 2027 14:48:09.928            11.383                 Moscow           355.719
       261   03 Jun 2027 14:50:08.924   03 Jun 2027 14:51:27.484            78.560              Murmansk2          2455.000
       262   03 Jun 2027 14:52:54.822   03 Jun 2027 14:53:10.970            16.148              Murmansk1           504.625
       263   03 Jun 2027 14:53:30.357   03 Jun 2027 14:54:51.227            80.870              Murmansk1          2527.187
       264   03 Jun 2027 15:02:42.810   03 Jun 2027 15:04:47.594           124.784                Anadyr2          3899.500
       265   03 Jun 2027 15:04:52.592   03 Jun 2027 15:05:32.094            39.502                Anadyr1          1234.437
       266   03 Jun 2027 16:01:48.849   03 Jun 2027 16:02:01.913            13.064               CapeTown           408.250
       267   03 Jun 2027 16:08:32.829   03 Jun 2027 16:09:01.638            28.809               CapeTown           900.281
       268   03 Jun 2027 16:31:00.307   03 Jun 2027 16:34:19.835           199.528              Murmansk2          6235.250
       269   03 Jun 2027 16:38:29.868   03 Jun 2027 16:39:57.359            87.491                Anadyr2          2734.094
       270   03 Jun 2027 16:39:57.359   03 Jun 2027 16:40:13.786            16.427                Anadyr1           513.344
       271   03 Jun 2027 16:41:12.880   03 Jun 2027 16:43:44.261           151.381               Magadan1          4730.656
       272   03 Jun 2027 16:43:59.502   03 Jun 2027 16:45:01.886            62.384               Magadan2          1949.500
       273   03 Jun 2027 18:14:25.175   03 Jun 2027 18:17:34.630           189.455                Anadyr2          5920.469
       274   03 Jun 2027 18:17:51.954   03 Jun 2027 18:18:06.553            14.599                Anadyr2           456.219
       275   03 Jun 2027 18:18:26.842   03 Jun 2027 18:18:27.886             1.044                Anadyr2            32.625
       276   03 Jun 2027 18:18:28.702   03 Jun 2027 18:20:06.482            97.780               Magadan2          3055.625
       277   03 Jun 2027 18:20:06.482   03 Jun 2027 18:20:52.130            45.648               Magadan1          1426.500
       278   03 Jun 2027 19:09:21.625   03 Jun 2027 19:12:45.375           203.750            RioGallegos          6367.188
       279   03 Jun 2027 19:13:16.171   03 Jun 2027 19:14:09.608            53.437            RioGallegos          1669.906
       280   03 Jun 2027 19:15:35.397   03 Jun 2027 19:15:52.566            17.169            RioGallegos           536.531
       281   03 Jun 2027 19:51:12.432   03 Jun 2027 19:52:06.639            54.207                Anadyr1          1693.969
       282   03 Jun 2027 19:52:18.360   03 Jun 2027 19:56:20.021           241.661                Norilsk          7551.906
       283   03 Jun 2027 19:56:59.068   03 Jun 2027 19:57:35.661            36.593                Irkutsk          1143.531
       284   03 Jun 2027 19:58:40.083   03 Jun 2027 19:59:29.270            49.187                Irkutsk          1537.094
       285   03 Jun 2027 20:10:45.507   03 Jun 2027 20:14:05.447           199.940                Sumatra          6248.125
       286   03 Jun 2027 21:32:22.951   03 Jun 2027 21:32:59.204            36.253                Novosib          1132.906
       287   03 Jun 2027 21:33:18.023   03 Jun 2027 21:33:21.954             3.931                Irkutsk           122.844
       288   03 Jun 2027 21:33:54.199   03 Jun 2027 21:34:31.755            37.556                Novosib          1173.625
       289   03 Jun 2027 21:34:56.422   03 Jun 2027 21:35:03.754             7.332                Novosib           229.125
       290   03 Jun 2027 21:35:03.925   03 Jun 2027 21:35:20.882            16.957                Irkutsk           529.906
       291   03 Jun 2027 21:36:16.387   03 Jun 2027 21:36:32.913            16.526                Novosib           516.437
       292   03 Jun 2027 21:38:39.468   03 Jun 2027 21:38:57.448            17.980                Novosib           561.875
       293   03 Jun 2027 21:40:42.971   03 Jun 2027 21:42:24.568           101.597                  Delhi          3174.906
       294   03 Jun 2027 21:43:44.338   03 Jun 2027 21:43:48.364             4.026                  Delhi           125.812
       295   03 Jun 2027 21:45:21.956   03 Jun 2027 21:47:29.630           127.674                  Delhi          3989.813
       296   03 Jun 2027 23:04:11.276   03 Jun 2027 23:04:25.036            13.760                Norilsk           430.000
       297   03 Jun 2027 23:04:33.204   03 Jun 2027 23:05:19.098            45.894               Magadan2          1434.187
       298   03 Jun 2027 23:05:48.325   03 Jun 2027 23:05:51.041             2.716                Norilsk            84.875
       299   03 Jun 2027 23:06:43.558   03 Jun 2027 23:10:35.741           232.183              Murmansk2          7255.719
       300   03 Jun 2027 23:11:09.434   03 Jun 2027 23:12:37.413            87.979              Murmansk1          2749.344
       301   03 Jun 2027 23:13:17.024   03 Jun 2027 23:14:08.214            51.190                 Moscow          1599.687
       302   03 Jun 2027 23:15:14.938   03 Jun 2027 23:15:19.637             4.699                 Moscow           146.844
       303   04 Jun 2027 00:35:05.292   04 Jun 2027 00:35:30.437            25.145                Anadyr2           785.781
       304   04 Jun 2027 00:37:44.163   04 Jun 2027 00:38:14.360            30.197               Magadan2           943.656
       305   04 Jun 2027 00:38:50.192   04 Jun 2027 00:39:44.786            54.594               Magadan2          1706.063
       306   04 Jun 2027 00:39:44.786   04 Jun 2027 00:40:11.712            26.926               Magadan1           841.437
       307   04 Jun 2027 00:41:16.788   04 Jun 2027 00:41:28.386            11.598               Magadan1           362.438
       308   04 Jun 2027 00:42:19.672   04 Jun 2027 00:43:05.040            45.368              Murmansk2          1417.750
       309   04 Jun 2027 00:43:19.025   04 Jun 2027 00:44:06.177            47.152              Murmansk1          1473.500
       310   04 Jun 2027 00:44:12.569   04 Jun 2027 00:44:58.111            45.542                Novosib          1423.188
       311   04 Jun 2027 00:45:19.445   04 Jun 2027 00:46:21.523            62.078              Murmansk1          1939.938
       312   04 Jun 2027 00:47:02.919   04 Jun 2027 00:47:30.049            27.130                 Moscow           847.813
       313   04 Jun 2027 00:47:56.987   04 Jun 2027 00:48:06.415             9.428                 Moscow           294.625
       314   04 Jun 2027 00:52:54.908   04 Jun 2027 00:54:44.456           109.548                 Moscow          3423.375
       315   04 Jun 2027 01:12:00.093   04 Jun 2027 01:12:42.902            42.809               CapeTown          1337.781
       316   04 Jun 2027 01:21:11.413   04 Jun 2027 01:21:47.936            36.523               CapeTown          1141.344
       317   04 Jun 2027 02:07:27.568   04 Jun 2027 02:08:11.293            43.725                Anadyr1          1366.406
       318   04 Jun 2027 02:09:25.440   04 Jun 2027 02:10:33.309            67.869               Magadan2          2120.906
       319   04 Jun 2027 02:14:46.010   04 Jun 2027 02:15:26.074            40.064               Magadan1          1252.000
       320   04 Jun 2027 02:18:17.175   04 Jun 2027 02:19:35.158            77.983              Murmansk1          2436.969
       321   04 Jun 2027 02:19:35.158   04 Jun 2027 02:19:57.344            22.186              Murmansk2           693.312
       322   04 Jun 2027 02:20:21.792   04 Jun 2027 02:20:56.604            34.812              Murmansk1          1087.875
       323   04 Jun 2027 02:21:23.430   04 Jun 2027 02:22:10.962            47.532                Novosib          1485.375
       324   04 Jun 2027 02:31:23.609   04 Jun 2027 02:31:44.847            21.238                 Moscow           663.688
       325   04 Jun 2027 02:45:39.049   04 Jun 2027 02:46:02.531            23.482               CapeTown           733.813
       326   04 Jun 2027 02:48:33.327   04 Jun 2027 02:50:14.054           100.727               CapeTown          3147.719
       327   04 Jun 2027 03:48:05.626   04 Jun 2027 03:50:04.655           119.029               Magadan2          3719.656
       328   04 Jun 2027 03:50:04.655   04 Jun 2027 03:51:01.135            56.480               Magadan1          1765.000
       329   04 Jun 2027 03:51:03.071   04 Jun 2027 03:51:56.698            53.627                Anadyr1          1675.844
       330   04 Jun 2027 03:53:24.404   04 Jun 2027 03:54:20.246            55.842               Magadan1          1745.062
       331   04 Jun 2027 05:27:46.780   04 Jun 2027 05:28:14.617            27.837                Irkutsk           869.906
       332   04 Jun 2027 05:28:42.868   04 Jun 2027 05:29:00.908            18.040                Irkutsk           563.750
       333   04 Jun 2027 05:29:12.595   04 Jun 2027 05:30:32.966            80.371                Anadyr1          2511.594
       334   04 Jun 2027 07:01:25.532   04 Jun 2027 07:02:03.226            37.694               Magadan1          1177.938
       335   04 Jun 2027 07:02:19.891   04 Jun 2027 07:02:31.068            11.177               Magadan1           349.281
       336   04 Jun 2027 07:02:34.961   04 Jun 2027 07:02:40.986             6.025               Magadan1           188.281
       337   04 Jun 2027 07:02:44.455   04 Jun 2027 07:03:10.185            25.730               Magadan1           804.062
       338   04 Jun 2027 07:04:24.456   04 Jun 2027 07:04:45.124            20.668               Magadan2           645.875
       339   04 Jun 2027 07:05:31.914   04 Jun 2027 07:05:36.361             4.447               Magadan2           138.969
       340   04 Jun 2027 07:05:49.842   04 Jun 2027 07:05:59.194             9.352               Magadan2           292.250
       341   04 Jun 2027 07:09:05.322   04 Jun 2027 07:09:11.474             6.152                Norilsk           192.250
       342   04 Jun 2027 07:41:02.635   04 Jun 2027 07:41:47.286            44.651            RioGallegos          1395.344
       343   04 Jun 2027 08:24:26.275   04 Jun 2027 08:25:54.567            88.292                Sumatra          2759.125
       344   04 Jun 2027 08:40:30.447   04 Jun 2027 08:40:52.430            21.983                Irkutsk           686.969
       345   04 Jun 2027 08:41:47.854   04 Jun 2027 08:42:19.425            31.571                Irkutsk           986.594
       346   04 Jun 2027 09:18:41.837   04 Jun 2027 09:18:54.360            12.523            RioGallegos           391.344
       347   04 Jun 2027 09:19:40.187   04 Jun 2027 09:20:05.012            24.825            RioGallegos           775.781
       348   04 Jun 2027 09:52:53.478   04 Jun 2027 09:53:34.424            40.946                Sumatra          1279.563
       349   04 Jun 2027 10:01:41.961   04 Jun 2027 10:02:13.894            31.933                  Delhi           997.906
       350   04 Jun 2027 10:03:17.025   04 Jun 2027 10:03:44.155            27.130                  Delhi           847.813
       351   04 Jun 2027 10:13:47.599   04 Jun 2027 10:14:06.144            18.545                Novosib           579.531
       352   04 Jun 2027 10:14:36.867   04 Jun 2027 10:14:42.453             5.586                Novosib           174.562
       353   04 Jun 2027 10:15:09.577   04 Jun 2027 10:15:37.799            28.222                Novosib           881.937
       354   04 Jun 2027 10:15:51.124   04 Jun 2027 10:16:54.619            63.495                Novosib          1984.219
       355   04 Jun 2027 10:17:16.413   04 Jun 2027 10:17:25.341             8.928                Novosib           279.000
       356   04 Jun 2027 10:17:34.840   04 Jun 2027 10:17:39.978             5.138                Novosib           160.563
       357   04 Jun 2027 10:17:53.685   04 Jun 2027 10:18:03.083             9.398                Novosib           293.688
       358   04 Jun 2027 11:38:07.004   04 Jun 2027 11:40:53.094           166.090                  Delhi          5190.313
       359   04 Jun 2027 11:51:07.034   04 Jun 2027 11:51:22.588            15.554                Norilsk           486.062
       360   04 Jun 2027 11:55:00.159   04 Jun 2027 11:55:16.371            16.212                Norilsk           506.625
       361   04 Jun 2027 13:02:24.423   04 Jun 2027 13:03:32.593            68.170               CapeTown          2130.313
       362   04 Jun 2027 13:05:12.560   04 Jun 2027 13:05:29.031            16.471               CapeTown           514.719
       363   04 Jun 2027 13:20:50.804   04 Jun 2027 13:22:10.672            79.868                 Moscow          2495.875
       364   04 Jun 2027 13:24:20.066   04 Jun 2027 13:26:24.329           124.263              Murmansk2          3883.219
       365   04 Jun 2027 13:26:24.329   04 Jun 2027 13:27:17.595            53.266              Murmansk1          1664.562
       366   04 Jun 2027 13:28:58.052   04 Jun 2027 13:29:24.351            26.299              Murmansk1           821.844
       367   04 Jun 2027 13:31:21.185   04 Jun 2027 13:31:38.538            17.353              Murmansk2           542.281
       368   04 Jun 2027 13:32:53.251   04 Jun 2027 13:33:38.326            45.075              Murmansk1          1408.594
       369   04 Jun 2027 13:35:48.594   04 Jun 2027 13:36:16.902            28.308              Murmansk2           884.625
       370   04 Jun 2027 13:39:44.621   04 Jun 2027 13:41:43.727           119.106                Anadyr2          3722.063
       371   04 Jun 2027 13:42:10.178   04 Jun 2027 13:43:35.866            85.688                Anadyr1          2677.750
       372   04 Jun 2027 13:46:03.675   04 Jun 2027 13:46:08.293             4.618                Anadyr1           144.313
       373   04 Jun 2027 14:42:17.576   04 Jun 2027 14:42:37.276            19.700               CapeTown           615.625
       374   04 Jun 2027 15:02:35.634   04 Jun 2027 15:03:27.348            51.714              Murmansk1          1616.063
       375   04 Jun 2027 15:05:12.488   04 Jun 2027 15:06:53.143           100.655              Murmansk1          3145.469
       376   04 Jun 2027 15:14:41.635   04 Jun 2027 15:16:21.255            99.620                Anadyr1          3113.125
       377   04 Jun 2027 15:16:21.255   04 Jun 2027 15:16:31.448            10.193                Anadyr2           318.531
       378   04 Jun 2027 15:16:34.792   04 Jun 2027 15:16:53.703            18.911                Anadyr2           590.969
       379   04 Jun 2027 15:21:57.991   04 Jun 2027 15:22:51.546            53.555                Anadyr2          1673.594
       380   04 Jun 2027 16:44:07.529   04 Jun 2027 16:46:51.594           164.065              Murmansk1          5127.031
       381   04 Jun 2027 16:50:31.168   04 Jun 2027 16:52:14.324           103.156                Anadyr1          3223.625
       382   04 Jun 2027 16:52:38.676   04 Jun 2027 16:53:27.973            49.297                Anadyr2          1540.531
       383   04 Jun 2027 16:53:49.440   04 Jun 2027 16:55:36.844           107.404               Magadan2          3356.375
       384   04 Jun 2027 16:59:26.637   04 Jun 2027 16:59:52.045            25.408               Magadan1           794.000
       385   04 Jun 2027 17:01:33.110   04 Jun 2027 17:03:20.634           107.524               Magadan2          3360.125
       386   04 Jun 2027 18:26:26.014   04 Jun 2027 18:28:09.092           103.078                Anadyr2          3221.188
       387   04 Jun 2027 18:28:43.007   04 Jun 2027 18:30:17.662            94.655               Magadan2          2957.969
       388   04 Jun 2027 18:30:30.995   04 Jun 2027 18:32:27.125           116.130                Norilsk          3629.063
       389   04 Jun 2027 19:21:04.766   04 Jun 2027 19:23:11.224           126.458            RioGallegos          3951.813
       390   04 Jun 2027 19:24:37.899   04 Jun 2027 19:26:02.756            84.857            RioGallegos          2651.781
       391   04 Jun 2027 20:02:04.926   04 Jun 2027 20:02:35.164            30.238                Anadyr1           944.938
       392   04 Jun 2027 20:02:57.183   04 Jun 2027 20:03:07.888            10.705                Anadyr1           334.531
       393   04 Jun 2027 20:03:54.701   04 Jun 2027 20:04:00.016             5.315                Anadyr1           166.094
       394   04 Jun 2027 20:04:18.053   04 Jun 2027 20:06:14.212           116.159                Norilsk          3629.969
       395   04 Jun 2027 20:08:34.010   04 Jun 2027 20:11:31.524           177.514                Irkutsk          5547.313
       396   04 Jun 2027 20:11:33.159   04 Jun 2027 20:13:27.674           114.515                Novosib          3578.594
       397   04 Jun 2027 20:23:34.593   04 Jun 2027 20:24:43.123            68.530                Sumatra          2141.563
       398   04 Jun 2027 20:26:18.164   04 Jun 2027 20:26:27.108             8.944                Sumatra           279.500
       399   04 Jun 2027 20:26:39.714   04 Jun 2027 20:27:15.862            36.148                Sumatra          1129.625
       400   04 Jun 2027 21:40:50.338   04 Jun 2027 21:40:52.731             2.393               Magadan2            74.781
       401   04 Jun 2027 21:41:25.642   04 Jun 2027 21:42:05.379            39.737               Magadan2          1241.781
       402   04 Jun 2027 21:43:14.940   04 Jun 2027 21:43:26.422            11.482                Norilsk           358.812
       403   04 Jun 2027 21:44:04.595   04 Jun 2027 21:45:01.529            56.934                Irkutsk          1779.188
       404   04 Jun 2027 21:45:42.573   04 Jun 2027 21:46:36.702            54.129                Novosib          1691.531
       405   04 Jun 2027 21:47:07.481   04 Jun 2027 21:48:11.693            64.212                Novosib          2006.625
       406   04 Jun 2027 21:52:17.142   04 Jun 2027 21:54:33.414           136.272                  Delhi          4258.500
       407   04 Jun 2027 21:58:26.004   04 Jun 2027 21:59:39.129            73.125                  Delhi          2285.156
       408   04 Jun 2027 23:13:16.341   04 Jun 2027 23:13:18.560             2.219                Anadyr1            69.344
       409   04 Jun 2027 23:16:26.747   04 Jun 2027 23:17:59.411            92.664               Magadan2          2895.750
       410   04 Jun 2027 23:18:39.064   04 Jun 2027 23:20:33.714           114.650              Murmansk2          3582.812
       411   04 Jun 2027 23:20:33.714   04 Jun 2027 23:23:29.015           175.301              Murmansk1          5478.156
       412   04 Jun 2027 23:23:56.895   04 Jun 2027 23:24:27.902            31.007              Murmansk1           968.969
       413   04 Jun 2027 23:25:45.216   04 Jun 2027 23:27:14.103            88.887                 Moscow          2777.719
       414   05 Jun 2027 00:49:12.637   05 Jun 2027 00:50:23.838            71.201               Magadan1          2225.031
       415   05 Jun 2027 00:51:13.722   05 Jun 2027 00:51:43.587            29.865               Magadan1           933.281
       416   05 Jun 2027 00:54:20.845   05 Jun 2027 00:56:07.226           106.381              Murmansk2          3324.406
       417   05 Jun 2027 00:56:18.701   05 Jun 2027 00:56:52.682            33.981                Novosib          1061.906
       418   05 Jun 2027 00:57:45.685   05 Jun 2027 00:59:33.746           108.061                 Moscow          3376.906
       419   05 Jun 2027 01:22:17.386   05 Jun 2027 01:23:21.025            63.639               CapeTown          1988.719
       420   05 Jun 2027 01:28:43.870   05 Jun 2027 01:28:48.467             4.597               CapeTown           143.656
       421   05 Jun 2027 01:30:31.789   05 Jun 2027 01:31:23.336            51.547               CapeTown          1610.844
       422   05 Jun 2027 02:18:19.685   05 Jun 2027 02:19:15.245            55.560                Anadyr2          1736.250
       423   05 Jun 2027 02:20:05.407   05 Jun 2027 02:20:12.530             7.123                Anadyr2           222.594
       424   05 Jun 2027 02:20:36.068   05 Jun 2027 02:20:41.896             5.828                Anadyr2           182.125
       425   05 Jun 2027 02:20:59.361   05 Jun 2027 02:21:20.564            21.203               Magadan2           662.594
       426   05 Jun 2027 02:22:01.310   05 Jun 2027 02:22:26.443            25.133               Magadan1           785.406
       427   05 Jun 2027 02:23:06.297   05 Jun 2027 02:23:32.369            26.072               Magadan1           814.750
       428   05 Jun 2027 02:25:18.716   05 Jun 2027 02:25:20.034             1.318               Magadan2            41.187
       429   05 Jun 2027 02:26:14.718   05 Jun 2027 02:26:38.719            24.001               Magadan1           750.031
       430   05 Jun 2027 02:29:03.327   05 Jun 2027 02:29:11.715             8.388                Norilsk           262.125
       431   05 Jun 2027 02:29:40.437   05 Jun 2027 02:30:33.767            53.330                Norilsk          1666.563
       432   05 Jun 2027 02:30:36.742   05 Jun 2027 02:31:54.972            78.230              Murmansk1          2444.687
       433   05 Jun 2027 02:33:32.206   05 Jun 2027 02:33:54.740            22.534                 Moscow           704.188
       434   05 Jun 2027 02:35:42.027   05 Jun 2027 02:36:39.197            57.170                 Moscow          1786.563
       435   05 Jun 2027 02:58:14.896   05 Jun 2027 02:58:25.323            10.427               CapeTown           325.844
       436   05 Jun 2027 02:59:07.667   05 Jun 2027 02:59:43.906            36.239               CapeTown          1132.469
       437   05 Jun 2027 03:03:43.609   05 Jun 2027 03:03:49.078             5.469               CapeTown           170.906
       438   05 Jun 2027 03:06:58.948   05 Jun 2027 03:07:50.907            51.959               CapeTown          1623.719
       439   05 Jun 2027 04:00:40.948   05 Jun 2027 04:03:04.271           143.323                Anadyr1          4478.844
       440   05 Jun 2027 04:04:17.531   05 Jun 2027 04:04:32.539            15.008                Anadyr1           469.000
       441   05 Jun 2027 04:04:55.196   05 Jun 2027 04:06:53.247           118.051                Anadyr1          3689.094
       442   05 Jun 2027 04:48:45.712   05 Jun 2027 04:49:48.554            62.842            RioGallegos          1963.813
       443   05 Jun 2027 05:38:41.456   05 Jun 2027 05:39:39.292            57.836               Magadan1          1807.375
       444   05 Jun 2027 05:39:48.257   05 Jun 2027 05:40:15.207            26.950               Magadan1           842.187
       445   05 Jun 2027 05:40:48.573   05 Jun 2027 05:41:14.254            25.681                Anadyr1           802.531
       446   05 Jun 2027 07:13:12.978   05 Jun 2027 07:13:38.390            25.412               Magadan2           794.125
       447   05 Jun 2027 07:14:07.051   05 Jun 2027 07:14:15.325             8.274               Magadan1           258.562
       448   05 Jun 2027 07:14:16.225   05 Jun 2027 07:14:38.287            22.062               Magadan2           689.438
       449   05 Jun 2027 07:14:46.640   05 Jun 2027 07:15:03.374            16.734               Magadan2           522.938
       450   05 Jun 2027 07:15:12.435   05 Jun 2027 07:16:23.979            71.544               Magadan1          2235.750
       451   05 Jun 2027 07:16:48.117   05 Jun 2027 07:17:11.764            23.647               Magadan1           738.969
       452   05 Jun 2027 07:17:29.546   05 Jun 2027 07:17:49.143            19.597               Magadan2           612.406
       453   05 Jun 2027 07:21:13.298   05 Jun 2027 07:21:38.093            24.795                Norilsk           774.844
       454   05 Jun 2027 07:53:55.079   05 Jun 2027 07:54:44.256            49.177            RioGallegos          1536.781
       455   05 Jun 2027 08:32:37.052   05 Jun 2027 08:32:40.756             3.704                Sumatra           115.750
       456   05 Jun 2027 08:35:11.986   05 Jun 2027 08:35:47.498            35.512                Sumatra          1109.750
       457   05 Jun 2027 08:50:24.164   05 Jun 2027 08:51:00.930            36.766                Irkutsk          1148.937
       458   05 Jun 2027 08:51:24.239   05 Jun 2027 08:51:57.583            33.344                Irkutsk          1042.000
       459   05 Jun 2027 08:51:59.900   05 Jun 2027 08:52:07.084             7.184                Norilsk           224.500
       460   05 Jun 2027 08:52:10.090   05 Jun 2027 08:52:47.137            37.047                Norilsk          1157.719
       461   05 Jun 2027 08:53:56.096   05 Jun 2027 08:54:17.842            21.746                Irkutsk           679.563
       462   05 Jun 2027 09:31:18.273   05 Jun 2027 09:31:28.198             9.925            RioGallegos           310.156
       463   05 Jun 2027 09:32:06.366   05 Jun 2027 09:32:09.093             2.727            RioGallegos            85.219
       464   05 Jun 2027 09:33:50.492   05 Jun 2027 09:33:50.824             0.332            RioGallegos            10.375
       465   05 Jun 2027 09:34:26.450   05 Jun 2027 09:35:11.604            45.154            RioGallegos          1411.062
       466   05 Jun 2027 10:05:33.221   05 Jun 2027 10:05:38.240             5.019                Sumatra           156.844
       467   05 Jun 2027 10:08:02.130   05 Jun 2027 10:08:41.766            39.636                Sumatra          1238.625
       468   05 Jun 2027 10:09:34.908   05 Jun 2027 10:10:07.204            32.296                Sumatra          1009.250
       469   05 Jun 2027 10:15:22.067   05 Jun 2027 10:16:15.910            53.843                  Delhi          1682.594
       470   05 Jun 2027 10:26:31.067   05 Jun 2027 10:26:51.033            19.966                Novosib           623.937
       471   05 Jun 2027 10:27:44.023   05 Jun 2027 10:27:51.297             7.274                Novosib           227.312
       472   05 Jun 2027 10:29:09.850   05 Jun 2027 10:29:18.451             8.601                Novosib           268.781
       473   05 Jun 2027 10:29:26.345   05 Jun 2027 10:29:42.385            16.040                Novosib           501.250
       474   05 Jun 2027 10:30:04.324   05 Jun 2027 10:30:14.715            10.391                Novosib           324.719
       475   05 Jun 2027 11:51:08.198   05 Jun 2027 11:53:32.949           144.751                  Delhi          4523.469
       476   05 Jun 2027 11:54:22.033   05 Jun 2027 11:54:55.922            33.889                  Delhi          1059.031
       477   05 Jun 2027 12:04:29.083   05 Jun 2027 12:05:48.220            79.137                Novosib          2473.031
       478   05 Jun 2027 13:12:49.551   05 Jun 2027 13:14:19.570            90.019               CapeTown          2813.094
       479   05 Jun 2027 13:16:12.743   05 Jun 2027 13:17:36.157            83.414               CapeTown          2606.688
       480   05 Jun 2027 13:33:06.009   05 Jun 2027 13:33:38.699            32.690                 Moscow          1021.563
       481   05 Jun 2027 13:34:00.343   05 Jun 2027 13:34:11.772            11.429                 Moscow           357.156
       482   05 Jun 2027 13:36:31.749   05 Jun 2027 13:37:08.855            37.106              Murmansk1          1159.563
